{"data":[[{"i_lat":-6.128023,"line":0,"station_name":"Ancol","transit":false,"station_id":"AC","time":0,"distance":0,"is_transit":false,"i_long":106.84464},{"station_id":"KPB","is_transit":true,"distance":2185,"transit":false,"station_name":"Kampung Bandan","i_long":106.826365,"line":0,"time":4,"i_lat":-6.132549},{"station_name":"Angke","transit":false,"i_lat":-6.144674,"i_long":106.79867,"distance":4102,"line":0,"station_id":"AK","is_transit":false,"time":9},{"is_transit":true,"time":4,"distance":1230,"station_id":"DU","station_name":"Duri","transit":true,"line":1,"i_lat":-6.155215,"i_long":106.800832},{"transit":false,"i_long":106.811091,"station_id":"THB","is_transit":true,"station_name":"Tanah Abang","line":1,"i_lat":-6.185545,"time":8,"distance":3632},{"line":1,"is_transit":false,"i_long":106.816351,"i_lat":-6.20132,"time":5,"distance":2029,"station_name":"Karet","station_id":"KAT","transit":false},{"time":1,"station_name":"Sudirman Baru","i_long":106.819881,"distance":471,"i_lat":-6.201433,"line":1,"station_id":"SUDB","is_transit":false,"transit":false},{"distance":280,"station_id":"SUD","transit":false,"line":1,"time":1,"station_name":"Sudirman","i_lat":-6.202263,"is_transit":false,"i_long":106.822649},{"distance":3186,"i_lat":-6.209883,"is_transit":true,"station_id":"MRI","transit":true,"line":0,"i_long":106.84912,"time":4,"station_name":"Manggarai"},{"time":4,"station_name":"Tebet","is_transit":false,"distance":2610,"station_id":"TEB","transit":false,"i_lat":-6.226659,"i_long":106.857948,"line":2},{"i_lat":-6.242512,"station_id":"CW","is_transit":false,"line":0,"time":2,"station_name":"Cawang","i_long":106.856607,"transit":false,"distance":1230},{"distance":1546,"i_long":106.85449,"line":0,"is_transit":false,"transit":false,"station_id":"DRN","i_lat":-6.255332,"time":3,"station_name":"Duren Kalibata"},{"station_name":"Pasar Minggu Baru","station_id":"PSMB","transit":false,"distance":824,"i_lat":-6.263214,"time":2,"i_long":106.851577,"is_transit":false,"line":2},{"i_long":106.843999,"station_id":"PSM","distance":2380,"line":2,"time":2,"transit":false,"is_transit":false,"i_lat":-6.2842400000000005,"station_name":"Pasar Minggu"},{"station_name":"Tanjung Barat","station_id":"TNT","line":2,"i_lat":-6.3080680000000005,"is_transit":false,"transit":false,"i_long":106.838896,"time":4,"distance":2820},{"i_lat":-6.330363,"i_long":106.832616,"station_id":"LNA","time":3,"station_name":"Lenteng Agung","distance":2671,"line":2,"is_transit":false,"transit":false},{"i_long":106.834175,"line":2,"time":2,"station_id":"UP","is_transit":false,"distance":1029,"transit":false,"station_name":"Univ. Pancasila","i_lat":-6.339291},{"i_long":106.831474,"i_lat":-6.360749,"station_id":"UI","is_transit":false,"line":2,"time":3,"distance":2264,"transit":false,"station_name":"Univ. Indonesia"},{"i_long":106.831114,"transit":false,"i_lat":-6.369073,"is_transit":false,"line":2,"station_id":"POC","station_name":"Pondok Cina","distance":1109,"time":2},{"i_lat":-6.391065,"line":0,"station_name":"Depokbaru","i_long":106.819451,"is_transit":false,"station_id":"DPB","transit":false,"time":4,"distance":2727},{"i_lat":-6.405256,"station_id":"DP","time":3,"is_transit":false,"i_long":106.816926,"distance":1584,"station_name":"Depok","line":0,"transit":false},{"i_lat":-6.448811,"i_long":106.800298,"line":1,"time":6,"is_transit":true,"station_id":"CTA","station_name":"Citayam","transit":false,"distance":5084},{"i_lat":-6.493243,"transit":false,"line":0,"station_id":"BJD","i_long":106.792719,"distance":5197,"is_transit":false,"time":5,"station_name":"Bojonggede"},{"distance":4331,"transit":false,"line":0,"station_id":"CLT","i_long":106.800016,"is_transit":false,"station_name":"Cilebut","i_lat":-6.530544,"time":5},{"transit":false,"i_lat":-6.594596,"i_long":106.790574,"distance":7514,"line":1,"station_id":"BOO","is_transit":true,"time":9,"station_name":"Bogor"}],[{"time":0,"distance":0,"i_lat":-6.128023,"station_name":"Ancol","i_long":106.84464,"transit":false,"is_transit":false,"station_id":"AC","line":0},{"transit":false,"i_long":106.826365,"is_transit":true,"station_id":"KPB","line":0,"station_name":"Kampung Bandan","i_lat":-6.132549,"distance":2185,"time":4},{"i_lat":-6.137569,"i_long":106.812439,"line":0,"station_id":"JAKK","transit":true,"time":3,"is_transit":true,"station_name":"Jakarta Kota","distance":1364},{"time":4,"is_transit":false,"line":7,"distance":1264,"station_name":"Jayakarta","station_id":"JAY","transit":false,"i_lat":-6.141205,"i_long":106.820901},{"line":2,"distance":1080,"station_name":"Manggabesar","i_long":106.82482,"is_transit":false,"i_lat":-6.149769,"station_id":"MGB","time":2,"transit":false},{"i_long":106.827103,"station_name":"Sawah Besar","time":2,"distance":906,"transit":false,"is_transit":false,"i_lat":-6.160725,"station_id":"SW","line":2},{"line":2,"time":2,"distance":1149,"transit":false,"i_lat":-6.166716,"station_name":"Juanda","is_transit":false,"i_long":106.828284,"station_id":"JUA"},{"i_lat":-6.186295,"line":2,"is_transit":false,"time":4,"transit":false,"i_long":106.832183,"station_id":"GDD","distance":2015,"station_name":"Gondangdia"},{"i_long":106.840169,"i_lat":-6.198556,"time":3,"line":0,"station_id":"CKI","is_transit":false,"station_name":"Cikini","transit":false,"distance":1750},{"i_long":106.84912,"station_id":"MRI","time":4,"distance":1590,"transit":true,"i_lat":-6.209883,"station_name":"Manggarai","line":0,"is_transit":true},{"transit":false,"i_long":106.857948,"time":4,"i_lat":-6.226659,"line":2,"station_name":"Tebet","distance":2610,"station_id":"TEB","is_transit":false},{"distance":1230,"station_id":"CW","station_name":"Cawang","transit":false,"i_lat":-6.242512,"is_transit":false,"time":2,"i_long":106.856607,"line":0},{"time":3,"i_lat":-6.255332,"distance":1546,"i_long":106.85449,"is_transit":false,"station_name":"Duren Kalibata","station_id":"DRN","line":0,"transit":false},{"line":2,"time":2,"distance":824,"i_long":106.851577,"transit":false,"station_id":"PSMB","is_transit":false,"i_lat":-6.263214,"station_name":"Pasar Minggu Baru"},{"is_transit":false,"time":2,"i_lat":-6.2842400000000005,"i_long":106.843999,"line":2,"distance":2380,"transit":false,"station_name":"Pasar Minggu","station_id":"PSM"},{"i_lat":-6.3080680000000005,"station_name":"Tanjung Barat","line":2,"distance":2820,"transit":false,"station_id":"TNT","time":4,"is_transit":false,"i_long":106.838896},{"station_id":"LNA","time":3,"distance":2671,"transit":false,"i_lat":-6.330363,"station_name":"Lenteng Agung","line":2,"i_long":106.832616,"is_transit":false},{"is_transit":false,"time":2,"distance":1029,"transit":false,"station_name":"Univ. Pancasila","i_lat":-6.339291,"i_long":106.834175,"line":2,"station_id":"UP"},{"station_id":"UI","i_lat":-6.360749,"station_name":"Univ. Indonesia","distance":2264,"time":3,"transit":false,"i_long":106.831474,"line":2,"is_transit":false},{"line":2,"i_lat":-6.369073,"station_id":"POC","distance":1109,"station_name":"Pondok Cina","i_long":106.831114,"time":2,"transit":false,"is_transit":false},{"station_name":"Depokbaru","is_transit":false,"line":0,"i_long":106.819451,"i_lat":-6.391065,"time":4,"transit":false,"distance":2727,"station_id":"DPB"},{"time":3,"station_name":"Depok","i_long":106.816926,"line":0,"is_transit":false,"transit":false,"station_id":"DP","distance":1584,"i_lat":-6.405256},{"time":6,"station_id":"CTA","distance":5084,"station_name":"Citayam","line":1,"i_long":106.800298,"i_lat":-6.448811,"transit":false,"is_transit":true},{"is_transit":false,"time":5,"i_lat":-6.493243,"line":0,"i_long":106.792719,"transit":false,"distance":5197,"station_name":"Bojonggede","station_id":"BJD"},{"station_id":"CLT","station_name":"Cilebut","is_transit":false,"transit":false,"i_lat":-6.530544,"time":5,"distance":4331,"i_long":106.800016,"line":0},{"station_name":"Bogor","distance":7514,"i_long":106.790574,"station_id":"BOO","time":9,"transit":false,"i_lat":-6.594596,"is_transit":true,"line":1}],[{"station_name":"Ancol","is_transit":false,"i_long":106.84464,"line":0,"transit":false,"time":0,"station_id":"AC","distance":0,"i_lat":-6.128023},{"i_long":106.826365,"is_transit":true,"distance":2185,"i_lat":-6.132549,"line":0,"station_name":"Kampung Bandan","time":4,"station_id":"KPB","transit":true},{"station_id":"RJW","is_transit":false,"station_name":"Rajawali","i_lat":-6.14505,"line":11,"time":3,"distance":1444,"transit":false,"i_long":106.836569},{"line":11,"time":5,"distance":1901,"i_long":106.839204,"i_lat":-6.161728,"station_name":"Kemayoran","transit":false,"is_transit":false,"station_id":"KMO"},{"distance":1436,"i_long":106.84368,"i_lat":-6.174784,"line":11,"time":4,"station_name":"Pasar Senen","transit":false,"is_transit":false,"station_id":"PSE"},{"time":8,"is_transit":false,"station_id":"GST","distance":1567,"line":11,"station_name":"Gang Sentiong","transit":false,"i_lat":-6.185975,"i_long":106.850107},{"i_long":106.855437,"station_name":"Kramat","time":1,"distance":973,"is_transit":false,"line":11,"station_id":"KMT","transit":false,"i_lat":-6.193792},{"is_transit":false,"station_id":"POK","distance":1829,"transit":false,"time":2,"station_name":"Pondok Jati","i_lat":-6.209188,"i_long":106.861737,"line":11},{"station_name":"Jatinegara","line":0,"i_lat":-6.215091,"transit":true,"station_id":"JNG","i_long":106.86807400000001,"distance":1236,"time":9,"is_transit":true},{"i_lat":-6.212485,"is_transit":false,"distance":1377,"line":1,"station_name":"Matraman","station_id":"MTR","time":2,"i_long":106.858896,"transit":false},{"station_id":"MRI","i_long":106.84912,"line":0,"is_transit":true,"time":2,"station_name":"Manggarai","transit":true,"i_lat":-6.209883,"distance":1275},{"distance":2610,"station_id":"TEB","time":4,"i_long":106.857948,"line":2,"is_transit":false,"i_lat":-6.226659,"station_name":"Tebet","transit":false},{"station_id":"CW","distance":1230,"i_long":106.856607,"is_transit":false,"transit":false,"time":2,"station_name":"Cawang","i_lat":-6.242512,"line":0},{"distance":1546,"station_id":"DRN","station_name":"Duren Kalibata","i_lat":-6.255332,"time":3,"line":0,"transit":false,"is_transit":false,"i_long":106.85449},{"i_lat":-6.263214,"distance":824,"i_long":106.851577,"line":2,"is_transit":false,"transit":false,"station_id":"PSMB","time":2,"station_name":"Pasar Minggu Baru"},{"distance":2380,"station_id":"PSM","time":2,"transit":false,"line":2,"i_lat":-6.2842400000000005,"station_name":"Pasar Minggu","is_transit":false,"i_long":106.843999},{"is_transit":false,"station_id":"TNT","time":4,"transit":false,"i_long":106.838896,"line":2,"station_name":"Tanjung Barat","i_lat":-6.3080680000000005,"distance":2820},{"is_transit":false,"line":2,"distance":2671,"station_name":"Lenteng Agung","transit":false,"station_id":"LNA","time":3,"i_lat":-6.330363,"i_long":106.832616},{"i_lat":-6.339291,"station_id":"UP","line":2,"station_name":"Univ. Pancasila","time":2,"transit":false,"is_transit":false,"distance":1029,"i_long":106.834175},{"i_lat":-6.360749,"is_transit":false,"distance":2264,"time":3,"i_long":106.831474,"line":2,"station_id":"UI","transit":false,"station_name":"Univ. Indonesia"},{"transit":false,"i_lat":-6.369073,"station_id":"POC","line":2,"is_transit":false,"distance":1109,"station_name":"Pondok Cina","i_long":106.831114,"time":2},{"transit":false,"i_lat":-6.391065,"is_transit":false,"i_long":106.819451,"station_id":"DPB","station_name":"Depokbaru","distance":2727,"line":0,"time":4},{"transit":false,"i_lat":-6.405256,"i_long":106.816926,"station_name":"Depok","time":3,"line":0,"is_transit":false,"station_id":"DP","distance":1584},{"station_name":"Citayam","i_long":106.800298,"line":1,"distance":5084,"time":6,"is_transit":true,"i_lat":-6.448811,"station_id":"CTA","transit":false},{"station_id":"BJD","line":0,"i_lat":-6.493243,"i_long":106.792719,"station_name":"Bojonggede","is_transit":false,"time":5,"distance":5197,"transit":false},{"station_id":"CLT","distance":4331,"station_name":"Cilebut","is_transit":false,"time":5,"transit":false,"i_long":106.800016,"i_lat":-6.530544,"line":0},{"i_lat":-6.594596,"i_long":106.790574,"line":1,"distance":7514,"is_transit":true,"time":9,"station_name":"Bogor","transit":false,"station_id":"BOO"}]]}