{"data":[[{"station_name":"Ancol","i_long":106.84464,"transit":false,"is_transit":false,"station_id":"AC","distance":0,"i_lat":-6.128023,"line":4,"time":0},{"i_lat":-6.132549,"line":4,"transit":true,"station_name":"Kampung Bandan","is_transit":true,"distance":2185,"station_id":"KPB","i_long":106.826365,"time":4},{"station_id":"AK","station_name":"Angke","i_lat":-6.144674,"distance":4102,"transit":false,"is_transit":false,"time":9,"line":1,"i_long":106.79867},{"station_name":"Duri","station_id":"DU","i_long":106.800832,"transit":false,"distance":1230,"i_lat":-6.155215,"line":1,"is_transit":false,"time":4},{"transit":false,"distance":3632,"station_name":"Tanah Abang","station_id":"THB","i_long":106.811091,"line":1,"i_lat":-6.185545,"is_transit":false,"time":8},{"time":5,"station_id":"KAT","distance":2029,"station_name":"Karet","is_transit":false,"i_long":106.816351,"i_lat":-6.20132,"line":1,"transit":false},{"i_long":106.819881,"time":1,"transit":false,"is_transit":false,"i_lat":-6.201433,"station_name":"Sudirman Baru","line":1,"station_id":"SUDB","distance":471},{"transit":false,"is_transit":false,"station_name":"Sudirman","line":1,"time":1,"station_id":"SUD","distance":280,"i_lat":-6.202263,"i_long":106.822649},{"station_name":"Manggarai","i_lat":-6.209883,"i_long":106.84912,"station_id":"MRI","distance":3186,"is_transit":true,"time":4,"transit":true,"line":2},{"distance":2610,"time":4,"transit":false,"station_id":"TEB","station_name":"Tebet","i_lat":-6.226659,"is_transit":false,"i_long":106.857948,"line":2},{"time":2,"transit":false,"is_transit":false,"station_name":"Cawang","i_long":106.856607,"distance":1230,"i_lat":-6.242512,"station_id":"CW","line":2},{"is_transit":false,"line":2,"station_name":"Duren Kalibata","i_long":106.85449,"distance":1546,"transit":false,"station_id":"DRN","time":3,"i_lat":-6.255332},{"i_lat":-6.263214,"is_transit":false,"time":2,"station_id":"PSMB","line":2,"distance":824,"transit":false,"station_name":"Pasar Minggu Baru","i_long":106.851577},{"station_name":"Pasar Minggu","i_long":106.843999,"line":2,"transit":false,"i_lat":-6.2842400000000005,"distance":2380,"is_transit":false,"time":2,"station_id":"PSM"},{"transit":false,"line":2,"station_id":"TNT","time":4,"i_lat":-6.3080680000000005,"i_long":106.838896,"distance":2820,"station_name":"Tanjung Barat","is_transit":false},{"transit":false,"station_id":"LNA","i_long":106.832616,"line":2,"station_name":"Lenteng Agung","time":3,"i_lat":-6.330363,"is_transit":false,"distance":2671},{"station_id":"UP","is_transit":false,"station_name":"Univ. Pancasila","line":2,"i_long":106.834175,"transit":false,"distance":1029,"time":2,"i_lat":-6.339291},{"distance":2264,"is_transit":false,"station_id":"UI","transit":false,"i_lat":-6.360749,"i_long":106.831474,"station_name":"Univ. Indonesia","line":2,"time":3},{"time":2,"distance":1109,"i_lat":-6.369073,"line":2,"station_id":"POC","station_name":"Pondok Cina","is_transit":false,"transit":false,"i_long":106.831114},{"line":2,"station_name":"Depokbaru","i_lat":-6.391065,"i_long":106.819451,"transit":false,"station_id":"DPB","time":4,"is_transit":false,"distance":2727},{"i_lat":-6.405256,"line":2,"i_long":106.816926,"station_id":"DP","distance":1584,"time":3,"is_transit":false,"transit":false,"station_name":"Depok"},{"i_long":106.800298,"station_name":"Citayam","station_id":"CTA","time":6,"transit":false,"line":2,"i_lat":-6.448811,"distance":5084,"is_transit":false},{"time":5,"station_name":"Bojonggede","i_long":106.792719,"i_lat":-6.493243,"line":2,"distance":5197,"transit":false,"is_transit":false,"station_id":"BJD"},{"line":2,"distance":4331,"station_id":"CLT","i_lat":-6.530544,"i_long":106.800016,"is_transit":false,"station_name":"Cilebut","transit":false,"time":5},{"i_lat":-6.594596,"line":2,"i_long":106.790574,"time":9,"is_transit":false,"distance":7514,"station_id":"BOO","station_name":"Bogor","transit":false}],[{"transit":false,"i_lat":-6.128023,"distance":0,"station_id":"AC","time":0,"line":4,"station_name":"Ancol","i_long":106.84464,"is_transit":false},{"is_transit":true,"station_name":"Kampung Bandan","i_lat":-6.132549,"distance":2185,"transit":true,"i_long":106.826365,"line":4,"time":4,"station_id":"KPB"},{"time":3,"station_id":"JAKK","i_lat":-6.137569,"distance":1364,"station_name":"Jakarta Kota","line":2,"transit":true,"is_transit":true,"i_long":106.812439},{"station_id":"JAY","i_lat":-6.141205,"line":2,"station_name":"Jayakarta","time":4,"is_transit":false,"transit":false,"i_long":106.820901,"distance":1264},{"time":2,"station_id":"MGB","distance":1080,"is_transit":false,"i_lat":-6.149769,"line":2,"station_name":"Manggabesar","transit":false,"i_long":106.82482},{"station_id":"SW","i_long":106.827103,"station_name":"Sawah Besar","line":2,"i_lat":-6.160725,"transit":false,"distance":906,"is_transit":false,"time":2},{"line":2,"i_lat":-6.166716,"distance":1149,"is_transit":false,"time":2,"transit":false,"station_id":"JUA","i_long":106.828284,"station_name":"Juanda"},{"station_id":"GDD","station_name":"Gondangdia","is_transit":false,"line":2,"distance":2015,"transit":false,"i_lat":-6.186295,"time":4,"i_long":106.832183},{"i_long":106.840169,"is_transit":false,"line":2,"time":3,"distance":1750,"station_name":"Cikini","station_id":"CKI","i_lat":-6.198556,"transit":false},{"station_name":"Manggarai","transit":false,"line":2,"is_transit":false,"i_lat":-6.209883,"time":4,"i_long":106.84912,"distance":1590,"station_id":"MRI"},{"station_id":"TEB","time":4,"is_transit":false,"station_name":"Tebet","transit":false,"distance":2610,"i_lat":-6.226659,"i_long":106.857948,"line":2},{"distance":1230,"station_name":"Cawang","time":2,"station_id":"CW","i_long":106.856607,"line":2,"i_lat":-6.242512,"is_transit":false,"transit":false},{"is_transit":false,"station_name":"Duren Kalibata","distance":1546,"line":2,"transit":false,"station_id":"DRN","i_long":106.85449,"i_lat":-6.255332,"time":3},{"line":2,"is_transit":false,"i_long":106.851577,"station_name":"Pasar Minggu Baru","station_id":"PSMB","time":2,"transit":false,"distance":824,"i_lat":-6.263214},{"station_id":"PSM","i_long":106.843999,"line":2,"station_name":"Pasar Minggu","is_transit":false,"time":2,"transit":false,"i_lat":-6.2842400000000005,"distance":2380},{"is_transit":false,"i_long":106.838896,"station_name":"Tanjung Barat","time":4,"distance":2820,"transit":false,"line":2,"i_lat":-6.3080680000000005,"station_id":"TNT"},{"is_transit":false,"distance":2671,"time":3,"transit":false,"line":2,"i_long":106.832616,"station_name":"Lenteng Agung","i_lat":-6.330363,"station_id":"LNA"},{"i_lat":-6.339291,"is_transit":false,"distance":1029,"transit":false,"i_long":106.834175,"station_id":"UP","time":2,"station_name":"Univ. Pancasila","line":2},{"i_lat":-6.360749,"distance":2264,"i_long":106.831474,"station_name":"Univ. Indonesia","time":3,"transit":false,"station_id":"UI","line":2,"is_transit":false},{"station_id":"POC","line":2,"transit":false,"distance":1109,"station_name":"Pondok Cina","time":2,"is_transit":false,"i_long":106.831114,"i_lat":-6.369073},{"is_transit":false,"distance":2727,"station_name":"Depokbaru","line":2,"i_lat":-6.391065,"transit":false,"station_id":"DPB","time":4,"i_long":106.819451},{"transit":false,"distance":1584,"time":3,"station_name":"Depok","station_id":"DP","i_lat":-6.405256,"is_transit":false,"i_long":106.816926,"line":2},{"station_id":"CTA","i_long":106.800298,"time":6,"station_name":"Citayam","is_transit":false,"transit":false,"i_lat":-6.448811,"line":2,"distance":5084},{"line":2,"i_lat":-6.493243,"time":5,"distance":5197,"station_name":"Bojonggede","i_long":106.792719,"station_id":"BJD","is_transit":false,"transit":false},{"i_long":106.800016,"station_id":"CLT","station_name":"Cilebut","line":2,"distance":4331,"time":5,"is_transit":false,"transit":false,"i_lat":-6.530544},{"line":2,"time":9,"station_name":"Bogor","is_transit":false,"station_id":"BOO","i_long":106.790574,"distance":7514,"transit":false,"i_lat":-6.594596}],[{"distance":0,"time":0,"station_name":"Ancol","is_transit":false,"i_lat":-6.128023,"i_long":106.84464,"line":4,"station_id":"AC","transit":false},{"station_id":"KPB","is_transit":true,"i_long":106.826365,"transit":true,"line":4,"station_name":"Kampung Bandan","distance":2185,"i_lat":-6.132549,"time":4},{"time":3,"distance":1444,"station_name":"Rajawali","station_id":"RJW","transit":false,"i_lat":-6.14505,"line":11,"i_long":106.836569,"is_transit":false},{"is_transit":false,"station_name":"Kemayoran","transit":false,"station_id":"KMO","line":11,"distance":1901,"i_long":106.839204,"time":5,"i_lat":-6.161728},{"i_long":106.84368,"station_id":"PSE","i_lat":-6.174784,"station_name":"Pasar Senen","distance":1436,"transit":false,"is_transit":false,"time":4,"line":11},{"time":8,"station_name":"Gang Sentiong","transit":false,"distance":1567,"station_id":"GST","is_transit":false,"i_lat":-6.185975,"line":11,"i_long":106.850107},{"time":1,"transit":false,"i_long":106.855437,"line":11,"i_lat":-6.193792,"station_id":"KMT","distance":973,"station_name":"Kramat","is_transit":false},{"transit":false,"station_id":"POK","is_transit":false,"i_lat":-6.209188,"i_long":106.861737,"distance":1829,"station_name":"Pondok Jati","line":11,"time":2},{"station_name":"Jatinegara","transit":true,"i_lat":-6.215091,"is_transit":true,"distance":1236,"station_id":"JNG","i_long":106.86807400000001,"time":9,"line":1},{"line":1,"distance":1377,"transit":false,"station_id":"MTR","i_long":106.858896,"time":2,"is_transit":false,"i_lat":-6.212485,"station_name":"Matraman"},{"distance":1275,"i_long":106.84912,"is_transit":true,"time":2,"line":2,"station_id":"MRI","station_name":"Manggarai","transit":true,"i_lat":-6.209883},{"time":4,"station_name":"Tebet","i_lat":-6.226659,"distance":2610,"is_transit":false,"station_id":"TEB","i_long":106.857948,"transit":false,"line":2},{"i_long":106.856607,"distance":1230,"is_transit":false,"time":2,"line":2,"station_name":"Cawang","i_lat":-6.242512,"transit":false,"station_id":"CW"},{"station_id":"DRN","distance":1546,"transit":false,"time":3,"line":2,"station_name":"Duren Kalibata","i_long":106.85449,"is_transit":false,"i_lat":-6.255332},{"time":2,"i_long":106.851577,"is_transit":false,"station_id":"PSMB","station_name":"Pasar Minggu Baru","transit":false,"i_lat":-6.263214,"line":2,"distance":824},{"distance":2380,"is_transit":false,"line":2,"i_lat":-6.2842400000000005,"time":2,"station_name":"Pasar Minggu","station_id":"PSM","transit":false,"i_long":106.843999},{"time":4,"i_lat":-6.3080680000000005,"station_name":"Tanjung Barat","is_transit":false,"line":2,"transit":false,"i_long":106.838896,"station_id":"TNT","distance":2820},{"is_transit":false,"line":2,"distance":2671,"station_id":"LNA","station_name":"Lenteng Agung","transit":false,"i_lat":-6.330363,"time":3,"i_long":106.832616},{"transit":false,"i_long":106.834175,"time":2,"is_transit":false,"station_name":"Univ. Pancasila","distance":1029,"station_id":"UP","i_lat":-6.339291,"line":2},{"i_lat":-6.360749,"line":2,"is_transit":false,"distance":2264,"time":3,"i_long":106.831474,"station_id":"UI","transit":false,"station_name":"Univ. Indonesia"},{"distance":1109,"line":2,"i_long":106.831114,"i_lat":-6.369073,"station_id":"POC","station_name":"Pondok Cina","transit":false,"is_transit":false,"time":2},{"station_id":"DPB","is_transit":false,"transit":false,"line":2,"i_lat":-6.391065,"distance":2727,"i_long":106.819451,"station_name":"Depokbaru","time":4},{"transit":false,"time":3,"i_lat":-6.405256,"line":2,"is_transit":false,"distance":1584,"station_id":"DP","station_name":"Depok","i_long":106.816926},{"transit":false,"i_long":106.800298,"i_lat":-6.448811,"line":2,"distance":5084,"station_id":"CTA","is_transit":false,"time":6,"station_name":"Citayam"},{"transit":false,"time":5,"station_name":"Bojonggede","distance":5197,"i_long":106.792719,"line":2,"is_transit":false,"station_id":"BJD","i_lat":-6.493243},{"i_long":106.800016,"is_transit":false,"distance":4331,"station_name":"Cilebut","i_lat":-6.530544,"line":2,"time":5,"transit":false,"station_id":"CLT"},{"i_lat":-6.594596,"time":9,"station_id":"BOO","transit":false,"is_transit":false,"i_long":106.790574,"distance":7514,"line":2,"station_name":"Bogor"}]]}