{"data":[[{"time":0,"transit":false,"distance":0,"station_name":"Ancol","i_long":106.84464,"line":4,"i_lat":-6.128023,"is_transit":false,"station_id":"AC"},{"station_id":"KPB","i_lat":-6.132549,"station_name":"Kampung Bandan","distance":2185,"i_long":106.826365,"is_transit":true,"line":4,"transit":true,"time":4},{"i_long":106.79867,"line":1,"station_id":"AK","station_name":"Angke","i_lat":-6.144674,"distance":4102,"transit":false,"time":9,"is_transit":false},{"distance":1230,"is_transit":false,"i_lat":-6.155215,"station_name":"Duri","line":1,"station_id":"DU","time":4,"i_long":106.800832,"transit":false},{"station_name":"Tanah Abang","time":8,"distance":3632,"station_id":"THB","is_transit":false,"i_lat":-6.185545,"transit":false,"i_long":106.811091,"line":1},{"transit":false,"station_id":"KAT","is_transit":false,"time":5,"i_long":106.816351,"distance":2029,"line":1,"station_name":"Karet","i_lat":-6.20132},{"time":1,"transit":false,"station_id":"SUDB","distance":471,"station_name":"Sudirman Baru","i_long":106.819881,"i_lat":-6.201433,"is_transit":false,"line":1},{"transit":false,"is_transit":false,"station_name":"Sudirman","i_lat":-6.202263,"time":1,"line":1,"distance":280,"i_long":106.822649,"station_id":"SUD"},{"i_lat":-6.209883,"is_transit":true,"line":2,"distance":3186,"station_id":"MRI","i_long":106.84912,"time":4,"transit":true,"station_name":"Manggarai"},{"station_name":"Tebet","time":4,"i_lat":-6.226659,"i_long":106.857948,"line":2,"station_id":"TEB","distance":2610,"transit":false,"is_transit":false},{"time":2,"line":2,"i_long":106.856607,"transit":false,"station_id":"CW","is_transit":false,"station_name":"Cawang","i_lat":-6.242512,"distance":1230},{"time":3,"i_lat":-6.255332,"is_transit":false,"i_long":106.85449,"line":2,"transit":false,"station_id":"DRN","distance":1546,"station_name":"Duren Kalibata"},{"i_lat":-6.263214,"station_name":"Pasar Minggu Baru","station_id":"PSMB","is_transit":false,"line":2,"distance":824,"transit":false,"i_long":106.851577,"time":2},{"i_lat":-6.2842400000000005,"distance":2380,"transit":false,"time":2,"station_id":"PSM","is_transit":false,"i_long":106.843999,"line":2,"station_name":"Pasar Minggu"},{"station_id":"TNT","is_transit":false,"station_name":"Tanjung Barat","i_long":106.838896,"time":4,"transit":false,"distance":2820,"line":2,"i_lat":-6.3080680000000005},{"i_long":106.832616,"distance":2671,"line":2,"station_name":"Lenteng Agung","is_transit":false,"transit":false,"station_id":"LNA","i_lat":-6.330363,"time":3},{"i_lat":-6.339291,"line":2,"distance":1029,"transit":false,"i_long":106.834175,"station_id":"UP","time":2,"is_transit":false,"station_name":"Univ. Pancasila"},{"distance":2264,"i_long":106.831474,"i_lat":-6.360749,"station_id":"UI","is_transit":false,"station_name":"Univ. Indonesia","transit":false,"line":2,"time":3},{"i_long":106.831114,"station_name":"Pondok Cina","is_transit":false,"distance":1109,"station_id":"POC","time":2,"i_lat":-6.369073,"line":2,"transit":false},{"distance":2727,"transit":false,"station_id":"DPB","i_lat":-6.391065,"time":4,"is_transit":false,"i_long":106.819451,"station_name":"Depokbaru","line":2},{"i_lat":-6.405256,"time":3,"i_long":106.816926,"station_name":"Depok","distance":1584,"line":2,"transit":false,"station_id":"DP","is_transit":false},{"i_lat":-6.448811,"distance":5084,"station_name":"Citayam","i_long":106.800298,"transit":false,"time":6,"station_id":"CTA","is_transit":false,"line":2},{"station_name":"Bojonggede","time":5,"i_lat":-6.493243,"i_long":106.792719,"is_transit":false,"station_id":"BJD","transit":false,"distance":5197,"line":2},{"is_transit":false,"time":5,"transit":false,"station_name":"Cilebut","i_lat":-6.530544,"distance":4331,"station_id":"CLT","line":2,"i_long":106.800016},{"transit":false,"time":9,"station_name":"Bogor","station_id":"BOO","i_long":106.790574,"distance":7514,"is_transit":false,"i_lat":-6.594596,"line":2}],[{"transit":false,"station_name":"Ancol","time":0,"distance":0,"station_id":"AC","is_transit":false,"line":4,"i_lat":-6.128023,"i_long":106.84464},{"line":4,"i_long":106.826365,"distance":2185,"station_name":"Kampung Bandan","i_lat":-6.132549,"time":4,"station_id":"KPB","is_transit":true,"transit":true},{"station_id":"JAKK","i_long":106.812439,"time":3,"transit":true,"i_lat":-6.137569,"is_transit":true,"station_name":"Jakarta Kota","distance":1364,"line":2},{"is_transit":false,"time":4,"station_id":"JAY","transit":false,"station_name":"Jayakarta","i_lat":-6.141205,"i_long":106.820901,"distance":1264,"line":2},{"i_lat":-6.149769,"is_transit":false,"time":2,"distance":1080,"station_id":"MGB","station_name":"Manggabesar","i_long":106.82482,"line":2,"transit":false},{"station_name":"Sawah Besar","distance":906,"is_transit":false,"time":2,"i_lat":-6.160725,"i_long":106.827103,"transit":false,"line":2,"station_id":"SW"},{"station_name":"Juanda","i_long":106.828284,"is_transit":false,"transit":false,"time":2,"i_lat":-6.166716,"line":2,"distance":1149,"station_id":"JUA"},{"is_transit":false,"station_id":"GDD","i_lat":-6.186295,"i_long":106.832183,"transit":false,"station_name":"Gondangdia","line":2,"time":4,"distance":2015},{"line":2,"station_name":"Cikini","station_id":"CKI","i_lat":-6.198556,"distance":1750,"transit":false,"i_long":106.840169,"time":3,"is_transit":false},{"is_transit":false,"line":2,"station_name":"Manggarai","i_long":106.84912,"transit":false,"time":4,"station_id":"MRI","distance":1590,"i_lat":-6.209883},{"time":4,"line":2,"i_lat":-6.226659,"distance":2610,"station_name":"Tebet","i_long":106.857948,"transit":false,"station_id":"TEB","is_transit":false},{"station_id":"CW","transit":false,"time":2,"is_transit":false,"station_name":"Cawang","i_lat":-6.242512,"i_long":106.856607,"distance":1230,"line":2},{"distance":1546,"time":3,"station_id":"DRN","line":2,"is_transit":false,"i_long":106.85449,"transit":false,"station_name":"Duren Kalibata","i_lat":-6.255332},{"time":2,"i_lat":-6.263214,"station_name":"Pasar Minggu Baru","transit":false,"line":2,"station_id":"PSMB","distance":824,"is_transit":false,"i_long":106.851577},{"i_long":106.843999,"time":2,"station_name":"Pasar Minggu","line":2,"i_lat":-6.2842400000000005,"station_id":"PSM","is_transit":false,"transit":false,"distance":2380},{"distance":2820,"is_transit":false,"transit":false,"i_lat":-6.3080680000000005,"line":2,"i_long":106.838896,"station_name":"Tanjung Barat","time":4,"station_id":"TNT"},{"line":2,"station_id":"LNA","distance":2671,"i_lat":-6.330363,"station_name":"Lenteng Agung","i_long":106.832616,"transit":false,"is_transit":false,"time":3},{"time":2,"transit":false,"station_id":"UP","is_transit":false,"line":2,"i_lat":-6.339291,"i_long":106.834175,"distance":1029,"station_name":"Univ. Pancasila"},{"time":3,"station_id":"UI","distance":2264,"i_lat":-6.360749,"i_long":106.831474,"station_name":"Univ. Indonesia","transit":false,"is_transit":false,"line":2},{"transit":false,"i_long":106.831114,"i_lat":-6.369073,"time":2,"station_id":"POC","station_name":"Pondok Cina","is_transit":false,"distance":1109,"line":2},{"distance":2727,"station_name":"Depokbaru","station_id":"DPB","i_lat":-6.391065,"is_transit":false,"i_long":106.819451,"transit":false,"line":2,"time":4},{"station_id":"DP","distance":1584,"is_transit":false,"i_long":106.816926,"time":3,"station_name":"Depok","transit":false,"line":2,"i_lat":-6.405256},{"time":6,"station_id":"CTA","distance":5084,"transit":false,"is_transit":false,"station_name":"Citayam","i_long":106.800298,"line":2,"i_lat":-6.448811},{"distance":5197,"i_lat":-6.493243,"i_long":106.792719,"time":5,"is_transit":false,"line":2,"transit":false,"station_name":"Bojonggede","station_id":"BJD"},{"is_transit":false,"station_id":"CLT","i_lat":-6.530544,"i_long":106.800016,"distance":4331,"line":2,"transit":false,"time":5,"station_name":"Cilebut"},{"station_name":"Bogor","time":9,"station_id":"BOO","i_long":106.790574,"i_lat":-6.594596,"line":2,"distance":7514,"transit":false,"is_transit":false}],[{"i_lat":-6.128023,"station_name":"Ancol","i_long":106.84464,"time":0,"is_transit":false,"transit":false,"distance":0,"station_id":"AC","line":4},{"transit":true,"station_id":"KPB","time":4,"distance":2185,"station_name":"Kampung Bandan","line":4,"i_long":106.826365,"is_transit":true,"i_lat":-6.132549},{"transit":false,"time":3,"distance":1444,"i_lat":-6.14505,"line":11,"i_long":106.836569,"station_id":"RJW","station_name":"Rajawali","is_transit":false},{"i_long":106.839204,"line":11,"time":5,"distance":1901,"transit":false,"station_id":"KMO","is_transit":false,"i_lat":-6.161728,"station_name":"Kemayoran"},{"transit":false,"i_lat":-6.174784,"time":4,"line":11,"station_name":"Pasar Senen","distance":1436,"station_id":"PSE","is_transit":false,"i_long":106.84368},{"i_long":106.850107,"distance":1567,"is_transit":false,"time":8,"station_name":"Gang Sentiong","line":11,"transit":false,"station_id":"GST","i_lat":-6.185975},{"transit":false,"station_name":"Kramat","station_id":"KMT","is_transit":false,"time":1,"i_lat":-6.193792,"i_long":106.855437,"distance":973,"line":11},{"station_id":"POK","is_transit":false,"i_lat":-6.209188,"distance":1829,"station_name":"Pondok Jati","time":2,"i_long":106.861737,"transit":false,"line":11},{"time":9,"line":1,"transit":true,"station_name":"Jatinegara","is_transit":true,"distance":1236,"station_id":"JNG","i_lat":-6.215091,"i_long":106.86807400000001},{"line":1,"distance":1377,"transit":false,"is_transit":false,"time":2,"station_id":"MTR","station_name":"Matraman","i_lat":-6.212485,"i_long":106.858896},{"line":2,"is_transit":true,"distance":1275,"time":2,"station_name":"Manggarai","transit":true,"i_long":106.84912,"station_id":"MRI","i_lat":-6.209883},{"station_name":"Tebet","is_transit":false,"station_id":"TEB","i_lat":-6.226659,"i_long":106.857948,"time":4,"line":2,"distance":2610,"transit":false},{"i_long":106.856607,"line":2,"distance":1230,"i_lat":-6.242512,"is_transit":false,"transit":false,"time":2,"station_id":"CW","station_name":"Cawang"},{"station_id":"DRN","transit":false,"i_long":106.85449,"i_lat":-6.255332,"station_name":"Duren Kalibata","time":3,"is_transit":false,"line":2,"distance":1546},{"is_transit":false,"i_lat":-6.263214,"line":2,"station_name":"Pasar Minggu Baru","i_long":106.851577,"transit":false,"station_id":"PSMB","time":2,"distance":824},{"i_long":106.843999,"time":2,"is_transit":false,"station_name":"Pasar Minggu","line":2,"transit":false,"distance":2380,"station_id":"PSM","i_lat":-6.2842400000000005},{"transit":false,"distance":2820,"station_name":"Tanjung Barat","i_long":106.838896,"station_id":"TNT","is_transit":false,"i_lat":-6.3080680000000005,"line":2,"time":4},{"time":3,"distance":2671,"i_long":106.832616,"transit":false,"is_transit":false,"station_id":"LNA","station_name":"Lenteng Agung","i_lat":-6.330363,"line":2},{"i_lat":-6.339291,"time":2,"transit":false,"station_id":"UP","is_transit":false,"station_name":"Univ. Pancasila","i_long":106.834175,"line":2,"distance":1029},{"time":3,"is_transit":false,"i_long":106.831474,"distance":2264,"transit":false,"station_name":"Univ. Indonesia","station_id":"UI","i_lat":-6.360749,"line":2},{"distance":1109,"is_transit":false,"i_long":106.831114,"time":2,"transit":false,"station_name":"Pondok Cina","station_id":"POC","line":2,"i_lat":-6.369073},{"time":4,"station_id":"DPB","line":2,"distance":2727,"transit":false,"i_lat":-6.391065,"i_long":106.819451,"is_transit":false,"station_name":"Depokbaru"},{"transit":false,"station_id":"DP","is_transit":false,"station_name":"Depok","i_lat":-6.405256,"time":3,"distance":1584,"i_long":106.816926,"line":2},{"station_name":"Citayam","line":2,"transit":false,"i_long":106.800298,"i_lat":-6.448811,"is_transit":false,"distance":5084,"station_id":"CTA","time":6},{"transit":false,"is_transit":false,"i_long":106.792719,"distance":5197,"line":2,"i_lat":-6.493243,"station_id":"BJD","time":5,"station_name":"Bojonggede"},{"is_transit":false,"station_name":"Cilebut","distance":4331,"i_lat":-6.530544,"i_long":106.800016,"station_id":"CLT","transit":false,"line":2,"time":5},{"time":9,"station_id":"BOO","transit":false,"distance":7514,"is_transit":false,"i_long":106.790574,"line":2,"i_lat":-6.594596,"station_name":"Bogor"}]]}