{"data":[[{"distance":0,"transit":false,"time":0,"station_name":"Ancol","station_id":"AC","i_lat":-6.128023,"line":4,"is_transit":false,"i_long":106.84464},{"station_name":"Kampung Bandan","i_lat":-6.132549,"line":4,"i_long":106.826365,"station_id":"KPB","distance":2185,"is_transit":true,"time":4,"transit":true},{"transit":false,"is_transit":false,"time":9,"i_lat":-6.144674,"station_name":"Angke","station_id":"AK","distance":4102,"i_long":106.79867,"line":1},{"i_long":106.800832,"transit":false,"station_name":"Duri","is_transit":false,"distance":1230,"i_lat":-6.155215,"line":1,"time":4,"station_id":"DU"},{"station_name":"Tanah Abang","station_id":"THB","i_long":106.811091,"i_lat":-6.185545,"transit":false,"is_transit":false,"distance":3632,"time":8,"line":1},{"distance":2029,"is_transit":false,"line":1,"station_id":"KAT","station_name":"Karet","i_long":106.816351,"time":5,"transit":false,"i_lat":-6.20132},{"distance":471,"station_name":"Sudirman Baru","transit":false,"i_lat":-6.201433,"i_long":106.819881,"time":1,"line":1,"station_id":"SUDB","is_transit":false},{"transit":false,"line":1,"station_name":"Sudirman","station_id":"SUD","is_transit":false,"distance":280,"i_lat":-6.202263,"time":1,"i_long":106.822649},{"transit":true,"i_lat":-6.209883,"time":4,"station_name":"Manggarai","line":2,"is_transit":true,"distance":3186,"i_long":106.84912,"station_id":"MRI"},{"is_transit":false,"line":2,"transit":false,"station_name":"Tebet","station_id":"TEB","distance":2610,"time":4,"i_lat":-6.226659,"i_long":106.857948},{"station_name":"Cawang","time":2,"transit":false,"is_transit":false,"i_long":106.856607,"i_lat":-6.242512,"distance":1230,"station_id":"CW","line":2},{"i_lat":-6.255332,"time":3,"transit":false,"is_transit":false,"line":2,"station_name":"Duren Kalibata","station_id":"DRN","distance":1546,"i_long":106.85449},{"station_name":"Pasar Minggu Baru","line":2,"is_transit":false,"i_lat":-6.263214,"station_id":"PSMB","distance":824,"time":2,"i_long":106.851577,"transit":false},{"i_lat":-6.2842400000000005,"time":2,"station_name":"Pasar Minggu","i_long":106.843999,"distance":2380,"station_id":"PSM","transit":false,"is_transit":false,"line":2},{"time":4,"station_id":"TNT","is_transit":false,"line":2,"distance":2820,"i_long":106.838896,"transit":false,"i_lat":-6.3080680000000005,"station_name":"Tanjung Barat"},{"station_name":"Lenteng Agung","time":3,"distance":2671,"i_lat":-6.330363,"transit":false,"i_long":106.832616,"line":2,"is_transit":false,"station_id":"LNA"},{"i_long":106.834175,"station_id":"UP","time":2,"transit":false,"distance":1029,"is_transit":false,"station_name":"Univ. Pancasila","i_lat":-6.339291,"line":2},{"i_long":106.831474,"i_lat":-6.360749,"line":2,"station_name":"Univ. Indonesia","transit":false,"station_id":"UI","is_transit":false,"distance":2264,"time":3},{"transit":false,"time":2,"distance":1109,"station_id":"POC","is_transit":false,"i_long":106.831114,"i_lat":-6.369073,"station_name":"Pondok Cina","line":2},{"transit":false,"station_name":"Depokbaru","i_lat":-6.391065,"line":2,"distance":2727,"is_transit":false,"time":4,"i_long":106.819451,"station_id":"DPB"},{"i_lat":-6.405256,"is_transit":false,"i_long":106.816926,"station_id":"DP","transit":false,"distance":1584,"station_name":"Depok","time":3,"line":2},{"i_lat":-6.448811,"station_id":"CTA","line":2,"transit":false,"is_transit":false,"i_long":106.800298,"time":6,"distance":5084,"station_name":"Citayam"},{"line":2,"time":5,"transit":false,"station_name":"Bojonggede","i_long":106.792719,"i_lat":-6.493243,"station_id":"BJD","is_transit":false,"distance":5197},{"station_name":"Cilebut","is_transit":false,"i_long":106.800016,"station_id":"CLT","distance":4331,"i_lat":-6.530544,"time":5,"transit":false,"line":2},{"station_id":"BOO","station_name":"Bogor","time":9,"i_lat":-6.594596,"transit":false,"i_long":106.790574,"line":2,"distance":7514,"is_transit":false}],[{"transit":false,"is_transit":false,"time":0,"i_long":106.84464,"i_lat":-6.128023,"station_name":"Ancol","line":4,"distance":0,"station_id":"AC"},{"is_transit":true,"station_name":"Kampung Bandan","transit":true,"station_id":"KPB","time":4,"distance":2185,"i_lat":-6.132549,"i_long":106.826365,"line":4},{"i_long":106.812439,"line":2,"station_name":"Jakarta Kota","transit":true,"is_transit":true,"i_lat":-6.137569,"distance":1364,"station_id":"JAKK","time":3},{"transit":false,"line":2,"is_transit":false,"time":4,"distance":1264,"station_name":"Jayakarta","i_long":106.820901,"i_lat":-6.141205,"station_id":"JAY"},{"distance":1080,"time":2,"i_lat":-6.149769,"transit":false,"line":2,"station_name":"Manggabesar","is_transit":false,"station_id":"MGB","i_long":106.82482},{"transit":false,"i_long":106.827103,"is_transit":false,"time":2,"station_id":"SW","line":2,"station_name":"Sawah Besar","distance":906,"i_lat":-6.160725},{"station_name":"Juanda","i_long":106.828284,"transit":false,"i_lat":-6.166716,"distance":1149,"station_id":"JUA","line":2,"is_transit":false,"time":2},{"transit":false,"station_name":"Gondangdia","time":4,"i_long":106.832183,"is_transit":false,"station_id":"GDD","distance":2015,"i_lat":-6.186295,"line":2},{"station_name":"Cikini","i_long":106.840169,"station_id":"CKI","line":2,"is_transit":false,"time":3,"transit":false,"i_lat":-6.198556,"distance":1750},{"time":4,"line":2,"station_id":"MRI","distance":1590,"i_long":106.84912,"i_lat":-6.209883,"transit":false,"station_name":"Manggarai","is_transit":false},{"distance":2610,"station_id":"TEB","i_lat":-6.226659,"i_long":106.857948,"transit":false,"is_transit":false,"time":4,"station_name":"Tebet","line":2},{"i_lat":-6.242512,"distance":1230,"station_name":"Cawang","station_id":"CW","transit":false,"time":2,"i_long":106.856607,"line":2,"is_transit":false},{"i_lat":-6.255332,"time":3,"station_id":"DRN","transit":false,"i_long":106.85449,"is_transit":false,"line":2,"station_name":"Duren Kalibata","distance":1546},{"distance":824,"line":2,"station_name":"Pasar Minggu Baru","transit":false,"time":2,"i_lat":-6.263214,"station_id":"PSMB","i_long":106.851577,"is_transit":false},{"time":2,"line":2,"station_name":"Pasar Minggu","station_id":"PSM","is_transit":false,"i_long":106.843999,"transit":false,"distance":2380,"i_lat":-6.2842400000000005},{"station_id":"TNT","i_long":106.838896,"distance":2820,"line":2,"transit":false,"time":4,"is_transit":false,"station_name":"Tanjung Barat","i_lat":-6.3080680000000005},{"time":3,"i_lat":-6.330363,"is_transit":false,"transit":false,"i_long":106.832616,"station_id":"LNA","station_name":"Lenteng Agung","line":2,"distance":2671},{"station_name":"Univ. Pancasila","i_lat":-6.339291,"transit":false,"i_long":106.834175,"station_id":"UP","time":2,"is_transit":false,"distance":1029,"line":2},{"line":2,"i_long":106.831474,"station_name":"Univ. Indonesia","is_transit":false,"distance":2264,"i_lat":-6.360749,"time":3,"transit":false,"station_id":"UI"},{"station_name":"Pondok Cina","line":2,"time":2,"station_id":"POC","is_transit":false,"transit":false,"distance":1109,"i_long":106.831114,"i_lat":-6.369073},{"station_id":"DPB","line":2,"time":4,"i_lat":-6.391065,"i_long":106.819451,"transit":false,"is_transit":false,"station_name":"Depokbaru","distance":2727},{"i_lat":-6.405256,"station_id":"DP","line":2,"is_transit":false,"time":3,"i_long":106.816926,"distance":1584,"transit":false,"station_name":"Depok"},{"transit":false,"station_id":"CTA","is_transit":false,"time":6,"line":2,"i_long":106.800298,"i_lat":-6.448811,"station_name":"Citayam","distance":5084},{"transit":false,"i_lat":-6.493243,"distance":5197,"station_name":"Bojonggede","station_id":"BJD","time":5,"line":2,"is_transit":false,"i_long":106.792719},{"time":5,"distance":4331,"line":2,"station_name":"Cilebut","transit":false,"i_lat":-6.530544,"station_id":"CLT","i_long":106.800016,"is_transit":false},{"station_id":"BOO","i_long":106.790574,"station_name":"Bogor","transit":false,"line":2,"i_lat":-6.594596,"is_transit":false,"time":9,"distance":7514}],[{"transit":false,"time":0,"distance":0,"i_lat":-6.128023,"is_transit":false,"station_id":"AC","i_long":106.84464,"line":4,"station_name":"Ancol"},{"time":4,"station_id":"KPB","i_lat":-6.132549,"i_long":106.826365,"line":4,"distance":2185,"is_transit":true,"transit":true,"station_name":"Kampung Bandan"},{"station_name":"Rajawali","is_transit":false,"i_long":106.836569,"station_id":"RJW","distance":1444,"i_lat":-6.14505,"time":3,"line":11,"transit":false},{"is_transit":false,"time":5,"distance":1901,"station_id":"KMO","i_lat":-6.161728,"transit":false,"station_name":"Kemayoran","i_long":106.839204,"line":11},{"line":11,"time":4,"transit":false,"station_name":"Pasar Senen","station_id":"PSE","distance":1436,"i_lat":-6.174784,"is_transit":false,"i_long":106.84368},{"i_lat":-6.185975,"transit":false,"station_name":"Gang Sentiong","line":11,"is_transit":false,"station_id":"GST","time":8,"i_long":106.850107,"distance":1567},{"i_lat":-6.193792,"station_id":"KMT","line":11,"time":1,"distance":973,"station_name":"Kramat","transit":false,"i_long":106.855437,"is_transit":false},{"station_id":"POK","station_name":"Pondok Jati","transit":false,"i_long":106.861737,"line":11,"is_transit":false,"time":2,"distance":1829,"i_lat":-6.209188},{"i_long":106.86807400000001,"station_name":"Jatinegara","distance":1236,"i_lat":-6.215091,"time":9,"line":1,"station_id":"JNG","transit":true,"is_transit":true},{"distance":1377,"station_name":"Matraman","is_transit":false,"i_lat":-6.212485,"time":2,"station_id":"MTR","i_long":106.858896,"transit":false,"line":1},{"i_long":106.84912,"transit":true,"station_id":"MRI","is_transit":true,"station_name":"Manggarai","time":2,"distance":1275,"i_lat":-6.209883,"line":2},{"station_id":"TEB","i_long":106.857948,"time":4,"i_lat":-6.226659,"station_name":"Tebet","transit":false,"distance":2610,"line":2,"is_transit":false},{"time":2,"transit":false,"station_name":"Cawang","station_id":"CW","distance":1230,"i_lat":-6.242512,"line":2,"i_long":106.856607,"is_transit":false},{"transit":false,"station_name":"Duren Kalibata","time":3,"distance":1546,"station_id":"DRN","i_lat":-6.255332,"is_transit":false,"i_long":106.85449,"line":2},{"station_id":"PSMB","time":2,"line":2,"transit":false,"is_transit":false,"distance":824,"i_lat":-6.263214,"station_name":"Pasar Minggu Baru","i_long":106.851577},{"is_transit":false,"i_lat":-6.2842400000000005,"station_id":"PSM","line":2,"transit":false,"station_name":"Pasar Minggu","time":2,"distance":2380,"i_long":106.843999},{"is_transit":false,"i_lat":-6.3080680000000005,"line":2,"transit":false,"distance":2820,"station_id":"TNT","time":4,"station_name":"Tanjung Barat","i_long":106.838896},{"i_long":106.832616,"station_name":"Lenteng Agung","station_id":"LNA","is_transit":false,"i_lat":-6.330363,"distance":2671,"line":2,"transit":false,"time":3},{"station_name":"Univ. Pancasila","is_transit":false,"distance":1029,"i_lat":-6.339291,"line":2,"transit":false,"time":2,"i_long":106.834175,"station_id":"UP"},{"is_transit":false,"station_name":"Univ. Indonesia","time":3,"station_id":"UI","line":2,"transit":false,"i_long":106.831474,"distance":2264,"i_lat":-6.360749},{"i_lat":-6.369073,"station_name":"Pondok Cina","station_id":"POC","distance":1109,"line":2,"i_long":106.831114,"transit":false,"is_transit":false,"time":2},{"station_name":"Depokbaru","distance":2727,"is_transit":false,"line":2,"station_id":"DPB","time":4,"transit":false,"i_lat":-6.391065,"i_long":106.819451},{"station_name":"Depok","station_id":"DP","transit":false,"time":3,"distance":1584,"i_lat":-6.405256,"i_long":106.816926,"line":2,"is_transit":false},{"is_transit":false,"time":6,"i_long":106.800298,"transit":false,"station_id":"CTA","line":2,"distance":5084,"station_name":"Citayam","i_lat":-6.448811},{"time":5,"i_lat":-6.493243,"station_name":"Bojonggede","distance":5197,"i_long":106.792719,"line":2,"station_id":"BJD","transit":false,"is_transit":false},{"station_name":"Cilebut","station_id":"CLT","time":5,"transit":false,"i_lat":-6.530544,"i_long":106.800016,"is_transit":false,"line":2,"distance":4331},{"station_name":"Bogor","station_id":"BOO","line":2,"i_long":106.790574,"distance":7514,"is_transit":false,"time":9,"transit":false,"i_lat":-6.594596}]]}