{"data":[[{"transit":false,"i_lat":-6.128023,"time":0,"i_long":106.84464,"station_id":"AC","distance":0,"is_transit":false,"station_name":"Ancol","line":4},{"line":4,"time":4,"is_transit":true,"distance":2185,"transit":true,"station_name":"Kampung Bandan","station_id":"KPB","i_long":106.826365,"i_lat":-6.132549},{"line":1,"distance":4102,"i_lat":-6.144674,"transit":false,"is_transit":false,"station_name":"Angke","time":9,"station_id":"AK","i_long":106.79867},{"station_name":"Duri","i_lat":-6.155215,"line":1,"distance":1230,"transit":false,"is_transit":false,"station_id":"DU","i_long":106.800832,"time":4},{"distance":3632,"is_transit":false,"time":8,"i_lat":-6.185545,"station_name":"Tanah Abang","line":1,"i_long":106.811091,"station_id":"THB","transit":false},{"time":5,"line":1,"i_long":106.816351,"station_id":"KAT","distance":2029,"station_name":"Karet","transit":false,"i_lat":-6.20132,"is_transit":false},{"is_transit":false,"station_id":"SUDB","time":1,"distance":471,"line":1,"transit":false,"i_lat":-6.201433,"i_long":106.819881,"station_name":"Sudirman Baru"},{"i_long":106.822649,"is_transit":false,"transit":false,"i_lat":-6.202263,"line":1,"time":1,"distance":280,"station_name":"Sudirman","station_id":"SUD"},{"time":4,"distance":3186,"i_lat":-6.209883,"transit":true,"i_long":106.84912,"line":2,"station_name":"Manggarai","station_id":"MRI","is_transit":true},{"distance":2610,"station_id":"TEB","i_long":106.857948,"station_name":"Tebet","transit":false,"time":4,"i_lat":-6.226659,"line":2,"is_transit":false},{"transit":false,"station_id":"CW","station_name":"Cawang","distance":1230,"i_lat":-6.242512,"is_transit":false,"i_long":106.856607,"line":2,"time":2},{"distance":1546,"station_name":"Duren Kalibata","station_id":"DRN","transit":false,"is_transit":false,"i_lat":-6.255332,"i_long":106.85449,"time":3,"line":2},{"distance":824,"line":2,"i_lat":-6.263214,"is_transit":false,"i_long":106.851577,"time":2,"transit":false,"station_id":"PSMB","station_name":"Pasar Minggu Baru"},{"station_id":"PSM","i_lat":-6.2842400000000005,"time":2,"distance":2380,"i_long":106.843999,"is_transit":false,"transit":false,"line":2,"station_name":"Pasar Minggu"},{"i_lat":-6.3080680000000005,"line":2,"distance":2820,"time":4,"i_long":106.838896,"station_name":"Tanjung Barat","station_id":"TNT","is_transit":false,"transit":false},{"line":2,"i_lat":-6.330363,"transit":false,"time":3,"distance":2671,"i_long":106.832616,"station_name":"Lenteng Agung","is_transit":false,"station_id":"LNA"},{"transit":false,"time":2,"station_id":"UP","i_long":106.834175,"is_transit":false,"distance":1029,"i_lat":-6.339291,"station_name":"Univ. Pancasila","line":2},{"station_name":"Univ. Indonesia","transit":false,"distance":2264,"is_transit":false,"i_long":106.831474,"line":2,"i_lat":-6.360749,"station_id":"UI","time":3},{"station_id":"POC","time":2,"transit":false,"line":2,"i_lat":-6.369073,"station_name":"Pondok Cina","is_transit":false,"distance":1109,"i_long":106.831114},{"station_id":"DPB","transit":false,"i_long":106.819451,"is_transit":false,"time":4,"distance":2727,"line":2,"station_name":"Depokbaru","i_lat":-6.391065},{"distance":1584,"station_id":"DP","transit":false,"i_lat":-6.405256,"line":2,"i_long":106.816926,"station_name":"Depok","is_transit":false,"time":3},{"station_name":"Citayam","i_long":106.800298,"distance":5084,"transit":true,"line":2,"is_transit":true,"i_lat":-6.448811,"time":6,"station_id":"CTA"},{"station_id":"PDRG","distance":0,"transit":false,"station_name":"Pondok Rajeg","i_lat":-6.460735,"is_transit":false,"line":21,"time":0,"i_long":106.824374},{"i_long":106.851978,"station_name":"Cibinong","line":21,"time":0,"transit":false,"is_transit":false,"distance":0,"i_lat":-6.46424,"station_id":"CBN"}],[{"i_long":106.84464,"transit":false,"time":0,"station_name":"Ancol","is_transit":false,"distance":0,"line":4,"station_id":"AC","i_lat":-6.128023},{"i_lat":-6.132549,"line":4,"distance":2185,"time":4,"transit":true,"station_id":"KPB","i_long":106.826365,"is_transit":true,"station_name":"Kampung Bandan"},{"distance":1364,"station_id":"JAKK","i_long":106.812439,"line":2,"is_transit":true,"station_name":"Jakarta Kota","time":3,"transit":true,"i_lat":-6.137569},{"is_transit":false,"time":4,"distance":1264,"i_long":106.820901,"line":2,"station_id":"JAY","transit":false,"station_name":"Jayakarta","i_lat":-6.141205},{"time":2,"i_long":106.82482,"is_transit":false,"i_lat":-6.149769,"line":2,"transit":false,"station_name":"Manggabesar","station_id":"MGB","distance":1080},{"transit":false,"i_lat":-6.160725,"time":2,"distance":906,"is_transit":false,"station_name":"Sawah Besar","i_long":106.827103,"line":2,"station_id":"SW"},{"i_lat":-6.166716,"transit":false,"distance":1149,"station_name":"Juanda","time":2,"i_long":106.828284,"line":2,"station_id":"JUA","is_transit":false},{"is_transit":false,"station_id":"GDD","distance":2015,"time":4,"station_name":"Gondangdia","transit":false,"i_long":106.832183,"line":2,"i_lat":-6.186295},{"transit":false,"distance":1750,"time":3,"i_long":106.840169,"station_id":"CKI","i_lat":-6.198556,"station_name":"Cikini","is_transit":false,"line":2},{"line":2,"station_name":"Manggarai","distance":1590,"is_transit":false,"i_long":106.84912,"station_id":"MRI","transit":false,"time":4,"i_lat":-6.209883},{"station_id":"TEB","time":4,"distance":2610,"is_transit":false,"station_name":"Tebet","i_lat":-6.226659,"i_long":106.857948,"transit":false,"line":2},{"line":2,"station_name":"Cawang","distance":1230,"time":2,"i_lat":-6.242512,"station_id":"CW","is_transit":false,"i_long":106.856607,"transit":false},{"station_name":"Duren Kalibata","station_id":"DRN","i_long":106.85449,"i_lat":-6.255332,"distance":1546,"transit":false,"time":3,"line":2,"is_transit":false},{"time":2,"distance":824,"transit":false,"i_lat":-6.263214,"is_transit":false,"line":2,"station_name":"Pasar Minggu Baru","station_id":"PSMB","i_long":106.851577},{"i_lat":-6.2842400000000005,"line":2,"i_long":106.843999,"is_transit":false,"transit":false,"time":2,"station_id":"PSM","distance":2380,"station_name":"Pasar Minggu"},{"transit":false,"i_lat":-6.3080680000000005,"is_transit":false,"time":4,"distance":2820,"line":2,"i_long":106.838896,"station_id":"TNT","station_name":"Tanjung Barat"},{"i_long":106.832616,"line":2,"i_lat":-6.330363,"distance":2671,"is_transit":false,"transit":false,"station_name":"Lenteng Agung","station_id":"LNA","time":3},{"station_name":"Univ. Pancasila","is_transit":false,"transit":false,"time":2,"line":2,"i_lat":-6.339291,"station_id":"UP","i_long":106.834175,"distance":1029},{"transit":false,"is_transit":false,"station_name":"Univ. Indonesia","i_lat":-6.360749,"i_long":106.831474,"station_id":"UI","distance":2264,"line":2,"time":3},{"distance":1109,"station_id":"POC","line":2,"time":2,"is_transit":false,"station_name":"Pondok Cina","i_long":106.831114,"i_lat":-6.369073,"transit":false},{"i_lat":-6.391065,"transit":false,"is_transit":false,"line":2,"station_id":"DPB","distance":2727,"i_long":106.819451,"time":4,"station_name":"Depokbaru"},{"station_id":"DP","is_transit":false,"distance":1584,"line":2,"i_long":106.816926,"time":3,"i_lat":-6.405256,"station_name":"Depok","transit":false},{"i_lat":-6.448811,"i_long":106.800298,"line":2,"is_transit":true,"station_name":"Citayam","distance":5084,"time":6,"transit":true,"station_id":"CTA"},{"station_id":"PDRG","transit":false,"time":0,"line":21,"i_lat":-6.460735,"i_long":106.824374,"is_transit":false,"distance":0,"station_name":"Pondok Rajeg"},{"transit":false,"line":21,"station_id":"CBN","i_long":106.851978,"time":0,"i_lat":-6.46424,"distance":0,"station_name":"Cibinong","is_transit":false}],[{"i_lat":-6.128023,"distance":0,"station_name":"Ancol","i_long":106.84464,"line":4,"is_transit":false,"station_id":"AC","transit":false,"time":0},{"is_transit":true,"i_lat":-6.132549,"time":4,"station_id":"KPB","distance":2185,"i_long":106.826365,"line":4,"transit":true,"station_name":"Kampung Bandan"},{"time":3,"station_id":"RJW","distance":1444,"station_name":"Rajawali","i_lat":-6.14505,"i_long":106.836569,"line":11,"transit":false,"is_transit":false},{"transit":false,"is_transit":false,"i_long":106.839204,"time":5,"i_lat":-6.161728,"station_name":"Kemayoran","line":11,"distance":1901,"station_id":"KMO"},{"station_id":"PSE","line":11,"time":4,"i_lat":-6.174784,"is_transit":false,"i_long":106.84368,"transit":false,"distance":1436,"station_name":"Pasar Senen"},{"station_name":"Gang Sentiong","distance":1567,"transit":false,"i_lat":-6.185975,"line":11,"station_id":"GST","time":8,"is_transit":false,"i_long":106.850107},{"i_lat":-6.193792,"line":11,"distance":973,"station_name":"Kramat","i_long":106.855437,"transit":false,"is_transit":false,"station_id":"KMT","time":1},{"distance":1829,"i_lat":-6.209188,"line":11,"time":2,"station_name":"Pondok Jati","i_long":106.861737,"is_transit":false,"transit":false,"station_id":"POK"},{"time":9,"i_long":106.86807400000001,"station_id":"JNG","is_transit":true,"i_lat":-6.215091,"line":1,"distance":1236,"station_name":"Jatinegara","transit":true},{"station_id":"MTR","is_transit":false,"distance":1377,"i_lat":-6.212485,"line":1,"time":2,"i_long":106.858896,"station_name":"Matraman","transit":false},{"line":2,"time":2,"distance":1275,"is_transit":true,"i_long":106.84912,"transit":true,"station_id":"MRI","station_name":"Manggarai","i_lat":-6.209883},{"station_id":"TEB","time":4,"i_lat":-6.226659,"distance":2610,"is_transit":false,"station_name":"Tebet","i_long":106.857948,"transit":false,"line":2},{"is_transit":false,"time":2,"i_lat":-6.242512,"station_name":"Cawang","line":2,"distance":1230,"station_id":"CW","transit":false,"i_long":106.856607},{"station_name":"Duren Kalibata","station_id":"DRN","transit":false,"is_transit":false,"i_long":106.85449,"i_lat":-6.255332,"line":2,"time":3,"distance":1546},{"i_lat":-6.263214,"i_long":106.851577,"station_name":"Pasar Minggu Baru","station_id":"PSMB","line":2,"is_transit":false,"distance":824,"time":2,"transit":false},{"is_transit":false,"transit":false,"station_id":"PSM","station_name":"Pasar Minggu","i_lat":-6.2842400000000005,"i_long":106.843999,"time":2,"distance":2380,"line":2},{"i_lat":-6.3080680000000005,"time":4,"station_name":"Tanjung Barat","station_id":"TNT","is_transit":false,"line":2,"distance":2820,"i_long":106.838896,"transit":false},{"i_long":106.832616,"i_lat":-6.330363,"distance":2671,"time":3,"line":2,"is_transit":false,"transit":false,"station_name":"Lenteng Agung","station_id":"LNA"},{"station_id":"UP","distance":1029,"line":2,"i_lat":-6.339291,"i_long":106.834175,"transit":false,"is_transit":false,"time":2,"station_name":"Univ. Pancasila"},{"line":2,"transit":false,"station_id":"UI","is_transit":false,"station_name":"Univ. Indonesia","i_lat":-6.360749,"distance":2264,"i_long":106.831474,"time":3},{"time":2,"is_transit":false,"transit":false,"distance":1109,"station_id":"POC","station_name":"Pondok Cina","i_lat":-6.369073,"line":2,"i_long":106.831114},{"is_transit":false,"station_name":"Depokbaru","distance":2727,"line":2,"station_id":"DPB","transit":false,"time":4,"i_lat":-6.391065,"i_long":106.819451},{"transit":false,"i_long":106.816926,"line":2,"station_id":"DP","is_transit":false,"time":3,"distance":1584,"station_name":"Depok","i_lat":-6.405256},{"i_lat":-6.448811,"transit":true,"line":2,"station_id":"CTA","is_transit":true,"station_name":"Citayam","i_long":106.800298,"distance":5084,"time":6},{"i_long":106.824374,"i_lat":-6.460735,"is_transit":false,"distance":0,"station_name":"Pondok Rajeg","line":21,"transit":false,"station_id":"PDRG","time":0},{"is_transit":false,"i_lat":-6.46424,"station_name":"Cibinong","i_long":106.851978,"station_id":"CBN","distance":0,"transit":false,"line":21,"time":0}]]}