{"data":[[{"station_id":"AC","time":0,"line":4,"distance":0,"i_lat":-6.128023,"is_transit":false,"transit":false,"station_name":"Ancol","i_long":106.84464},{"is_transit":true,"station_name":"Kampung Bandan","time":4,"i_long":106.826365,"distance":2185,"transit":true,"line":4,"station_id":"KPB","i_lat":-6.132549},{"time":9,"transit":false,"i_lat":-6.144674,"station_name":"Angke","distance":4102,"station_id":"AK","i_long":106.79867,"is_transit":false,"line":1},{"i_lat":-6.155215,"i_long":106.800832,"station_name":"Duri","distance":1230,"time":4,"station_id":"DU","transit":false,"is_transit":false,"line":1},{"transit":true,"i_lat":-6.185545,"time":8,"station_name":"Tanah Abang","is_transit":true,"line":1,"distance":3632,"station_id":"THB","i_long":106.811091},{"station_name":"Palmerah","time":6,"station_id":"PLM","distance":3191,"i_long":106.79689,"i_lat":-6.207404,"transit":false,"is_transit":false,"line":6},{"i_long":106.780334,"transit":false,"is_transit":false,"i_lat":-6.237242,"station_id":"KBY","time":7,"distance":3737,"line":6,"station_name":"Kebayoran"},{"i_long":106.74273,"line":6,"time":8,"station_name":"Pondokranji","station_id":"PDJ","i_lat":-6.276362,"distance":6218,"is_transit":false,"transit":false},{"transit":false,"i_long":106.728916,"i_lat":-6.288927,"distance":2179,"station_name":"Jurangmangu","station_id":"JMU","time":3,"is_transit":false,"line":6},{"station_id":"SDM","transit":false,"i_long":106.712277,"station_name":"Sudimara","distance":1994,"i_lat":-6.296963,"is_transit":false,"time":4,"line":6},{"station_id":"RU","time":6,"is_transit":false,"line":6,"i_long":106.675475,"station_name":"Rawa Buntu","transit":false,"distance":4566,"i_lat":-6.314823},{"time":4,"line":6,"transit":false,"i_lat":-6.319871,"station_id":"SRP","is_transit":false,"station_name":"Serpong","distance":2413,"i_long":106.66566},{"station_id":"CSK","is_transit":false,"i_long":106.640411,"i_lat":-6.32484,"line":3,"transit":false,"time":4,"distance":1784,"station_name":"Cisauk"}],[{"transit":false,"i_long":106.84464,"station_id":"AC","time":0,"line":4,"distance":0,"station_name":"Ancol","is_transit":false,"i_lat":-6.128023},{"i_long":106.826365,"time":4,"line":4,"station_id":"KPB","distance":2185,"transit":true,"is_transit":true,"station_name":"Kampung Bandan","i_lat":-6.132549},{"line":2,"transit":true,"distance":1364,"time":3,"station_id":"JAKK","is_transit":true,"i_long":106.812439,"i_lat":-6.137569,"station_name":"Jakarta Kota"},{"transit":false,"i_long":106.820901,"station_name":"Jayakarta","distance":1264,"is_transit":false,"station_id":"JAY","line":2,"i_lat":-6.141205,"time":4},{"transit":false,"is_transit":false,"i_long":106.82482,"line":2,"distance":1080,"time":2,"station_id":"MGB","i_lat":-6.149769,"station_name":"Manggabesar"},{"time":2,"distance":906,"station_id":"SW","station_name":"Sawah Besar","i_long":106.827103,"transit":false,"i_lat":-6.160725,"line":2,"is_transit":false},{"distance":1149,"time":2,"i_long":106.828284,"station_name":"Juanda","station_id":"JUA","transit":false,"is_transit":false,"i_lat":-6.166716,"line":2},{"station_name":"Gondangdia","station_id":"GDD","transit":false,"is_transit":false,"time":4,"i_lat":-6.186295,"i_long":106.832183,"line":2,"distance":2015},{"distance":1750,"i_lat":-6.198556,"time":3,"transit":false,"i_long":106.840169,"line":2,"station_name":"Cikini","station_id":"CKI","is_transit":false},{"time":4,"line":2,"i_long":106.84912,"station_id":"MRI","distance":1590,"is_transit":true,"i_lat":-6.209883,"transit":true,"station_name":"Manggarai"},{"transit":false,"distance":3186,"i_lat":-6.202263,"is_transit":false,"station_name":"Sudirman","station_id":"SUD","i_long":106.822649,"line":1,"time":4},{"station_name":"Sudirman Baru","transit":false,"i_lat":-6.201433,"is_transit":false,"time":1,"i_long":106.819881,"line":1,"distance":280,"station_id":"SUDB"},{"is_transit":false,"time":1,"i_lat":-6.20132,"line":1,"station_id":"KAT","station_name":"Karet","transit":false,"distance":471,"i_long":106.816351},{"i_long":106.811091,"i_lat":-6.185545,"station_name":"Tanah Abang","transit":true,"station_id":"THB","distance":2029,"is_transit":true,"line":1,"time":5},{"time":6,"line":6,"i_long":106.79689,"distance":3191,"i_lat":-6.207404,"station_name":"Palmerah","transit":false,"is_transit":false,"station_id":"PLM"},{"time":7,"is_transit":false,"i_long":106.780334,"i_lat":-6.237242,"station_name":"Kebayoran","distance":3737,"transit":false,"station_id":"KBY","line":6},{"i_long":106.74273,"line":6,"station_id":"PDJ","station_name":"Pondokranji","distance":6218,"time":8,"is_transit":false,"transit":false,"i_lat":-6.276362},{"station_name":"Jurangmangu","transit":false,"time":3,"i_long":106.728916,"station_id":"JMU","i_lat":-6.288927,"is_transit":false,"distance":2179,"line":6},{"station_id":"SDM","i_long":106.712277,"station_name":"Sudimara","time":4,"distance":1994,"i_lat":-6.296963,"line":6,"transit":false,"is_transit":false},{"i_lat":-6.314823,"time":6,"i_long":106.675475,"line":6,"is_transit":false,"transit":false,"station_id":"RU","distance":4566,"station_name":"Rawa Buntu"},{"transit":false,"i_long":106.66566,"line":6,"is_transit":false,"station_name":"Serpong","i_lat":-6.319871,"time":4,"station_id":"SRP","distance":2413},{"station_id":"CSK","transit":false,"is_transit":false,"time":4,"station_name":"Cisauk","distance":1784,"i_lat":-6.32484,"line":3,"i_long":106.640411}],[{"i_long":106.84464,"transit":false,"time":0,"line":4,"station_name":"Ancol","is_transit":false,"station_id":"AC","i_lat":-6.128023,"distance":0},{"distance":2185,"line":4,"i_lat":-6.132549,"transit":true,"time":4,"is_transit":true,"i_long":106.826365,"station_id":"KPB","station_name":"Kampung Bandan"},{"time":3,"transit":false,"i_lat":-6.14505,"distance":1444,"station_id":"RJW","i_long":106.836569,"is_transit":false,"station_name":"Rajawali","line":11},{"transit":false,"line":11,"station_id":"KMO","is_transit":false,"time":5,"distance":1901,"i_long":106.839204,"station_name":"Kemayoran","i_lat":-6.161728},{"i_lat":-6.174784,"transit":false,"is_transit":false,"station_name":"Pasar Senen","distance":1436,"time":4,"i_long":106.84368,"line":11,"station_id":"PSE"},{"station_id":"GST","station_name":"Gang Sentiong","transit":false,"distance":1567,"is_transit":false,"time":8,"i_long":106.850107,"i_lat":-6.185975,"line":11},{"distance":973,"transit":false,"station_name":"Kramat","time":1,"line":11,"is_transit":false,"i_long":106.855437,"i_lat":-6.193792,"station_id":"KMT"},{"transit":false,"is_transit":false,"i_long":106.861737,"station_id":"POK","time":2,"distance":1829,"i_lat":-6.209188,"line":11,"station_name":"Pondok Jati"},{"station_name":"Jatinegara","time":9,"station_id":"JNG","transit":true,"is_transit":true,"i_lat":-6.215091,"i_long":106.86807400000001,"distance":1236,"line":1},{"line":1,"transit":false,"i_lat":-6.212485,"i_long":106.858896,"distance":1377,"station_name":"Matraman","station_id":"MTR","time":2,"is_transit":false},{"time":2,"is_transit":false,"station_name":"Manggarai","distance":1275,"transit":false,"station_id":"MRI","i_lat":-6.209883,"i_long":106.84912,"line":2},{"distance":3186,"time":4,"station_name":"Sudirman","is_transit":false,"station_id":"SUD","i_lat":-6.202263,"i_long":106.822649,"transit":false,"line":1},{"transit":false,"station_name":"Sudirman Baru","distance":280,"line":1,"time":1,"i_lat":-6.201433,"i_long":106.819881,"station_id":"SUDB","is_transit":false},{"i_lat":-6.20132,"station_id":"KAT","transit":false,"time":1,"distance":471,"i_long":106.816351,"station_name":"Karet","is_transit":false,"line":1},{"transit":true,"station_id":"THB","is_transit":true,"line":1,"station_name":"Tanah Abang","time":5,"distance":2029,"i_lat":-6.185545,"i_long":106.811091},{"station_name":"Palmerah","distance":3191,"time":6,"line":6,"is_transit":false,"i_long":106.79689,"i_lat":-6.207404,"station_id":"PLM","transit":false},{"i_long":106.780334,"station_name":"Kebayoran","station_id":"KBY","transit":false,"distance":3737,"is_transit":false,"time":7,"line":6,"i_lat":-6.237242},{"distance":6218,"i_lat":-6.276362,"transit":false,"station_id":"PDJ","time":8,"i_long":106.74273,"line":6,"station_name":"Pondokranji","is_transit":false},{"time":3,"station_id":"JMU","i_lat":-6.288927,"i_long":106.728916,"line":6,"station_name":"Jurangmangu","transit":false,"is_transit":false,"distance":2179},{"time":4,"i_lat":-6.296963,"transit":false,"i_long":106.712277,"station_id":"SDM","line":6,"is_transit":false,"distance":1994,"station_name":"Sudimara"},{"line":6,"station_name":"Rawa Buntu","transit":false,"is_transit":false,"distance":4566,"time":6,"i_lat":-6.314823,"i_long":106.675475,"station_id":"RU"},{"station_id":"SRP","is_transit":false,"i_lat":-6.319871,"i_long":106.66566,"line":6,"station_name":"Serpong","time":4,"transit":false,"distance":2413},{"station_name":"Cisauk","i_long":106.640411,"i_lat":-6.32484,"station_id":"CSK","is_transit":false,"distance":1784,"line":3,"time":4,"transit":false}]]}