{"data":[[{"station_name":"Ancol","i_long":106.84464,"transit":false,"is_transit":false,"station_id":"AC","distance":0,"i_lat":-6.128023,"line":4,"time":0},{"line":4,"station_id":"KPB","time":4,"is_transit":true,"station_name":"Kampung Bandan","i_long":106.826365,"distance":2185,"transit":true,"i_lat":-6.132549},{"distance":4102,"time":9,"station_name":"Angke","is_transit":false,"i_lat":-6.144674,"i_long":106.79867,"line":1,"station_id":"AK","transit":false},{"i_long":106.800832,"time":4,"i_lat":-6.155215,"station_id":"DU","distance":1230,"is_transit":false,"transit":false,"line":1,"station_name":"Duri"},{"i_lat":-6.185545,"line":1,"transit":true,"station_name":"Tanah Abang","is_transit":true,"distance":3632,"station_id":"THB","i_long":106.811091,"time":8},{"station_id":"PLM","station_name":"Palmerah","i_lat":-6.207404,"transit":false,"distance":3191,"is_transit":false,"time":6,"line":6,"i_long":106.79689},{"time":7,"station_id":"KBY","i_long":106.780334,"transit":false,"distance":3737,"i_lat":-6.237242,"line":6,"is_transit":false,"station_name":"Kebayoran"},{"station_name":"Pondokranji","time":8,"distance":6218,"station_id":"PDJ","i_long":106.74273,"line":6,"i_lat":-6.276362,"is_transit":false,"transit":false},{"time":3,"station_id":"JMU","station_name":"Jurangmangu","distance":2179,"is_transit":false,"i_long":106.728916,"i_lat":-6.288927,"line":6,"transit":false},{"i_long":106.712277,"time":4,"transit":false,"is_transit":false,"i_lat":-6.296963,"station_name":"Sudimara","line":6,"station_id":"SDM","distance":1994},{"transit":false,"is_transit":false,"station_name":"Rawa Buntu","line":6,"time":6,"station_id":"RU","distance":4566,"i_lat":-6.314823,"i_long":106.675475},{"station_name":"Serpong","i_lat":-6.319871,"i_long":106.66566,"transit":false,"is_transit":false,"station_id":"SRP","time":4,"distance":2413,"line":6},{"station_name":"Cisauk","transit":false,"time":4,"station_id":"CSK","distance":1784,"i_lat":-6.32484,"is_transit":false,"i_long":106.640411,"line":3}],[{"time":0,"transit":false,"is_transit":false,"station_name":"Ancol","i_long":106.84464,"distance":0,"i_lat":-6.128023,"station_id":"AC","line":4},{"is_transit":true,"line":4,"station_name":"Kampung Bandan","i_long":106.826365,"distance":2185,"transit":true,"station_id":"KPB","time":4,"i_lat":-6.132549},{"i_lat":-6.137569,"is_transit":true,"time":3,"station_id":"JAKK","line":2,"distance":1364,"transit":true,"station_name":"Jakarta Kota","i_long":106.812439},{"station_name":"Jayakarta","i_long":106.820901,"line":2,"transit":false,"i_lat":-6.141205,"distance":1264,"is_transit":false,"time":4,"station_id":"JAY"},{"transit":false,"line":2,"station_id":"MGB","time":2,"i_lat":-6.149769,"i_long":106.82482,"distance":1080,"station_name":"Manggabesar","is_transit":false},{"transit":false,"station_id":"SW","i_long":106.827103,"line":2,"station_name":"Sawah Besar","time":2,"i_lat":-6.160725,"is_transit":false,"distance":906},{"station_name":"Juanda","is_transit":false,"station_id":"JUA","line":2,"i_long":106.828284,"transit":false,"distance":1149,"time":2,"i_lat":-6.166716},{"i_long":106.832183,"station_name":"Gondangdia","station_id":"GDD","line":2,"distance":2015,"time":4,"is_transit":false,"transit":false,"i_lat":-6.186295},{"i_long":106.840169,"line":2,"station_name":"Cikini","station_id":"CKI","distance":1750,"transit":false,"time":3,"i_lat":-6.198556,"is_transit":false},{"i_long":106.84912,"transit":true,"line":2,"distance":1590,"time":4,"i_lat":-6.209883,"is_transit":true,"station_name":"Manggarai","station_id":"MRI"},{"distance":3186,"i_long":106.822649,"is_transit":false,"transit":false,"time":4,"station_id":"SUD","station_name":"Sudirman","i_lat":-6.202263,"line":1},{"line":1,"time":1,"i_lat":-6.201433,"transit":false,"station_name":"Sudirman Baru","is_transit":false,"station_id":"SUDB","distance":280,"i_long":106.819881},{"station_id":"KAT","time":1,"line":1,"distance":471,"i_lat":-6.20132,"i_long":106.816351,"transit":false,"is_transit":false,"station_name":"Karet"},{"i_long":106.811091,"i_lat":-6.185545,"station_id":"THB","time":5,"line":1,"is_transit":true,"transit":true,"station_name":"Tanah Abang","distance":2029},{"is_transit":false,"i_long":106.79689,"i_lat":-6.207404,"transit":false,"time":6,"station_name":"Palmerah","station_id":"PLM","distance":3191,"line":6},{"station_name":"Kebayoran","i_lat":-6.237242,"distance":3737,"i_long":106.780334,"station_id":"KBY","line":6,"is_transit":false,"transit":false,"time":7},{"time":8,"distance":6218,"i_lat":-6.276362,"i_long":106.74273,"station_name":"Pondokranji","line":6,"station_id":"PDJ","transit":false,"is_transit":false},{"time":3,"station_id":"JMU","i_lat":-6.288927,"distance":2179,"station_name":"Jurangmangu","line":6,"transit":false,"is_transit":false,"i_long":106.728916},{"distance":1994,"i_lat":-6.296963,"line":6,"station_name":"Sudimara","time":4,"is_transit":false,"transit":false,"i_long":106.712277,"station_id":"SDM"},{"time":6,"station_id":"RU","distance":4566,"is_transit":false,"i_lat":-6.314823,"line":6,"station_name":"Rawa Buntu","transit":false,"i_long":106.675475},{"station_id":"SRP","i_long":106.66566,"station_name":"Serpong","line":6,"i_lat":-6.319871,"transit":false,"distance":2413,"is_transit":false,"time":4},{"line":3,"i_lat":-6.32484,"distance":1784,"is_transit":false,"time":4,"transit":false,"station_id":"CSK","i_long":106.640411,"station_name":"Cisauk"}],[{"station_id":"AC","station_name":"Ancol","is_transit":false,"line":4,"distance":0,"transit":false,"i_lat":-6.128023,"time":0,"i_long":106.84464},{"i_long":106.826365,"is_transit":true,"line":4,"time":4,"distance":2185,"station_name":"Kampung Bandan","station_id":"KPB","i_lat":-6.132549,"transit":true},{"station_name":"Rajawali","transit":false,"line":11,"is_transit":false,"i_lat":-6.14505,"time":3,"i_long":106.836569,"distance":1444,"station_id":"RJW"},{"station_id":"KMO","time":5,"is_transit":false,"station_name":"Kemayoran","transit":false,"distance":1901,"i_lat":-6.161728,"i_long":106.839204,"line":11},{"distance":1436,"station_name":"Pasar Senen","time":4,"station_id":"PSE","i_long":106.84368,"line":11,"i_lat":-6.174784,"is_transit":false,"transit":false},{"is_transit":false,"station_name":"Gang Sentiong","distance":1567,"line":11,"transit":false,"station_id":"GST","i_long":106.850107,"i_lat":-6.185975,"time":8},{"line":11,"is_transit":false,"i_long":106.855437,"station_name":"Kramat","station_id":"KMT","time":1,"transit":false,"distance":973,"i_lat":-6.193792},{"station_id":"POK","i_long":106.861737,"line":11,"station_name":"Pondok Jati","is_transit":false,"time":2,"transit":false,"i_lat":-6.209188,"distance":1829},{"is_transit":true,"i_long":106.86807400000001,"station_name":"Jatinegara","time":9,"distance":1236,"transit":true,"line":1,"i_lat":-6.215091,"station_id":"JNG"},{"is_transit":false,"distance":1377,"time":2,"transit":false,"line":1,"i_long":106.858896,"station_name":"Matraman","i_lat":-6.212485,"station_id":"MTR"},{"transit":false,"i_long":106.84912,"time":2,"station_name":"Manggarai","station_id":"MRI","is_transit":false,"i_lat":-6.209883,"distance":1275,"line":2},{"distance":3186,"i_lat":-6.202263,"line":1,"is_transit":false,"station_id":"SUD","station_name":"Sudirman","time":4,"i_long":106.822649,"transit":false},{"transit":false,"is_transit":false,"i_lat":-6.201433,"station_id":"SUDB","station_name":"Sudirman Baru","distance":280,"i_long":106.819881,"line":1,"time":1},{"distance":471,"time":1,"station_name":"Karet","i_lat":-6.20132,"is_transit":false,"transit":false,"station_id":"KAT","i_long":106.816351,"line":1},{"time":5,"i_lat":-6.185545,"is_transit":true,"distance":2029,"i_long":106.811091,"line":1,"transit":true,"station_id":"THB","station_name":"Tanah Abang"},{"line":6,"i_lat":-6.207404,"time":6,"transit":false,"station_name":"Palmerah","is_transit":false,"i_long":106.79689,"distance":3191,"station_id":"PLM"},{"station_id":"KBY","time":7,"i_lat":-6.237242,"transit":false,"is_transit":false,"distance":3737,"i_long":106.780334,"line":6,"station_name":"Kebayoran"},{"i_long":106.74273,"station_id":"PDJ","station_name":"Pondokranji","line":6,"distance":6218,"time":8,"is_transit":false,"transit":false,"i_lat":-6.276362},{"time":3,"is_transit":false,"station_name":"Jurangmangu","station_id":"JMU","transit":false,"i_lat":-6.288927,"line":6,"distance":2179,"i_long":106.728916},{"is_transit":false,"i_lat":-6.296963,"distance":1994,"station_id":"SDM","transit":false,"i_long":106.712277,"line":6,"time":4,"station_name":"Sudimara"},{"station_name":"Rawa Buntu","i_long":106.675475,"time":6,"line":6,"transit":false,"station_id":"RU","distance":4566,"is_transit":false,"i_lat":-6.314823},{"time":4,"transit":false,"station_name":"Serpong","distance":2413,"i_long":106.66566,"station_id":"SRP","line":6,"is_transit":false,"i_lat":-6.319871},{"i_lat":-6.32484,"is_transit":false,"station_name":"Cisauk","time":4,"distance":1784,"transit":false,"line":3,"i_long":106.640411,"station_id":"CSK"}]]}