{"data":[[{"transit":false,"line":4,"i_long":106.84464,"i_lat":-6.128023,"is_transit":false,"distance":0,"time":0,"station_name":"Ancol","station_id":"AC"},{"distance":2185,"i_lat":-6.132549,"i_long":106.826365,"transit":true,"line":4,"station_id":"KPB","is_transit":true,"time":4,"station_name":"Kampung Bandan"},{"is_transit":false,"time":9,"station_name":"Angke","station_id":"AK","distance":4102,"line":1,"transit":false,"i_lat":-6.144674,"i_long":106.79867},{"is_transit":false,"station_name":"Duri","station_id":"DU","i_lat":-6.155215,"time":4,"distance":1230,"i_long":106.800832,"transit":false,"line":1},{"station_id":"THB","station_name":"Tanah Abang","line":1,"i_long":106.811091,"i_lat":-6.185545,"time":8,"distance":3632,"transit":false,"is_transit":false},{"transit":false,"i_long":106.816351,"station_id":"KAT","distance":2029,"i_lat":-6.20132,"station_name":"Karet","is_transit":false,"line":1,"time":5},{"is_transit":false,"i_long":106.819881,"line":1,"time":1,"station_name":"Sudirman Baru","i_lat":-6.201433,"distance":471,"transit":false,"station_id":"SUDB"},{"station_id":"SUD","distance":280,"time":1,"station_name":"Sudirman","line":1,"i_long":106.822649,"is_transit":false,"transit":false,"i_lat":-6.202263},{"i_lat":-6.209883,"time":4,"line":2,"station_id":"MRI","distance":3186,"transit":true,"station_name":"Manggarai","is_transit":true,"i_long":106.84912},{"i_lat":-6.226659,"time":4,"station_name":"Tebet","station_id":"TEB","distance":2610,"transit":false,"is_transit":false,"line":2,"i_long":106.857948},{"line":2,"station_id":"CW","distance":1230,"is_transit":false,"station_name":"Cawang","i_long":106.856607,"time":2,"i_lat":-6.242512,"transit":false},{"time":3,"line":2,"distance":1546,"i_lat":-6.255332,"is_transit":false,"station_id":"DRN","station_name":"Duren Kalibata","transit":false,"i_long":106.85449},{"time":2,"station_name":"Pasar Minggu Baru","distance":824,"transit":false,"is_transit":false,"i_lat":-6.263214,"i_long":106.851577,"station_id":"PSMB","line":2},{"time":2,"distance":2380,"i_long":106.843999,"station_name":"Pasar Minggu","transit":false,"station_id":"PSM","is_transit":false,"i_lat":-6.2842400000000005,"line":2},{"distance":2820,"transit":false,"station_id":"TNT","i_lat":-6.3080680000000005,"i_long":106.838896,"time":4,"is_transit":false,"line":2,"station_name":"Tanjung Barat"},{"line":2,"time":3,"transit":false,"station_name":"Lenteng Agung","distance":2671,"station_id":"LNA","is_transit":false,"i_lat":-6.330363,"i_long":106.832616},{"line":2,"distance":1029,"station_id":"UP","station_name":"Univ. Pancasila","transit":false,"is_transit":false,"i_long":106.834175,"i_lat":-6.339291,"time":2},{"station_name":"Univ. Indonesia","distance":2264,"is_transit":false,"transit":false,"line":2,"time":3,"i_lat":-6.360749,"station_id":"UI","i_long":106.831474},{"time":2,"line":2,"station_name":"Pondok Cina","i_long":106.831114,"transit":false,"station_id":"POC","i_lat":-6.369073,"distance":1109,"is_transit":false},{"station_id":"DPB","transit":false,"i_lat":-6.391065,"line":2,"i_long":106.819451,"time":4,"is_transit":false,"station_name":"Depokbaru","distance":2727},{"is_transit":false,"station_name":"Depok","station_id":"DP","distance":1584,"transit":false,"i_lat":-6.405256,"time":3,"i_long":106.816926,"line":2},{"transit":true,"line":2,"i_lat":-6.448811,"is_transit":true,"i_long":106.800298,"station_id":"CTA","time":6,"station_name":"Citayam","distance":5084},{"transit":false,"is_transit":false,"i_long":106.824374,"station_name":"Pondok Rajeg","time":0,"station_id":"PDRG","i_lat":-6.460735,"distance":0,"line":21},{"time":0,"station_name":"Cibinong","station_id":"CBN","is_transit":false,"i_lat":-6.46424,"transit":false,"line":21,"i_long":106.851978,"distance":0}],[{"station_id":"AC","line":4,"time":0,"transit":false,"is_transit":false,"station_name":"Ancol","i_long":106.84464,"distance":0,"i_lat":-6.128023},{"is_transit":true,"line":4,"station_name":"Kampung Bandan","distance":2185,"i_long":106.826365,"transit":true,"i_lat":-6.132549,"station_id":"KPB","time":4},{"line":2,"station_name":"Jakarta Kota","time":3,"distance":1364,"is_transit":true,"i_lat":-6.137569,"station_id":"JAKK","i_long":106.812439,"transit":true},{"i_lat":-6.141205,"i_long":106.820901,"is_transit":false,"station_id":"JAY","distance":1264,"transit":false,"line":2,"time":4,"station_name":"Jayakarta"},{"is_transit":false,"i_long":106.82482,"transit":false,"station_id":"MGB","i_lat":-6.149769,"line":2,"time":2,"distance":1080,"station_name":"Manggabesar"},{"station_name":"Sawah Besar","transit":false,"is_transit":false,"station_id":"SW","time":2,"i_lat":-6.160725,"line":2,"i_long":106.827103,"distance":906},{"station_name":"Juanda","line":2,"i_long":106.828284,"is_transit":false,"i_lat":-6.166716,"distance":1149,"time":2,"transit":false,"station_id":"JUA"},{"station_name":"Gondangdia","time":4,"distance":2015,"transit":false,"i_lat":-6.186295,"i_long":106.832183,"station_id":"GDD","is_transit":false,"line":2},{"is_transit":false,"i_lat":-6.198556,"distance":1750,"line":2,"i_long":106.840169,"transit":false,"station_name":"Cikini","time":3,"station_id":"CKI"},{"time":4,"station_name":"Manggarai","i_long":106.84912,"is_transit":false,"transit":false,"i_lat":-6.209883,"line":2,"station_id":"MRI","distance":1590},{"i_lat":-6.226659,"time":4,"station_name":"Tebet","is_transit":false,"transit":false,"line":2,"distance":2610,"station_id":"TEB","i_long":106.857948},{"time":2,"i_long":106.856607,"transit":false,"is_transit":false,"i_lat":-6.242512,"distance":1230,"station_name":"Cawang","station_id":"CW","line":2},{"station_name":"Duren Kalibata","distance":1546,"is_transit":false,"i_long":106.85449,"i_lat":-6.255332,"station_id":"DRN","time":3,"transit":false,"line":2},{"i_lat":-6.263214,"time":2,"station_name":"Pasar Minggu Baru","transit":false,"is_transit":false,"station_id":"PSMB","distance":824,"i_long":106.851577,"line":2},{"distance":2380,"station_id":"PSM","transit":false,"i_lat":-6.2842400000000005,"line":2,"station_name":"Pasar Minggu","i_long":106.843999,"is_transit":false,"time":2},{"time":4,"transit":false,"is_transit":false,"line":2,"i_lat":-6.3080680000000005,"station_name":"Tanjung Barat","i_long":106.838896,"station_id":"TNT","distance":2820},{"time":3,"station_id":"LNA","station_name":"Lenteng Agung","i_lat":-6.330363,"distance":2671,"line":2,"transit":false,"i_long":106.832616,"is_transit":false},{"distance":1029,"line":2,"i_lat":-6.339291,"station_name":"Univ. Pancasila","is_transit":false,"transit":false,"i_long":106.834175,"time":2,"station_id":"UP"},{"is_transit":false,"time":3,"line":2,"i_lat":-6.360749,"i_long":106.831474,"station_name":"Univ. Indonesia","transit":false,"station_id":"UI","distance":2264},{"i_long":106.831114,"station_name":"Pondok Cina","station_id":"POC","transit":false,"distance":1109,"i_lat":-6.369073,"line":2,"time":2,"is_transit":false},{"station_id":"DPB","i_lat":-6.391065,"time":4,"is_transit":false,"transit":false,"distance":2727,"i_long":106.819451,"line":2,"station_name":"Depokbaru"},{"line":2,"i_long":106.816926,"is_transit":false,"transit":false,"station_name":"Depok","time":3,"distance":1584,"i_lat":-6.405256,"station_id":"DP"},{"transit":true,"is_transit":true,"i_lat":-6.448811,"i_long":106.800298,"time":6,"station_name":"Citayam","line":2,"distance":5084,"station_id":"CTA"},{"i_long":106.824374,"time":0,"station_id":"PDRG","distance":0,"line":21,"transit":false,"is_transit":false,"station_name":"Pondok Rajeg","i_lat":-6.460735},{"is_transit":false,"station_id":"CBN","transit":false,"i_lat":-6.46424,"line":21,"distance":0,"i_long":106.851978,"station_name":"Cibinong","time":0}],[{"transit":false,"line":4,"is_transit":false,"distance":0,"i_long":106.84464,"station_id":"AC","i_lat":-6.128023,"time":0,"station_name":"Ancol"},{"time":4,"distance":2185,"transit":true,"is_transit":true,"i_long":106.826365,"line":4,"station_name":"Kampung Bandan","station_id":"KPB","i_lat":-6.132549},{"transit":false,"distance":1444,"is_transit":false,"station_name":"Rajawali","time":3,"station_id":"RJW","i_lat":-6.14505,"line":11,"i_long":106.836569},{"station_name":"Kemayoran","is_transit":false,"i_lat":-6.161728,"i_long":106.839204,"line":11,"station_id":"KMO","time":5,"distance":1901,"transit":false},{"distance":1436,"station_name":"Pasar Senen","line":11,"i_long":106.84368,"transit":false,"station_id":"PSE","time":4,"is_transit":false,"i_lat":-6.174784},{"is_transit":false,"line":11,"transit":false,"time":8,"i_lat":-6.185975,"station_name":"Gang Sentiong","i_long":106.850107,"station_id":"GST","distance":1567},{"time":1,"i_long":106.855437,"station_name":"Kramat","is_transit":false,"line":11,"distance":973,"station_id":"KMT","transit":false,"i_lat":-6.193792},{"i_long":106.861737,"time":2,"i_lat":-6.209188,"station_id":"POK","transit":false,"station_name":"Pondok Jati","is_transit":false,"line":11,"distance":1829},{"i_lat":-6.215091,"i_long":106.86807400000001,"line":1,"is_transit":true,"transit":true,"station_name":"Jatinegara","station_id":"JNG","time":9,"distance":1236},{"i_lat":-6.212485,"i_long":106.858896,"station_id":"MTR","transit":false,"line":1,"distance":1377,"station_name":"Matraman","time":2,"is_transit":false},{"time":2,"i_long":106.84912,"is_transit":true,"line":2,"i_lat":-6.209883,"station_name":"Manggarai","station_id":"MRI","distance":1275,"transit":true},{"i_long":106.857948,"line":2,"is_transit":false,"i_lat":-6.226659,"time":4,"station_id":"TEB","station_name":"Tebet","distance":2610,"transit":false},{"time":2,"i_long":106.856607,"distance":1230,"station_id":"CW","line":2,"transit":false,"station_name":"Cawang","is_transit":false,"i_lat":-6.242512},{"station_name":"Duren Kalibata","distance":1546,"station_id":"DRN","i_lat":-6.255332,"line":2,"time":3,"transit":false,"i_long":106.85449,"is_transit":false},{"is_transit":false,"station_id":"PSMB","distance":824,"transit":false,"line":2,"i_lat":-6.263214,"i_long":106.851577,"time":2,"station_name":"Pasar Minggu Baru"},{"transit":false,"time":2,"i_lat":-6.2842400000000005,"i_long":106.843999,"is_transit":false,"line":2,"station_id":"PSM","distance":2380,"station_name":"Pasar Minggu"},{"station_name":"Tanjung Barat","station_id":"TNT","i_long":106.838896,"distance":2820,"time":4,"is_transit":false,"line":2,"transit":false,"i_lat":-6.3080680000000005},{"is_transit":false,"station_name":"Lenteng Agung","i_lat":-6.330363,"time":3,"line":2,"station_id":"LNA","distance":2671,"transit":false,"i_long":106.832616},{"line":2,"station_name":"Univ. Pancasila","distance":1029,"station_id":"UP","i_lat":-6.339291,"transit":false,"time":2,"is_transit":false,"i_long":106.834175},{"line":2,"station_name":"Univ. Indonesia","i_long":106.831474,"station_id":"UI","distance":2264,"i_lat":-6.360749,"transit":false,"is_transit":false,"time":3},{"distance":1109,"i_lat":-6.369073,"time":2,"station_name":"Pondok Cina","transit":false,"is_transit":false,"line":2,"i_long":106.831114,"station_id":"POC"},{"line":2,"time":4,"station_name":"Depokbaru","i_lat":-6.391065,"transit":false,"station_id":"DPB","i_long":106.819451,"is_transit":false,"distance":2727},{"station_name":"Depok","transit":false,"distance":1584,"station_id":"DP","line":2,"i_long":106.816926,"time":3,"i_lat":-6.405256,"is_transit":false},{"station_name":"Citayam","transit":true,"station_id":"CTA","is_transit":true,"time":6,"i_lat":-6.448811,"distance":5084,"i_long":106.800298,"line":2},{"transit":false,"i_long":106.824374,"station_id":"PDRG","distance":0,"is_transit":false,"station_name":"Pondok Rajeg","line":21,"time":0,"i_lat":-6.460735},{"line":21,"distance":0,"is_transit":false,"station_name":"Cibinong","station_id":"CBN","i_lat":-6.46424,"i_long":106.851978,"time":0,"transit":false}]]}