{"data":[[{"station_name":"Ancol","i_long":106.84464,"line":4,"time":0,"station_id":"AC","distance":0,"is_transit":false,"i_lat":-6.128023,"transit":false},{"is_transit":true,"i_lat":-6.132549,"time":4,"station_id":"KPB","i_long":106.826365,"station_name":"Kampung Bandan","transit":true,"distance":2185,"line":4},{"i_lat":-6.144674,"line":1,"station_id":"AK","transit":false,"time":9,"is_transit":false,"i_long":106.79867,"distance":4102,"station_name":"Angke"},{"line":1,"time":4,"is_transit":false,"station_id":"DU","station_name":"Duri","i_lat":-6.155215,"transit":false,"i_long":106.800832,"distance":1230},{"station_id":"THB","i_lat":-6.185545,"is_transit":false,"time":8,"distance":3632,"transit":false,"line":1,"i_long":106.811091,"station_name":"Tanah Abang"},{"i_long":106.816351,"line":1,"station_name":"Karet","i_lat":-6.20132,"transit":false,"distance":2029,"time":5,"is_transit":false,"station_id":"KAT"},{"station_id":"SUDB","line":1,"transit":false,"time":1,"station_name":"Sudirman Baru","is_transit":false,"distance":471,"i_lat":-6.201433,"i_long":106.819881},{"station_name":"Sudirman","time":1,"distance":280,"i_long":106.822649,"i_lat":-6.202263,"transit":false,"is_transit":false,"line":1,"station_id":"SUD"},{"distance":3186,"i_long":106.84912,"is_transit":true,"line":2,"time":4,"transit":true,"station_name":"Manggarai","station_id":"MRI","i_lat":-6.209883},{"station_id":"TEB","is_transit":false,"distance":2610,"station_name":"Tebet","transit":false,"i_lat":-6.226659,"line":2,"i_long":106.857948,"time":4},{"i_lat":-6.242512,"time":2,"transit":false,"station_id":"CW","station_name":"Cawang","is_transit":false,"line":2,"distance":1230,"i_long":106.856607},{"is_transit":false,"i_lat":-6.255332,"line":2,"transit":false,"time":3,"i_long":106.85449,"distance":1546,"station_id":"DRN","station_name":"Duren Kalibata"},{"i_lat":-6.263214,"line":2,"station_id":"PSMB","time":2,"is_transit":false,"distance":824,"i_long":106.851577,"transit":false,"station_name":"Pasar Minggu Baru"},{"time":2,"i_lat":-6.2842400000000005,"i_long":106.843999,"line":2,"station_id":"PSM","station_name":"Pasar Minggu","is_transit":false,"transit":false,"distance":2380},{"station_id":"TNT","distance":2820,"transit":false,"time":4,"station_name":"Tanjung Barat","is_transit":false,"i_lat":-6.3080680000000005,"i_long":106.838896,"line":2},{"time":3,"station_id":"LNA","transit":false,"i_lat":-6.330363,"distance":2671,"i_long":106.832616,"is_transit":false,"station_name":"Lenteng Agung","line":2},{"i_long":106.834175,"distance":1029,"i_lat":-6.339291,"time":2,"station_id":"UP","transit":false,"is_transit":false,"station_name":"Univ. Pancasila","line":2},{"station_name":"Univ. Indonesia","i_lat":-6.360749,"distance":2264,"transit":false,"is_transit":false,"time":3,"line":2,"i_long":106.831474,"station_id":"UI"},{"line":2,"is_transit":false,"time":2,"i_lat":-6.369073,"i_long":106.831114,"transit":false,"station_name":"Pondok Cina","distance":1109,"station_id":"POC"},{"i_long":106.819451,"is_transit":false,"time":4,"transit":false,"line":2,"station_id":"DPB","distance":2727,"station_name":"Depokbaru","i_lat":-6.391065},{"i_long":106.816926,"distance":1584,"time":3,"transit":false,"station_id":"DP","line":2,"i_lat":-6.405256,"station_name":"Depok","is_transit":false},{"distance":5084,"line":2,"time":6,"station_id":"CTA","i_long":106.800298,"station_name":"Citayam","transit":false,"is_transit":false,"i_lat":-6.448811}],[{"station_name":"Ancol","station_id":"AC","i_long":106.84464,"time":0,"is_transit":false,"i_lat":-6.128023,"distance":0,"line":4,"transit":false},{"line":4,"is_transit":true,"transit":true,"distance":2185,"station_name":"Kampung Bandan","i_lat":-6.132549,"time":4,"station_id":"KPB","i_long":106.826365},{"time":3,"transit":true,"is_transit":true,"station_name":"Jakarta Kota","station_id":"JAKK","distance":1364,"i_lat":-6.137569,"i_long":106.812439,"line":2},{"line":2,"transit":false,"station_id":"JAY","station_name":"Jayakarta","i_lat":-6.141205,"i_long":106.820901,"time":4,"distance":1264,"is_transit":false},{"transit":false,"station_name":"Manggabesar","i_lat":-6.149769,"station_id":"MGB","line":2,"time":2,"i_long":106.82482,"distance":1080,"is_transit":false},{"distance":906,"is_transit":false,"i_lat":-6.160725,"i_long":106.827103,"line":2,"station_id":"SW","station_name":"Sawah Besar","time":2,"transit":false},{"line":2,"i_lat":-6.166716,"distance":1149,"is_transit":false,"station_id":"JUA","i_long":106.828284,"transit":false,"station_name":"Juanda","time":2},{"station_id":"GDD","i_long":106.832183,"transit":false,"station_name":"Gondangdia","is_transit":false,"distance":2015,"time":4,"line":2,"i_lat":-6.186295},{"line":2,"is_transit":false,"i_lat":-6.198556,"distance":1750,"station_name":"Cikini","time":3,"transit":false,"station_id":"CKI","i_long":106.840169},{"is_transit":false,"station_id":"MRI","transit":false,"time":4,"i_lat":-6.209883,"line":2,"i_long":106.84912,"station_name":"Manggarai","distance":1590},{"transit":false,"station_name":"Tebet","i_lat":-6.226659,"time":4,"distance":2610,"station_id":"TEB","is_transit":false,"i_long":106.857948,"line":2},{"line":2,"is_transit":false,"transit":false,"station_name":"Cawang","station_id":"CW","i_long":106.856607,"distance":1230,"time":2,"i_lat":-6.242512},{"i_long":106.85449,"line":2,"station_name":"Duren Kalibata","i_lat":-6.255332,"time":3,"is_transit":false,"station_id":"DRN","distance":1546,"transit":false},{"is_transit":false,"station_id":"PSMB","time":2,"line":2,"i_lat":-6.263214,"i_long":106.851577,"transit":false,"station_name":"Pasar Minggu Baru","distance":824},{"transit":false,"is_transit":false,"i_long":106.843999,"time":2,"line":2,"distance":2380,"station_name":"Pasar Minggu","station_id":"PSM","i_lat":-6.2842400000000005},{"i_long":106.838896,"line":2,"transit":false,"station_id":"TNT","i_lat":-6.3080680000000005,"is_transit":false,"station_name":"Tanjung Barat","distance":2820,"time":4},{"transit":false,"i_lat":-6.330363,"station_id":"LNA","time":3,"i_long":106.832616,"distance":2671,"line":2,"station_name":"Lenteng Agung","is_transit":false},{"time":2,"station_id":"UP","distance":1029,"i_lat":-6.339291,"line":2,"is_transit":false,"transit":false,"i_long":106.834175,"station_name":"Univ. Pancasila"},{"station_name":"Univ. Indonesia","line":2,"distance":2264,"i_lat":-6.360749,"transit":false,"is_transit":false,"station_id":"UI","time":3,"i_long":106.831474},{"is_transit":false,"station_id":"POC","i_long":106.831114,"line":2,"time":2,"i_lat":-6.369073,"station_name":"Pondok Cina","transit":false,"distance":1109},{"i_long":106.819451,"station_name":"Depokbaru","is_transit":false,"station_id":"DPB","distance":2727,"line":2,"time":4,"i_lat":-6.391065,"transit":false},{"distance":1584,"i_long":106.816926,"time":3,"transit":false,"i_lat":-6.405256,"line":2,"is_transit":false,"station_id":"DP","station_name":"Depok"},{"time":6,"distance":5084,"station_name":"Citayam","station_id":"CTA","i_lat":-6.448811,"line":2,"transit":false,"i_long":106.800298,"is_transit":false}],[{"distance":0,"station_name":"Ancol","is_transit":false,"i_lat":-6.128023,"i_long":106.84464,"transit":false,"line":4,"station_id":"AC","time":0},{"station_id":"KPB","station_name":"Kampung Bandan","transit":true,"time":4,"i_long":106.826365,"is_transit":true,"line":4,"distance":2185,"i_lat":-6.132549},{"transit":false,"station_name":"Rajawali","station_id":"RJW","i_long":106.836569,"distance":1444,"i_lat":-6.14505,"line":11,"is_transit":false,"time":3},{"station_name":"Kemayoran","station_id":"KMO","is_transit":false,"distance":1901,"time":5,"i_lat":-6.161728,"line":11,"transit":false,"i_long":106.839204},{"station_name":"Pasar Senen","is_transit":false,"station_id":"PSE","i_lat":-6.174784,"i_long":106.84368,"line":11,"time":4,"distance":1436,"transit":false},{"i_long":106.850107,"time":8,"station_name":"Gang Sentiong","station_id":"GST","i_lat":-6.185975,"transit":false,"distance":1567,"is_transit":false,"line":11},{"station_name":"Kramat","distance":973,"is_transit":false,"i_long":106.855437,"transit":false,"station_id":"KMT","time":1,"i_lat":-6.193792,"line":11},{"transit":false,"is_transit":false,"i_long":106.861737,"i_lat":-6.209188,"distance":1829,"station_name":"Pondok Jati","line":11,"station_id":"POK","time":2},{"station_name":"Jatinegara","time":9,"i_long":106.86807400000001,"line":1,"is_transit":true,"distance":1236,"i_lat":-6.215091,"transit":true,"station_id":"JNG"},{"station_name":"Matraman","transit":false,"distance":1377,"time":2,"is_transit":false,"station_id":"MTR","i_lat":-6.212485,"line":1,"i_long":106.858896},{"transit":true,"is_transit":true,"station_id":"MRI","i_long":106.84912,"line":2,"distance":1275,"time":2,"station_name":"Manggarai","i_lat":-6.209883},{"is_transit":false,"station_id":"TEB","station_name":"Tebet","i_long":106.857948,"i_lat":-6.226659,"time":4,"transit":false,"line":2,"distance":2610},{"time":2,"station_id":"CW","is_transit":false,"station_name":"Cawang","i_lat":-6.242512,"i_long":106.856607,"distance":1230,"transit":false,"line":2},{"station_id":"DRN","distance":1546,"is_transit":false,"i_lat":-6.255332,"i_long":106.85449,"time":3,"line":2,"station_name":"Duren Kalibata","transit":false},{"transit":false,"i_long":106.851577,"station_id":"PSMB","station_name":"Pasar Minggu Baru","time":2,"line":2,"distance":824,"is_transit":false,"i_lat":-6.263214},{"i_lat":-6.2842400000000005,"transit":false,"line":2,"is_transit":false,"distance":2380,"station_id":"PSM","i_long":106.843999,"station_name":"Pasar Minggu","time":2},{"station_name":"Tanjung Barat","i_lat":-6.3080680000000005,"time":4,"distance":2820,"is_transit":false,"line":2,"transit":false,"station_id":"TNT","i_long":106.838896},{"distance":2671,"line":2,"station_name":"Lenteng Agung","transit":false,"i_long":106.832616,"is_transit":false,"i_lat":-6.330363,"time":3,"station_id":"LNA"},{"i_lat":-6.339291,"station_id":"UP","is_transit":false,"i_long":106.834175,"line":2,"station_name":"Univ. Pancasila","distance":1029,"transit":false,"time":2},{"i_long":106.831474,"is_transit":false,"transit":false,"distance":2264,"station_id":"UI","station_name":"Univ. Indonesia","i_lat":-6.360749,"time":3,"line":2},{"is_transit":false,"station_name":"Pondok Cina","distance":1109,"transit":false,"i_long":106.831114,"line":2,"station_id":"POC","time":2,"i_lat":-6.369073},{"i_lat":-6.391065,"station_name":"Depokbaru","time":4,"transit":false,"i_long":106.819451,"distance":2727,"is_transit":false,"station_id":"DPB","line":2},{"is_transit":false,"station_id":"DP","i_long":106.816926,"time":3,"transit":false,"station_name":"Depok","i_lat":-6.405256,"distance":1584,"line":2},{"station_id":"CTA","line":2,"transit":false,"station_name":"Citayam","time":6,"i_lat":-6.448811,"is_transit":false,"i_long":106.800298,"distance":5084}]]}