{"data":[[{"i_long":106.84464,"distance":0,"station_name":"Ancol","time":0,"i_lat":-6.128023,"station_id":"AC","transit":false,"line":0,"is_transit":false},{"transit":false,"i_long":106.826365,"station_id":"KPB","line":0,"i_lat":-6.132549,"is_transit":true,"distance":2185,"station_name":"Kampung Bandan","time":4},{"transit":false,"distance":4102,"line":0,"i_long":106.79867,"time":9,"station_name":"Angke","is_transit":false,"i_lat":-6.144674,"station_id":"AK"},{"time":4,"distance":1230,"line":1,"i_lat":-6.155215,"station_name":"Duri","transit":true,"i_long":106.800832,"station_id":"DU","is_transit":true},{"station_id":"THB","station_name":"Tanah Abang","is_transit":true,"distance":3632,"transit":false,"i_long":106.811091,"line":1,"time":8,"i_lat":-6.185545},{"line":1,"is_transit":false,"station_id":"KAT","distance":2029,"i_lat":-6.20132,"time":5,"transit":false,"station_name":"Karet","i_long":106.816351},{"time":1,"transit":false,"is_transit":false,"i_long":106.819881,"i_lat":-6.201433,"line":1,"station_id":"SUDB","distance":471,"station_name":"Sudirman Baru"},{"i_lat":-6.202263,"is_transit":false,"time":1,"station_name":"Sudirman","station_id":"SUD","transit":false,"i_long":106.822649,"distance":280,"line":1},{"line":0,"transit":true,"station_name":"Manggarai","time":4,"is_transit":true,"i_lat":-6.209883,"distance":3186,"station_id":"MRI","i_long":106.84912},{"is_transit":false,"transit":false,"time":4,"distance":2610,"i_lat":-6.226659,"line":2,"station_id":"TEB","station_name":"Tebet","i_long":106.857948},{"distance":1230,"station_name":"Cawang","i_lat":-6.242512,"is_transit":false,"line":0,"transit":false,"i_long":106.856607,"station_id":"CW","time":2},{"station_name":"Duren Kalibata","line":0,"is_transit":false,"distance":1546,"i_long":106.85449,"i_lat":-6.255332,"time":3,"transit":false,"station_id":"DRN"},{"transit":false,"i_lat":-6.263214,"line":2,"is_transit":false,"station_name":"Pasar Minggu Baru","i_long":106.851577,"time":2,"station_id":"PSMB","distance":824},{"is_transit":false,"i_lat":-6.2842400000000005,"line":2,"station_id":"PSM","time":2,"distance":2380,"station_name":"Pasar Minggu","transit":false,"i_long":106.843999},{"i_long":106.838896,"station_id":"TNT","distance":2820,"is_transit":false,"time":4,"station_name":"Tanjung Barat","transit":false,"i_lat":-6.3080680000000005,"line":2},{"line":2,"transit":false,"i_lat":-6.330363,"is_transit":false,"station_id":"LNA","time":3,"distance":2671,"i_long":106.832616,"station_name":"Lenteng Agung"},{"i_lat":-6.339291,"distance":1029,"time":2,"station_name":"Univ. Pancasila","transit":false,"i_long":106.834175,"station_id":"UP","is_transit":false,"line":2},{"line":2,"station_name":"Univ. Indonesia","distance":2264,"i_lat":-6.360749,"i_long":106.831474,"time":3,"transit":false,"station_id":"UI","is_transit":false},{"distance":1109,"i_long":106.831114,"station_name":"Pondok Cina","is_transit":false,"transit":false,"i_lat":-6.369073,"line":2,"time":2,"station_id":"POC"},{"i_lat":-6.391065,"station_id":"DPB","i_long":106.819451,"station_name":"Depokbaru","is_transit":false,"time":4,"distance":2727,"transit":false,"line":0},{"station_id":"DP","time":3,"distance":1584,"is_transit":false,"station_name":"Depok","i_long":106.816926,"line":0,"i_lat":-6.405256,"transit":false},{"distance":5084,"station_name":"Citayam","station_id":"CTA","is_transit":true,"i_lat":-6.448811,"i_long":106.800298,"transit":false,"line":1,"time":6}],[{"line":0,"i_lat":-6.128023,"i_long":106.84464,"station_name":"Ancol","transit":false,"is_transit":false,"distance":0,"station_id":"AC","time":0},{"is_transit":true,"time":4,"station_id":"KPB","line":0,"station_name":"Kampung Bandan","i_long":106.826365,"distance":2185,"transit":false,"i_lat":-6.132549},{"i_lat":-6.137569,"station_name":"Jakarta Kota","line":0,"time":3,"is_transit":true,"distance":1364,"station_id":"JAKK","transit":true,"i_long":106.812439},{"i_long":106.820901,"is_transit":false,"line":7,"distance":1264,"transit":false,"station_id":"JAY","time":4,"station_name":"Jayakarta","i_lat":-6.141205},{"station_name":"Manggabesar","time":2,"is_transit":false,"distance":1080,"station_id":"MGB","i_long":106.82482,"transit":false,"i_lat":-6.149769,"line":2},{"station_id":"SW","is_transit":false,"time":2,"line":2,"distance":906,"i_long":106.827103,"station_name":"Sawah Besar","i_lat":-6.160725,"transit":false},{"i_long":106.828284,"time":2,"i_lat":-6.166716,"line":2,"is_transit":false,"transit":false,"station_id":"JUA","distance":1149,"station_name":"Juanda"},{"time":4,"transit":false,"station_id":"GDD","i_lat":-6.186295,"station_name":"Gondangdia","distance":2015,"is_transit":false,"line":2,"i_long":106.832183},{"i_lat":-6.198556,"line":0,"is_transit":false,"distance":1750,"station_id":"CKI","transit":false,"time":3,"i_long":106.840169,"station_name":"Cikini"},{"line":0,"i_lat":-6.209883,"i_long":106.84912,"station_name":"Manggarai","is_transit":true,"transit":true,"time":4,"distance":1590,"station_id":"MRI"},{"i_long":106.857948,"station_name":"Tebet","station_id":"TEB","time":4,"transit":false,"i_lat":-6.226659,"distance":2610,"line":2,"is_transit":false},{"station_name":"Cawang","i_lat":-6.242512,"line":0,"i_long":106.856607,"transit":false,"station_id":"CW","is_transit":false,"time":2,"distance":1230},{"i_lat":-6.255332,"transit":false,"station_id":"DRN","is_transit":false,"distance":1546,"i_long":106.85449,"line":0,"time":3,"station_name":"Duren Kalibata"},{"i_lat":-6.263214,"transit":false,"time":2,"line":2,"distance":824,"is_transit":false,"station_id":"PSMB","i_long":106.851577,"station_name":"Pasar Minggu Baru"},{"line":2,"station_name":"Pasar Minggu","time":2,"station_id":"PSM","is_transit":false,"i_lat":-6.2842400000000005,"transit":false,"distance":2380,"i_long":106.843999},{"station_id":"TNT","is_transit":false,"line":2,"station_name":"Tanjung Barat","transit":false,"time":4,"i_lat":-6.3080680000000005,"i_long":106.838896,"distance":2820},{"station_name":"Lenteng Agung","line":2,"i_long":106.832616,"is_transit":false,"distance":2671,"transit":false,"i_lat":-6.330363,"time":3,"station_id":"LNA"},{"time":2,"distance":1029,"station_id":"UP","is_transit":false,"station_name":"Univ. Pancasila","i_long":106.834175,"line":2,"i_lat":-6.339291,"transit":false},{"station_id":"UI","transit":false,"distance":2264,"i_long":106.831474,"is_transit":false,"time":3,"i_lat":-6.360749,"station_name":"Univ. Indonesia","line":2},{"transit":false,"i_lat":-6.369073,"line":2,"distance":1109,"station_id":"POC","station_name":"Pondok Cina","time":2,"is_transit":false,"i_long":106.831114},{"station_id":"DPB","is_transit":false,"time":4,"transit":false,"i_lat":-6.391065,"station_name":"Depokbaru","i_long":106.819451,"distance":2727,"line":0},{"distance":1584,"is_transit":false,"i_lat":-6.405256,"station_id":"DP","transit":false,"station_name":"Depok","i_long":106.816926,"line":0,"time":3},{"i_lat":-6.448811,"time":6,"station_name":"Citayam","i_long":106.800298,"transit":false,"station_id":"CTA","is_transit":true,"line":1,"distance":5084}],[{"i_long":106.84464,"i_lat":-6.128023,"station_id":"AC","is_transit":false,"transit":false,"distance":0,"station_name":"Ancol","line":0,"time":0},{"transit":true,"station_name":"Kampung Bandan","i_long":106.826365,"distance":2185,"line":0,"is_transit":true,"time":4,"station_id":"KPB","i_lat":-6.132549},{"station_name":"Rajawali","station_id":"RJW","is_transit":false,"time":3,"i_lat":-6.14505,"line":11,"transit":false,"i_long":106.836569,"distance":1444},{"line":11,"station_id":"KMO","is_transit":false,"distance":1901,"station_name":"Kemayoran","transit":false,"i_lat":-6.161728,"i_long":106.839204,"time":5},{"station_id":"PSE","transit":false,"i_long":106.84368,"line":11,"time":4,"i_lat":-6.174784,"station_name":"Pasar Senen","is_transit":false,"distance":1436},{"transit":false,"line":11,"i_long":106.850107,"time":8,"station_name":"Gang Sentiong","is_transit":false,"station_id":"GST","i_lat":-6.185975,"distance":1567},{"is_transit":false,"station_name":"Kramat","i_long":106.855437,"line":11,"i_lat":-6.193792,"time":1,"distance":973,"transit":false,"station_id":"KMT"},{"i_long":106.861737,"station_id":"POK","time":2,"transit":false,"distance":1829,"i_lat":-6.209188,"is_transit":false,"line":11,"station_name":"Pondok Jati"},{"i_long":106.86807400000001,"station_name":"Jatinegara","transit":true,"distance":1236,"i_lat":-6.215091,"is_transit":true,"time":9,"station_id":"JNG","line":0},{"distance":1377,"time":2,"station_id":"MTR","is_transit":false,"line":1,"station_name":"Matraman","transit":false,"i_lat":-6.212485,"i_long":106.858896},{"station_name":"Manggarai","line":0,"distance":1275,"time":2,"is_transit":true,"i_long":106.84912,"station_id":"MRI","transit":true,"i_lat":-6.209883},{"i_long":106.857948,"line":2,"distance":2610,"station_name":"Tebet","transit":false,"time":4,"is_transit":false,"station_id":"TEB","i_lat":-6.226659},{"station_id":"CW","distance":1230,"transit":false,"i_long":106.856607,"time":2,"i_lat":-6.242512,"station_name":"Cawang","is_transit":false,"line":0},{"transit":false,"line":0,"is_transit":false,"i_long":106.85449,"time":3,"station_id":"DRN","station_name":"Duren Kalibata","i_lat":-6.255332,"distance":1546},{"i_long":106.851577,"is_transit":false,"line":2,"station_id":"PSMB","station_name":"Pasar Minggu Baru","time":2,"distance":824,"transit":false,"i_lat":-6.263214},{"station_name":"Pasar Minggu","line":2,"time":2,"transit":false,"station_id":"PSM","is_transit":false,"distance":2380,"i_lat":-6.2842400000000005,"i_long":106.843999},{"station_name":"Tanjung Barat","distance":2820,"i_lat":-6.3080680000000005,"time":4,"i_long":106.838896,"station_id":"TNT","line":2,"transit":false,"is_transit":false},{"transit":false,"i_lat":-6.330363,"is_transit":false,"distance":2671,"station_name":"Lenteng Agung","time":3,"line":2,"i_long":106.832616,"station_id":"LNA"},{"station_name":"Univ. Pancasila","line":2,"station_id":"UP","transit":false,"is_transit":false,"time":2,"distance":1029,"i_long":106.834175,"i_lat":-6.339291},{"station_id":"UI","is_transit":false,"i_lat":-6.360749,"i_long":106.831474,"station_name":"Univ. Indonesia","transit":false,"distance":2264,"line":2,"time":3},{"is_transit":false,"i_lat":-6.369073,"line":2,"time":2,"i_long":106.831114,"station_name":"Pondok Cina","station_id":"POC","transit":false,"distance":1109},{"station_id":"DPB","is_transit":false,"transit":false,"i_long":106.819451,"time":4,"line":0,"distance":2727,"station_name":"Depokbaru","i_lat":-6.391065},{"line":0,"station_id":"DP","time":3,"i_long":106.816926,"is_transit":false,"transit":false,"station_name":"Depok","i_lat":-6.405256,"distance":1584},{"i_lat":-6.448811,"transit":false,"distance":5084,"time":6,"is_transit":true,"i_long":106.800298,"station_id":"CTA","line":1,"station_name":"Citayam"}]]}