{"data":[[{"i_long":106.84464,"transit":false,"line":0,"station_name":"Ancol","station_id":"AC","is_transit":false,"distance":0,"i_lat":-6.128023,"time":0},{"station_id":"KPB","station_name":"Kampung Bandan","time":4,"line":0,"is_transit":true,"i_long":106.826365,"transit":false,"distance":2185,"i_lat":-6.132549},{"is_transit":false,"station_id":"AK","i_long":106.79867,"transit":false,"time":9,"line":0,"station_name":"Angke","distance":4102,"i_lat":-6.144674},{"i_lat":-6.155215,"i_long":106.800832,"station_name":"Duri","station_id":"DU","line":1,"is_transit":true,"time":4,"distance":1230,"transit":true},{"line":1,"is_transit":true,"distance":3632,"time":8,"i_lat":-6.185545,"i_long":106.811091,"station_name":"Tanah Abang","station_id":"THB","transit":false},{"is_transit":false,"i_lat":-6.20132,"line":1,"transit":false,"station_id":"KAT","station_name":"Karet","time":5,"distance":2029,"i_long":106.816351},{"line":1,"station_id":"SUDB","i_lat":-6.201433,"station_name":"Sudirman Baru","distance":471,"i_long":106.819881,"transit":false,"is_transit":false,"time":1},{"line":1,"station_id":"SUD","distance":280,"time":1,"i_long":106.822649,"transit":false,"is_transit":false,"station_name":"Sudirman","i_lat":-6.202263},{"distance":3186,"i_long":106.84912,"station_id":"MRI","time":4,"line":0,"transit":true,"is_transit":true,"i_lat":-6.209883,"station_name":"Manggarai"},{"i_long":106.857948,"transit":false,"time":4,"line":2,"station_id":"TEB","station_name":"Tebet","i_lat":-6.226659,"is_transit":false,"distance":2610},{"distance":1230,"station_id":"CW","station_name":"Cawang","transit":false,"is_transit":false,"line":0,"time":2,"i_long":106.856607,"i_lat":-6.242512}],[{"line":0,"i_long":106.84464,"time":0,"station_id":"AC","is_transit":false,"station_name":"Ancol","transit":false,"i_lat":-6.128023,"distance":0},{"transit":false,"is_transit":true,"i_lat":-6.132549,"i_long":106.826365,"station_id":"KPB","distance":2185,"time":4,"line":0,"station_name":"Kampung Bandan"},{"i_long":106.812439,"time":3,"is_transit":true,"line":0,"i_lat":-6.137569,"transit":true,"station_id":"JAKK","distance":1364,"station_name":"Jakarta Kota"},{"i_lat":-6.141205,"line":7,"station_name":"Jayakarta","station_id":"JAY","distance":1264,"transit":false,"time":4,"i_long":106.820901,"is_transit":false},{"distance":1080,"station_name":"Manggabesar","time":2,"transit":false,"i_long":106.82482,"is_transit":false,"line":2,"i_lat":-6.149769,"station_id":"MGB"},{"is_transit":false,"station_id":"SW","i_lat":-6.160725,"line":2,"time":2,"station_name":"Sawah Besar","i_long":106.827103,"transit":false,"distance":906},{"distance":1149,"transit":false,"i_long":106.828284,"line":2,"is_transit":false,"i_lat":-6.166716,"time":2,"station_name":"Juanda","station_id":"JUA"},{"station_name":"Gondangdia","is_transit":false,"station_id":"GDD","line":2,"time":4,"transit":false,"i_lat":-6.186295,"i_long":106.832183,"distance":2015},{"station_name":"Cikini","station_id":"CKI","transit":false,"i_lat":-6.198556,"time":3,"distance":1750,"line":0,"i_long":106.840169,"is_transit":false},{"transit":true,"line":0,"station_id":"MRI","is_transit":true,"time":4,"distance":1590,"i_lat":-6.209883,"i_long":106.84912,"station_name":"Manggarai"},{"time":4,"station_name":"Tebet","distance":2610,"line":2,"station_id":"TEB","i_lat":-6.226659,"i_long":106.857948,"is_transit":false,"transit":false},{"transit":false,"distance":1230,"station_id":"CW","i_lat":-6.242512,"i_long":106.856607,"is_transit":false,"station_name":"Cawang","time":2,"line":0}],[{"i_long":106.84464,"transit":false,"station_id":"AC","line":0,"time":0,"distance":0,"is_transit":false,"station_name":"Ancol","i_lat":-6.128023},{"time":4,"distance":2185,"i_long":106.826365,"line":0,"station_name":"Kampung Bandan","station_id":"KPB","transit":true,"is_transit":true,"i_lat":-6.132549},{"line":11,"is_transit":false,"station_name":"Rajawali","time":3,"distance":1444,"i_long":106.836569,"i_lat":-6.14505,"transit":false,"station_id":"RJW"},{"station_name":"Kemayoran","station_id":"KMO","is_transit":false,"time":5,"distance":1901,"i_long":106.839204,"transit":false,"i_lat":-6.161728,"line":11},{"transit":false,"i_long":106.84368,"line":11,"distance":1436,"station_id":"PSE","station_name":"Pasar Senen","is_transit":false,"i_lat":-6.174784,"time":4},{"i_long":106.850107,"station_id":"GST","line":11,"is_transit":false,"i_lat":-6.185975,"time":8,"distance":1567,"station_name":"Gang Sentiong","transit":false},{"line":11,"i_long":106.855437,"transit":false,"station_name":"Kramat","distance":973,"i_lat":-6.193792,"station_id":"KMT","time":1,"is_transit":false},{"i_lat":-6.209188,"line":11,"transit":false,"station_name":"Pondok Jati","is_transit":false,"time":2,"distance":1829,"i_long":106.861737,"station_id":"POK"},{"distance":1236,"time":9,"i_long":106.86807400000001,"line":0,"transit":true,"i_lat":-6.215091,"station_id":"JNG","station_name":"Jatinegara","is_transit":true},{"time":2,"station_name":"Matraman","is_transit":false,"distance":1377,"transit":false,"station_id":"MTR","i_long":106.858896,"i_lat":-6.212485,"line":1},{"i_lat":-6.209883,"i_long":106.84912,"station_name":"Manggarai","is_transit":true,"time":2,"transit":true,"station_id":"MRI","line":0,"distance":1275},{"transit":false,"station_id":"TEB","station_name":"Tebet","distance":2610,"is_transit":false,"i_long":106.857948,"line":2,"i_lat":-6.226659,"time":4},{"line":0,"time":2,"station_id":"CW","i_long":106.856607,"station_name":"Cawang","i_lat":-6.242512,"transit":false,"is_transit":false,"distance":1230}]]}