{"data":[[{"distance":0,"line":4,"is_transit":false,"station_name":"Ancol","station_id":"AC","i_lat":-6.128023,"i_long":106.84464,"transit":false,"time":0},{"i_long":106.826365,"station_name":"Kampung Bandan","is_transit":true,"station_id":"KPB","distance":2185,"time":4,"i_lat":-6.132549,"transit":true,"line":4},{"i_lat":-6.144674,"transit":false,"time":9,"i_long":106.79867,"station_name":"Angke","station_id":"AK","distance":4102,"line":1,"is_transit":false},{"i_long":106.800832,"distance":1230,"line":1,"is_transit":false,"station_id":"DU","transit":false,"station_name":"Duri","i_lat":-6.155215,"time":4},{"is_transit":false,"station_id":"THB","time":8,"station_name":"Tanah Abang","i_long":106.811091,"i_lat":-6.185545,"distance":3632,"line":1,"transit":false},{"transit":false,"distance":2029,"time":5,"station_id":"KAT","i_long":106.816351,"is_transit":false,"station_name":"Karet","i_lat":-6.20132,"line":1},{"i_lat":-6.201433,"is_transit":false,"time":1,"i_long":106.819881,"line":1,"transit":false,"station_name":"Sudirman Baru","distance":471,"station_id":"SUDB"},{"time":1,"distance":280,"i_lat":-6.202263,"line":1,"station_name":"Sudirman","transit":false,"station_id":"SUD","is_transit":false,"i_long":106.822649},{"station_name":"Manggarai","station_id":"MRI","transit":true,"line":2,"time":4,"i_long":106.84912,"i_lat":-6.209883,"distance":3186,"is_transit":true},{"time":4,"is_transit":false,"station_id":"TEB","i_lat":-6.226659,"transit":false,"distance":2610,"i_long":106.857948,"line":2,"station_name":"Tebet"},{"is_transit":false,"line":2,"time":2,"transit":false,"station_name":"Cawang","station_id":"CW","distance":1230,"i_lat":-6.242512,"i_long":106.856607}],[{"station_name":"Ancol","i_lat":-6.128023,"station_id":"AC","distance":0,"i_long":106.84464,"is_transit":false,"line":4,"transit":false,"time":0},{"is_transit":true,"i_lat":-6.132549,"distance":2185,"station_id":"KPB","i_long":106.826365,"time":4,"line":4,"transit":true,"station_name":"Kampung Bandan"},{"i_lat":-6.137569,"line":2,"is_transit":true,"transit":true,"i_long":106.812439,"station_name":"Jakarta Kota","station_id":"JAKK","time":3,"distance":1364},{"station_id":"JAY","is_transit":false,"i_lat":-6.141205,"transit":false,"station_name":"Jayakarta","distance":1264,"line":2,"time":4,"i_long":106.820901},{"transit":false,"distance":1080,"station_id":"MGB","station_name":"Manggabesar","line":2,"i_lat":-6.149769,"i_long":106.82482,"is_transit":false,"time":2},{"line":2,"i_lat":-6.160725,"distance":906,"station_name":"Sawah Besar","is_transit":false,"station_id":"SW","transit":false,"time":2,"i_long":106.827103},{"station_name":"Juanda","transit":false,"is_transit":false,"distance":1149,"time":2,"line":2,"i_lat":-6.166716,"i_long":106.828284,"station_id":"JUA"},{"station_name":"Gondangdia","time":4,"transit":false,"is_transit":false,"i_long":106.832183,"i_lat":-6.186295,"distance":2015,"station_id":"GDD","line":2},{"i_lat":-6.198556,"time":3,"transit":false,"is_transit":false,"line":2,"station_name":"Cikini","station_id":"CKI","distance":1750,"i_long":106.840169},{"station_name":"Manggarai","line":2,"is_transit":false,"i_lat":-6.209883,"station_id":"MRI","distance":1590,"time":4,"i_long":106.84912,"transit":false},{"i_lat":-6.226659,"time":4,"station_name":"Tebet","i_long":106.857948,"distance":2610,"station_id":"TEB","transit":false,"is_transit":false,"line":2},{"is_transit":false,"station_name":"Cawang","transit":false,"station_id":"CW","time":2,"distance":1230,"i_lat":-6.242512,"i_long":106.856607,"line":2}],[{"i_long":106.84464,"line":4,"station_name":"Ancol","transit":false,"is_transit":false,"i_lat":-6.128023,"distance":0,"station_id":"AC","time":0},{"transit":true,"line":4,"is_transit":true,"time":4,"distance":2185,"station_name":"Kampung Bandan","i_long":106.826365,"i_lat":-6.132549,"station_id":"KPB"},{"distance":1444,"time":3,"i_lat":-6.14505,"transit":false,"line":11,"station_name":"Rajawali","is_transit":false,"station_id":"RJW","i_long":106.836569},{"transit":false,"i_long":106.839204,"is_transit":false,"time":5,"station_id":"KMO","line":11,"station_name":"Kemayoran","distance":1901,"i_lat":-6.161728},{"station_name":"Pasar Senen","i_long":106.84368,"transit":false,"i_lat":-6.174784,"distance":1436,"station_id":"PSE","line":11,"is_transit":false,"time":4},{"transit":false,"station_name":"Gang Sentiong","time":8,"i_long":106.850107,"is_transit":false,"station_id":"GST","distance":1567,"i_lat":-6.185975,"line":11},{"station_name":"Kramat","i_long":106.855437,"station_id":"KMT","line":11,"is_transit":false,"time":1,"transit":false,"i_lat":-6.193792,"distance":973},{"time":2,"line":11,"station_id":"POK","distance":1829,"i_long":106.861737,"i_lat":-6.209188,"transit":false,"station_name":"Pondok Jati","is_transit":false},{"distance":1236,"station_id":"JNG","i_lat":-6.215091,"i_long":106.86807400000001,"transit":true,"is_transit":true,"time":9,"station_name":"Jatinegara","line":1},{"i_lat":-6.212485,"distance":1377,"station_name":"Matraman","station_id":"MTR","transit":false,"time":2,"i_long":106.858896,"line":1,"is_transit":false},{"i_lat":-6.209883,"time":2,"station_id":"MRI","transit":true,"i_long":106.84912,"is_transit":true,"line":2,"station_name":"Manggarai","distance":1275},{"distance":2610,"line":2,"station_name":"Tebet","transit":false,"time":4,"i_lat":-6.226659,"station_id":"TEB","i_long":106.857948,"is_transit":false},{"time":2,"line":2,"station_name":"Cawang","station_id":"CW","is_transit":false,"i_long":106.856607,"transit":false,"distance":1230,"i_lat":-6.242512}]]}