{"data":[[{"is_transit":false,"station_name":"Ancol","station_id":"AC","transit":false,"i_lat":-6.128023,"i_long":106.84464,"line":4,"distance":0,"time":0},{"i_long":106.826365,"i_lat":-6.132549,"line":4,"is_transit":true,"station_name":"Kampung Bandan","distance":2185,"time":4,"station_id":"KPB","transit":true},{"station_id":"AK","i_lat":-6.144674,"distance":4102,"transit":false,"i_long":106.79867,"line":1,"station_name":"Angke","is_transit":false,"time":9},{"i_lat":-6.155215,"distance":1230,"station_name":"Duri","time":4,"station_id":"DU","is_transit":false,"transit":false,"line":1,"i_long":106.800832},{"distance":3632,"station_name":"Tanah Abang","time":8,"station_id":"THB","transit":false,"i_long":106.811091,"line":1,"is_transit":false,"i_lat":-6.185545},{"station_name":"Karet","time":5,"transit":false,"is_transit":false,"distance":2029,"i_long":106.816351,"line":1,"station_id":"KAT","i_lat":-6.20132},{"station_id":"SUDB","transit":false,"station_name":"Sudirman Baru","i_lat":-6.201433,"i_long":106.819881,"line":1,"distance":471,"is_transit":false,"time":1},{"distance":280,"i_lat":-6.202263,"i_long":106.822649,"transit":false,"is_transit":false,"station_id":"SUD","line":1,"time":1,"station_name":"Sudirman"},{"i_lat":-6.209883,"i_long":106.84912,"line":2,"distance":3186,"station_name":"Manggarai","station_id":"MRI","is_transit":true,"time":4,"transit":true},{"line":2,"station_id":"TEB","distance":2610,"time":4,"transit":false,"i_long":106.857948,"station_name":"Tebet","is_transit":false,"i_lat":-6.226659},{"station_id":"CW","station_name":"Cawang","distance":1230,"line":2,"i_lat":-6.242512,"time":2,"is_transit":false,"transit":false,"i_long":106.856607},{"i_lat":-6.255332,"line":2,"distance":1546,"is_transit":false,"time":3,"transit":false,"i_long":106.85449,"station_name":"Duren Kalibata","station_id":"DRN"},{"station_id":"PSMB","i_lat":-6.263214,"i_long":106.851577,"distance":824,"transit":false,"station_name":"Pasar Minggu Baru","line":2,"is_transit":false,"time":2},{"station_name":"Pasar Minggu","is_transit":false,"i_lat":-6.2842400000000005,"transit":false,"time":2,"line":2,"i_long":106.843999,"station_id":"PSM","distance":2380},{"station_id":"TNT","i_lat":-6.3080680000000005,"i_long":106.838896,"transit":false,"line":2,"time":4,"distance":2820,"station_name":"Tanjung Barat","is_transit":false},{"is_transit":false,"i_long":106.832616,"i_lat":-6.330363,"time":3,"station_id":"LNA","line":2,"distance":2671,"transit":false,"station_name":"Lenteng Agung"},{"station_id":"UP","station_name":"Univ. Pancasila","distance":1029,"is_transit":false,"transit":false,"i_lat":-6.339291,"time":2,"i_long":106.834175,"line":2},{"station_name":"Univ. Indonesia","distance":2264,"station_id":"UI","time":3,"line":2,"transit":false,"i_lat":-6.360749,"is_transit":false,"i_long":106.831474},{"i_long":106.831114,"i_lat":-6.369073,"station_name":"Pondok Cina","time":2,"is_transit":false,"distance":1109,"station_id":"POC","line":2,"transit":false},{"station_id":"DPB","i_lat":-6.391065,"transit":false,"station_name":"Depokbaru","i_long":106.819451,"distance":2727,"time":4,"line":2,"is_transit":false},{"line":2,"i_lat":-6.405256,"station_id":"DP","transit":false,"time":3,"distance":1584,"i_long":106.816926,"station_name":"Depok","is_transit":false},{"i_long":106.800298,"line":2,"station_name":"Citayam","distance":5084,"station_id":"CTA","transit":false,"is_transit":false,"i_lat":-6.448811,"time":6}],[{"station_name":"Ancol","is_transit":false,"line":4,"time":0,"station_id":"AC","distance":0,"transit":false,"i_lat":-6.128023,"i_long":106.84464},{"is_transit":true,"station_name":"Kampung Bandan","distance":2185,"line":4,"i_lat":-6.132549,"station_id":"KPB","transit":true,"time":4,"i_long":106.826365},{"station_name":"Jakarta Kota","line":2,"station_id":"JAKK","transit":true,"time":3,"distance":1364,"i_lat":-6.137569,"is_transit":true,"i_long":106.812439},{"i_lat":-6.141205,"i_long":106.820901,"line":2,"transit":false,"station_id":"JAY","is_transit":false,"time":4,"distance":1264,"station_name":"Jayakarta"},{"is_transit":false,"transit":false,"i_lat":-6.149769,"i_long":106.82482,"distance":1080,"time":2,"station_id":"MGB","station_name":"Manggabesar","line":2},{"is_transit":false,"time":2,"distance":906,"i_lat":-6.160725,"i_long":106.827103,"station_id":"SW","transit":false,"station_name":"Sawah Besar","line":2},{"line":2,"transit":false,"distance":1149,"station_name":"Juanda","time":2,"is_transit":false,"station_id":"JUA","i_lat":-6.166716,"i_long":106.828284},{"distance":2015,"station_name":"Gondangdia","is_transit":false,"time":4,"i_long":106.832183,"line":2,"transit":false,"i_lat":-6.186295,"station_id":"GDD"},{"station_id":"CKI","time":3,"is_transit":false,"distance":1750,"station_name":"Cikini","i_lat":-6.198556,"i_long":106.840169,"line":2,"transit":false},{"station_id":"MRI","time":4,"distance":1590,"i_lat":-6.209883,"i_long":106.84912,"line":2,"station_name":"Manggarai","transit":false,"is_transit":false},{"distance":2610,"transit":false,"line":2,"station_id":"TEB","i_lat":-6.226659,"i_long":106.857948,"station_name":"Tebet","time":4,"is_transit":false},{"transit":false,"is_transit":false,"line":2,"station_id":"CW","i_lat":-6.242512,"distance":1230,"time":2,"i_long":106.856607,"station_name":"Cawang"},{"station_id":"DRN","line":2,"i_long":106.85449,"is_transit":false,"transit":false,"distance":1546,"i_lat":-6.255332,"station_name":"Duren Kalibata","time":3},{"transit":false,"distance":824,"station_id":"PSMB","station_name":"Pasar Minggu Baru","line":2,"i_long":106.851577,"time":2,"is_transit":false,"i_lat":-6.263214},{"is_transit":false,"station_name":"Pasar Minggu","distance":2380,"i_lat":-6.2842400000000005,"station_id":"PSM","line":2,"i_long":106.843999,"transit":false,"time":2},{"i_long":106.838896,"station_name":"Tanjung Barat","i_lat":-6.3080680000000005,"transit":false,"station_id":"TNT","time":4,"line":2,"distance":2820,"is_transit":false},{"station_name":"Lenteng Agung","is_transit":false,"time":3,"i_lat":-6.330363,"i_long":106.832616,"line":2,"distance":2671,"transit":false,"station_id":"LNA"},{"distance":1029,"station_id":"UP","i_lat":-6.339291,"time":2,"transit":false,"i_long":106.834175,"station_name":"Univ. Pancasila","is_transit":false,"line":2},{"distance":2264,"station_name":"Univ. Indonesia","transit":false,"time":3,"is_transit":false,"i_long":106.831474,"line":2,"i_lat":-6.360749,"station_id":"UI"},{"i_lat":-6.369073,"transit":false,"station_name":"Pondok Cina","time":2,"station_id":"POC","distance":1109,"is_transit":false,"i_long":106.831114,"line":2},{"time":4,"i_lat":-6.391065,"line":2,"station_id":"DPB","transit":false,"distance":2727,"i_long":106.819451,"station_name":"Depokbaru","is_transit":false},{"time":3,"station_id":"DP","is_transit":false,"distance":1584,"station_name":"Depok","i_lat":-6.405256,"transit":false,"line":2,"i_long":106.816926},{"is_transit":false,"i_long":106.800298,"distance":5084,"station_name":"Citayam","time":6,"station_id":"CTA","transit":false,"i_lat":-6.448811,"line":2}],[{"station_name":"Ancol","distance":0,"transit":false,"time":0,"i_lat":-6.128023,"station_id":"AC","line":4,"i_long":106.84464,"is_transit":false},{"time":4,"is_transit":true,"transit":true,"i_lat":-6.132549,"station_name":"Kampung Bandan","i_long":106.826365,"distance":2185,"line":4,"station_id":"KPB"},{"station_name":"Rajawali","i_long":106.836569,"time":3,"station_id":"RJW","line":11,"transit":false,"is_transit":false,"i_lat":-6.14505,"distance":1444},{"station_id":"KMO","time":5,"line":11,"is_transit":false,"station_name":"Kemayoran","transit":false,"i_lat":-6.161728,"distance":1901,"i_long":106.839204},{"time":4,"distance":1436,"transit":false,"station_id":"PSE","i_long":106.84368,"station_name":"Pasar Senen","is_transit":false,"i_lat":-6.174784,"line":11},{"station_name":"Gang Sentiong","station_id":"GST","time":8,"line":11,"i_long":106.850107,"transit":false,"is_transit":false,"i_lat":-6.185975,"distance":1567},{"time":1,"station_name":"Kramat","station_id":"KMT","is_transit":false,"transit":false,"i_lat":-6.193792,"distance":973,"i_long":106.855437,"line":11},{"line":11,"station_id":"POK","i_lat":-6.209188,"transit":false,"i_long":106.861737,"distance":1829,"time":2,"station_name":"Pondok Jati","is_transit":false},{"distance":1236,"line":1,"i_long":106.86807400000001,"i_lat":-6.215091,"station_name":"Jatinegara","station_id":"JNG","is_transit":true,"time":9,"transit":true},{"station_id":"MTR","i_lat":-6.212485,"station_name":"Matraman","line":1,"distance":1377,"time":2,"transit":false,"is_transit":false,"i_long":106.858896},{"station_id":"MRI","i_lat":-6.209883,"station_name":"Manggarai","line":2,"distance":1275,"i_long":106.84912,"transit":true,"is_transit":true,"time":2},{"line":2,"station_name":"Tebet","station_id":"TEB","is_transit":false,"i_lat":-6.226659,"i_long":106.857948,"transit":false,"time":4,"distance":2610},{"i_lat":-6.242512,"line":2,"time":2,"station_id":"CW","station_name":"Cawang","i_long":106.856607,"transit":false,"is_transit":false,"distance":1230},{"i_long":106.85449,"line":2,"i_lat":-6.255332,"station_id":"DRN","time":3,"distance":1546,"is_transit":false,"station_name":"Duren Kalibata","transit":false},{"i_lat":-6.263214,"time":2,"distance":824,"station_id":"PSMB","transit":false,"is_transit":false,"line":2,"i_long":106.851577,"station_name":"Pasar Minggu Baru"},{"is_transit":false,"station_name":"Pasar Minggu","station_id":"PSM","i_lat":-6.2842400000000005,"i_long":106.843999,"line":2,"time":2,"distance":2380,"transit":false},{"i_lat":-6.3080680000000005,"time":4,"station_id":"TNT","i_long":106.838896,"distance":2820,"station_name":"Tanjung Barat","is_transit":false,"transit":false,"line":2},{"is_transit":false,"station_name":"Lenteng Agung","time":3,"i_long":106.832616,"station_id":"LNA","i_lat":-6.330363,"distance":2671,"transit":false,"line":2},{"station_name":"Univ. Pancasila","transit":false,"time":2,"station_id":"UP","line":2,"i_long":106.834175,"distance":1029,"is_transit":false,"i_lat":-6.339291},{"station_id":"UI","line":2,"transit":false,"time":3,"distance":2264,"i_long":106.831474,"i_lat":-6.360749,"station_name":"Univ. Indonesia","is_transit":false},{"station_name":"Pondok Cina","distance":1109,"transit":false,"is_transit":false,"i_lat":-6.369073,"station_id":"POC","time":2,"i_long":106.831114,"line":2},{"station_id":"DPB","distance":2727,"i_long":106.819451,"is_transit":false,"i_lat":-6.391065,"station_name":"Depokbaru","time":4,"transit":false,"line":2},{"time":3,"station_id":"DP","distance":1584,"line":2,"i_lat":-6.405256,"station_name":"Depok","i_long":106.816926,"is_transit":false,"transit":false},{"station_id":"CTA","i_long":106.800298,"line":2,"station_name":"Citayam","time":6,"transit":false,"distance":5084,"i_lat":-6.448811,"is_transit":false}]]}