{"data":[[{"line":4,"distance":0,"transit":false,"station_name":"Ancol","time":0,"is_transit":false,"station_id":"AC","i_lat":-6.128023,"i_long":106.84464},{"distance":2185,"station_name":"Kampung Bandan","is_transit":true,"time":4,"i_long":106.826365,"line":4,"transit":true,"i_lat":-6.132549,"station_id":"KPB"},{"transit":false,"is_transit":false,"distance":4102,"time":9,"station_name":"Angke","i_lat":-6.144674,"i_long":106.79867,"line":1,"station_id":"AK"},{"station_id":"DU","time":4,"distance":1230,"i_lat":-6.155215,"i_long":106.800832,"line":1,"station_name":"Duri","transit":false,"is_transit":false},{"distance":3632,"transit":false,"line":1,"station_id":"THB","i_lat":-6.185545,"i_long":106.811091,"station_name":"Tanah Abang","time":8,"is_transit":false},{"transit":false,"is_transit":false,"line":1,"station_id":"KAT","i_lat":-6.20132,"distance":2029,"time":5,"i_long":106.816351,"station_name":"Karet"},{"station_id":"SUDB","line":1,"i_long":106.819881,"is_transit":false,"distance":471,"transit":false,"i_lat":-6.201433,"station_name":"Sudirman Baru","time":1},{"distance":280,"transit":false,"station_id":"SUD","station_name":"Sudirman","line":1,"i_long":106.822649,"time":1,"is_transit":false,"i_lat":-6.202263},{"is_transit":true,"station_name":"Manggarai","distance":3186,"i_lat":-6.209883,"station_id":"MRI","line":2,"i_long":106.84912,"transit":true,"time":4},{"i_long":106.857948,"station_name":"Tebet","i_lat":-6.226659,"station_id":"TEB","transit":false,"time":4,"line":2,"distance":2610,"is_transit":false},{"station_name":"Cawang","station_id":"CW","time":2,"i_lat":-6.242512,"i_long":106.856607,"line":2,"distance":1230,"transit":false,"is_transit":false}],[{"distance":0,"station_id":"AC","i_lat":-6.128023,"time":0,"transit":false,"i_long":106.84464,"station_name":"Ancol","is_transit":false,"line":4},{"station_name":"Kampung Bandan","distance":2185,"transit":true,"time":4,"is_transit":true,"i_long":106.826365,"line":4,"i_lat":-6.132549,"station_id":"KPB"},{"i_lat":-6.137569,"transit":true,"station_name":"Jakarta Kota","time":3,"station_id":"JAKK","distance":1364,"is_transit":true,"i_long":106.812439,"line":2},{"time":4,"i_lat":-6.141205,"line":2,"station_id":"JAY","transit":false,"distance":1264,"i_long":106.820901,"station_name":"Jayakarta","is_transit":false},{"time":2,"station_id":"MGB","is_transit":false,"distance":1080,"station_name":"Manggabesar","i_lat":-6.149769,"transit":false,"line":2,"i_long":106.82482},{"is_transit":false,"i_long":106.827103,"distance":906,"station_name":"Sawah Besar","time":2,"station_id":"SW","transit":false,"i_lat":-6.160725,"line":2},{"station_name":"Juanda","distance":1149,"transit":false,"time":2,"i_lat":-6.166716,"station_id":"JUA","line":2,"i_long":106.828284,"is_transit":false},{"time":4,"is_transit":false,"transit":false,"i_lat":-6.186295,"station_name":"Gondangdia","i_long":106.832183,"distance":2015,"line":2,"station_id":"GDD"},{"station_name":"Cikini","i_long":106.840169,"time":3,"station_id":"CKI","line":2,"transit":false,"is_transit":false,"i_lat":-6.198556,"distance":1750},{"i_long":106.84912,"i_lat":-6.209883,"line":2,"is_transit":false,"station_name":"Manggarai","distance":1590,"time":4,"station_id":"MRI","transit":false},{"station_id":"TEB","i_lat":-6.226659,"distance":2610,"transit":false,"i_long":106.857948,"line":2,"station_name":"Tebet","is_transit":false,"time":4},{"i_lat":-6.242512,"distance":1230,"station_name":"Cawang","time":2,"station_id":"CW","is_transit":false,"transit":false,"line":2,"i_long":106.856607}],[{"distance":0,"station_name":"Ancol","time":0,"station_id":"AC","transit":false,"i_long":106.84464,"line":4,"is_transit":false,"i_lat":-6.128023},{"station_name":"Kampung Bandan","time":4,"transit":true,"is_transit":true,"distance":2185,"i_long":106.826365,"line":4,"station_id":"KPB","i_lat":-6.132549},{"station_id":"RJW","transit":false,"station_name":"Rajawali","i_lat":-6.14505,"i_long":106.836569,"line":11,"distance":1444,"is_transit":false,"time":3},{"distance":1901,"i_lat":-6.161728,"i_long":106.839204,"transit":false,"is_transit":false,"station_id":"KMO","line":11,"time":5,"station_name":"Kemayoran"},{"i_lat":-6.174784,"i_long":106.84368,"line":11,"distance":1436,"station_name":"Pasar Senen","station_id":"PSE","is_transit":false,"time":4,"transit":false},{"line":11,"station_id":"GST","distance":1567,"time":8,"transit":false,"i_long":106.850107,"station_name":"Gang Sentiong","is_transit":false,"i_lat":-6.185975},{"station_id":"KMT","station_name":"Kramat","distance":973,"line":11,"i_lat":-6.193792,"time":1,"is_transit":false,"transit":false,"i_long":106.855437},{"i_lat":-6.209188,"line":11,"distance":1829,"is_transit":false,"time":2,"transit":false,"i_long":106.861737,"station_name":"Pondok Jati","station_id":"POK"},{"station_id":"JNG","i_lat":-6.215091,"i_long":106.86807400000001,"distance":1236,"transit":true,"station_name":"Jatinegara","line":1,"is_transit":true,"time":9},{"station_name":"Matraman","is_transit":false,"i_lat":-6.212485,"transit":false,"time":2,"line":1,"i_long":106.858896,"station_id":"MTR","distance":1377},{"station_id":"MRI","i_lat":-6.209883,"i_long":106.84912,"transit":true,"line":2,"time":2,"distance":1275,"station_name":"Manggarai","is_transit":true},{"is_transit":false,"i_long":106.857948,"i_lat":-6.226659,"time":4,"station_id":"TEB","line":2,"distance":2610,"transit":false,"station_name":"Tebet"},{"station_id":"CW","station_name":"Cawang","distance":1230,"is_transit":false,"transit":false,"i_lat":-6.242512,"time":2,"i_long":106.856607,"line":2}]]}