{"data":[[{"is_transit":false,"station_name":"Ancol","i_long":106.84464,"station_id":"AC","i_lat":-6.128023,"transit":false,"time":0,"line":4,"distance":0},{"distance":2185,"station_name":"Kampung Bandan","i_long":106.826365,"transit":true,"is_transit":true,"line":4,"time":4,"station_id":"KPB","i_lat":-6.132549},{"transit":false,"time":9,"is_transit":false,"i_lat":-6.144674,"distance":4102,"i_long":106.79867,"station_name":"Angke","line":1,"station_id":"AK"},{"time":4,"station_id":"DU","station_name":"Duri","transit":false,"i_lat":-6.155215,"line":1,"distance":1230,"i_long":106.800832,"is_transit":false},{"time":8,"line":1,"i_lat":-6.185545,"transit":false,"station_id":"THB","distance":3632,"i_long":106.811091,"station_name":"Tanah Abang","is_transit":false},{"i_lat":-6.20132,"transit":false,"station_name":"Karet","distance":2029,"line":1,"time":5,"station_id":"KAT","is_transit":false,"i_long":106.816351},{"station_id":"SUDB","is_transit":false,"distance":471,"transit":false,"line":1,"i_lat":-6.201433,"station_name":"Sudirman Baru","time":1,"i_long":106.819881},{"distance":280,"time":1,"station_name":"Sudirman","is_transit":false,"transit":false,"i_long":106.822649,"line":1,"i_lat":-6.202263,"station_id":"SUD"},{"transit":true,"station_name":"Manggarai","distance":3186,"time":4,"i_long":106.84912,"station_id":"MRI","is_transit":true,"i_lat":-6.209883,"line":2},{"i_long":106.857948,"time":4,"station_id":"TEB","is_transit":false,"transit":false,"line":2,"distance":2610,"i_lat":-6.226659,"station_name":"Tebet"},{"time":2,"station_id":"CW","i_lat":-6.242512,"transit":false,"i_long":106.856607,"is_transit":false,"distance":1230,"station_name":"Cawang","line":2},{"i_lat":-6.255332,"i_long":106.85449,"line":2,"distance":1546,"is_transit":false,"time":3,"transit":false,"station_id":"DRN","station_name":"Duren Kalibata"},{"line":2,"distance":824,"station_id":"PSMB","time":2,"i_lat":-6.263214,"station_name":"Pasar Minggu Baru","transit":false,"i_long":106.851577,"is_transit":false},{"transit":false,"i_lat":-6.2842400000000005,"station_id":"PSM","i_long":106.843999,"is_transit":false,"line":2,"time":2,"station_name":"Pasar Minggu","distance":2380},{"station_name":"Tanjung Barat","transit":false,"time":4,"i_long":106.838896,"is_transit":false,"station_id":"TNT","distance":2820,"i_lat":-6.3080680000000005,"line":2},{"transit":false,"line":2,"i_lat":-6.330363,"station_name":"Lenteng Agung","i_long":106.832616,"distance":2671,"station_id":"LNA","time":3,"is_transit":false},{"distance":1029,"transit":false,"station_id":"UP","i_long":106.834175,"station_name":"Univ. Pancasila","is_transit":false,"time":2,"i_lat":-6.339291,"line":2},{"i_lat":-6.360749,"station_id":"UI","time":3,"is_transit":false,"transit":false,"i_long":106.831474,"station_name":"Univ. Indonesia","distance":2264,"line":2},{"station_name":"Pondok Cina","station_id":"POC","time":2,"i_long":106.831114,"i_lat":-6.369073,"is_transit":false,"distance":1109,"transit":false,"line":2},{"transit":false,"is_transit":false,"station_name":"Depokbaru","i_lat":-6.391065,"time":4,"line":2,"station_id":"DPB","i_long":106.819451,"distance":2727},{"i_long":106.816926,"i_lat":-6.405256,"station_name":"Depok","is_transit":false,"time":3,"station_id":"DP","distance":1584,"transit":false,"line":2},{"station_id":"CTA","is_transit":false,"time":6,"transit":false,"distance":5084,"station_name":"Citayam","i_lat":-6.448811,"i_long":106.800298,"line":2}],[{"distance":0,"i_long":106.84464,"i_lat":-6.128023,"is_transit":false,"transit":false,"time":0,"line":4,"station_name":"Ancol","station_id":"AC"},{"i_lat":-6.132549,"i_long":106.826365,"station_id":"KPB","time":4,"station_name":"Kampung Bandan","distance":2185,"is_transit":true,"line":4,"transit":true},{"station_name":"Jakarta Kota","distance":1364,"i_long":106.812439,"is_transit":true,"i_lat":-6.137569,"time":3,"station_id":"JAKK","transit":true,"line":2},{"transit":false,"time":4,"i_lat":-6.141205,"distance":1264,"station_name":"Jayakarta","station_id":"JAY","is_transit":false,"line":2,"i_long":106.820901},{"transit":false,"station_name":"Manggabesar","station_id":"MGB","time":2,"distance":1080,"is_transit":false,"i_lat":-6.149769,"i_long":106.82482,"line":2},{"i_lat":-6.160725,"i_long":106.827103,"distance":906,"transit":false,"line":2,"station_id":"SW","time":2,"station_name":"Sawah Besar","is_transit":false},{"i_long":106.828284,"station_id":"JUA","time":2,"line":2,"station_name":"Juanda","distance":1149,"i_lat":-6.166716,"is_transit":false,"transit":false},{"is_transit":false,"distance":2015,"i_lat":-6.186295,"transit":false,"line":2,"time":4,"station_name":"Gondangdia","i_long":106.832183,"station_id":"GDD"},{"transit":false,"station_name":"Cikini","line":2,"i_lat":-6.198556,"station_id":"CKI","time":3,"distance":1750,"i_long":106.840169,"is_transit":false},{"transit":false,"line":2,"is_transit":false,"i_lat":-6.209883,"station_name":"Manggarai","station_id":"MRI","i_long":106.84912,"time":4,"distance":1590},{"transit":false,"line":2,"time":4,"i_lat":-6.226659,"i_long":106.857948,"is_transit":false,"distance":2610,"station_id":"TEB","station_name":"Tebet"},{"time":2,"distance":1230,"transit":false,"station_name":"Cawang","station_id":"CW","line":2,"i_lat":-6.242512,"i_long":106.856607,"is_transit":false},{"i_long":106.85449,"distance":1546,"station_name":"Duren Kalibata","i_lat":-6.255332,"station_id":"DRN","time":3,"is_transit":false,"line":2,"transit":false},{"i_lat":-6.263214,"distance":824,"line":2,"station_id":"PSMB","transit":false,"i_long":106.851577,"time":2,"station_name":"Pasar Minggu Baru","is_transit":false},{"station_id":"PSM","station_name":"Pasar Minggu","distance":2380,"is_transit":false,"transit":false,"i_lat":-6.2842400000000005,"time":2,"line":2,"i_long":106.843999},{"station_name":"Tanjung Barat","i_long":106.838896,"is_transit":false,"transit":false,"distance":2820,"i_lat":-6.3080680000000005,"station_id":"TNT","time":4,"line":2},{"station_name":"Lenteng Agung","line":2,"is_transit":false,"distance":2671,"transit":false,"i_lat":-6.330363,"time":3,"station_id":"LNA","i_long":106.832616},{"i_lat":-6.339291,"is_transit":false,"transit":false,"line":2,"station_name":"Univ. Pancasila","station_id":"UP","time":2,"i_long":106.834175,"distance":1029},{"station_name":"Univ. Indonesia","distance":2264,"transit":false,"i_long":106.831474,"line":2,"station_id":"UI","is_transit":false,"i_lat":-6.360749,"time":3},{"i_long":106.831114,"station_id":"POC","line":2,"time":2,"i_lat":-6.369073,"transit":false,"station_name":"Pondok Cina","is_transit":false,"distance":1109},{"distance":2727,"i_lat":-6.391065,"station_id":"DPB","i_long":106.819451,"transit":false,"time":4,"is_transit":false,"line":2,"station_name":"Depokbaru"},{"station_name":"Depok","line":2,"time":3,"distance":1584,"i_lat":-6.405256,"i_long":106.816926,"transit":false,"station_id":"DP","is_transit":false},{"station_id":"CTA","is_transit":false,"i_lat":-6.448811,"i_long":106.800298,"time":6,"station_name":"Citayam","line":2,"transit":false,"distance":5084}],[{"transit":false,"is_transit":false,"i_long":106.84464,"distance":0,"station_id":"AC","i_lat":-6.128023,"station_name":"Ancol","time":0,"line":4},{"transit":true,"i_lat":-6.132549,"line":4,"i_long":106.826365,"is_transit":true,"station_name":"Kampung Bandan","time":4,"station_id":"KPB","distance":2185},{"time":3,"station_id":"RJW","i_long":106.836569,"station_name":"Rajawali","distance":1444,"i_lat":-6.14505,"line":11,"transit":false,"is_transit":false},{"station_name":"Kemayoran","i_lat":-6.161728,"line":11,"is_transit":false,"station_id":"KMO","time":5,"distance":1901,"i_long":106.839204,"transit":false},{"line":11,"time":4,"station_id":"PSE","is_transit":false,"station_name":"Pasar Senen","distance":1436,"i_lat":-6.174784,"i_long":106.84368,"transit":false},{"is_transit":false,"distance":1567,"time":8,"station_name":"Gang Sentiong","i_lat":-6.185975,"line":11,"i_long":106.850107,"station_id":"GST","transit":false},{"distance":973,"transit":false,"i_lat":-6.193792,"time":1,"station_id":"KMT","is_transit":false,"i_long":106.855437,"station_name":"Kramat","line":11},{"transit":false,"i_lat":-6.209188,"time":2,"i_long":106.861737,"line":11,"station_name":"Pondok Jati","station_id":"POK","is_transit":false,"distance":1829},{"station_name":"Jatinegara","line":1,"is_transit":true,"station_id":"JNG","transit":true,"i_lat":-6.215091,"i_long":106.86807400000001,"time":9,"distance":1236},{"transit":false,"station_name":"Matraman","i_long":106.858896,"is_transit":false,"i_lat":-6.212485,"station_id":"MTR","line":1,"distance":1377,"time":2},{"station_name":"Manggarai","i_long":106.84912,"i_lat":-6.209883,"is_transit":true,"station_id":"MRI","distance":1275,"time":2,"transit":true,"line":2},{"i_long":106.857948,"line":2,"time":4,"is_transit":false,"distance":2610,"station_name":"Tebet","station_id":"TEB","transit":false,"i_lat":-6.226659},{"is_transit":false,"station_id":"CW","time":2,"i_long":106.856607,"line":2,"station_name":"Cawang","i_lat":-6.242512,"distance":1230,"transit":false},{"station_id":"DRN","time":3,"i_lat":-6.255332,"line":2,"i_long":106.85449,"is_transit":false,"station_name":"Duren Kalibata","distance":1546,"transit":false},{"distance":824,"i_long":106.851577,"line":2,"station_name":"Pasar Minggu Baru","is_transit":false,"transit":false,"time":2,"i_lat":-6.263214,"station_id":"PSMB"},{"is_transit":false,"distance":2380,"transit":false,"line":2,"station_id":"PSM","i_lat":-6.2842400000000005,"time":2,"i_long":106.843999,"station_name":"Pasar Minggu"},{"line":2,"station_name":"Tanjung Barat","distance":2820,"transit":false,"i_long":106.838896,"time":4,"station_id":"TNT","i_lat":-6.3080680000000005,"is_transit":false},{"time":3,"line":2,"is_transit":false,"transit":false,"station_id":"LNA","station_name":"Lenteng Agung","distance":2671,"i_lat":-6.330363,"i_long":106.832616},{"time":2,"is_transit":false,"distance":1029,"transit":false,"station_id":"UP","i_lat":-6.339291,"i_long":106.834175,"line":2,"station_name":"Univ. Pancasila"},{"distance":2264,"line":2,"transit":false,"i_long":106.831474,"station_name":"Univ. Indonesia","is_transit":false,"station_id":"UI","time":3,"i_lat":-6.360749},{"i_lat":-6.369073,"transit":false,"station_id":"POC","distance":1109,"i_long":106.831114,"line":2,"time":2,"station_name":"Pondok Cina","is_transit":false},{"i_long":106.819451,"station_name":"Depokbaru","line":2,"time":4,"transit":false,"station_id":"DPB","is_transit":false,"distance":2727,"i_lat":-6.391065},{"station_name":"Depok","distance":1584,"time":3,"i_lat":-6.405256,"transit":false,"is_transit":false,"i_long":106.816926,"station_id":"DP","line":2},{"i_long":106.800298,"distance":5084,"station_name":"Citayam","station_id":"CTA","time":6,"line":2,"is_transit":false,"transit":false,"i_lat":-6.448811}]]}