{"data":[[{"station_name":"Ancol","line":4,"transit":false,"i_long":106.84464,"distance":0,"i_lat":-6.128023,"is_transit":false,"time":0,"station_id":"AC"},{"i_long":106.826365,"i_lat":-6.132549,"station_name":"Kampung Bandan","transit":true,"time":4,"is_transit":true,"station_id":"KPB","distance":2185,"line":4},{"line":11,"station_id":"RJW","i_long":106.836569,"i_lat":-6.14505,"is_transit":false,"transit":false,"station_name":"Rajawali","distance":1444,"time":3},{"transit":false,"is_transit":false,"line":11,"i_long":106.839204,"time":5,"distance":1901,"station_name":"Kemayoran","i_lat":-6.161728,"station_id":"KMO"},{"line":11,"distance":1436,"station_id":"PSE","time":4,"transit":false,"i_lat":-6.174784,"station_name":"Pasar Senen","is_transit":false,"i_long":106.84368},{"time":8,"i_lat":-6.185975,"i_long":106.850107,"station_id":"GST","station_name":"Gang Sentiong","is_transit":false,"transit":false,"distance":1567,"line":11},{"line":11,"station_name":"Kramat","time":1,"i_long":106.855437,"distance":973,"station_id":"KMT","is_transit":false,"transit":false,"i_lat":-6.193792},{"line":11,"station_name":"Pondok Jati","i_lat":-6.209188,"distance":1829,"time":2,"is_transit":false,"i_long":106.861737,"station_id":"POK","transit":false},{"station_name":"Jatinegara","distance":1236,"transit":true,"line":1,"i_long":106.86807400000001,"i_lat":-6.215091,"is_transit":true,"time":9,"station_id":"JNG"},{"i_lat":-6.2135,"i_long":106.899548,"time":3,"distance":3395,"station_id":"KLD","is_transit":false,"line":1,"transit":false,"station_name":"Klender"},{"time":2,"distance":3100,"line":1,"is_transit":false,"transit":false,"station_name":"Buaran","station_id":"BUA","i_long":106.922662,"i_lat":-6.215568},{"station_id":"KLDB","is_transit":false,"i_long":106.939679,"transit":false,"time":1,"distance":1305,"station_name":"Klenderbaru","i_lat":-6.217455,"line":1},{"line":1,"station_id":"CUK","i_lat":-6.219053,"distance":1385,"is_transit":false,"station_name":"Cakung","transit":false,"i_long":106.951283,"time":8}],[{"time":0,"station_name":"Ancol","i_lat":-6.128023,"i_long":106.84464,"is_transit":false,"distance":0,"transit":false,"station_id":"AC","line":4},{"time":4,"is_transit":true,"station_name":"Kampung Bandan","station_id":"KPB","i_lat":-6.132549,"line":4,"transit":true,"i_long":106.826365,"distance":2185},{"i_lat":-6.144674,"is_transit":false,"station_id":"AK","i_long":106.79867,"station_name":"Angke","line":1,"time":9,"transit":false,"distance":4102},{"station_id":"DU","station_name":"Duri","i_lat":-6.155215,"time":4,"i_long":106.800832,"line":1,"distance":1230,"transit":false,"is_transit":false},{"i_lat":-6.185545,"line":1,"station_id":"THB","time":8,"transit":false,"distance":3632,"i_long":106.811091,"station_name":"Tanah Abang","is_transit":false},{"station_name":"Karet","i_lat":-6.20132,"station_id":"KAT","line":1,"transit":false,"i_long":106.816351,"is_transit":false,"time":5,"distance":2029},{"i_lat":-6.201433,"station_id":"SUDB","line":1,"transit":false,"i_long":106.819881,"time":1,"distance":471,"station_name":"Sudirman Baru","is_transit":false},{"i_long":106.822649,"transit":false,"station_name":"Sudirman","is_transit":false,"line":1,"station_id":"SUD","time":1,"i_lat":-6.202263,"distance":280},{"line":2,"is_transit":false,"i_long":106.84912,"distance":3186,"time":4,"station_id":"MRI","transit":false,"i_lat":-6.209883,"station_name":"Manggarai"},{"time":2,"i_lat":-6.212485,"distance":1275,"line":1,"transit":false,"station_id":"MTR","i_long":106.858896,"station_name":"Matraman","is_transit":false},{"time":8,"line":1,"distance":1377,"transit":false,"station_id":"JNG","i_lat":-6.215091,"i_long":106.86807400000001,"is_transit":false,"station_name":"Jatinegara"},{"station_name":"Klender","time":3,"i_lat":-6.2135,"distance":3395,"i_long":106.899548,"transit":false,"station_id":"KLD","is_transit":false,"line":1},{"transit":false,"distance":3100,"i_lat":-6.215568,"line":1,"i_long":106.922662,"station_id":"BUA","time":2,"station_name":"Buaran","is_transit":false},{"is_transit":false,"transit":false,"line":1,"station_id":"KLDB","station_name":"Klenderbaru","distance":1305,"time":1,"i_lat":-6.217455,"i_long":106.939679},{"i_lat":-6.219053,"transit":false,"is_transit":false,"i_long":106.951283,"line":1,"station_name":"Cakung","distance":1385,"station_id":"CUK","time":8}],[{"i_long":106.84464,"i_lat":-6.128023,"station_id":"AC","transit":false,"distance":0,"is_transit":false,"time":0,"station_name":"Ancol","line":4},{"distance":2185,"time":4,"station_name":"Kampung Bandan","i_long":106.826365,"line":4,"i_lat":-6.132549,"transit":true,"is_transit":true,"station_id":"KPB"},{"line":2,"station_name":"Jakarta Kota","i_lat":-6.137569,"transit":true,"is_transit":true,"time":3,"station_id":"JAKK","distance":1364,"i_long":106.812439},{"line":2,"station_id":"JAY","i_lat":-6.141205,"transit":false,"station_name":"Jayakarta","distance":1264,"time":4,"is_transit":false,"i_long":106.820901},{"time":2,"is_transit":false,"transit":false,"station_name":"Manggabesar","distance":1080,"line":2,"station_id":"MGB","i_long":106.82482,"i_lat":-6.149769},{"station_id":"SW","i_long":106.827103,"transit":false,"line":2,"time":2,"distance":906,"station_name":"Sawah Besar","i_lat":-6.160725,"is_transit":false},{"time":2,"station_name":"Juanda","transit":false,"i_long":106.828284,"distance":1149,"station_id":"JUA","is_transit":false,"line":2,"i_lat":-6.166716},{"line":2,"time":4,"station_id":"GDD","is_transit":false,"transit":false,"i_lat":-6.186295,"i_long":106.832183,"station_name":"Gondangdia","distance":2015},{"station_id":"CKI","is_transit":false,"station_name":"Cikini","i_lat":-6.198556,"transit":false,"time":3,"distance":1750,"i_long":106.840169,"line":2},{"line":2,"time":4,"station_id":"MRI","distance":1590,"station_name":"Manggarai","transit":true,"i_lat":-6.209883,"is_transit":true,"i_long":106.84912},{"time":2,"is_transit":false,"i_long":106.858896,"station_id":"MTR","i_lat":-6.212485,"distance":1275,"station_name":"Matraman","transit":false,"line":1},{"station_id":"JNG","is_transit":false,"time":8,"station_name":"Jatinegara","i_long":106.86807400000001,"i_lat":-6.215091,"line":1,"transit":false,"distance":1377},{"transit":false,"time":3,"station_name":"Klender","i_lat":-6.2135,"is_transit":false,"distance":3395,"station_id":"KLD","i_long":106.899548,"line":1},{"distance":3100,"is_transit":false,"time":2,"line":1,"station_name":"Buaran","transit":false,"i_lat":-6.215568,"station_id":"BUA","i_long":106.922662},{"line":1,"time":1,"station_id":"KLDB","transit":false,"station_name":"Klenderbaru","distance":1305,"i_lat":-6.217455,"i_long":106.939679,"is_transit":false},{"station_id":"CUK","distance":1385,"time":8,"transit":false,"station_name":"Cakung","line":1,"i_lat":-6.219053,"is_transit":false,"i_long":106.951283}]]}