{"data":[[{"i_long":106.84464,"i_lat":-6.128023,"distance":0,"time":0,"transit":false,"is_transit":false,"station_id":"AC","line":0,"station_name":"Ancol"},{"distance":2185,"i_lat":-6.132549,"line":0,"is_transit":true,"time":4,"station_name":"Kampung Bandan","i_long":106.826365,"station_id":"KPB","transit":true},{"line":11,"station_id":"RJW","i_lat":-6.14505,"distance":1444,"transit":false,"i_long":106.836569,"station_name":"Rajawali","is_transit":false,"time":3},{"line":11,"i_long":106.839204,"station_name":"Kemayoran","is_transit":false,"station_id":"KMO","distance":1901,"transit":false,"time":5,"i_lat":-6.161728},{"i_lat":-6.174784,"station_id":"PSE","is_transit":false,"i_long":106.84368,"line":11,"transit":false,"station_name":"Pasar Senen","time":4,"distance":1436},{"is_transit":false,"station_name":"Gang Sentiong","transit":false,"time":8,"line":11,"distance":1567,"i_lat":-6.185975,"station_id":"GST","i_long":106.850107},{"station_name":"Kramat","distance":973,"i_long":106.855437,"transit":false,"i_lat":-6.193792,"is_transit":false,"line":11,"time":1,"station_id":"KMT"},{"i_long":106.861737,"is_transit":false,"station_id":"POK","time":2,"transit":false,"distance":1829,"station_name":"Pondok Jati","i_lat":-6.209188,"line":11},{"distance":1236,"is_transit":true,"station_name":"Jatinegara","line":0,"transit":true,"time":9,"i_long":106.86807400000001,"station_id":"JNG","i_lat":-6.215091},{"i_lat":-6.2135,"station_name":"Klender","time":3,"is_transit":false,"line":1,"distance":3395,"i_long":106.899548,"transit":false,"station_id":"KLD"},{"transit":false,"i_lat":-6.215568,"distance":3100,"station_name":"Buaran","is_transit":false,"i_long":106.922662,"time":2,"station_id":"BUA","line":0},{"time":1,"is_transit":false,"i_lat":-6.217455,"distance":1305,"transit":false,"line":1,"station_id":"KLDB","station_name":"Klenderbaru","i_long":106.939679},{"i_lat":-6.219053,"distance":1385,"time":8,"station_name":"Cakung","station_id":"CUK","transit":false,"is_transit":false,"i_long":106.951283,"line":0}],[{"distance":0,"station_name":"Ancol","station_id":"AC","line":0,"time":0,"is_transit":false,"transit":false,"i_long":106.84464,"i_lat":-6.128023},{"line":0,"is_transit":true,"i_lat":-6.132549,"station_id":"KPB","station_name":"Kampung Bandan","transit":false,"i_long":106.826365,"distance":2185,"time":4},{"station_name":"Angke","i_lat":-6.144674,"distance":4102,"is_transit":false,"i_long":106.79867,"station_id":"AK","transit":false,"line":0,"time":9},{"station_id":"DU","station_name":"Duri","time":4,"i_long":106.800832,"line":1,"transit":true,"is_transit":true,"i_lat":-6.155215,"distance":1230},{"station_name":"Tanah Abang","line":1,"distance":3632,"time":8,"is_transit":true,"transit":false,"i_lat":-6.185545,"i_long":106.811091,"station_id":"THB"},{"distance":2029,"i_long":106.816351,"i_lat":-6.20132,"transit":false,"station_id":"KAT","is_transit":false,"line":1,"time":5,"station_name":"Karet"},{"station_id":"SUDB","time":1,"station_name":"Sudirman Baru","is_transit":false,"distance":471,"transit":false,"i_lat":-6.201433,"i_long":106.819881,"line":1},{"i_long":106.822649,"time":1,"line":1,"station_name":"Sudirman","station_id":"SUD","is_transit":false,"distance":280,"i_lat":-6.202263,"transit":false},{"distance":3186,"i_long":106.84912,"is_transit":true,"line":0,"i_lat":-6.209883,"station_name":"Manggarai","transit":false,"station_id":"MRI","time":4},{"distance":1275,"i_lat":-6.212485,"transit":false,"i_long":106.858896,"station_name":"Matraman","is_transit":false,"line":1,"station_id":"MTR","time":2},{"is_transit":true,"station_id":"JNG","i_lat":-6.215091,"station_name":"Jatinegara","i_long":106.86807400000001,"distance":1377,"line":0,"time":8,"transit":false},{"station_id":"KLD","station_name":"Klender","distance":3395,"line":1,"i_long":106.899548,"i_lat":-6.2135,"is_transit":false,"transit":false,"time":3},{"distance":3100,"is_transit":false,"line":0,"station_name":"Buaran","time":2,"station_id":"BUA","transit":false,"i_long":106.922662,"i_lat":-6.215568},{"transit":false,"line":1,"i_long":106.939679,"station_id":"KLDB","station_name":"Klenderbaru","i_lat":-6.217455,"time":1,"is_transit":false,"distance":1305},{"station_name":"Cakung","distance":1385,"station_id":"CUK","is_transit":false,"line":0,"i_lat":-6.219053,"i_long":106.951283,"time":8,"transit":false}],[{"is_transit":false,"station_name":"Ancol","i_lat":-6.128023,"transit":false,"i_long":106.84464,"line":0,"station_id":"AC","time":0,"distance":0},{"station_id":"KPB","is_transit":true,"station_name":"Kampung Bandan","i_lat":-6.132549,"distance":2185,"i_long":106.826365,"line":0,"time":4,"transit":false},{"station_id":"JAKK","station_name":"Jakarta Kota","distance":1364,"line":0,"is_transit":true,"i_long":106.812439,"i_lat":-6.137569,"transit":true,"time":3},{"station_id":"JAY","is_transit":false,"i_lat":-6.141205,"station_name":"Jayakarta","transit":false,"time":4,"distance":1264,"i_long":106.820901,"line":7},{"transit":false,"station_id":"MGB","distance":1080,"i_long":106.82482,"is_transit":false,"i_lat":-6.149769,"station_name":"Manggabesar","time":2,"line":2},{"time":2,"is_transit":false,"station_id":"SW","transit":false,"distance":906,"i_long":106.827103,"station_name":"Sawah Besar","line":2,"i_lat":-6.160725},{"line":2,"station_id":"JUA","is_transit":false,"station_name":"Juanda","transit":false,"time":2,"distance":1149,"i_long":106.828284,"i_lat":-6.166716},{"transit":false,"distance":2015,"is_transit":false,"i_lat":-6.186295,"line":2,"time":4,"i_long":106.832183,"station_name":"Gondangdia","station_id":"GDD"},{"line":0,"station_name":"Cikini","time":3,"distance":1750,"transit":false,"is_transit":false,"i_lat":-6.198556,"station_id":"CKI","i_long":106.840169},{"i_long":106.84912,"distance":1590,"station_name":"Manggarai","time":4,"i_lat":-6.209883,"station_id":"MRI","transit":true,"is_transit":true,"line":0},{"is_transit":false,"station_name":"Matraman","time":2,"transit":false,"line":1,"station_id":"MTR","distance":1275,"i_long":106.858896,"i_lat":-6.212485},{"station_id":"JNG","is_transit":true,"line":0,"time":8,"distance":1377,"transit":false,"station_name":"Jatinegara","i_lat":-6.215091,"i_long":106.86807400000001},{"station_name":"Klender","station_id":"KLD","time":3,"transit":false,"is_transit":false,"i_long":106.899548,"line":1,"distance":3395,"i_lat":-6.2135},{"i_long":106.922662,"station_name":"Buaran","is_transit":false,"transit":false,"distance":3100,"i_lat":-6.215568,"line":0,"station_id":"BUA","time":2},{"distance":1305,"i_lat":-6.217455,"line":1,"is_transit":false,"time":1,"station_id":"KLDB","station_name":"Klenderbaru","transit":false,"i_long":106.939679},{"is_transit":false,"time":8,"distance":1385,"transit":false,"i_long":106.951283,"line":0,"i_lat":-6.219053,"station_id":"CUK","station_name":"Cakung"}]]}