{"data":[[{"station_id":"AC","station_name":"Ancol","i_lat":-6.128023,"transit":false,"time":0,"distance":0,"i_long":106.84464,"line":4,"is_transit":false},{"i_long":106.826365,"i_lat":-6.132549,"station_name":"Kampung Bandan","transit":true,"time":4,"is_transit":true,"station_id":"KPB","distance":2185,"line":4},{"line":1,"station_id":"AK","i_long":106.79867,"i_lat":-6.144674,"is_transit":false,"transit":false,"station_name":"Angke","distance":4102,"time":9},{"transit":false,"is_transit":false,"line":1,"i_long":106.800832,"time":4,"distance":1230,"station_name":"Duri","i_lat":-6.155215,"station_id":"DU"},{"line":1,"distance":3632,"station_id":"THB","time":8,"transit":true,"i_lat":-6.185545,"station_name":"Tanah Abang","is_transit":true,"i_long":106.811091},{"time":6,"i_lat":-6.207404,"i_long":106.79689,"station_id":"PLM","station_name":"Palmerah","is_transit":false,"distance":3191,"transit":false,"line":6},{"line":6,"station_name":"Kebayoran","time":7,"i_long":106.780334,"distance":3737,"station_id":"KBY","is_transit":false,"transit":false,"i_lat":-6.237242},{"line":6,"station_name":"Pondokranji","i_lat":-6.276362,"distance":6218,"time":8,"is_transit":false,"i_long":106.74273,"station_id":"PDJ","transit":false},{"station_name":"Jurangmangu","distance":2179,"transit":false,"line":6,"i_long":106.728916,"i_lat":-6.288927,"is_transit":false,"time":3,"station_id":"JMU"},{"i_lat":-6.296963,"i_long":106.712277,"time":4,"distance":1994,"is_transit":false,"station_id":"SDM","line":6,"station_name":"Sudimara","transit":false},{"time":6,"distance":4566,"line":6,"is_transit":false,"station_name":"Rawa Buntu","transit":false,"station_id":"RU","i_long":106.675475,"i_lat":-6.314823},{"is_transit":false,"station_id":"SRP","i_long":106.66566,"transit":false,"time":4,"distance":2413,"station_name":"Serpong","i_lat":-6.319871,"line":6},{"line":3,"station_id":"CSK","i_lat":-6.32484,"distance":1784,"is_transit":false,"station_name":"Cisauk","transit":false,"i_long":106.640411,"time":4}],[{"time":0,"station_name":"Ancol","i_lat":-6.128023,"i_long":106.84464,"is_transit":false,"distance":0,"transit":false,"station_id":"AC","line":4},{"is_transit":true,"time":4,"station_name":"Kampung Bandan","station_id":"KPB","i_lat":-6.132549,"line":4,"transit":true,"i_long":106.826365,"distance":2185},{"i_lat":-6.137569,"is_transit":true,"station_id":"JAKK","i_long":106.812439,"station_name":"Jakarta Kota","line":2,"time":3,"distance":1364,"transit":true},{"station_id":"JAY","station_name":"Jayakarta","i_lat":-6.141205,"time":4,"i_long":106.820901,"line":2,"distance":1264,"is_transit":false,"transit":false},{"i_lat":-6.149769,"line":2,"station_id":"MGB","time":2,"transit":false,"distance":1080,"i_long":106.82482,"station_name":"Manggabesar","is_transit":false},{"station_name":"Sawah Besar","i_lat":-6.160725,"station_id":"SW","line":2,"transit":false,"i_long":106.827103,"is_transit":false,"time":2,"distance":906},{"i_lat":-6.166716,"station_id":"JUA","line":2,"transit":false,"i_long":106.828284,"is_transit":false,"time":2,"station_name":"Juanda","distance":1149},{"i_long":106.832183,"transit":false,"station_name":"Gondangdia","is_transit":false,"line":2,"station_id":"GDD","time":4,"i_lat":-6.186295,"distance":2015},{"line":2,"is_transit":false,"i_long":106.840169,"distance":1750,"time":3,"station_id":"CKI","transit":false,"i_lat":-6.198556,"station_name":"Cikini"},{"time":4,"i_lat":-6.209883,"distance":1590,"line":2,"transit":true,"station_id":"MRI","i_long":106.84912,"station_name":"Manggarai","is_transit":true},{"time":4,"line":1,"distance":3186,"station_id":"SUD","transit":false,"i_lat":-6.202263,"i_long":106.822649,"is_transit":false,"station_name":"Sudirman"},{"station_name":"Sudirman Baru","time":1,"i_lat":-6.201433,"distance":280,"i_long":106.819881,"is_transit":false,"station_id":"SUDB","transit":false,"line":1},{"transit":false,"distance":471,"i_lat":-6.20132,"line":1,"i_long":106.816351,"station_id":"KAT","time":1,"station_name":"Karet","is_transit":false},{"is_transit":true,"transit":true,"line":1,"distance":2029,"station_name":"Tanah Abang","station_id":"THB","time":5,"i_lat":-6.185545,"i_long":106.811091},{"i_lat":-6.207404,"is_transit":false,"transit":false,"i_long":106.79689,"line":6,"station_name":"Palmerah","distance":3191,"station_id":"PLM","time":6},{"i_long":106.780334,"i_lat":-6.237242,"distance":3737,"is_transit":false,"station_id":"KBY","transit":false,"time":7,"station_name":"Kebayoran","line":6},{"station_id":"PDJ","time":8,"station_name":"Pondokranji","i_long":106.74273,"line":6,"i_lat":-6.276362,"is_transit":false,"transit":false,"distance":6218},{"line":6,"station_name":"Jurangmangu","i_lat":-6.288927,"transit":false,"is_transit":false,"station_id":"JMU","distance":2179,"time":3,"i_long":106.728916},{"line":6,"station_id":"SDM","i_lat":-6.296963,"transit":false,"station_name":"Sudimara","distance":1994,"is_transit":false,"time":4,"i_long":106.712277},{"time":6,"is_transit":false,"distance":4566,"station_name":"Rawa Buntu","transit":false,"line":6,"station_id":"RU","i_long":106.675475,"i_lat":-6.314823},{"station_id":"SRP","i_long":106.66566,"transit":false,"line":6,"distance":2413,"time":4,"station_name":"Serpong","i_lat":-6.319871,"is_transit":false},{"station_name":"Cisauk","time":4,"transit":false,"i_long":106.640411,"distance":1784,"station_id":"CSK","is_transit":false,"line":3,"i_lat":-6.32484}],[{"line":4,"station_id":"AC","time":0,"is_transit":false,"transit":false,"i_lat":-6.128023,"i_long":106.84464,"station_name":"Ancol","distance":0},{"station_id":"KPB","is_transit":true,"station_name":"Kampung Bandan","i_lat":-6.132549,"transit":true,"time":4,"distance":2185,"i_long":106.826365,"line":4},{"line":11,"station_id":"RJW","distance":1444,"time":3,"station_name":"Rajawali","transit":false,"i_lat":-6.14505,"is_transit":false,"i_long":106.836569},{"is_transit":false,"time":5,"i_long":106.839204,"station_id":"KMO","i_lat":-6.161728,"distance":1901,"station_name":"Kemayoran","transit":false,"line":11},{"station_id":"PSE","is_transit":false,"time":4,"station_name":"Pasar Senen","i_long":106.84368,"i_lat":-6.174784,"line":11,"transit":false,"distance":1436},{"transit":false,"time":8,"station_name":"Gang Sentiong","i_lat":-6.185975,"is_transit":false,"distance":1567,"station_id":"GST","i_long":106.850107,"line":11},{"distance":973,"is_transit":false,"time":1,"line":11,"station_name":"Kramat","transit":false,"i_lat":-6.193792,"station_id":"KMT","i_long":106.855437},{"line":11,"distance":1829,"station_name":"Pondok Jati","transit":false,"station_id":"POK","time":2,"i_lat":-6.209188,"i_long":106.861737,"is_transit":false},{"station_id":"JNG","distance":1236,"time":9,"transit":true,"station_name":"Jatinegara","line":1,"i_lat":-6.215091,"is_transit":true,"i_long":106.86807400000001},{"distance":1377,"line":1,"i_long":106.858896,"transit":false,"station_id":"MTR","is_transit":false,"time":2,"i_lat":-6.212485,"station_name":"Matraman"},{"station_id":"MRI","distance":1275,"time":2,"i_lat":-6.209883,"i_long":106.84912,"line":2,"station_name":"Manggarai","transit":false,"is_transit":false},{"station_name":"Sudirman","distance":3186,"transit":false,"is_transit":false,"time":4,"station_id":"SUD","i_long":106.822649,"i_lat":-6.202263,"line":1},{"is_transit":false,"i_lat":-6.201433,"station_name":"Sudirman Baru","distance":280,"i_long":106.819881,"transit":false,"station_id":"SUDB","line":1,"time":1},{"i_long":106.816351,"i_lat":-6.20132,"station_name":"Karet","time":1,"distance":471,"transit":false,"station_id":"KAT","is_transit":false,"line":1},{"is_transit":true,"line":1,"transit":true,"station_name":"Tanah Abang","station_id":"THB","time":5,"i_long":106.811091,"i_lat":-6.185545,"distance":2029},{"line":6,"station_id":"PLM","i_lat":-6.207404,"time":6,"station_name":"Palmerah","transit":false,"distance":3191,"is_transit":false,"i_long":106.79689},{"time":7,"is_transit":false,"i_lat":-6.237242,"i_long":106.780334,"station_name":"Kebayoran","transit":false,"station_id":"KBY","distance":3737,"line":6},{"transit":false,"i_lat":-6.276362,"station_name":"Pondokranji","station_id":"PDJ","is_transit":false,"time":8,"i_long":106.74273,"distance":6218,"line":6},{"station_name":"Jurangmangu","station_id":"JMU","i_lat":-6.288927,"line":6,"i_long":106.728916,"transit":false,"is_transit":false,"time":3,"distance":2179},{"i_lat":-6.296963,"is_transit":false,"line":6,"time":4,"distance":1994,"i_long":106.712277,"station_id":"SDM","transit":false,"station_name":"Sudimara"},{"i_lat":-6.314823,"station_id":"RU","is_transit":false,"i_long":106.675475,"station_name":"Rawa Buntu","distance":4566,"line":6,"time":6,"transit":false},{"time":4,"station_id":"SRP","distance":2413,"i_long":106.66566,"line":6,"i_lat":-6.319871,"station_name":"Serpong","transit":false,"is_transit":false},{"distance":1784,"i_lat":-6.32484,"is_transit":false,"i_long":106.640411,"transit":false,"station_id":"CSK","line":3,"time":4,"station_name":"Cisauk"}]]}