{"data":[[{"station_name":"Ancol","time":0,"transit":false,"is_transit":false,"i_long":106.84464,"i_lat":-6.128023,"distance":0,"station_id":"AC","line":4},{"i_lat":-6.132549,"time":4,"transit":true,"is_transit":true,"line":4,"station_name":"Kampung Bandan","station_id":"KPB","distance":2185,"i_long":106.826365},{"station_name":"Rajawali","line":11,"is_transit":false,"i_lat":-6.14505,"station_id":"RJW","distance":1444,"time":3,"i_long":106.836569,"transit":false},{"i_lat":-6.161728,"time":5,"station_name":"Kemayoran","i_long":106.839204,"distance":1901,"station_id":"KMO","transit":false,"is_transit":false,"line":11},{"is_transit":false,"line":11,"time":4,"transit":false,"station_name":"Pasar Senen","station_id":"PSE","distance":1436,"i_lat":-6.174784,"i_long":106.84368},{"station_name":"Gang Sentiong","i_lat":-6.185975,"station_id":"GST","distance":1567,"i_long":106.850107,"is_transit":false,"line":11,"transit":false,"time":8},{"is_transit":false,"i_lat":-6.193792,"distance":973,"station_id":"KMT","i_long":106.855437,"time":1,"line":11,"transit":false,"station_name":"Kramat"},{"i_lat":-6.209188,"line":11,"is_transit":false,"transit":false,"i_long":106.861737,"station_name":"Pondok Jati","station_id":"POK","time":2,"distance":1829},{"station_id":"JNG","is_transit":true,"i_lat":-6.215091,"transit":true,"station_name":"Jatinegara","distance":1236,"line":1,"time":9,"i_long":106.86807400000001},{"transit":false,"distance":3395,"station_id":"KLD","station_name":"Klender","line":1,"i_lat":-6.2135,"i_long":106.899548,"is_transit":false,"time":3},{"line":1,"i_lat":-6.215568,"distance":3100,"station_name":"Buaran","is_transit":false,"station_id":"BUA","transit":false,"time":2,"i_long":106.922662},{"station_name":"Klenderbaru","transit":false,"is_transit":false,"distance":1305,"time":1,"line":1,"i_lat":-6.217455,"i_long":106.939679,"station_id":"KLDB"},{"station_id":"CUK","distance":1385,"is_transit":false,"i_lat":-6.219053,"i_long":106.951283,"station_name":"Cakung","time":8,"transit":false,"line":1}],[{"i_long":106.84464,"is_transit":false,"distance":0,"time":0,"station_name":"Ancol","transit":false,"line":4,"station_id":"AC","i_lat":-6.128023},{"station_id":"KPB","is_transit":true,"i_long":106.826365,"transit":true,"i_lat":-6.132549,"time":4,"distance":2185,"station_name":"Kampung Bandan","line":4},{"distance":4102,"station_name":"Angke","i_lat":-6.144674,"station_id":"AK","is_transit":false,"i_long":106.79867,"time":9,"line":1,"transit":false},{"is_transit":false,"transit":false,"i_long":106.800832,"line":1,"station_name":"Duri","time":4,"i_lat":-6.155215,"station_id":"DU","distance":1230},{"i_lat":-6.185545,"station_name":"Tanah Abang","station_id":"THB","distance":3632,"time":8,"i_long":106.811091,"is_transit":false,"line":1,"transit":false},{"line":1,"is_transit":false,"station_id":"KAT","i_lat":-6.20132,"station_name":"Karet","time":5,"distance":2029,"transit":false,"i_long":106.816351},{"distance":471,"transit":false,"time":1,"i_lat":-6.201433,"station_id":"SUDB","is_transit":false,"line":1,"i_long":106.819881,"station_name":"Sudirman Baru"},{"i_long":106.822649,"i_lat":-6.202263,"station_name":"Sudirman","line":1,"is_transit":false,"station_id":"SUD","transit":false,"time":1,"distance":280},{"distance":3186,"transit":false,"is_transit":false,"time":4,"line":2,"station_name":"Manggarai","i_long":106.84912,"i_lat":-6.209883,"station_id":"MRI"},{"line":1,"time":2,"transit":false,"station_id":"MTR","is_transit":false,"i_long":106.858896,"station_name":"Matraman","distance":1275,"i_lat":-6.212485},{"is_transit":false,"station_name":"Jatinegara","transit":false,"station_id":"JNG","time":8,"distance":1377,"i_lat":-6.215091,"i_long":106.86807400000001,"line":1},{"i_long":106.899548,"line":1,"station_name":"Klender","transit":false,"is_transit":false,"i_lat":-6.2135,"distance":3395,"station_id":"KLD","time":3},{"transit":false,"line":1,"is_transit":false,"time":2,"distance":3100,"station_name":"Buaran","i_long":106.922662,"i_lat":-6.215568,"station_id":"BUA"},{"distance":1305,"time":1,"i_lat":-6.217455,"transit":false,"line":1,"station_name":"Klenderbaru","is_transit":false,"station_id":"KLDB","i_long":106.939679},{"transit":false,"i_long":106.951283,"is_transit":false,"time":8,"station_id":"CUK","line":1,"station_name":"Cakung","distance":1385,"i_lat":-6.219053}],[{"station_name":"Ancol","i_long":106.84464,"transit":false,"i_lat":-6.128023,"distance":0,"station_id":"AC","line":4,"is_transit":false,"time":0},{"transit":true,"station_name":"Kampung Bandan","time":4,"i_long":106.826365,"is_transit":true,"station_id":"KPB","distance":2185,"i_lat":-6.132549,"line":4},{"station_name":"Jakarta Kota","i_long":106.812439,"station_id":"JAKK","line":2,"is_transit":true,"time":3,"transit":true,"i_lat":-6.137569,"distance":1364},{"time":4,"line":2,"station_id":"JAY","distance":1264,"i_long":106.820901,"i_lat":-6.141205,"transit":false,"station_name":"Jayakarta","is_transit":false},{"distance":1080,"station_id":"MGB","i_lat":-6.149769,"i_long":106.82482,"transit":false,"is_transit":false,"time":2,"station_name":"Manggabesar","line":2},{"i_lat":-6.160725,"distance":906,"station_name":"Sawah Besar","station_id":"SW","transit":false,"time":2,"i_long":106.827103,"line":2,"is_transit":false},{"i_lat":-6.166716,"time":2,"station_id":"JUA","transit":false,"i_long":106.828284,"is_transit":false,"line":2,"station_name":"Juanda","distance":1149},{"distance":2015,"line":2,"station_name":"Gondangdia","transit":false,"time":4,"i_lat":-6.186295,"station_id":"GDD","i_long":106.832183,"is_transit":false},{"time":3,"line":2,"station_name":"Cikini","station_id":"CKI","is_transit":false,"i_long":106.840169,"transit":false,"distance":1750,"i_lat":-6.198556},{"station_id":"MRI","i_long":106.84912,"distance":1590,"line":2,"transit":true,"time":4,"is_transit":true,"station_name":"Manggarai","i_lat":-6.209883},{"time":2,"i_lat":-6.212485,"is_transit":false,"transit":false,"i_long":106.858896,"station_id":"MTR","station_name":"Matraman","line":1,"distance":1275},{"line":1,"distance":1377,"is_transit":false,"station_id":"JNG","i_long":106.86807400000001,"transit":false,"station_name":"Jatinegara","i_lat":-6.215091,"time":8},{"i_lat":-6.2135,"station_id":"KLD","time":3,"station_name":"Klender","is_transit":false,"transit":false,"i_long":106.899548,"line":1,"distance":3395},{"transit":false,"i_lat":-6.215568,"is_transit":false,"station_name":"Buaran","time":2,"distance":3100,"station_id":"BUA","i_long":106.922662,"line":1},{"station_name":"Klenderbaru","line":1,"i_lat":-6.217455,"transit":false,"distance":1305,"station_id":"KLDB","time":1,"i_long":106.939679,"is_transit":false},{"line":1,"station_name":"Cakung","is_transit":false,"i_long":106.951283,"station_id":"CUK","transit":false,"i_lat":-6.219053,"distance":1385,"time":8}]]}