{"data":[[{"i_long":106.84464,"i_lat":-6.128023,"line":4,"time":0,"is_transit":false,"distance":0,"transit":false,"station_name":"Ancol","station_id":"AC"},{"line":4,"station_name":"Kampung Bandan","time":4,"i_long":106.826365,"distance":2185,"station_id":"KPB","is_transit":true,"transit":true,"i_lat":-6.132549},{"line":1,"station_name":"Angke","i_lat":-6.144674,"distance":4102,"time":9,"is_transit":false,"i_long":106.79867,"station_id":"AK","transit":false},{"station_name":"Duri","distance":1230,"transit":false,"line":1,"i_long":106.800832,"i_lat":-6.155215,"is_transit":false,"time":4,"station_id":"DU"},{"i_lat":-6.185545,"i_long":106.811091,"time":8,"distance":3632,"is_transit":false,"station_id":"THB","line":1,"transit":false,"station_name":"Tanah Abang"},{"line":1,"distance":2029,"station_id":"KAT","time":5,"transit":false,"i_lat":-6.20132,"station_name":"Karet","is_transit":false,"i_long":106.816351},{"time":1,"i_lat":-6.201433,"i_long":106.819881,"station_id":"SUDB","station_name":"Sudirman Baru","is_transit":false,"transit":false,"distance":471,"line":1},{"i_long":106.822649,"i_lat":-6.202263,"station_name":"Sudirman","transit":false,"time":1,"is_transit":false,"station_id":"SUD","distance":280,"line":1},{"line":2,"station_id":"MRI","i_long":106.84912,"i_lat":-6.209883,"is_transit":true,"transit":true,"station_name":"Manggarai","distance":3186,"time":4},{"is_transit":false,"transit":false,"line":2,"i_long":106.857948,"time":4,"distance":2610,"station_name":"Tebet","i_lat":-6.226659,"station_id":"TEB"},{"line":2,"station_id":"CW","i_lat":-6.242512,"distance":1230,"is_transit":false,"station_name":"Cawang","transit":false,"i_long":106.856607,"time":2}],[{"time":0,"station_name":"Ancol","i_lat":-6.128023,"i_long":106.84464,"is_transit":false,"distance":0,"transit":false,"station_id":"AC","line":4},{"is_transit":true,"time":4,"station_name":"Kampung Bandan","station_id":"KPB","i_lat":-6.132549,"line":4,"transit":true,"i_long":106.826365,"distance":2185},{"i_lat":-6.137569,"is_transit":true,"station_id":"JAKK","i_long":106.812439,"station_name":"Jakarta Kota","line":2,"time":3,"transit":true,"distance":1364},{"station_id":"JAY","station_name":"Jayakarta","i_lat":-6.141205,"time":4,"i_long":106.820901,"line":2,"distance":1264,"is_transit":false,"transit":false},{"i_lat":-6.149769,"line":2,"station_id":"MGB","time":2,"transit":false,"distance":1080,"i_long":106.82482,"station_name":"Manggabesar","is_transit":false},{"station_name":"Sawah Besar","i_lat":-6.160725,"station_id":"SW","line":2,"transit":false,"i_long":106.827103,"is_transit":false,"time":2,"distance":906},{"i_lat":-6.166716,"station_id":"JUA","line":2,"transit":false,"i_long":106.828284,"is_transit":false,"time":2,"station_name":"Juanda","distance":1149},{"i_long":106.832183,"transit":false,"station_name":"Gondangdia","is_transit":false,"line":2,"station_id":"GDD","time":4,"i_lat":-6.186295,"distance":2015},{"line":2,"is_transit":false,"i_long":106.840169,"distance":1750,"time":3,"station_id":"CKI","transit":false,"i_lat":-6.198556,"station_name":"Cikini"},{"time":4,"i_lat":-6.209883,"distance":1590,"line":2,"transit":false,"station_id":"MRI","i_long":106.84912,"is_transit":false,"station_name":"Manggarai"},{"time":4,"line":2,"distance":2610,"transit":false,"station_id":"TEB","i_lat":-6.226659,"i_long":106.857948,"is_transit":false,"station_name":"Tebet"},{"station_name":"Cawang","time":2,"i_lat":-6.242512,"distance":1230,"i_long":106.856607,"is_transit":false,"transit":false,"station_id":"CW","line":2}],[{"transit":false,"distance":0,"i_lat":-6.128023,"line":4,"i_long":106.84464,"station_id":"AC","time":0,"station_name":"Ancol","is_transit":false},{"is_transit":true,"transit":true,"line":4,"station_id":"KPB","station_name":"Kampung Bandan","distance":2185,"time":4,"i_lat":-6.132549,"i_long":106.826365},{"i_lat":-6.14505,"is_transit":false,"transit":false,"i_long":106.836569,"line":11,"station_name":"Rajawali","distance":1444,"station_id":"RJW","time":3},{"i_long":106.839204,"i_lat":-6.161728,"station_id":"KMO","is_transit":false,"transit":false,"distance":1901,"time":5,"station_name":"Kemayoran","line":11},{"distance":1436,"time":4,"station_name":"Pasar Senen","i_long":106.84368,"line":11,"i_lat":-6.174784,"is_transit":false,"transit":false,"station_id":"PSE"},{"line":11,"station_name":"Gang Sentiong","i_lat":-6.185975,"is_transit":false,"transit":false,"station_id":"GST","time":8,"distance":1567,"i_long":106.850107},{"line":11,"station_id":"KMT","i_lat":-6.193792,"transit":false,"station_name":"Kramat","distance":973,"is_transit":false,"time":1,"i_long":106.855437},{"time":2,"is_transit":false,"transit":false,"station_name":"Pondok Jati","distance":1829,"line":11,"station_id":"POK","i_long":106.861737,"i_lat":-6.209188},{"station_id":"JNG","i_long":106.86807400000001,"transit":true,"line":1,"time":9,"distance":1236,"station_name":"Jatinegara","i_lat":-6.215091,"is_transit":true},{"station_name":"Matraman","time":2,"transit":false,"i_long":106.858896,"distance":1377,"is_transit":false,"station_id":"MTR","line":1,"i_lat":-6.212485},{"line":2,"station_id":"MRI","time":2,"is_transit":true,"transit":true,"i_lat":-6.209883,"i_long":106.84912,"station_name":"Manggarai","distance":1275},{"station_id":"TEB","is_transit":false,"station_name":"Tebet","i_lat":-6.226659,"transit":false,"time":4,"distance":2610,"i_long":106.857948,"line":2},{"line":2,"station_id":"CW","time":2,"distance":1230,"station_name":"Cawang","transit":false,"i_lat":-6.242512,"is_transit":false,"i_long":106.856607}]]}