{"data":[[{"i_long":106.84464,"i_lat":-6.128023,"station_id":"AC","distance":0,"line":0,"transit":false,"is_transit":false,"time":0,"station_name":"Ancol"},{"is_transit":true,"time":4,"line":0,"i_long":106.826365,"transit":false,"station_name":"Kampung Bandan","i_lat":-6.132549,"distance":2185,"station_id":"KPB"},{"is_transit":false,"time":9,"station_id":"AK","i_long":106.79867,"station_name":"Angke","i_lat":-6.144674,"distance":4102,"transit":false,"line":0},{"line":1,"transit":true,"is_transit":true,"i_lat":-6.155215,"distance":1230,"station_id":"DU","station_name":"Duri","time":4,"i_long":106.800832},{"transit":true,"i_long":106.811091,"i_lat":-6.185545,"station_name":"Tanah Abang","time":8,"line":1,"is_transit":true,"distance":3632,"station_id":"THB"},{"transit":false,"i_lat":-6.207404,"line":6,"time":6,"station_name":"Palmerah","distance":3191,"station_id":"PLM","i_long":106.79689,"is_transit":false},{"station_name":"Kebayoran","transit":false,"i_lat":-6.237242,"station_id":"KBY","line":6,"time":7,"i_long":106.780334,"is_transit":false,"distance":3737},{"i_long":106.74273,"line":6,"i_lat":-6.276362,"transit":false,"is_transit":false,"time":8,"station_name":"Pondokranji","distance":6218,"station_id":"PDJ"},{"time":3,"i_lat":-6.288927,"line":6,"station_name":"Jurangmangu","station_id":"JMU","transit":false,"distance":2179,"is_transit":false,"i_long":106.728916},{"transit":false,"i_lat":-6.296963,"i_long":106.712277,"station_name":"Sudimara","line":6,"distance":1994,"station_id":"SDM","time":4,"is_transit":false},{"is_transit":false,"i_lat":-6.314823,"time":6,"transit":false,"line":6,"distance":4566,"station_name":"Rawa Buntu","i_long":106.675475,"station_id":"RU"},{"station_id":"SRP","station_name":"Serpong","line":6,"is_transit":false,"transit":false,"i_long":106.66566,"i_lat":-6.319871,"distance":2413,"time":4},{"i_long":106.640411,"station_id":"CSK","is_transit":false,"time":4,"station_name":"Cisauk","transit":false,"i_lat":-6.32484,"line":0,"distance":1784}],[{"station_name":"Ancol","is_transit":false,"i_lat":-6.128023,"line":0,"time":0,"transit":false,"distance":0,"i_long":106.84464,"station_id":"AC"},{"station_id":"KPB","line":0,"station_name":"Kampung Bandan","transit":false,"i_long":106.826365,"time":4,"distance":2185,"is_transit":true,"i_lat":-6.132549},{"time":3,"i_lat":-6.137569,"transit":true,"distance":1364,"line":0,"i_long":106.812439,"station_name":"Jakarta Kota","is_transit":true,"station_id":"JAKK"},{"transit":false,"i_lat":-6.141205,"line":7,"is_transit":false,"station_id":"JAY","time":4,"station_name":"Jayakarta","i_long":106.820901,"distance":1264},{"distance":1080,"time":2,"i_lat":-6.149769,"line":2,"station_id":"MGB","station_name":"Manggabesar","is_transit":false,"i_long":106.82482,"transit":false},{"i_lat":-6.160725,"transit":false,"time":2,"is_transit":false,"station_id":"SW","distance":906,"station_name":"Sawah Besar","line":2,"i_long":106.827103},{"line":2,"i_lat":-6.166716,"station_id":"JUA","distance":1149,"time":2,"station_name":"Juanda","is_transit":false,"transit":false,"i_long":106.828284},{"transit":false,"time":4,"station_id":"GDD","is_transit":false,"station_name":"Gondangdia","line":2,"distance":2015,"i_long":106.832183,"i_lat":-6.186295},{"time":3,"station_id":"CKI","transit":false,"line":0,"i_long":106.840169,"is_transit":false,"distance":1750,"station_name":"Cikini","i_lat":-6.198556},{"is_transit":true,"i_lat":-6.209883,"time":4,"transit":true,"station_id":"MRI","line":0,"station_name":"Manggarai","i_long":106.84912,"distance":1590},{"station_id":"SUD","transit":false,"distance":3186,"line":1,"i_lat":-6.202263,"i_long":106.822649,"time":4,"station_name":"Sudirman","is_transit":false},{"station_name":"Sudirman Baru","line":1,"distance":280,"station_id":"SUDB","i_lat":-6.201433,"is_transit":false,"time":1,"transit":false,"i_long":106.819881},{"station_name":"Karet","line":1,"distance":471,"is_transit":false,"i_lat":-6.20132,"transit":false,"i_long":106.816351,"station_id":"KAT","time":1},{"time":5,"transit":true,"is_transit":true,"i_lat":-6.185545,"line":1,"i_long":106.811091,"station_name":"Tanah Abang","station_id":"THB","distance":2029},{"is_transit":false,"i_long":106.79689,"i_lat":-6.207404,"line":6,"distance":3191,"time":6,"station_id":"PLM","transit":false,"station_name":"Palmerah"},{"time":7,"distance":3737,"i_lat":-6.237242,"station_id":"KBY","is_transit":false,"station_name":"Kebayoran","line":6,"i_long":106.780334,"transit":false},{"is_transit":false,"i_lat":-6.276362,"distance":6218,"i_long":106.74273,"transit":false,"station_id":"PDJ","station_name":"Pondokranji","line":6,"time":8},{"time":3,"station_name":"Jurangmangu","transit":false,"i_lat":-6.288927,"i_long":106.728916,"station_id":"JMU","line":6,"distance":2179,"is_transit":false},{"is_transit":false,"station_id":"SDM","i_long":106.712277,"station_name":"Sudimara","i_lat":-6.296963,"line":6,"distance":1994,"transit":false,"time":4},{"distance":4566,"station_id":"RU","is_transit":false,"i_lat":-6.314823,"station_name":"Rawa Buntu","time":6,"transit":false,"line":6,"i_long":106.675475},{"station_id":"SRP","time":4,"distance":2413,"is_transit":false,"i_lat":-6.319871,"line":6,"station_name":"Serpong","transit":false,"i_long":106.66566},{"station_id":"CSK","i_lat":-6.32484,"is_transit":false,"line":0,"station_name":"Cisauk","transit":false,"distance":1784,"time":4,"i_long":106.640411}],[{"station_id":"AC","transit":false,"i_long":106.84464,"is_transit":false,"station_name":"Ancol","i_lat":-6.128023,"line":0,"distance":0,"time":0},{"i_lat":-6.132549,"transit":true,"station_id":"KPB","station_name":"Kampung Bandan","line":0,"is_transit":true,"time":4,"distance":2185,"i_long":106.826365},{"i_long":106.836569,"line":11,"station_name":"Rajawali","time":3,"is_transit":false,"transit":false,"station_id":"RJW","i_lat":-6.14505,"distance":1444},{"i_lat":-6.161728,"station_id":"KMO","station_name":"Kemayoran","transit":false,"i_long":106.839204,"line":11,"distance":1901,"is_transit":false,"time":5},{"distance":1436,"station_id":"PSE","station_name":"Pasar Senen","i_long":106.84368,"time":4,"is_transit":false,"line":11,"i_lat":-6.174784,"transit":false},{"is_transit":false,"distance":1567,"i_lat":-6.185975,"time":8,"i_long":106.850107,"station_name":"Gang Sentiong","line":11,"station_id":"GST","transit":false},{"transit":false,"i_lat":-6.193792,"line":11,"station_name":"Kramat","distance":973,"is_transit":false,"time":1,"station_id":"KMT","i_long":106.855437},{"is_transit":false,"transit":false,"i_lat":-6.209188,"station_name":"Pondok Jati","i_long":106.861737,"time":2,"distance":1829,"station_id":"POK","line":11},{"i_long":106.86807400000001,"line":0,"station_id":"JNG","station_name":"Jatinegara","time":9,"i_lat":-6.215091,"distance":1236,"transit":true,"is_transit":true},{"distance":1377,"station_name":"Matraman","line":1,"i_long":106.858896,"i_lat":-6.212485,"time":2,"station_id":"MTR","is_transit":false,"transit":false},{"station_id":"MRI","transit":false,"i_lat":-6.209883,"i_long":106.84912,"station_name":"Manggarai","is_transit":true,"line":0,"time":2,"distance":1275},{"is_transit":false,"distance":3186,"transit":false,"station_name":"Sudirman","i_lat":-6.202263,"line":1,"i_long":106.822649,"time":4,"station_id":"SUD"},{"line":1,"station_id":"SUDB","is_transit":false,"i_lat":-6.201433,"i_long":106.819881,"distance":280,"time":1,"station_name":"Sudirman Baru","transit":false},{"transit":false,"is_transit":false,"i_long":106.816351,"station_name":"Karet","station_id":"KAT","distance":471,"i_lat":-6.20132,"line":1,"time":1},{"i_lat":-6.185545,"station_name":"Tanah Abang","i_long":106.811091,"distance":2029,"line":1,"station_id":"THB","time":5,"is_transit":true,"transit":true},{"is_transit":false,"i_long":106.79689,"transit":false,"line":6,"time":6,"station_name":"Palmerah","station_id":"PLM","i_lat":-6.207404,"distance":3191},{"is_transit":false,"time":7,"station_id":"KBY","distance":3737,"i_long":106.780334,"line":6,"transit":false,"i_lat":-6.237242,"station_name":"Kebayoran"},{"is_transit":false,"distance":6218,"transit":false,"time":8,"i_long":106.74273,"station_id":"PDJ","station_name":"Pondokranji","line":6,"i_lat":-6.276362},{"distance":2179,"is_transit":false,"transit":false,"i_lat":-6.288927,"line":6,"time":3,"station_name":"Jurangmangu","i_long":106.728916,"station_id":"JMU"},{"distance":1994,"station_name":"Sudimara","i_long":106.712277,"time":4,"transit":false,"station_id":"SDM","is_transit":false,"i_lat":-6.296963,"line":6},{"i_lat":-6.314823,"distance":4566,"time":6,"line":6,"transit":false,"station_name":"Rawa Buntu","i_long":106.675475,"station_id":"RU","is_transit":false},{"time":4,"is_transit":false,"transit":false,"distance":2413,"station_name":"Serpong","line":6,"i_long":106.66566,"i_lat":-6.319871,"station_id":"SRP"},{"distance":1784,"station_name":"Cisauk","station_id":"CSK","line":0,"transit":false,"time":4,"is_transit":false,"i_lat":-6.32484,"i_long":106.640411}]]}