{"data":[[{"i_long":106.84464,"i_lat":-6.128023,"distance":0,"time":0,"transit":false,"is_transit":false,"station_id":"AC","line":0,"station_name":"Ancol"},{"distance":2185,"i_lat":-6.132549,"line":0,"is_transit":true,"time":4,"station_name":"Kampung Bandan","i_long":106.826365,"station_id":"KPB","transit":false},{"line":0,"station_id":"AK","i_lat":-6.144674,"distance":4102,"transit":false,"i_long":106.79867,"station_name":"Angke","is_transit":false,"time":9},{"line":1,"i_long":106.800832,"station_name":"Duri","is_transit":true,"station_id":"DU","distance":1230,"transit":true,"time":4,"i_lat":-6.155215},{"i_lat":-6.185545,"station_id":"THB","is_transit":true,"i_long":106.811091,"line":1,"transit":false,"station_name":"Tanah Abang","time":8,"distance":3632},{"is_transit":false,"station_name":"Karet","transit":false,"time":5,"line":1,"distance":2029,"i_lat":-6.20132,"station_id":"KAT","i_long":106.816351},{"station_name":"Sudirman Baru","distance":471,"i_long":106.819881,"transit":false,"i_lat":-6.201433,"is_transit":false,"line":1,"time":1,"station_id":"SUDB"},{"i_long":106.822649,"is_transit":false,"station_id":"SUD","time":1,"transit":false,"distance":280,"station_name":"Sudirman","i_lat":-6.202263,"line":1},{"distance":3186,"is_transit":true,"station_name":"Manggarai","line":0,"transit":true,"time":4,"i_long":106.84912,"station_id":"MRI","i_lat":-6.209883},{"i_lat":-6.226659,"station_name":"Tebet","time":4,"is_transit":false,"line":2,"distance":2610,"i_long":106.857948,"transit":false,"station_id":"TEB"},{"transit":false,"i_lat":-6.242512,"distance":1230,"station_name":"Cawang","is_transit":false,"i_long":106.856607,"time":2,"station_id":"CW","line":0},{"time":3,"is_transit":false,"i_lat":-6.255332,"distance":1546,"transit":false,"line":0,"station_id":"DRN","station_name":"Duren Kalibata","i_long":106.85449},{"i_lat":-6.263214,"distance":824,"time":2,"station_name":"Pasar Minggu Baru","station_id":"PSMB","transit":false,"is_transit":false,"i_long":106.851577,"line":2},{"distance":2380,"station_name":"Pasar Minggu","station_id":"PSM","line":2,"time":2,"is_transit":false,"transit":false,"i_long":106.843999,"i_lat":-6.2842400000000005},{"line":2,"is_transit":false,"i_lat":-6.3080680000000005,"station_id":"TNT","station_name":"Tanjung Barat","transit":false,"i_long":106.838896,"distance":2820,"time":4},{"station_name":"Lenteng Agung","i_lat":-6.330363,"distance":2671,"is_transit":false,"i_long":106.832616,"station_id":"LNA","transit":false,"line":2,"time":3},{"station_id":"UP","station_name":"Univ. Pancasila","time":2,"i_long":106.834175,"line":2,"transit":false,"is_transit":false,"i_lat":-6.339291,"distance":1029},{"station_name":"Univ. Indonesia","line":2,"distance":2264,"time":3,"is_transit":false,"transit":false,"i_lat":-6.360749,"i_long":106.831474,"station_id":"UI"},{"distance":1109,"i_long":106.831114,"i_lat":-6.369073,"transit":false,"station_id":"POC","is_transit":false,"line":2,"time":2,"station_name":"Pondok Cina"},{"station_id":"DPB","time":4,"station_name":"Depokbaru","is_transit":false,"distance":2727,"transit":false,"i_lat":-6.391065,"i_long":106.819451,"line":0},{"i_long":106.816926,"time":3,"line":0,"station_name":"Depok","station_id":"DP","is_transit":false,"distance":1584,"i_lat":-6.405256,"transit":false},{"distance":5084,"i_long":106.800298,"is_transit":true,"line":1,"i_lat":-6.448811,"station_name":"Citayam","transit":false,"station_id":"CTA","time":6},{"distance":6740,"i_lat":-6.46424,"transit":false,"i_long":106.851978,"station_name":"Cibinong","is_transit":false,"line":0,"station_id":"CBN","time":10}],[{"is_transit":false,"station_id":"AC","i_lat":-6.128023,"station_name":"Ancol","i_long":106.84464,"distance":0,"line":0,"time":0,"transit":false},{"station_id":"KPB","station_name":"Kampung Bandan","distance":2185,"line":0,"i_long":106.826365,"i_lat":-6.132549,"is_transit":true,"transit":false,"time":4},{"distance":1364,"is_transit":true,"line":0,"station_name":"Jakarta Kota","time":3,"station_id":"JAKK","transit":true,"i_long":106.812439,"i_lat":-6.137569},{"transit":false,"line":7,"i_long":106.820901,"station_id":"JAY","station_name":"Jayakarta","i_lat":-6.141205,"time":4,"is_transit":false,"distance":1264},{"station_name":"Manggabesar","distance":1080,"station_id":"MGB","is_transit":false,"line":2,"i_lat":-6.149769,"i_long":106.82482,"time":2,"transit":false},{"is_transit":false,"station_name":"Sawah Besar","i_lat":-6.160725,"transit":false,"i_long":106.827103,"line":2,"station_id":"SW","time":2,"distance":906},{"station_id":"JUA","is_transit":false,"station_name":"Juanda","i_lat":-6.166716,"distance":1149,"i_long":106.828284,"line":2,"time":2,"transit":false},{"station_id":"GDD","station_name":"Gondangdia","distance":2015,"line":2,"is_transit":false,"i_long":106.832183,"i_lat":-6.186295,"transit":false,"time":4},{"station_id":"CKI","is_transit":false,"i_lat":-6.198556,"station_name":"Cikini","transit":false,"time":3,"distance":1750,"i_long":106.840169,"line":0},{"transit":true,"station_id":"MRI","distance":1590,"i_long":106.84912,"is_transit":true,"i_lat":-6.209883,"station_name":"Manggarai","time":4,"line":0},{"time":4,"is_transit":false,"station_id":"TEB","transit":false,"distance":2610,"i_long":106.857948,"station_name":"Tebet","line":2,"i_lat":-6.226659},{"line":0,"station_id":"CW","is_transit":false,"station_name":"Cawang","transit":false,"time":2,"distance":1230,"i_long":106.856607,"i_lat":-6.242512},{"transit":false,"distance":1546,"is_transit":false,"i_lat":-6.255332,"line":0,"time":3,"i_long":106.85449,"station_name":"Duren Kalibata","station_id":"DRN"},{"line":2,"station_name":"Pasar Minggu Baru","time":2,"distance":824,"transit":false,"is_transit":false,"i_lat":-6.263214,"station_id":"PSMB","i_long":106.851577},{"i_long":106.843999,"distance":2380,"station_name":"Pasar Minggu","time":2,"i_lat":-6.2842400000000005,"station_id":"PSM","transit":false,"is_transit":false,"line":2},{"is_transit":false,"station_name":"Tanjung Barat","time":4,"transit":false,"line":2,"station_id":"TNT","distance":2820,"i_long":106.838896,"i_lat":-6.3080680000000005},{"station_id":"LNA","is_transit":false,"line":2,"time":3,"distance":2671,"transit":false,"station_name":"Lenteng Agung","i_lat":-6.330363,"i_long":106.832616},{"station_name":"Univ. Pancasila","station_id":"UP","time":2,"transit":false,"is_transit":false,"i_long":106.834175,"line":2,"distance":1029,"i_lat":-6.339291},{"i_long":106.831474,"station_name":"Univ. Indonesia","is_transit":false,"transit":false,"distance":2264,"i_lat":-6.360749,"line":2,"station_id":"UI","time":3},{"distance":1109,"i_lat":-6.369073,"line":2,"is_transit":false,"time":2,"station_id":"POC","station_name":"Pondok Cina","transit":false,"i_long":106.831114},{"is_transit":false,"time":4,"distance":2727,"transit":false,"i_long":106.819451,"line":0,"i_lat":-6.391065,"station_id":"DPB","station_name":"Depokbaru"},{"line":0,"i_long":106.816926,"i_lat":-6.405256,"transit":false,"station_name":"Depok","is_transit":false,"distance":1584,"time":3,"station_id":"DP"},{"time":6,"line":1,"i_long":106.800298,"distance":5084,"i_lat":-6.448811,"station_id":"CTA","station_name":"Citayam","is_transit":true,"transit":false},{"i_long":106.851978,"i_lat":-6.46424,"station_name":"Cibinong","line":0,"distance":6740,"transit":false,"station_id":"CBN","is_transit":false,"time":10}],[{"transit":false,"station_name":"Ancol","distance":0,"station_id":"AC","line":0,"is_transit":false,"time":0,"i_lat":-6.128023,"i_long":106.84464},{"station_id":"KPB","time":4,"transit":true,"station_name":"Kampung Bandan","distance":2185,"is_transit":true,"i_long":106.826365,"line":0,"i_lat":-6.132549},{"is_transit":false,"station_name":"Rajawali","line":11,"i_lat":-6.14505,"transit":false,"i_long":106.836569,"station_id":"RJW","time":3,"distance":1444},{"i_long":106.839204,"station_id":"KMO","time":5,"line":11,"transit":false,"i_lat":-6.161728,"station_name":"Kemayoran","is_transit":false,"distance":1901},{"is_transit":false,"station_name":"Pasar Senen","transit":false,"station_id":"PSE","i_long":106.84368,"i_lat":-6.174784,"line":11,"distance":1436,"time":4},{"station_id":"GST","i_lat":-6.185975,"transit":false,"i_long":106.850107,"distance":1567,"station_name":"Gang Sentiong","is_transit":false,"line":11,"time":8},{"is_transit":false,"distance":973,"station_id":"KMT","transit":false,"i_lat":-6.193792,"station_name":"Kramat","line":11,"time":1,"i_long":106.855437},{"i_long":106.861737,"line":11,"station_name":"Pondok Jati","time":2,"transit":false,"station_id":"POK","distance":1829,"i_lat":-6.209188,"is_transit":false},{"transit":true,"station_id":"JNG","time":9,"i_lat":-6.215091,"station_name":"Jatinegara","line":0,"is_transit":true,"i_long":106.86807400000001,"distance":1236},{"station_id":"MTR","is_transit":false,"line":1,"station_name":"Matraman","time":2,"i_long":106.858896,"transit":false,"i_lat":-6.212485,"distance":1377},{"line":0,"time":2,"i_lat":-6.209883,"is_transit":true,"station_id":"MRI","transit":true,"i_long":106.84912,"station_name":"Manggarai","distance":1275},{"station_id":"TEB","is_transit":false,"line":2,"time":4,"transit":false,"distance":2610,"i_lat":-6.226659,"station_name":"Tebet","i_long":106.857948},{"distance":1230,"i_lat":-6.242512,"line":0,"i_long":106.856607,"transit":false,"is_transit":false,"station_name":"Cawang","time":2,"station_id":"CW"},{"station_id":"DRN","is_transit":false,"time":3,"i_long":106.85449,"distance":1546,"i_lat":-6.255332,"station_name":"Duren Kalibata","line":0,"transit":false},{"i_long":106.851577,"station_id":"PSMB","i_lat":-6.263214,"distance":824,"transit":false,"time":2,"line":2,"station_name":"Pasar Minggu Baru","is_transit":false},{"i_lat":-6.2842400000000005,"transit":false,"i_long":106.843999,"station_id":"PSM","station_name":"Pasar Minggu","time":2,"distance":2380,"line":2,"is_transit":false},{"line":2,"distance":2820,"i_lat":-6.3080680000000005,"station_id":"TNT","time":4,"is_transit":false,"station_name":"Tanjung Barat","transit":false,"i_long":106.838896},{"is_transit":false,"station_id":"LNA","station_name":"Lenteng Agung","distance":2671,"line":2,"i_long":106.832616,"transit":false,"time":3,"i_lat":-6.330363},{"distance":1029,"station_id":"UP","station_name":"Univ. Pancasila","i_lat":-6.339291,"line":2,"transit":false,"i_long":106.834175,"is_transit":false,"time":2},{"time":3,"i_lat":-6.360749,"line":2,"is_transit":false,"station_id":"UI","transit":false,"distance":2264,"station_name":"Univ. Indonesia","i_long":106.831474},{"is_transit":false,"time":2,"station_id":"POC","station_name":"Pondok Cina","i_long":106.831114,"line":2,"distance":1109,"i_lat":-6.369073,"transit":false},{"i_long":106.819451,"is_transit":false,"station_name":"Depokbaru","time":4,"transit":false,"line":0,"station_id":"DPB","i_lat":-6.391065,"distance":2727},{"line":0,"transit":false,"time":3,"station_id":"DP","distance":1584,"is_transit":false,"i_long":106.816926,"station_name":"Depok","i_lat":-6.405256},{"time":6,"i_long":106.800298,"i_lat":-6.448811,"station_id":"CTA","is_transit":true,"line":1,"station_name":"Citayam","transit":false,"distance":5084},{"transit":false,"line":0,"time":10,"distance":6740,"station_name":"Cibinong","is_transit":false,"i_lat":-6.46424,"station_id":"CBN","i_long":106.851978}]]}