{"data":[[{"time":0,"transit":false,"is_transit":false,"station_name":"Ancol","distance":0,"i_lat":-6.128023,"i_long":106.84464,"line":4,"station_id":"AC"},{"station_name":"Kampung Bandan","is_transit":true,"time":4,"transit":true,"distance":2185,"line":4,"i_lat":-6.132549,"i_long":106.826365,"station_id":"KPB"},{"i_lat":-6.144674,"line":1,"station_id":"AK","transit":false,"i_long":106.79867,"is_transit":false,"station_name":"Angke","time":9,"distance":4102},{"is_transit":false,"station_id":"DU","i_lat":-6.155215,"distance":1230,"i_long":106.800832,"line":1,"transit":false,"station_name":"Duri","time":4},{"i_lat":-6.185545,"station_id":"THB","is_transit":false,"transit":false,"distance":3632,"time":8,"i_long":106.811091,"line":1,"station_name":"Tanah Abang"},{"line":1,"station_name":"Karet","transit":false,"i_lat":-6.20132,"distance":2029,"i_long":106.816351,"is_transit":false,"station_id":"KAT","time":5},{"transit":false,"station_name":"Sudirman Baru","is_transit":false,"i_long":106.819881,"line":1,"time":1,"station_id":"SUDB","distance":471,"i_lat":-6.201433},{"is_transit":false,"i_long":106.822649,"time":1,"distance":280,"i_lat":-6.202263,"station_id":"SUD","station_name":"Sudirman","transit":false,"line":1},{"station_id":"MRI","line":2,"station_name":"Manggarai","distance":3186,"transit":true,"i_lat":-6.209883,"time":4,"is_transit":true,"i_long":106.84912},{"is_transit":false,"distance":2610,"transit":false,"i_lat":-6.226659,"station_id":"TEB","station_name":"Tebet","time":4,"i_long":106.857948,"line":2},{"transit":false,"line":2,"time":2,"station_name":"Cawang","station_id":"CW","is_transit":false,"distance":1230,"i_lat":-6.242512,"i_long":106.856607},{"is_transit":false,"distance":1546,"i_lat":-6.255332,"line":2,"time":3,"station_id":"DRN","transit":false,"i_long":106.85449,"station_name":"Duren Kalibata"},{"is_transit":false,"i_long":106.851577,"line":2,"station_name":"Pasar Minggu Baru","transit":false,"station_id":"PSMB","time":2,"distance":824,"i_lat":-6.263214},{"i_lat":-6.2842400000000005,"station_id":"PSM","distance":2380,"time":2,"is_transit":false,"line":2,"transit":false,"i_long":106.843999,"station_name":"Pasar Minggu"},{"distance":2820,"transit":false,"station_id":"TNT","is_transit":false,"time":4,"station_name":"Tanjung Barat","i_long":106.838896,"line":2,"i_lat":-6.3080680000000005},{"station_id":"LNA","is_transit":false,"transit":false,"time":3,"i_lat":-6.330363,"i_long":106.832616,"distance":2671,"station_name":"Lenteng Agung","line":2},{"i_lat":-6.339291,"station_id":"UP","i_long":106.834175,"station_name":"Univ. Pancasila","distance":1029,"time":2,"transit":false,"line":2,"is_transit":false},{"station_id":"UI","transit":false,"station_name":"Univ. Indonesia","distance":2264,"is_transit":false,"time":3,"i_lat":-6.360749,"i_long":106.831474,"line":2},{"time":2,"i_lat":-6.369073,"is_transit":false,"distance":1109,"station_id":"POC","station_name":"Pondok Cina","i_long":106.831114,"transit":false,"line":2},{"time":4,"is_transit":false,"transit":false,"i_lat":-6.391065,"i_long":106.819451,"line":2,"station_id":"DPB","station_name":"Depokbaru","distance":2727},{"time":3,"transit":false,"i_lat":-6.405256,"distance":1584,"i_long":106.816926,"line":2,"station_id":"DP","station_name":"Depok","is_transit":false},{"i_long":106.800298,"time":6,"transit":true,"is_transit":true,"distance":5084,"station_id":"CTA","i_lat":-6.448811,"station_name":"Citayam","line":2},{"distance":0,"i_lat":-6.460735,"time":0,"is_transit":false,"transit":false,"station_id":"PDRG","i_long":106.824374,"line":21,"station_name":"Pondok Rajeg"},{"line":21,"time":0,"station_name":"Cibinong","station_id":"CBN","distance":0,"transit":false,"is_transit":false,"i_long":106.851978,"i_lat":-6.46424}],[{"line":4,"station_name":"Ancol","transit":false,"station_id":"AC","is_transit":false,"distance":0,"i_lat":-6.128023,"i_long":106.84464,"time":0},{"station_name":"Kampung Bandan","is_transit":true,"time":4,"station_id":"KPB","line":4,"i_long":106.826365,"i_lat":-6.132549,"distance":2185,"transit":true},{"is_transit":true,"i_lat":-6.137569,"line":2,"time":3,"station_name":"Jakarta Kota","i_long":106.812439,"distance":1364,"station_id":"JAKK","transit":true},{"is_transit":false,"transit":false,"station_name":"Jayakarta","time":4,"distance":1264,"station_id":"JAY","i_long":106.820901,"line":2,"i_lat":-6.141205},{"transit":false,"time":2,"i_lat":-6.149769,"line":2,"i_long":106.82482,"station_id":"MGB","distance":1080,"station_name":"Manggabesar","is_transit":false},{"i_lat":-6.160725,"time":2,"station_name":"Sawah Besar","is_transit":false,"distance":906,"station_id":"SW","i_long":106.827103,"line":2,"transit":false},{"time":2,"station_id":"JUA","is_transit":false,"i_lat":-6.166716,"line":2,"distance":1149,"station_name":"Juanda","i_long":106.828284,"transit":false},{"station_id":"GDD","time":4,"distance":2015,"i_lat":-6.186295,"i_long":106.832183,"transit":false,"station_name":"Gondangdia","is_transit":false,"line":2},{"distance":1750,"time":3,"i_lat":-6.198556,"is_transit":false,"i_long":106.840169,"transit":false,"line":2,"station_id":"CKI","station_name":"Cikini"},{"station_name":"Manggarai","i_lat":-6.209883,"i_long":106.84912,"line":2,"station_id":"MRI","is_transit":false,"time":4,"distance":1590,"transit":false},{"is_transit":false,"station_name":"Tebet","line":2,"time":4,"distance":2610,"i_long":106.857948,"transit":false,"i_lat":-6.226659,"station_id":"TEB"},{"station_id":"CW","is_transit":false,"time":2,"i_long":106.856607,"station_name":"Cawang","transit":false,"i_lat":-6.242512,"line":2,"distance":1230},{"distance":1546,"i_long":106.85449,"station_name":"Duren Kalibata","line":2,"station_id":"DRN","transit":false,"i_lat":-6.255332,"time":3,"is_transit":false},{"is_transit":false,"i_lat":-6.263214,"station_id":"PSMB","distance":824,"time":2,"line":2,"station_name":"Pasar Minggu Baru","transit":false,"i_long":106.851577},{"time":2,"line":2,"station_id":"PSM","transit":false,"is_transit":false,"distance":2380,"i_lat":-6.2842400000000005,"station_name":"Pasar Minggu","i_long":106.843999},{"distance":2820,"time":4,"transit":false,"i_lat":-6.3080680000000005,"is_transit":false,"line":2,"station_name":"Tanjung Barat","i_long":106.838896,"station_id":"TNT"},{"transit":false,"distance":2671,"time":3,"station_name":"Lenteng Agung","i_lat":-6.330363,"i_long":106.832616,"station_id":"LNA","is_transit":false,"line":2},{"i_lat":-6.339291,"line":2,"transit":false,"station_id":"UP","is_transit":false,"station_name":"Univ. Pancasila","i_long":106.834175,"time":2,"distance":1029},{"time":3,"station_name":"Univ. Indonesia","transit":false,"distance":2264,"line":2,"i_lat":-6.360749,"station_id":"UI","is_transit":false,"i_long":106.831474},{"i_lat":-6.369073,"distance":1109,"i_long":106.831114,"station_name":"Pondok Cina","transit":false,"time":2,"station_id":"POC","line":2,"is_transit":false},{"station_id":"DPB","i_long":106.819451,"is_transit":false,"time":4,"i_lat":-6.391065,"station_name":"Depokbaru","line":2,"distance":2727,"transit":false},{"line":2,"distance":1584,"i_long":106.816926,"i_lat":-6.405256,"transit":false,"station_id":"DP","station_name":"Depok","is_transit":false,"time":3},{"transit":true,"is_transit":true,"station_name":"Citayam","distance":5084,"i_lat":-6.448811,"time":6,"i_long":106.800298,"station_id":"CTA","line":2},{"is_transit":false,"station_name":"Pondok Rajeg","line":21,"i_long":106.824374,"station_id":"PDRG","i_lat":-6.460735,"time":0,"distance":0,"transit":false},{"i_lat":-6.46424,"station_id":"CBN","line":21,"distance":0,"is_transit":false,"i_long":106.851978,"station_name":"Cibinong","time":0,"transit":false}],[{"time":0,"station_id":"AC","station_name":"Ancol","is_transit":false,"distance":0,"i_long":106.84464,"transit":false,"i_lat":-6.128023,"line":4},{"time":4,"line":4,"is_transit":true,"distance":2185,"transit":true,"i_lat":-6.132549,"i_long":106.826365,"station_id":"KPB","station_name":"Kampung Bandan"},{"transit":false,"i_long":106.836569,"line":11,"time":3,"is_transit":false,"station_name":"Rajawali","distance":1444,"i_lat":-6.14505,"station_id":"RJW"},{"time":5,"i_long":106.839204,"line":11,"i_lat":-6.161728,"station_id":"KMO","distance":1901,"station_name":"Kemayoran","is_transit":false,"transit":false},{"distance":1436,"is_transit":false,"i_long":106.84368,"station_id":"PSE","station_name":"Pasar Senen","time":4,"line":11,"transit":false,"i_lat":-6.174784},{"transit":false,"i_long":106.850107,"line":11,"is_transit":false,"time":8,"distance":1567,"i_lat":-6.185975,"station_id":"GST","station_name":"Gang Sentiong"},{"distance":973,"time":1,"i_lat":-6.193792,"station_id":"KMT","i_long":106.855437,"is_transit":false,"transit":false,"station_name":"Kramat","line":11},{"i_long":106.861737,"line":11,"time":2,"is_transit":false,"distance":1829,"station_name":"Pondok Jati","transit":false,"i_lat":-6.209188,"station_id":"POK"},{"station_id":"JNG","transit":true,"station_name":"Jatinegara","line":1,"i_long":106.86807400000001,"is_transit":true,"distance":1236,"time":9,"i_lat":-6.215091},{"transit":false,"station_name":"Matraman","is_transit":false,"line":1,"i_lat":-6.212485,"station_id":"MTR","time":2,"distance":1377,"i_long":106.858896},{"station_id":"MRI","is_transit":true,"distance":1275,"time":2,"line":2,"station_name":"Manggarai","transit":true,"i_lat":-6.209883,"i_long":106.84912},{"i_long":106.857948,"line":2,"station_name":"Tebet","time":4,"is_transit":false,"station_id":"TEB","transit":false,"distance":2610,"i_lat":-6.226659},{"time":2,"station_id":"CW","i_lat":-6.242512,"i_long":106.856607,"line":2,"transit":false,"station_name":"Cawang","distance":1230,"is_transit":false},{"i_lat":-6.255332,"station_id":"DRN","i_long":106.85449,"station_name":"Duren Kalibata","time":3,"distance":1546,"transit":false,"is_transit":false,"line":2},{"is_transit":false,"time":2,"station_id":"PSMB","distance":824,"i_lat":-6.263214,"i_long":106.851577,"line":2,"transit":false,"station_name":"Pasar Minggu Baru"},{"is_transit":false,"i_long":106.843999,"line":2,"i_lat":-6.2842400000000005,"transit":false,"time":2,"distance":2380,"station_id":"PSM","station_name":"Pasar Minggu"},{"i_long":106.838896,"i_lat":-6.3080680000000005,"is_transit":false,"line":2,"distance":2820,"time":4,"transit":false,"station_id":"TNT","station_name":"Tanjung Barat"},{"i_long":106.832616,"line":2,"time":3,"distance":2671,"i_lat":-6.330363,"transit":false,"station_name":"Lenteng Agung","is_transit":false,"station_id":"LNA"},{"time":2,"i_lat":-6.339291,"is_transit":false,"transit":false,"i_long":106.834175,"line":2,"distance":1029,"station_name":"Univ. Pancasila","station_id":"UP"},{"transit":false,"i_lat":-6.360749,"distance":2264,"station_id":"UI","is_transit":false,"time":3,"station_name":"Univ. Indonesia","i_long":106.831474,"line":2},{"i_lat":-6.369073,"transit":false,"distance":1109,"time":2,"line":2,"i_long":106.831114,"station_name":"Pondok Cina","station_id":"POC","is_transit":false},{"i_long":106.819451,"station_name":"Depokbaru","station_id":"DPB","time":4,"transit":false,"distance":2727,"i_lat":-6.391065,"line":2,"is_transit":false},{"station_id":"DP","i_lat":-6.405256,"time":3,"line":2,"transit":false,"is_transit":false,"distance":1584,"station_name":"Depok","i_long":106.816926},{"i_lat":-6.448811,"transit":true,"time":6,"station_id":"CTA","i_long":106.800298,"line":2,"station_name":"Citayam","distance":5084,"is_transit":true},{"is_transit":false,"transit":false,"station_id":"PDRG","i_lat":-6.460735,"i_long":106.824374,"station_name":"Pondok Rajeg","distance":0,"line":21,"time":0},{"transit":false,"distance":0,"line":21,"station_name":"Cibinong","is_transit":false,"i_long":106.851978,"station_id":"CBN","time":0,"i_lat":-6.46424}]]}