{"data":[[{"line":4,"time":0,"station_name":"Ancol","is_transit":false,"station_id":"AC","i_long":106.84464,"transit":false,"distance":0,"i_lat":-6.128023},{"distance":2185,"station_name":"Kampung Bandan","time":4,"is_transit":true,"i_lat":-6.132549,"i_long":106.826365,"line":4,"station_id":"KPB","transit":true},{"i_lat":-6.14505,"line":11,"transit":false,"station_name":"Rajawali","is_transit":false,"distance":1444,"station_id":"RJW","i_long":106.836569,"time":3},{"station_id":"KMO","station_name":"Kemayoran","i_lat":-6.161728,"transit":false,"distance":1901,"is_transit":false,"time":5,"line":11,"i_long":106.839204},{"time":4,"station_id":"PSE","i_long":106.84368,"transit":false,"distance":1436,"i_lat":-6.174784,"line":11,"is_transit":false,"station_name":"Pasar Senen"},{"station_name":"Gang Sentiong","time":8,"distance":1567,"station_id":"GST","i_long":106.850107,"line":11,"i_lat":-6.185975,"is_transit":false,"transit":false},{"time":1,"station_id":"KMT","station_name":"Kramat","distance":973,"is_transit":false,"i_long":106.855437,"i_lat":-6.193792,"line":11,"transit":false},{"i_long":106.861737,"time":2,"transit":false,"is_transit":false,"i_lat":-6.209188,"station_name":"Pondok Jati","line":11,"station_id":"POK","distance":1829},{"transit":true,"is_transit":true,"station_name":"Jatinegara","line":1,"time":9,"station_id":"JNG","distance":1236,"i_lat":-6.215091,"i_long":106.86807400000001},{"station_name":"Klender","i_lat":-6.2135,"i_long":106.899548,"transit":false,"is_transit":false,"station_id":"KLD","time":3,"distance":3395,"line":1},{"station_name":"Buaran","transit":false,"time":2,"station_id":"BUA","distance":3100,"i_lat":-6.215568,"is_transit":false,"i_long":106.922662,"line":1},{"time":1,"transit":false,"is_transit":false,"station_name":"Klenderbaru","i_long":106.939679,"distance":1305,"i_lat":-6.217455,"station_id":"KLDB","line":1},{"is_transit":false,"line":1,"station_name":"Cakung","i_long":106.951283,"distance":1385,"transit":false,"station_id":"CUK","time":8,"i_lat":-6.219053}],[{"i_lat":-6.128023,"is_transit":false,"time":0,"station_id":"AC","line":4,"distance":0,"transit":false,"station_name":"Ancol","i_long":106.84464},{"station_name":"Kampung Bandan","i_long":106.826365,"line":4,"transit":true,"i_lat":-6.132549,"distance":2185,"is_transit":true,"time":4,"station_id":"KPB"},{"transit":false,"line":1,"station_id":"AK","time":9,"i_lat":-6.144674,"i_long":106.79867,"distance":4102,"station_name":"Angke","is_transit":false},{"transit":false,"station_id":"DU","i_long":106.800832,"line":1,"station_name":"Duri","time":4,"i_lat":-6.155215,"is_transit":false,"distance":1230},{"station_name":"Tanah Abang","is_transit":false,"station_id":"THB","line":1,"i_long":106.811091,"transit":false,"distance":3632,"time":8,"i_lat":-6.185545},{"i_long":106.816351,"station_name":"Karet","station_id":"KAT","line":1,"distance":2029,"time":5,"is_transit":false,"transit":false,"i_lat":-6.20132},{"i_long":106.819881,"line":1,"station_name":"Sudirman Baru","station_id":"SUDB","distance":471,"transit":false,"time":1,"i_lat":-6.201433,"is_transit":false},{"i_long":106.822649,"transit":false,"line":1,"distance":280,"time":1,"i_lat":-6.202263,"is_transit":false,"station_name":"Sudirman","station_id":"SUD"},{"distance":3186,"i_long":106.84912,"is_transit":false,"transit":false,"time":4,"station_id":"MRI","station_name":"Manggarai","i_lat":-6.209883,"line":2},{"line":1,"time":2,"i_lat":-6.212485,"transit":false,"station_name":"Matraman","is_transit":false,"station_id":"MTR","distance":1275,"i_long":106.858896},{"station_id":"JNG","time":8,"line":1,"distance":1377,"i_lat":-6.215091,"i_long":106.86807400000001,"transit":false,"is_transit":false,"station_name":"Jatinegara"},{"i_long":106.899548,"i_lat":-6.2135,"station_id":"KLD","time":3,"line":1,"is_transit":false,"transit":false,"station_name":"Klender","distance":3395},{"is_transit":false,"i_long":106.922662,"i_lat":-6.215568,"transit":false,"time":2,"station_name":"Buaran","station_id":"BUA","distance":3100,"line":1},{"station_name":"Klenderbaru","i_lat":-6.217455,"distance":1305,"i_long":106.939679,"station_id":"KLDB","line":1,"is_transit":false,"transit":false,"time":1},{"time":8,"distance":1385,"i_lat":-6.219053,"i_long":106.951283,"station_name":"Cakung","line":1,"station_id":"CUK","transit":false,"is_transit":false}],[{"time":0,"distance":0,"is_transit":false,"transit":false,"i_lat":-6.128023,"station_name":"Ancol","station_id":"AC","line":4,"i_long":106.84464},{"transit":true,"station_id":"KPB","i_lat":-6.132549,"i_long":106.826365,"station_name":"Kampung Bandan","line":4,"is_transit":true,"distance":2185,"time":4},{"transit":true,"distance":1364,"is_transit":true,"i_lat":-6.137569,"i_long":106.812439,"line":2,"station_id":"JAKK","time":3,"station_name":"Jakarta Kota"},{"distance":1264,"line":2,"station_name":"Jayakarta","transit":false,"i_lat":-6.141205,"station_id":"JAY","is_transit":false,"time":4,"i_long":106.820901},{"transit":false,"i_long":106.82482,"station_name":"Manggabesar","i_lat":-6.149769,"is_transit":false,"line":2,"station_id":"MGB","distance":1080,"time":2},{"time":2,"i_lat":-6.160725,"is_transit":false,"station_name":"Sawah Besar","station_id":"SW","i_long":106.827103,"transit":false,"line":2,"distance":906},{"is_transit":false,"transit":false,"station_name":"Juanda","i_lat":-6.166716,"station_id":"JUA","line":2,"distance":1149,"i_long":106.828284,"time":2},{"line":2,"transit":false,"i_long":106.832183,"distance":2015,"station_id":"GDD","station_name":"Gondangdia","is_transit":false,"time":4,"i_lat":-6.186295},{"i_lat":-6.198556,"i_long":106.840169,"station_id":"CKI","line":2,"station_name":"Cikini","time":3,"is_transit":false,"transit":false,"distance":1750},{"time":4,"station_id":"MRI","i_long":106.84912,"station_name":"Manggarai","is_transit":true,"transit":true,"i_lat":-6.209883,"line":2,"distance":1590},{"transit":false,"station_id":"MTR","is_transit":false,"i_lat":-6.212485,"line":1,"distance":1275,"i_long":106.858896,"station_name":"Matraman","time":2},{"station_name":"Jatinegara","is_transit":false,"i_long":106.86807400000001,"time":8,"station_id":"JNG","transit":false,"line":1,"distance":1377,"i_lat":-6.215091},{"time":3,"distance":3395,"i_long":106.899548,"station_id":"KLD","station_name":"Klender","i_lat":-6.2135,"line":1,"is_transit":false,"transit":false},{"station_id":"BUA","i_lat":-6.215568,"i_long":106.922662,"is_transit":false,"line":1,"transit":false,"station_name":"Buaran","time":2,"distance":3100},{"line":1,"station_name":"Klenderbaru","distance":1305,"is_transit":false,"i_long":106.939679,"i_lat":-6.217455,"transit":false,"station_id":"KLDB","time":1},{"i_lat":-6.219053,"line":1,"station_id":"CUK","transit":false,"is_transit":false,"time":8,"i_long":106.951283,"station_name":"Cakung","distance":1385}]]}