{"data":[[{"is_transit":false,"i_lat":-6.128023,"i_long":106.84464,"line":4,"distance":0,"station_name":"Ancol","station_id":"AC","transit":false,"time":0},{"line":4,"i_long":106.826365,"time":4,"station_id":"KPB","transit":true,"is_transit":true,"distance":2185,"station_name":"Kampung Bandan","i_lat":-6.132549},{"transit":false,"station_name":"Jakarta Kota","is_transit":false,"line":2,"i_lat":-6.137569,"distance":1364,"station_id":"JAKK","time":3,"i_long":106.812439}],[{"transit":false,"station_id":"AC","is_transit":false,"i_lat":-6.128023,"distance":0,"time":0,"station_name":"Ancol","line":4,"i_long":106.84464},{"distance":2185,"i_long":106.826365,"time":4,"transit":true,"is_transit":true,"line":4,"station_name":"Kampung Bandan","station_id":"KPB","i_lat":-6.132549},{"distance":4102,"i_long":106.79867,"i_lat":-6.144674,"transit":false,"is_transit":false,"station_id":"AK","time":9,"line":1,"station_name":"Angke"},{"station_name":"Duri","is_transit":false,"distance":1230,"station_id":"DU","i_long":106.800832,"time":4,"i_lat":-6.155215,"line":1,"transit":false},{"distance":3632,"i_long":106.811091,"i_lat":-6.185545,"station_name":"Tanah Abang","transit":false,"time":8,"station_id":"THB","line":1,"is_transit":false},{"transit":false,"distance":2029,"line":1,"i_long":106.816351,"station_name":"Karet","station_id":"KAT","is_transit":false,"time":5,"i_lat":-6.20132},{"time":1,"station_name":"Sudirman Baru","i_long":106.819881,"i_lat":-6.201433,"line":1,"is_transit":false,"transit":false,"station_id":"SUDB","distance":471},{"is_transit":false,"transit":false,"i_lat":-6.202263,"time":1,"station_name":"Sudirman","i_long":106.822649,"station_id":"SUD","distance":280,"line":1},{"i_long":106.84912,"is_transit":true,"distance":3186,"transit":true,"station_id":"MRI","time":4,"i_lat":-6.209883,"station_name":"Manggarai","line":2},{"station_id":"CKI","station_name":"Cikini","i_long":106.840169,"is_transit":false,"line":2,"i_lat":-6.198556,"time":4,"transit":false,"distance":1590},{"time":3,"i_lat":-6.186295,"station_id":"GDD","transit":false,"is_transit":false,"distance":1750,"line":2,"station_name":"Gondangdia","i_long":106.832183},{"i_long":106.828284,"is_transit":false,"station_id":"JUA","distance":2015,"station_name":"Juanda","i_lat":-6.166716,"time":4,"transit":false,"line":2},{"station_name":"Sawah Besar","station_id":"SW","time":2,"line":2,"distance":1149,"is_transit":false,"transit":false,"i_lat":-6.160725,"i_long":106.827103},{"line":2,"is_transit":false,"i_lat":-6.149769,"distance":906,"transit":false,"station_id":"MGB","time":2,"station_name":"Manggabesar","i_long":106.82482},{"distance":1080,"transit":false,"station_id":"JAY","station_name":"Jayakarta","i_lat":-6.141205,"line":2,"i_long":106.820901,"is_transit":false,"time":2},{"distance":1264,"station_name":"Jakarta Kota","line":2,"transit":false,"time":4,"i_lat":-6.137569,"station_id":"JAKK","i_long":106.812439,"is_transit":false}],[{"station_id":"AC","line":4,"time":0,"i_lat":-6.128023,"distance":0,"i_long":106.84464,"station_name":"Ancol","transit":false,"is_transit":false},{"i_lat":-6.132549,"i_long":106.826365,"station_id":"KPB","station_name":"Kampung Bandan","line":4,"distance":2185,"is_transit":true,"transit":true,"time":4},{"i_long":106.836569,"i_lat":-6.14505,"distance":1444,"transit":false,"is_transit":false,"time":3,"station_name":"Rajawali","line":11,"station_id":"RJW"},{"i_lat":-6.161728,"transit":false,"is_transit":false,"line":11,"time":5,"distance":1901,"station_id":"KMO","station_name":"Kemayoran","i_long":106.839204},{"i_lat":-6.174784,"i_long":106.84368,"line":11,"is_transit":false,"station_name":"Pasar Senen","station_id":"PSE","transit":false,"time":4,"distance":1436},{"i_long":106.850107,"line":11,"distance":1567,"is_transit":false,"transit":false,"station_name":"Gang Sentiong","time":8,"station_id":"GST","i_lat":-6.185975},{"time":1,"i_lat":-6.193792,"line":11,"i_long":106.855437,"is_transit":false,"distance":973,"station_name":"Kramat","transit":false,"station_id":"KMT"},{"time":2,"transit":false,"station_id":"POK","distance":1829,"line":11,"i_lat":-6.209188,"is_transit":false,"i_long":106.861737,"station_name":"Pondok Jati"},{"i_long":106.86807400000001,"line":1,"is_transit":true,"station_id":"JNG","station_name":"Jatinegara","i_lat":-6.215091,"distance":1236,"time":9,"transit":true},{"station_id":"MTR","station_name":"Matraman","is_transit":false,"line":1,"time":2,"i_lat":-6.212485,"distance":1377,"i_long":106.858896,"transit":false},{"distance":1275,"station_id":"MRI","line":2,"station_name":"Manggarai","transit":true,"i_lat":-6.209883,"time":2,"is_transit":true,"i_long":106.84912},{"station_id":"CKI","transit":false,"time":4,"i_long":106.840169,"i_lat":-6.198556,"is_transit":false,"distance":1590,"station_name":"Cikini","line":2},{"station_name":"Gondangdia","station_id":"GDD","transit":false,"is_transit":false,"i_long":106.832183,"line":2,"time":3,"distance":1750,"i_lat":-6.186295},{"station_name":"Juanda","i_long":106.828284,"is_transit":false,"distance":2015,"station_id":"JUA","time":4,"i_lat":-6.166716,"transit":false,"line":2},{"distance":1149,"is_transit":false,"time":2,"i_lat":-6.160725,"transit":false,"i_long":106.827103,"line":2,"station_id":"SW","station_name":"Sawah Besar"},{"distance":906,"time":2,"i_lat":-6.149769,"station_name":"Manggabesar","transit":false,"i_long":106.82482,"line":2,"is_transit":false,"station_id":"MGB"},{"is_transit":false,"time":2,"line":2,"transit":false,"station_id":"JAY","distance":1080,"i_lat":-6.141205,"station_name":"Jayakarta","i_long":106.820901},{"is_transit":false,"distance":1264,"time":4,"transit":false,"line":2,"i_long":106.812439,"station_name":"Jakarta Kota","i_lat":-6.137569,"station_id":"JAKK"}]]}