{"data":[[{"distance":0,"i_long":106.84464,"time":0,"line":4,"station_name":"Ancol","transit":false,"station_id":"AC","i_lat":-6.128023,"is_transit":false},{"station_name":"Kampung Bandan","line":4,"is_transit":true,"distance":2185,"station_id":"KPB","i_lat":-6.132549,"i_long":106.826365,"time":4,"transit":true},{"line":11,"is_transit":false,"time":3,"transit":false,"i_long":106.836569,"distance":1444,"station_id":"RJW","i_lat":-6.14505,"station_name":"Rajawali"},{"station_name":"Kemayoran","i_long":106.839204,"is_transit":false,"station_id":"KMO","time":5,"i_lat":-6.161728,"line":11,"transit":false,"distance":1901},{"transit":false,"distance":1436,"station_id":"PSE","i_lat":-6.174784,"line":11,"station_name":"Pasar Senen","is_transit":false,"time":4,"i_long":106.84368},{"line":11,"distance":1567,"transit":false,"i_lat":-6.185975,"is_transit":false,"time":8,"i_long":106.850107,"station_id":"GST","station_name":"Gang Sentiong"},{"is_transit":false,"station_name":"Kramat","transit":false,"station_id":"KMT","time":1,"distance":973,"i_lat":-6.193792,"i_long":106.855437,"line":11},{"i_long":106.861737,"line":11,"station_name":"Pondok Jati","transit":false,"is_transit":false,"i_lat":-6.209188,"distance":1829,"station_id":"POK","time":2},{"transit":false,"line":1,"is_transit":false,"time":9,"distance":1236,"station_name":"Jatinegara","i_long":106.86807400000001,"i_lat":-6.215091,"station_id":"JNG"}],[{"distance":0,"time":0,"i_lat":-6.128023,"transit":false,"line":4,"station_name":"Ancol","is_transit":false,"station_id":"AC","i_long":106.84464},{"transit":true,"i_long":106.826365,"is_transit":true,"time":4,"station_id":"KPB","line":4,"station_name":"Kampung Bandan","distance":2185,"i_lat":-6.132549},{"station_name":"Angke","i_long":106.79867,"transit":false,"i_lat":-6.144674,"distance":4102,"station_id":"AK","line":1,"is_transit":false,"time":9},{"transit":false,"station_name":"Duri","time":4,"i_long":106.800832,"is_transit":false,"station_id":"DU","distance":1230,"i_lat":-6.155215,"line":1},{"station_name":"Tanah Abang","i_long":106.811091,"station_id":"THB","line":1,"is_transit":false,"time":8,"transit":false,"i_lat":-6.185545,"distance":3632},{"time":5,"line":1,"station_id":"KAT","distance":2029,"i_long":106.816351,"i_lat":-6.20132,"transit":false,"station_name":"Karet","is_transit":false},{"distance":471,"station_id":"SUDB","i_lat":-6.201433,"i_long":106.819881,"transit":false,"is_transit":false,"time":1,"station_name":"Sudirman Baru","line":1},{"i_lat":-6.202263,"distance":280,"station_name":"Sudirman","station_id":"SUD","transit":false,"time":1,"i_long":106.822649,"line":1,"is_transit":false},{"i_lat":-6.209883,"time":4,"station_id":"MRI","transit":false,"i_long":106.84912,"is_transit":false,"line":2,"station_name":"Manggarai","distance":3186},{"distance":1275,"line":1,"station_name":"Matraman","transit":false,"time":2,"i_lat":-6.212485,"station_id":"MTR","i_long":106.858896,"is_transit":false},{"time":8,"line":1,"station_name":"Jatinegara","station_id":"JNG","is_transit":false,"i_long":106.86807400000001,"transit":false,"distance":1377,"i_lat":-6.215091}],[{"station_id":"AC","i_long":106.84464,"distance":0,"line":4,"transit":false,"time":0,"is_transit":false,"station_name":"Ancol","i_lat":-6.128023},{"time":4,"i_lat":-6.132549,"is_transit":true,"transit":true,"i_long":106.826365,"station_id":"KPB","station_name":"Kampung Bandan","line":4,"distance":2185},{"line":2,"distance":1364,"is_transit":true,"station_id":"JAKK","i_long":106.812439,"transit":true,"station_name":"Jakarta Kota","i_lat":-6.137569,"time":3},{"i_lat":-6.141205,"station_id":"JAY","time":4,"station_name":"Jayakarta","is_transit":false,"transit":false,"i_long":106.820901,"line":2,"distance":1264},{"transit":false,"i_lat":-6.149769,"is_transit":false,"station_name":"Manggabesar","time":2,"distance":1080,"station_id":"MGB","i_long":106.82482,"line":2},{"station_name":"Sawah Besar","line":2,"i_lat":-6.160725,"transit":false,"distance":906,"station_id":"SW","time":2,"i_long":106.827103,"is_transit":false},{"line":2,"station_name":"Juanda","is_transit":false,"i_long":106.828284,"station_id":"JUA","transit":false,"i_lat":-6.166716,"distance":1149,"time":2},{"station_name":"Gondangdia","distance":2015,"i_long":106.832183,"station_id":"GDD","time":4,"transit":false,"line":2,"i_lat":-6.186295,"is_transit":false},{"i_long":106.840169,"line":2,"is_transit":false,"time":3,"station_id":"CKI","i_lat":-6.198556,"transit":false,"station_name":"Cikini","distance":1750},{"i_long":106.84912,"distance":1590,"time":4,"transit":true,"i_lat":-6.209883,"station_id":"MRI","station_name":"Manggarai","line":2,"is_transit":true},{"line":1,"transit":false,"i_long":106.858896,"station_name":"Matraman","station_id":"MTR","distance":1275,"time":2,"is_transit":false,"i_lat":-6.212485},{"is_transit":false,"distance":1377,"station_id":"JNG","i_long":106.86807400000001,"line":1,"transit":false,"i_lat":-6.215091,"station_name":"Jatinegara","time":8}]]}