{"data":[[{"i_lat":-6.128023,"is_transit":false,"transit":false,"station_id":"AC","station_name":"Ancol","time":0,"i_long":106.84464,"line":4,"distance":0},{"i_lat":-6.132549,"station_name":"Kampung Bandan","time":4,"i_long":106.826365,"station_id":"KPB","is_transit":true,"transit":true,"line":4,"distance":2185},{"i_lat":-6.144674,"line":1,"distance":4102,"time":9,"is_transit":false,"station_name":"Angke","i_long":106.79867,"station_id":"AK","transit":false},{"line":1,"distance":1230,"i_long":106.800832,"station_name":"Duri","transit":false,"time":4,"is_transit":false,"station_id":"DU","i_lat":-6.155215},{"station_name":"Tanah Abang","distance":3632,"is_transit":true,"line":1,"station_id":"THB","i_lat":-6.185545,"transit":true,"time":8,"i_long":106.811091},{"transit":false,"station_name":"Palmerah","line":6,"is_transit":false,"distance":3191,"i_lat":-6.207404,"time":6,"i_long":106.79689,"station_id":"PLM"},{"transit":false,"is_transit":false,"line":6,"time":7,"i_long":106.780334,"station_id":"KBY","station_name":"Kebayoran","distance":3737,"i_lat":-6.237242},{"time":8,"transit":false,"distance":6218,"station_name":"Pondokranji","i_long":106.74273,"i_lat":-6.276362,"station_id":"PDJ","line":6,"is_transit":false},{"time":3,"station_name":"Jurangmangu","is_transit":false,"i_lat":-6.288927,"i_long":106.728916,"distance":2179,"station_id":"JMU","line":6,"transit":false}],[{"station_name":"Ancol","time":0,"distance":0,"i_long":106.84464,"station_id":"AC","i_lat":-6.128023,"is_transit":false,"line":4,"transit":false},{"station_name":"Kampung Bandan","time":4,"is_transit":true,"transit":true,"station_id":"KPB","i_lat":-6.132549,"i_long":106.826365,"line":4,"distance":2185},{"station_name":"Jakarta Kota","transit":true,"time":3,"line":2,"i_long":106.812439,"distance":1364,"station_id":"JAKK","i_lat":-6.137569,"is_transit":true},{"transit":false,"time":4,"i_lat":-6.141205,"station_id":"JAY","distance":1264,"is_transit":false,"line":2,"station_name":"Jayakarta","i_long":106.820901},{"distance":1080,"i_long":106.82482,"station_name":"Manggabesar","transit":false,"i_lat":-6.149769,"station_id":"MGB","line":2,"time":2,"is_transit":false},{"station_name":"Sawah Besar","is_transit":false,"i_long":106.827103,"line":2,"station_id":"SW","distance":906,"transit":false,"i_lat":-6.160725,"time":2},{"station_name":"Juanda","time":2,"transit":false,"is_transit":false,"distance":1149,"i_long":106.828284,"line":2,"i_lat":-6.166716,"station_id":"JUA"},{"station_name":"Gondangdia","time":4,"i_lat":-6.186295,"station_id":"GDD","transit":false,"is_transit":false,"i_long":106.832183,"distance":2015,"line":2},{"distance":1750,"i_long":106.840169,"line":2,"station_id":"CKI","station_name":"Cikini","time":3,"transit":false,"is_transit":false,"i_lat":-6.198556},{"station_id":"MRI","line":2,"station_name":"Manggarai","time":4,"is_transit":true,"distance":1590,"i_lat":-6.209883,"i_long":106.84912,"transit":true},{"i_lat":-6.202263,"station_id":"SUD","line":1,"i_long":106.822649,"distance":3186,"time":4,"transit":false,"station_name":"Sudirman","is_transit":false},{"station_id":"SUDB","time":1,"transit":false,"is_transit":false,"distance":280,"line":1,"i_long":106.819881,"i_lat":-6.201433,"station_name":"Sudirman Baru"},{"i_long":106.816351,"line":1,"station_name":"Karet","i_lat":-6.20132,"transit":false,"time":1,"is_transit":false,"distance":471,"station_id":"KAT"},{"time":5,"station_id":"THB","transit":true,"i_lat":-6.185545,"i_long":106.811091,"station_name":"Tanah Abang","is_transit":true,"line":1,"distance":2029},{"station_id":"PLM","station_name":"Palmerah","is_transit":false,"i_long":106.79689,"transit":false,"time":6,"distance":3191,"line":6,"i_lat":-6.207404},{"time":7,"i_long":106.780334,"station_name":"Kebayoran","i_lat":-6.237242,"transit":false,"distance":3737,"line":6,"station_id":"KBY","is_transit":false},{"time":8,"is_transit":false,"transit":false,"i_lat":-6.276362,"i_long":106.74273,"line":6,"station_name":"Pondokranji","distance":6218,"station_id":"PDJ"},{"time":3,"i_long":106.728916,"is_transit":false,"distance":2179,"i_lat":-6.288927,"line":6,"station_name":"Jurangmangu","station_id":"JMU","transit":false}],[{"transit":false,"station_name":"Ancol","is_transit":false,"distance":0,"i_lat":-6.128023,"i_long":106.84464,"station_id":"AC","time":0,"line":4},{"station_id":"KPB","is_transit":true,"i_lat":-6.132549,"line":4,"time":4,"i_long":106.826365,"distance":2185,"transit":true,"station_name":"Kampung Bandan"},{"station_id":"RJW","station_name":"Rajawali","line":11,"i_lat":-6.14505,"time":3,"is_transit":false,"transit":false,"distance":1444,"i_long":106.836569},{"is_transit":false,"line":11,"transit":false,"station_name":"Kemayoran","station_id":"KMO","time":5,"i_long":106.839204,"distance":1901,"i_lat":-6.161728},{"is_transit":false,"station_id":"PSE","line":11,"transit":false,"time":4,"distance":1436,"i_lat":-6.174784,"i_long":106.84368,"station_name":"Pasar Senen"},{"station_id":"GST","station_name":"Gang Sentiong","transit":false,"i_lat":-6.185975,"line":11,"is_transit":false,"i_long":106.850107,"time":8,"distance":1567},{"transit":false,"i_lat":-6.193792,"station_id":"KMT","station_name":"Kramat","time":1,"i_long":106.855437,"distance":973,"is_transit":false,"line":11},{"station_id":"POK","is_transit":false,"i_lat":-6.209188,"time":2,"distance":1829,"i_long":106.861737,"transit":false,"station_name":"Pondok Jati","line":11},{"station_name":"Jatinegara","time":9,"i_long":106.86807400000001,"station_id":"JNG","line":1,"transit":true,"is_transit":true,"distance":1236,"i_lat":-6.215091},{"distance":1377,"is_transit":false,"station_id":"MTR","i_long":106.858896,"station_name":"Matraman","transit":false,"time":2,"i_lat":-6.212485,"line":1},{"is_transit":false,"station_id":"MRI","time":2,"i_long":106.84912,"station_name":"Manggarai","i_lat":-6.209883,"line":2,"transit":false,"distance":1275},{"line":1,"time":4,"station_name":"Sudirman","is_transit":false,"i_lat":-6.202263,"station_id":"SUD","i_long":106.822649,"distance":3186,"transit":false},{"station_name":"Sudirman Baru","distance":280,"line":1,"i_lat":-6.201433,"is_transit":false,"station_id":"SUDB","transit":false,"time":1,"i_long":106.819881},{"i_lat":-6.20132,"station_name":"Karet","station_id":"KAT","distance":471,"i_long":106.816351,"time":1,"transit":false,"line":1,"is_transit":false},{"distance":2029,"station_id":"THB","station_name":"Tanah Abang","is_transit":true,"i_lat":-6.185545,"transit":true,"time":5,"i_long":106.811091,"line":1},{"i_lat":-6.207404,"station_id":"PLM","station_name":"Palmerah","transit":false,"distance":3191,"time":6,"line":6,"i_long":106.79689,"is_transit":false},{"time":7,"i_long":106.780334,"station_id":"KBY","transit":false,"is_transit":false,"i_lat":-6.237242,"line":6,"distance":3737,"station_name":"Kebayoran"},{"station_name":"Pondokranji","station_id":"PDJ","distance":6218,"i_lat":-6.276362,"i_long":106.74273,"line":6,"time":8,"is_transit":false,"transit":false},{"i_long":106.728916,"station_id":"JMU","distance":2179,"transit":false,"station_name":"Jurangmangu","is_transit":false,"line":6,"time":3,"i_lat":-6.288927}]]}