{"data":[[{"transit":false,"time":0,"station_name":"Ancol","station_id":"AC","is_transit":false,"line":4,"i_lat":-6.128023,"i_long":106.84464,"distance":0},{"is_transit":true,"station_id":"KPB","line":4,"distance":2185,"transit":true,"station_name":"Kampung Bandan","i_long":106.826365,"time":4,"i_lat":-6.132549},{"i_lat":-6.14505,"is_transit":false,"i_long":106.836569,"line":11,"station_name":"Rajawali","distance":1444,"transit":false,"station_id":"RJW","time":3},{"station_name":"Kemayoran","time":5,"transit":false,"distance":1901,"line":11,"i_long":106.839204,"i_lat":-6.161728,"is_transit":false,"station_id":"KMO"},{"i_lat":-6.174784,"time":4,"distance":1436,"transit":false,"i_long":106.84368,"station_id":"PSE","station_name":"Pasar Senen","is_transit":false,"line":11},{"station_name":"Gang Sentiong","i_lat":-6.185975,"is_transit":false,"transit":false,"i_long":106.850107,"line":11,"distance":1567,"station_id":"GST","time":8},{"i_lat":-6.193792,"is_transit":false,"time":1,"station_name":"Kramat","station_id":"KMT","line":11,"distance":973,"transit":false,"i_long":106.855437},{"distance":1829,"station_id":"POK","is_transit":false,"station_name":"Pondok Jati","time":2,"i_lat":-6.209188,"transit":false,"i_long":106.861737,"line":11},{"time":9,"distance":1236,"line":1,"station_id":"JNG","transit":false,"is_transit":false,"i_long":106.86807400000001,"station_name":"Jatinegara","i_lat":-6.215091}],[{"transit":false,"distance":0,"i_long":106.84464,"is_transit":false,"time":0,"i_lat":-6.128023,"line":4,"station_name":"Ancol","station_id":"AC"},{"distance":2185,"time":4,"line":4,"station_id":"KPB","station_name":"Kampung Bandan","is_transit":true,"i_long":106.826365,"transit":true,"i_lat":-6.132549},{"station_name":"Angke","transit":false,"station_id":"AK","line":1,"is_transit":false,"distance":4102,"i_lat":-6.144674,"i_long":106.79867,"time":9},{"distance":1230,"i_lat":-6.155215,"line":1,"is_transit":false,"transit":false,"i_long":106.800832,"station_name":"Duri","time":4,"station_id":"DU"},{"time":8,"station_id":"THB","line":1,"station_name":"Tanah Abang","transit":false,"is_transit":false,"i_lat":-6.185545,"i_long":106.811091,"distance":3632},{"distance":2029,"time":5,"station_name":"Karet","station_id":"KAT","is_transit":false,"i_long":106.816351,"line":1,"i_lat":-6.20132,"transit":false},{"is_transit":false,"transit":false,"time":1,"station_name":"Sudirman Baru","station_id":"SUDB","distance":471,"i_long":106.819881,"line":1,"i_lat":-6.201433},{"transit":false,"i_long":106.822649,"time":1,"station_name":"Sudirman","is_transit":false,"distance":280,"station_id":"SUD","i_lat":-6.202263,"line":1},{"station_name":"Manggarai","i_long":106.84912,"time":4,"transit":false,"line":2,"station_id":"MRI","distance":3186,"i_lat":-6.209883,"is_transit":false},{"time":2,"is_transit":false,"station_name":"Matraman","transit":false,"line":1,"i_long":106.858896,"i_lat":-6.212485,"station_id":"MTR","distance":1275},{"i_long":106.86807400000001,"line":1,"i_lat":-6.215091,"station_name":"Jatinegara","transit":false,"time":8,"is_transit":false,"distance":1377,"station_id":"JNG"}],[{"distance":0,"i_long":106.84464,"line":4,"is_transit":false,"i_lat":-6.128023,"time":0,"station_name":"Ancol","station_id":"AC","transit":false},{"station_id":"KPB","transit":true,"is_transit":true,"distance":2185,"station_name":"Kampung Bandan","i_lat":-6.132549,"i_long":106.826365,"line":4,"time":4},{"time":3,"distance":1364,"i_lat":-6.137569,"transit":true,"station_id":"JAKK","i_long":106.812439,"line":2,"station_name":"Jakarta Kota","is_transit":true},{"line":2,"i_lat":-6.141205,"time":4,"transit":false,"is_transit":false,"i_long":106.820901,"distance":1264,"station_name":"Jayakarta","station_id":"JAY"},{"i_lat":-6.149769,"transit":false,"station_name":"Manggabesar","station_id":"MGB","time":2,"i_long":106.82482,"distance":1080,"line":2,"is_transit":false},{"is_transit":false,"line":2,"station_name":"Sawah Besar","station_id":"SW","i_long":106.827103,"transit":false,"time":2,"distance":906,"i_lat":-6.160725},{"time":2,"station_name":"Juanda","distance":1149,"i_lat":-6.166716,"transit":false,"i_long":106.828284,"station_id":"JUA","line":2,"is_transit":false},{"i_lat":-6.186295,"i_long":106.832183,"transit":false,"station_name":"Gondangdia","is_transit":false,"time":4,"distance":2015,"station_id":"GDD","line":2},{"is_transit":false,"i_long":106.840169,"transit":false,"station_id":"CKI","station_name":"Cikini","time":3,"distance":1750,"i_lat":-6.198556,"line":2},{"station_id":"MRI","distance":1590,"time":4,"line":2,"i_lat":-6.209883,"station_name":"Manggarai","transit":true,"i_long":106.84912,"is_transit":true},{"transit":false,"station_id":"MTR","line":1,"time":2,"is_transit":false,"distance":1275,"i_long":106.858896,"i_lat":-6.212485,"station_name":"Matraman"},{"distance":1377,"time":8,"i_long":106.86807400000001,"is_transit":false,"line":1,"i_lat":-6.215091,"station_name":"Jatinegara","station_id":"JNG","transit":false}]]}