{"data":[[{"station_name":"Ancol","i_long":106.84464,"time":0,"distance":0,"transit":false,"is_transit":false,"i_lat":-6.128023,"line":0,"station_id":"AC"},{"station_id":"KPB","line":0,"time":4,"is_transit":true,"transit":false,"i_long":106.826365,"distance":2185,"i_lat":-6.132549,"station_name":"Kampung Bandan"},{"is_transit":true,"transit":false,"i_lat":-6.137569,"station_id":"JAKK","station_name":"Jakarta Kota","time":3,"distance":1364,"i_long":106.812439,"line":0}],[{"transit":false,"is_transit":false,"station_id":"AC","distance":0,"i_lat":-6.128023,"time":0,"line":0,"i_long":106.84464,"station_name":"Ancol"},{"distance":2185,"i_long":106.826365,"transit":false,"is_transit":true,"i_lat":-6.132549,"line":0,"station_id":"KPB","station_name":"Kampung Bandan","time":4},{"station_id":"AK","is_transit":false,"time":9,"i_lat":-6.144674,"i_long":106.79867,"station_name":"Angke","transit":false,"distance":4102,"line":0},{"station_name":"Duri","station_id":"DU","transit":true,"i_long":106.800832,"i_lat":-6.155215,"line":1,"is_transit":true,"distance":1230,"time":4},{"transit":false,"distance":3632,"i_lat":-6.185545,"line":1,"station_name":"Tanah Abang","i_long":106.811091,"station_id":"THB","time":8,"is_transit":true},{"distance":2029,"transit":false,"station_id":"KAT","time":5,"i_lat":-6.20132,"station_name":"Karet","i_long":106.816351,"line":1,"is_transit":false},{"transit":false,"is_transit":false,"time":1,"i_long":106.819881,"line":1,"station_id":"SUDB","station_name":"Sudirman Baru","i_lat":-6.201433,"distance":471},{"i_long":106.822649,"station_name":"Sudirman","station_id":"SUD","i_lat":-6.202263,"transit":false,"time":1,"distance":280,"line":1,"is_transit":false},{"time":4,"station_name":"Manggarai","is_transit":true,"line":0,"station_id":"MRI","transit":true,"i_long":106.84912,"i_lat":-6.209883,"distance":3186},{"i_lat":-6.198556,"line":0,"station_id":"CKI","time":4,"station_name":"Cikini","transit":false,"i_long":106.840169,"is_transit":false,"distance":1590},{"i_lat":-6.186295,"station_id":"GDD","i_long":106.832183,"distance":1750,"is_transit":false,"transit":false,"station_name":"Gondangdia","line":2,"time":3},{"distance":2015,"i_long":106.828284,"i_lat":-6.166716,"time":4,"station_name":"Juanda","line":2,"transit":false,"is_transit":false,"station_id":"JUA"},{"transit":false,"i_long":106.827103,"line":2,"station_name":"Sawah Besar","time":2,"is_transit":false,"i_lat":-6.160725,"station_id":"SW","distance":1149},{"time":2,"i_lat":-6.149769,"i_long":106.82482,"transit":false,"distance":906,"station_id":"MGB","station_name":"Manggabesar","line":2,"is_transit":false},{"time":2,"distance":1080,"transit":false,"is_transit":false,"station_name":"Jayakarta","line":7,"i_long":106.820901,"station_id":"JAY","i_lat":-6.141205},{"time":4,"i_lat":-6.137569,"is_transit":true,"station_id":"JAKK","transit":false,"line":0,"station_name":"Jakarta Kota","i_long":106.812439,"distance":1264}],[{"station_name":"Ancol","line":0,"distance":0,"transit":false,"station_id":"AC","is_transit":false,"time":0,"i_lat":-6.128023,"i_long":106.84464},{"station_id":"KPB","time":4,"is_transit":true,"distance":2185,"i_long":106.826365,"transit":true,"i_lat":-6.132549,"station_name":"Kampung Bandan","line":0},{"line":11,"i_lat":-6.14505,"is_transit":false,"station_id":"RJW","transit":false,"time":3,"i_long":106.836569,"distance":1444,"station_name":"Rajawali"},{"station_id":"KMO","is_transit":false,"station_name":"Kemayoran","time":5,"i_long":106.839204,"transit":false,"distance":1901,"line":11,"i_lat":-6.161728},{"i_long":106.84368,"i_lat":-6.174784,"time":4,"station_name":"Pasar Senen","station_id":"PSE","transit":false,"distance":1436,"line":11,"is_transit":false},{"i_long":106.850107,"station_name":"Gang Sentiong","distance":1567,"time":8,"line":11,"transit":false,"station_id":"GST","i_lat":-6.185975,"is_transit":false},{"transit":false,"is_transit":false,"time":1,"i_lat":-6.193792,"station_name":"Kramat","i_long":106.855437,"distance":973,"station_id":"KMT","line":11},{"i_long":106.861737,"line":11,"distance":1829,"i_lat":-6.209188,"transit":false,"is_transit":false,"time":2,"station_name":"Pondok Jati","station_id":"POK"},{"is_transit":true,"time":9,"i_long":106.86807400000001,"line":0,"station_name":"Jatinegara","distance":1236,"i_lat":-6.215091,"station_id":"JNG","transit":true},{"line":1,"station_name":"Matraman","station_id":"MTR","time":2,"is_transit":false,"distance":1377,"i_lat":-6.212485,"transit":false,"i_long":106.858896},{"line":0,"transit":true,"is_transit":true,"station_id":"MRI","time":2,"station_name":"Manggarai","distance":1275,"i_long":106.84912,"i_lat":-6.209883},{"i_long":106.840169,"station_name":"Cikini","transit":false,"is_transit":false,"distance":1590,"time":4,"i_lat":-6.198556,"line":0,"station_id":"CKI"},{"station_name":"Gondangdia","time":3,"i_lat":-6.186295,"station_id":"GDD","i_long":106.832183,"distance":1750,"is_transit":false,"transit":false,"line":2},{"transit":false,"is_transit":false,"station_id":"JUA","distance":2015,"station_name":"Juanda","time":4,"i_long":106.828284,"line":2,"i_lat":-6.166716},{"i_lat":-6.160725,"distance":1149,"transit":false,"i_long":106.827103,"line":2,"station_id":"SW","station_name":"Sawah Besar","time":2,"is_transit":false},{"i_long":106.82482,"i_lat":-6.149769,"is_transit":false,"line":2,"station_id":"MGB","transit":false,"time":2,"station_name":"Manggabesar","distance":906},{"i_long":106.820901,"line":7,"transit":false,"station_id":"JAY","distance":1080,"station_name":"Jayakarta","time":2,"i_lat":-6.141205,"is_transit":false},{"station_name":"Jakarta Kota","i_long":106.812439,"line":0,"time":4,"is_transit":true,"distance":1264,"station_id":"JAKK","transit":false,"i_lat":-6.137569}]]}