{"data":[[{"line":4,"time":0,"station_id":"AC","station_name":"Ancol","transit":false,"distance":0,"is_transit":false,"i_lat":-6.128023,"i_long":106.84464},{"distance":2185,"line":4,"time":4,"is_transit":true,"station_id":"KPB","transit":true,"i_long":106.826365,"station_name":"Kampung Bandan","i_lat":-6.132549},{"station_id":"AK","i_lat":-6.144674,"i_long":106.79867,"time":9,"line":1,"transit":false,"is_transit":false,"distance":4102,"station_name":"Angke"},{"transit":false,"time":4,"station_name":"Duri","station_id":"DU","is_transit":false,"line":1,"i_lat":-6.155215,"i_long":106.800832,"distance":1230},{"is_transit":true,"station_id":"THB","line":1,"distance":3632,"transit":true,"station_name":"Tanah Abang","i_long":106.811091,"time":8,"i_lat":-6.185545},{"i_lat":-6.207404,"is_transit":false,"i_long":106.79689,"line":6,"station_name":"Palmerah","distance":3191,"transit":false,"station_id":"PLM","time":6},{"time":7,"station_id":"KBY","transit":false,"distance":3737,"line":6,"i_long":106.780334,"i_lat":-6.237242,"is_transit":false,"station_name":"Kebayoran"},{"i_lat":-6.276362,"time":8,"distance":6218,"transit":false,"i_long":106.74273,"station_id":"PDJ","station_name":"Pondokranji","is_transit":false,"line":6},{"station_name":"Jurangmangu","i_lat":-6.288927,"is_transit":false,"transit":false,"i_long":106.728916,"line":6,"time":3,"station_id":"JMU","distance":2179}],[{"i_lat":-6.128023,"time":0,"is_transit":false,"station_name":"Ancol","station_id":"AC","line":4,"distance":0,"transit":false,"i_long":106.84464},{"distance":2185,"station_id":"KPB","transit":true,"i_lat":-6.132549,"i_long":106.826365,"line":4,"time":4,"is_transit":true,"station_name":"Kampung Bandan"},{"time":3,"is_transit":true,"station_id":"JAKK","transit":true,"station_name":"Jakarta Kota","i_long":106.812439,"line":2,"distance":1364,"i_lat":-6.137569},{"distance":1264,"time":4,"line":2,"station_id":"JAY","station_name":"Jayakarta","is_transit":false,"i_long":106.820901,"transit":false,"i_lat":-6.141205},{"station_name":"Manggabesar","transit":false,"station_id":"MGB","line":2,"is_transit":false,"distance":1080,"i_lat":-6.149769,"i_long":106.82482,"time":2},{"distance":906,"i_lat":-6.160725,"line":2,"is_transit":false,"transit":false,"i_long":106.827103,"station_name":"Sawah Besar","time":2,"station_id":"SW"},{"time":2,"station_id":"JUA","line":2,"station_name":"Juanda","transit":false,"is_transit":false,"i_lat":-6.166716,"i_long":106.828284,"distance":1149},{"distance":2015,"time":4,"station_name":"Gondangdia","station_id":"GDD","is_transit":false,"i_long":106.832183,"line":2,"i_lat":-6.186295,"transit":false},{"is_transit":false,"transit":false,"time":3,"station_name":"Cikini","station_id":"CKI","distance":1750,"i_long":106.840169,"line":2,"i_lat":-6.198556},{"transit":true,"i_long":106.84912,"time":4,"station_name":"Manggarai","distance":1590,"is_transit":true,"station_id":"MRI","i_lat":-6.209883,"line":2},{"station_name":"Sudirman","i_long":106.822649,"time":4,"transit":false,"line":1,"station_id":"SUD","distance":3186,"i_lat":-6.202263,"is_transit":false},{"time":1,"is_transit":false,"station_name":"Sudirman Baru","transit":false,"line":1,"i_long":106.819881,"i_lat":-6.201433,"station_id":"SUDB","distance":280},{"i_long":106.816351,"line":1,"i_lat":-6.20132,"station_name":"Karet","time":1,"transit":false,"is_transit":false,"distance":471,"station_id":"KAT"},{"distance":2029,"i_long":106.811091,"line":1,"is_transit":true,"i_lat":-6.185545,"time":5,"station_name":"Tanah Abang","station_id":"THB","transit":true},{"station_id":"PLM","transit":false,"is_transit":false,"distance":3191,"station_name":"Palmerah","i_lat":-6.207404,"i_long":106.79689,"line":6,"time":6},{"time":7,"distance":3737,"i_lat":-6.237242,"station_id":"KBY","transit":false,"i_long":106.780334,"line":6,"station_name":"Kebayoran","is_transit":false},{"line":6,"i_lat":-6.276362,"time":8,"transit":false,"is_transit":false,"i_long":106.74273,"distance":6218,"station_name":"Pondokranji","station_id":"PDJ"},{"i_long":106.728916,"line":6,"station_id":"JMU","distance":2179,"time":3,"transit":false,"i_lat":-6.288927,"station_name":"Jurangmangu","is_transit":false}],[{"transit":false,"i_long":106.84464,"station_name":"Ancol","line":4,"i_lat":-6.128023,"time":0,"distance":0,"is_transit":false,"station_id":"AC"},{"i_long":106.826365,"station_id":"KPB","i_lat":-6.132549,"station_name":"Kampung Bandan","transit":true,"distance":2185,"time":4,"is_transit":true,"line":4},{"line":11,"i_long":106.836569,"is_transit":false,"station_id":"RJW","distance":1444,"station_name":"Rajawali","time":3,"i_lat":-6.14505,"transit":false},{"station_name":"Kemayoran","time":5,"station_id":"KMO","is_transit":false,"transit":false,"distance":1901,"i_lat":-6.161728,"i_long":106.839204,"line":11},{"is_transit":false,"time":4,"station_id":"PSE","distance":1436,"transit":false,"i_lat":-6.174784,"station_name":"Pasar Senen","i_long":106.84368,"line":11},{"is_transit":false,"station_name":"Gang Sentiong","distance":1567,"time":8,"station_id":"GST","i_long":106.850107,"i_lat":-6.185975,"transit":false,"line":11},{"station_name":"Kramat","is_transit":false,"time":1,"station_id":"KMT","transit":false,"distance":973,"i_lat":-6.193792,"i_long":106.855437,"line":11},{"i_lat":-6.209188,"line":11,"distance":1829,"time":2,"station_id":"POK","transit":false,"is_transit":false,"i_long":106.861737,"station_name":"Pondok Jati"},{"time":9,"line":1,"is_transit":true,"i_lat":-6.215091,"station_id":"JNG","i_long":106.86807400000001,"distance":1236,"station_name":"Jatinegara","transit":true},{"i_long":106.858896,"i_lat":-6.212485,"is_transit":false,"line":1,"station_name":"Matraman","time":2,"transit":false,"distance":1377,"station_id":"MTR"},{"distance":1275,"i_lat":-6.209883,"station_name":"Manggarai","station_id":"MRI","i_long":106.84912,"time":2,"is_transit":false,"transit":false,"line":2},{"station_id":"SUD","is_transit":false,"time":4,"i_lat":-6.202263,"distance":3186,"i_long":106.822649,"station_name":"Sudirman","transit":false,"line":1},{"transit":false,"line":1,"distance":280,"i_long":106.819881,"time":1,"station_name":"Sudirman Baru","is_transit":false,"i_lat":-6.201433,"station_id":"SUDB"},{"station_id":"KAT","distance":471,"station_name":"Karet","is_transit":false,"i_long":106.816351,"transit":false,"i_lat":-6.20132,"line":1,"time":1},{"transit":true,"station_name":"Tanah Abang","is_transit":true,"i_lat":-6.185545,"i_long":106.811091,"line":1,"distance":2029,"time":5,"station_id":"THB"},{"i_lat":-6.207404,"line":6,"i_long":106.79689,"distance":3191,"station_id":"PLM","is_transit":false,"transit":false,"time":6,"station_name":"Palmerah"},{"i_long":106.780334,"time":7,"transit":false,"i_lat":-6.237242,"station_name":"Kebayoran","station_id":"KBY","distance":3737,"line":6,"is_transit":false},{"transit":false,"i_lat":-6.276362,"station_id":"PDJ","is_transit":false,"time":8,"station_name":"Pondokranji","i_long":106.74273,"line":6,"distance":6218},{"i_lat":-6.288927,"station_id":"JMU","time":3,"distance":2179,"line":6,"is_transit":false,"transit":false,"i_long":106.728916,"station_name":"Jurangmangu"}]]}