{"data":[[{"is_transit":false,"transit":false,"time":0,"line":4,"station_name":"Ancol","i_long":106.84464,"i_lat":-6.128023,"station_id":"AC","distance":0},{"station_id":"KPB","transit":true,"i_lat":-6.132549,"distance":2185,"line":4,"station_name":"Kampung Bandan","is_transit":true,"time":4,"i_long":106.826365},{"time":3,"transit":false,"station_name":"Jakarta Kota","is_transit":false,"distance":1364,"i_long":106.812439,"line":2,"station_id":"JAKK","i_lat":-6.137569}],[{"i_lat":-6.128023,"i_long":106.84464,"is_transit":false,"distance":0,"station_id":"AC","transit":false,"line":4,"station_name":"Ancol","time":0},{"is_transit":true,"station_id":"KPB","time":4,"transit":true,"i_lat":-6.132549,"i_long":106.826365,"distance":2185,"line":4,"station_name":"Kampung Bandan"},{"i_long":106.79867,"transit":false,"line":1,"is_transit":false,"station_name":"Angke","time":9,"station_id":"AK","distance":4102,"i_lat":-6.144674},{"time":4,"station_id":"DU","station_name":"Duri","line":1,"is_transit":false,"i_lat":-6.155215,"distance":1230,"transit":false,"i_long":106.800832},{"i_long":106.811091,"is_transit":false,"i_lat":-6.185545,"line":1,"station_name":"Tanah Abang","station_id":"THB","distance":3632,"time":8,"transit":false},{"transit":false,"time":5,"distance":2029,"station_name":"Karet","line":1,"i_lat":-6.20132,"station_id":"KAT","is_transit":false,"i_long":106.816351},{"is_transit":false,"line":1,"transit":false,"i_lat":-6.201433,"time":1,"i_long":106.819881,"station_name":"Sudirman Baru","distance":471,"station_id":"SUDB"},{"i_long":106.822649,"i_lat":-6.202263,"line":1,"station_name":"Sudirman","distance":280,"station_id":"SUD","time":1,"transit":false,"is_transit":false},{"is_transit":true,"station_name":"Manggarai","transit":true,"station_id":"MRI","time":4,"distance":3186,"i_lat":-6.209883,"i_long":106.84912,"line":2},{"i_long":106.840169,"line":2,"station_name":"Cikini","transit":false,"is_transit":false,"i_lat":-6.198556,"distance":1590,"station_id":"CKI","time":4},{"transit":false,"line":2,"is_transit":false,"time":3,"distance":1750,"station_name":"Gondangdia","i_long":106.832183,"i_lat":-6.186295,"station_id":"GDD"},{"distance":2015,"time":4,"i_lat":-6.166716,"transit":false,"line":2,"station_name":"Juanda","is_transit":false,"station_id":"JUA","i_long":106.828284},{"transit":false,"i_long":106.827103,"is_transit":false,"time":2,"station_id":"SW","line":2,"station_name":"Sawah Besar","distance":1149,"i_lat":-6.160725},{"station_name":"Manggabesar","i_long":106.82482,"transit":false,"i_lat":-6.149769,"distance":906,"station_id":"MGB","line":2,"is_transit":false,"time":2},{"transit":false,"station_name":"Jayakarta","time":2,"i_long":106.820901,"is_transit":false,"station_id":"JAY","distance":1080,"i_lat":-6.141205,"line":2},{"station_name":"Jakarta Kota","i_long":106.812439,"station_id":"JAKK","line":2,"is_transit":false,"time":4,"transit":false,"i_lat":-6.137569,"distance":1264}],[{"time":0,"line":4,"station_id":"AC","distance":0,"i_long":106.84464,"i_lat":-6.128023,"transit":false,"station_name":"Ancol","is_transit":false},{"distance":2185,"station_id":"KPB","i_lat":-6.132549,"i_long":106.826365,"transit":true,"is_transit":true,"time":4,"station_name":"Kampung Bandan","line":4},{"i_lat":-6.14505,"distance":1444,"station_name":"Rajawali","station_id":"RJW","transit":false,"time":3,"i_long":106.836569,"line":11,"is_transit":false},{"i_lat":-6.161728,"time":5,"station_id":"KMO","transit":false,"i_long":106.839204,"is_transit":false,"line":11,"station_name":"Kemayoran","distance":1901},{"distance":1436,"line":11,"station_name":"Pasar Senen","transit":false,"time":4,"i_lat":-6.174784,"station_id":"PSE","i_long":106.84368,"is_transit":false},{"time":8,"line":11,"station_name":"Gang Sentiong","station_id":"GST","is_transit":false,"i_long":106.850107,"transit":false,"distance":1567,"i_lat":-6.185975},{"station_id":"KMT","i_long":106.855437,"distance":973,"line":11,"transit":false,"time":1,"is_transit":false,"station_name":"Kramat","i_lat":-6.193792},{"time":2,"i_lat":-6.209188,"is_transit":false,"transit":false,"i_long":106.861737,"station_id":"POK","station_name":"Pondok Jati","line":11,"distance":1829},{"line":1,"distance":1236,"is_transit":true,"station_id":"JNG","i_long":106.86807400000001,"transit":true,"station_name":"Jatinegara","i_lat":-6.215091,"time":9},{"i_lat":-6.212485,"station_id":"MTR","time":2,"station_name":"Matraman","is_transit":false,"transit":false,"i_long":106.858896,"line":1,"distance":1377},{"transit":true,"i_lat":-6.209883,"is_transit":true,"station_name":"Manggarai","time":2,"distance":1275,"station_id":"MRI","i_long":106.84912,"line":2},{"station_name":"Cikini","line":2,"i_lat":-6.198556,"transit":false,"distance":1590,"station_id":"CKI","time":4,"i_long":106.840169,"is_transit":false},{"line":2,"station_name":"Gondangdia","is_transit":false,"i_long":106.832183,"station_id":"GDD","transit":false,"i_lat":-6.186295,"distance":1750,"time":3},{"station_name":"Juanda","distance":2015,"i_long":106.828284,"station_id":"JUA","time":4,"transit":false,"line":2,"i_lat":-6.166716,"is_transit":false},{"i_long":106.827103,"line":2,"is_transit":false,"time":2,"station_id":"SW","i_lat":-6.160725,"transit":false,"station_name":"Sawah Besar","distance":1149},{"i_long":106.82482,"distance":906,"time":2,"transit":false,"i_lat":-6.149769,"station_id":"MGB","station_name":"Manggabesar","line":2,"is_transit":false},{"line":2,"transit":false,"i_long":106.820901,"station_name":"Jayakarta","station_id":"JAY","distance":1080,"time":2,"is_transit":false,"i_lat":-6.141205},{"is_transit":false,"distance":1264,"station_id":"JAKK","i_long":106.812439,"line":2,"transit":false,"i_lat":-6.137569,"station_name":"Jakarta Kota","time":4}]]}