{"data":[[{"station_name":"Ancol","i_long":106.84464,"is_transit":false,"station_id":"AC","time":0,"i_lat":-6.128023,"line":4,"transit":false,"distance":0},{"transit":true,"distance":2185,"station_id":"KPB","i_lat":-6.132549,"line":4,"station_name":"Kampung Bandan","is_transit":true,"time":4,"i_long":106.826365},{"line":1,"distance":4102,"transit":false,"i_lat":-6.144674,"is_transit":false,"time":9,"i_long":106.79867,"station_id":"AK","station_name":"Angke"},{"transit":false,"distance":1230,"i_long":106.800832,"is_transit":false,"station_id":"DU","time":4,"i_lat":-6.155215,"station_name":"Duri","line":1},{"transit":true,"station_id":"THB","is_transit":true,"i_lat":-6.185545,"distance":3632,"i_long":106.811091,"station_name":"Tanah Abang","time":8,"line":1},{"distance":3191,"station_name":"Palmerah","transit":false,"is_transit":false,"i_lat":-6.207404,"station_id":"PLM","i_long":106.79689,"line":6,"time":6},{"line":6,"i_long":106.780334,"transit":false,"time":7,"station_name":"Kebayoran","station_id":"KBY","is_transit":false,"distance":3737,"i_lat":-6.237242},{"station_id":"PDJ","i_long":106.74273,"transit":false,"i_lat":-6.276362,"line":6,"distance":6218,"is_transit":false,"station_name":"Pondokranji","time":8},{"is_transit":false,"station_name":"Jurangmangu","transit":false,"station_id":"JMU","time":3,"distance":2179,"i_lat":-6.288927,"i_long":106.728916,"line":6}],[{"i_long":106.84464,"line":4,"station_name":"Ancol","transit":false,"is_transit":false,"i_lat":-6.128023,"distance":0,"station_id":"AC","time":0},{"transit":true,"line":4,"is_transit":true,"time":4,"distance":2185,"station_name":"Kampung Bandan","i_long":106.826365,"i_lat":-6.132549,"station_id":"KPB"},{"distance":1364,"time":3,"i_lat":-6.137569,"transit":true,"line":2,"station_name":"Jakarta Kota","is_transit":true,"station_id":"JAKK","i_long":106.812439},{"transit":false,"i_long":106.820901,"is_transit":false,"time":4,"station_id":"JAY","line":2,"station_name":"Jayakarta","distance":1264,"i_lat":-6.141205},{"station_name":"Manggabesar","i_long":106.82482,"transit":false,"i_lat":-6.149769,"distance":1080,"station_id":"MGB","line":2,"is_transit":false,"time":2},{"transit":false,"station_name":"Sawah Besar","time":2,"i_long":106.827103,"is_transit":false,"station_id":"SW","distance":906,"i_lat":-6.160725,"line":2},{"station_name":"Juanda","i_long":106.828284,"station_id":"JUA","line":2,"is_transit":false,"time":2,"transit":false,"i_lat":-6.166716,"distance":1149},{"time":4,"line":2,"station_id":"GDD","distance":2015,"i_long":106.832183,"i_lat":-6.186295,"transit":false,"station_name":"Gondangdia","is_transit":false},{"distance":1750,"station_id":"CKI","i_lat":-6.198556,"i_long":106.840169,"transit":false,"is_transit":false,"time":3,"station_name":"Cikini","line":2},{"i_lat":-6.209883,"distance":1590,"station_name":"Manggarai","station_id":"MRI","transit":true,"time":4,"i_long":106.84912,"line":2,"is_transit":true},{"i_lat":-6.202263,"time":4,"station_id":"SUD","transit":false,"i_long":106.822649,"is_transit":false,"line":1,"station_name":"Sudirman","distance":3186},{"distance":280,"line":1,"station_name":"Sudirman Baru","transit":false,"time":1,"i_lat":-6.201433,"station_id":"SUDB","i_long":106.819881,"is_transit":false},{"time":1,"line":1,"station_name":"Karet","station_id":"KAT","is_transit":false,"i_long":106.816351,"transit":false,"distance":471,"i_lat":-6.20132},{"station_id":"THB","i_long":106.811091,"distance":2029,"line":1,"transit":true,"time":5,"is_transit":true,"station_name":"Tanah Abang","i_lat":-6.185545},{"time":6,"i_lat":-6.207404,"is_transit":false,"transit":false,"i_long":106.79689,"station_id":"PLM","station_name":"Palmerah","line":6,"distance":3191},{"line":6,"distance":3737,"is_transit":false,"station_id":"KBY","i_long":106.780334,"transit":false,"station_name":"Kebayoran","i_lat":-6.237242,"time":7},{"i_lat":-6.276362,"station_id":"PDJ","time":8,"station_name":"Pondokranji","is_transit":false,"transit":false,"i_long":106.74273,"line":6,"distance":6218},{"station_name":"Jurangmangu","line":6,"time":3,"station_id":"JMU","is_transit":false,"transit":false,"distance":2179,"i_long":106.728916,"i_lat":-6.288927}],[{"station_id":"AC","line":4,"time":0,"i_lat":-6.128023,"i_long":106.84464,"transit":false,"is_transit":false,"station_name":"Ancol","distance":0},{"i_lat":-6.132549,"station_id":"KPB","line":4,"is_transit":true,"time":4,"i_long":106.826365,"distance":2185,"transit":true,"station_name":"Kampung Bandan"},{"transit":false,"station_id":"RJW","is_transit":false,"time":3,"line":11,"i_long":106.836569,"i_lat":-6.14505,"station_name":"Rajawali","distance":1444},{"transit":false,"i_lat":-6.161728,"distance":1901,"station_name":"Kemayoran","station_id":"KMO","time":5,"line":11,"is_transit":false,"i_long":106.839204},{"time":4,"distance":1436,"line":11,"station_name":"Pasar Senen","transit":false,"i_lat":-6.174784,"station_id":"PSE","i_long":106.84368,"is_transit":false},{"station_id":"GST","i_long":106.850107,"station_name":"Gang Sentiong","transit":false,"line":11,"i_lat":-6.185975,"is_transit":false,"time":8,"distance":1567},{"transit":false,"time":1,"distance":973,"i_lat":-6.193792,"is_transit":false,"station_id":"KMT","i_long":106.855437,"line":11,"station_name":"Kramat"},{"time":2,"station_id":"POK","i_lat":-6.209188,"i_long":106.861737,"line":11,"distance":1829,"is_transit":false,"transit":false,"station_name":"Pondok Jati"},{"station_name":"Jatinegara","is_transit":true,"i_long":106.86807400000001,"station_id":"JNG","distance":1236,"i_lat":-6.215091,"time":9,"line":1,"transit":true},{"is_transit":false,"time":2,"distance":1377,"station_id":"MTR","i_lat":-6.212485,"transit":false,"station_name":"Matraman","i_long":106.858896,"line":1},{"line":2,"time":2,"transit":false,"station_name":"Manggarai","station_id":"MRI","distance":1275,"i_lat":-6.209883,"is_transit":false,"i_long":106.84912},{"i_lat":-6.202263,"transit":false,"station_name":"Sudirman","line":1,"is_transit":false,"station_id":"SUD","time":4,"i_long":106.822649,"distance":3186},{"i_lat":-6.201433,"station_id":"SUDB","line":1,"time":1,"distance":280,"station_name":"Sudirman Baru","transit":false,"i_long":106.819881,"is_transit":false},{"station_id":"KAT","station_name":"Karet","transit":false,"i_long":106.816351,"line":1,"is_transit":false,"time":1,"distance":471,"i_lat":-6.20132},{"i_long":106.811091,"station_name":"Tanah Abang","distance":2029,"i_lat":-6.185545,"time":5,"line":1,"station_id":"THB","transit":true,"is_transit":true},{"distance":3191,"station_name":"Palmerah","is_transit":false,"i_lat":-6.207404,"time":6,"station_id":"PLM","i_long":106.79689,"transit":false,"line":6},{"i_long":106.780334,"transit":false,"station_id":"KBY","is_transit":false,"station_name":"Kebayoran","time":7,"distance":3737,"i_lat":-6.237242,"line":6},{"is_transit":false,"i_lat":-6.276362,"line":6,"transit":false,"station_name":"Pondokranji","station_id":"PDJ","time":8,"distance":6218,"i_long":106.74273},{"station_id":"JMU","is_transit":false,"station_name":"Jurangmangu","i_lat":-6.288927,"line":6,"transit":false,"distance":2179,"time":3,"i_long":106.728916}]]}