{"data":[[{"transit":false,"line":0,"station_id":"AC","i_long":106.84464,"distance":0,"time":0,"station_name":"Ancol","is_transit":false,"i_lat":-6.128023},{"transit":true,"is_transit":true,"i_lat":-6.132549,"station_id":"KPB","i_long":106.826365,"distance":2185,"time":4,"line":0,"station_name":"Kampung Bandan"},{"station_name":"Rajawali","time":3,"station_id":"RJW","distance":1444,"transit":false,"i_lat":-6.14505,"line":11,"i_long":106.836569,"is_transit":false},{"time":5,"i_long":106.839204,"station_id":"KMO","is_transit":false,"distance":1901,"i_lat":-6.161728,"line":11,"station_name":"Kemayoran","transit":false},{"time":4,"i_lat":-6.174784,"transit":false,"station_name":"Pasar Senen","i_long":106.84368,"distance":1436,"is_transit":false,"station_id":"PSE","line":11},{"transit":false,"i_lat":-6.185975,"i_long":106.850107,"line":11,"distance":1567,"time":8,"station_name":"Gang Sentiong","station_id":"GST","is_transit":false},{"transit":false,"i_long":106.855437,"i_lat":-6.193792,"distance":973,"time":1,"line":11,"station_id":"KMT","station_name":"Kramat","is_transit":false},{"transit":false,"i_lat":-6.209188,"distance":1829,"i_long":106.861737,"time":2,"line":11,"station_id":"POK","is_transit":false,"station_name":"Pondok Jati"},{"i_long":106.86807400000001,"line":0,"distance":1236,"station_id":"JNG","is_transit":true,"station_name":"Jatinegara","time":9,"i_lat":-6.215091,"transit":true},{"station_id":"KLD","i_long":106.899548,"is_transit":false,"line":1,"transit":false,"distance":3395,"i_lat":-6.2135,"station_name":"Klender","time":3},{"distance":3100,"line":0,"i_long":106.922662,"station_name":"Buaran","station_id":"BUA","i_lat":-6.215568,"time":2,"transit":false,"is_transit":false},{"station_id":"KLDB","station_name":"Klenderbaru","transit":false,"is_transit":false,"distance":1305,"i_long":106.939679,"time":1,"line":1,"i_lat":-6.217455},{"transit":false,"time":8,"distance":1385,"i_lat":-6.219053,"line":0,"i_long":106.951283,"station_name":"Cakung","is_transit":false,"station_id":"CUK"},{"time":3,"i_lat":-6.224515,"transit":false,"line":1,"i_long":106.977657,"station_name":"Kranji","is_transit":false,"distance":3097,"station_id":"KRI"}],[{"transit":false,"distance":0,"is_transit":false,"i_lat":-6.128023,"station_id":"AC","line":0,"time":0,"station_name":"Ancol","i_long":106.84464},{"distance":2185,"line":0,"station_name":"Kampung Bandan","time":4,"transit":false,"i_lat":-6.132549,"i_long":106.826365,"is_transit":true,"station_id":"KPB"},{"station_id":"AK","station_name":"Angke","distance":4102,"line":0,"i_lat":-6.144674,"transit":false,"time":9,"is_transit":false,"i_long":106.79867},{"time":4,"line":1,"station_name":"Duri","station_id":"DU","is_transit":true,"distance":1230,"i_lat":-6.155215,"i_long":106.800832,"transit":true},{"time":8,"station_name":"Tanah Abang","is_transit":true,"distance":3632,"i_lat":-6.185545,"i_long":106.811091,"line":1,"transit":false,"station_id":"THB"},{"i_long":106.816351,"station_id":"KAT","station_name":"Karet","distance":2029,"is_transit":false,"time":5,"i_lat":-6.20132,"line":1,"transit":false},{"station_id":"SUDB","time":1,"transit":false,"line":1,"distance":471,"i_lat":-6.201433,"station_name":"Sudirman Baru","is_transit":false,"i_long":106.819881},{"is_transit":false,"i_long":106.822649,"line":1,"station_name":"Sudirman","distance":280,"station_id":"SUD","time":1,"i_lat":-6.202263,"transit":false},{"line":0,"time":4,"is_transit":true,"i_lat":-6.209883,"station_id":"MRI","station_name":"Manggarai","distance":3186,"i_long":106.84912,"transit":false},{"i_lat":-6.212485,"time":2,"i_long":106.858896,"distance":1275,"station_id":"MTR","station_name":"Matraman","transit":false,"line":1,"is_transit":false},{"line":0,"station_name":"Jatinegara","i_lat":-6.215091,"distance":1377,"transit":false,"time":8,"i_long":106.86807400000001,"is_transit":true,"station_id":"JNG"},{"station_name":"Klender","is_transit":false,"station_id":"KLD","line":1,"transit":false,"i_lat":-6.2135,"i_long":106.899548,"distance":3395,"time":3},{"line":0,"station_id":"BUA","i_lat":-6.215568,"transit":false,"distance":3100,"station_name":"Buaran","i_long":106.922662,"is_transit":false,"time":2},{"station_id":"KLDB","transit":false,"distance":1305,"i_lat":-6.217455,"station_name":"Klenderbaru","line":1,"time":1,"is_transit":false,"i_long":106.939679},{"time":8,"line":0,"i_lat":-6.219053,"is_transit":false,"station_id":"CUK","transit":false,"i_long":106.951283,"station_name":"Cakung","distance":1385},{"distance":3097,"station_name":"Kranji","transit":false,"time":3,"i_lat":-6.224515,"line":1,"i_long":106.977657,"is_transit":false,"station_id":"KRI"}],[{"is_transit":false,"transit":false,"line":0,"i_long":106.84464,"station_name":"Ancol","distance":0,"time":0,"i_lat":-6.128023,"station_id":"AC"},{"distance":2185,"station_name":"Kampung Bandan","station_id":"KPB","time":4,"i_lat":-6.132549,"transit":false,"line":0,"is_transit":true,"i_long":106.826365},{"distance":1364,"line":0,"is_transit":true,"i_lat":-6.137569,"time":3,"station_id":"JAKK","transit":true,"i_long":106.812439,"station_name":"Jakarta Kota"},{"station_id":"JAY","transit":false,"is_transit":false,"i_long":106.820901,"station_name":"Jayakarta","time":4,"i_lat":-6.141205,"distance":1264,"line":7},{"i_long":106.82482,"line":2,"is_transit":false,"station_name":"Manggabesar","station_id":"MGB","distance":1080,"time":2,"transit":false,"i_lat":-6.149769},{"is_transit":false,"i_lat":-6.160725,"i_long":106.827103,"line":2,"time":2,"distance":906,"station_name":"Sawah Besar","station_id":"SW","transit":false},{"is_transit":false,"line":2,"time":2,"i_long":106.828284,"station_name":"Juanda","i_lat":-6.166716,"transit":false,"station_id":"JUA","distance":1149},{"is_transit":false,"line":2,"station_name":"Gondangdia","i_lat":-6.186295,"i_long":106.832183,"distance":2015,"transit":false,"time":4,"station_id":"GDD"},{"i_long":106.840169,"is_transit":false,"station_name":"Cikini","time":3,"line":0,"transit":false,"distance":1750,"station_id":"CKI","i_lat":-6.198556},{"line":0,"transit":true,"time":4,"i_lat":-6.209883,"station_id":"MRI","is_transit":true,"station_name":"Manggarai","distance":1590,"i_long":106.84912},{"time":2,"station_id":"MTR","distance":1275,"transit":false,"i_lat":-6.212485,"i_long":106.858896,"line":1,"is_transit":false,"station_name":"Matraman"},{"is_transit":true,"line":0,"transit":false,"i_lat":-6.215091,"distance":1377,"i_long":106.86807400000001,"station_name":"Jatinegara","time":8,"station_id":"JNG"},{"line":1,"transit":false,"time":3,"distance":3395,"is_transit":false,"station_name":"Klender","i_long":106.899548,"i_lat":-6.2135,"station_id":"KLD"},{"i_long":106.922662,"is_transit":false,"distance":3100,"station_name":"Buaran","line":0,"transit":false,"station_id":"BUA","time":2,"i_lat":-6.215568},{"station_id":"KLDB","i_lat":-6.217455,"transit":false,"station_name":"Klenderbaru","is_transit":false,"time":1,"distance":1305,"i_long":106.939679,"line":1},{"i_lat":-6.219053,"is_transit":false,"i_long":106.951283,"line":0,"station_name":"Cakung","transit":false,"station_id":"CUK","time":8,"distance":1385},{"distance":3097,"station_name":"Kranji","station_id":"KRI","i_long":106.977657,"is_transit":false,"time":3,"line":1,"i_lat":-6.224515,"transit":false}]]}