{"data":[[{"time":0,"distance":0,"i_lat":-6.128023,"i_long":106.84464,"is_transit":false,"station_name":"Ancol","line":4,"transit":false,"station_id":"AC"},{"station_id":"KPB","station_name":"Kampung Bandan","transit":true,"line":4,"i_long":106.826365,"time":4,"is_transit":true,"i_lat":-6.132549,"distance":2185},{"distance":4102,"transit":false,"station_name":"Angke","i_lat":-6.144674,"is_transit":false,"i_long":106.79867,"line":1,"time":9,"station_id":"AK"},{"station_id":"DU","distance":1230,"transit":true,"i_long":106.800832,"line":1,"time":4,"i_lat":-6.155215,"is_transit":true,"station_name":"Duri"},{"i_lat":-6.162021,"station_id":"GGL","i_long":106.788277,"time":3,"distance":1700,"station_name":"Grogol","transit":false,"line":5,"is_transit":false},{"distance":2036,"time":2,"line":5,"station_id":"PSG","station_name":"Pesing","is_transit":false,"i_long":106.771379,"transit":false,"i_lat":-6.161433},{"station_name":"Taman Kota","transit":false,"station_id":"TKO","line":5,"is_transit":false,"distance":1614,"i_lat":-6.1587309999999995,"i_long":106.756522,"time":2},{"distance":2334,"i_lat":-6.159876,"line":5,"is_transit":false,"transit":false,"i_long":106.737035,"station_name":"Bojongindah","time":2,"station_id":"BOI"},{"time":4,"station_id":"RW","line":5,"station_name":"Rawa Buaya","is_transit":false,"transit":false,"i_lat":-6.162758,"i_long":106.723064,"distance":1152},{"distance":2504,"time":3,"station_id":"KDS","station_name":"Kalideres","is_transit":false,"i_long":106.701612,"line":5,"i_lat":-6.166068,"transit":false}],[{"is_transit":false,"transit":false,"time":0,"station_name":"Ancol","station_id":"AC","distance":0,"i_long":106.84464,"line":4,"i_lat":-6.128023},{"transit":true,"i_long":106.826365,"time":4,"station_name":"Kampung Bandan","distance":2185,"is_transit":true,"station_id":"KPB","i_lat":-6.132549,"line":4},{"station_name":"Jakarta Kota","i_long":106.812439,"time":3,"transit":true,"line":2,"station_id":"JAKK","distance":1364,"i_lat":-6.137569,"is_transit":true},{"time":4,"is_transit":false,"station_name":"Jayakarta","transit":false,"line":2,"i_long":106.820901,"i_lat":-6.141205,"station_id":"JAY","distance":1264},{"i_long":106.82482,"line":2,"i_lat":-6.149769,"station_name":"Manggabesar","time":2,"is_transit":false,"transit":false,"distance":1080,"station_id":"MGB"},{"distance":906,"i_long":106.827103,"line":2,"is_transit":false,"i_lat":-6.160725,"time":2,"station_name":"Sawah Besar","station_id":"SW","transit":false},{"station_id":"JUA","transit":false,"is_transit":false,"distance":1149,"station_name":"Juanda","i_lat":-6.166716,"i_long":106.828284,"line":2,"time":2},{"time":4,"distance":2015,"i_lat":-6.186295,"station_id":"GDD","transit":false,"i_long":106.832183,"line":2,"station_name":"Gondangdia","is_transit":false},{"line":2,"i_lat":-6.198556,"time":3,"transit":false,"is_transit":false,"i_long":106.840169,"distance":1750,"station_id":"CKI","station_name":"Cikini"},{"i_lat":-6.209883,"station_name":"Manggarai","transit":true,"station_id":"MRI","time":4,"i_long":106.84912,"distance":1590,"line":2,"is_transit":true},{"is_transit":false,"line":1,"station_name":"Sudirman","station_id":"SUD","i_long":106.822649,"time":4,"transit":false,"distance":3186,"i_lat":-6.202263},{"time":1,"station_name":"Sudirman Baru","distance":280,"i_lat":-6.201433,"transit":false,"i_long":106.819881,"station_id":"SUDB","line":1,"is_transit":false},{"i_lat":-6.20132,"i_long":106.816351,"station_name":"Karet","transit":false,"is_transit":false,"time":1,"distance":471,"station_id":"KAT","line":1},{"is_transit":false,"i_long":106.811091,"station_id":"THB","transit":false,"distance":2029,"time":5,"station_name":"Tanah Abang","i_lat":-6.185545,"line":1},{"station_id":"DU","distance":3632,"time":8,"line":1,"i_lat":-6.155215,"station_name":"Duri","transit":true,"i_long":106.800832,"is_transit":true},{"station_id":"GGL","transit":false,"line":5,"time":3,"distance":1700,"is_transit":false,"i_long":106.788277,"i_lat":-6.162021,"station_name":"Grogol"},{"distance":2036,"time":2,"i_long":106.771379,"is_transit":false,"line":5,"i_lat":-6.161433,"station_name":"Pesing","station_id":"PSG","transit":false},{"time":2,"station_name":"Taman Kota","transit":false,"i_lat":-6.1587309999999995,"i_long":106.756522,"distance":1614,"line":5,"station_id":"TKO","is_transit":false},{"station_id":"BOI","line":5,"time":2,"i_lat":-6.159876,"is_transit":false,"transit":false,"i_long":106.737035,"station_name":"Bojongindah","distance":2334},{"distance":1152,"transit":false,"i_long":106.723064,"is_transit":false,"station_name":"Rawa Buaya","time":4,"line":5,"i_lat":-6.162758,"station_id":"RW"},{"station_id":"KDS","station_name":"Kalideres","distance":2504,"i_lat":-6.166068,"line":5,"is_transit":false,"time":3,"i_long":106.701612,"transit":false}],[{"station_id":"AC","time":0,"is_transit":false,"distance":0,"transit":false,"i_long":106.84464,"line":4,"station_name":"Ancol","i_lat":-6.128023},{"i_long":106.826365,"line":4,"time":4,"distance":2185,"station_id":"KPB","transit":true,"station_name":"Kampung Bandan","i_lat":-6.132549,"is_transit":true},{"time":3,"station_name":"Rajawali","i_lat":-6.14505,"transit":false,"station_id":"RJW","distance":1444,"i_long":106.836569,"is_transit":false,"line":11},{"line":11,"transit":false,"station_id":"KMO","time":5,"i_lat":-6.161728,"i_long":106.839204,"distance":1901,"is_transit":false,"station_name":"Kemayoran"},{"is_transit":false,"transit":false,"i_long":106.84368,"station_name":"Pasar Senen","time":4,"distance":1436,"line":11,"station_id":"PSE","i_lat":-6.174784},{"i_lat":-6.185975,"i_long":106.850107,"line":11,"is_transit":false,"station_id":"GST","time":8,"transit":false,"distance":1567,"station_name":"Gang Sentiong"},{"distance":973,"line":11,"time":1,"station_name":"Kramat","is_transit":false,"station_id":"KMT","transit":false,"i_lat":-6.193792,"i_long":106.855437},{"i_long":106.861737,"is_transit":false,"distance":1829,"i_lat":-6.209188,"station_name":"Pondok Jati","station_id":"POK","transit":false,"time":2,"line":11},{"time":9,"station_id":"JNG","i_lat":-6.215091,"line":1,"is_transit":true,"i_long":106.86807400000001,"station_name":"Jatinegara","distance":1236,"transit":true},{"is_transit":false,"i_long":106.858896,"transit":false,"distance":1377,"station_name":"Matraman","station_id":"MTR","i_lat":-6.212485,"time":2,"line":1},{"time":2,"i_long":106.84912,"is_transit":false,"distance":1275,"station_name":"Manggarai","transit":false,"line":2,"i_lat":-6.209883,"station_id":"MRI"},{"line":1,"i_long":106.822649,"transit":false,"is_transit":false,"time":4,"station_id":"SUD","station_name":"Sudirman","distance":3186,"i_lat":-6.202263},{"time":1,"i_long":106.819881,"distance":280,"station_name":"Sudirman Baru","line":1,"is_transit":false,"station_id":"SUDB","i_lat":-6.201433,"transit":false},{"distance":471,"i_long":106.816351,"station_id":"KAT","i_lat":-6.20132,"station_name":"Karet","is_transit":false,"time":1,"line":1,"transit":false},{"transit":false,"line":1,"station_id":"THB","i_lat":-6.185545,"time":5,"station_name":"Tanah Abang","is_transit":false,"i_long":106.811091,"distance":2029},{"i_lat":-6.155215,"station_name":"Duri","is_transit":true,"station_id":"DU","transit":true,"time":8,"i_long":106.800832,"line":1,"distance":3632},{"line":5,"transit":false,"time":3,"i_lat":-6.162021,"is_transit":false,"distance":1700,"i_long":106.788277,"station_name":"Grogol","station_id":"GGL"},{"transit":false,"i_long":106.771379,"time":2,"line":5,"station_id":"PSG","station_name":"Pesing","is_transit":false,"i_lat":-6.161433,"distance":2036},{"i_lat":-6.1587309999999995,"line":5,"station_name":"Taman Kota","i_long":106.756522,"is_transit":false,"station_id":"TKO","time":2,"distance":1614,"transit":false},{"station_name":"Bojongindah","is_transit":false,"time":2,"station_id":"BOI","distance":2334,"i_lat":-6.159876,"i_long":106.737035,"transit":false,"line":5},{"station_name":"Rawa Buaya","time":4,"distance":1152,"i_long":106.723064,"is_transit":false,"i_lat":-6.162758,"station_id":"RW","transit":false,"line":5},{"transit":false,"time":3,"station_id":"KDS","is_transit":false,"line":5,"distance":2504,"i_lat":-6.166068,"i_long":106.701612,"station_name":"Kalideres"}]]}