{"data":[[{"i_lat":-6.128023,"line":4,"transit":false,"time":0,"station_id":"AC","station_name":"Ancol","is_transit":false,"distance":0,"i_long":106.84464},{"line":4,"distance":2185,"i_lat":-6.132549,"station_name":"Kampung Bandan","time":4,"i_long":106.826365,"station_id":"KPB","is_transit":true,"transit":true},{"is_transit":false,"transit":false,"distance":1444,"i_long":106.836569,"i_lat":-6.14505,"station_id":"RJW","station_name":"Rajawali","line":11,"time":3},{"line":11,"is_transit":false,"distance":1901,"i_long":106.839204,"transit":false,"station_name":"Kemayoran","station_id":"KMO","time":5,"i_lat":-6.161728},{"time":4,"i_lat":-6.174784,"is_transit":false,"station_id":"PSE","station_name":"Pasar Senen","distance":1436,"transit":false,"i_long":106.84368,"line":11},{"i_lat":-6.185975,"time":8,"station_id":"GST","is_transit":false,"distance":1567,"line":11,"i_long":106.850107,"station_name":"Gang Sentiong","transit":false},{"time":1,"station_name":"Kramat","station_id":"KMT","i_lat":-6.193792,"i_long":106.855437,"transit":false,"line":11,"distance":973,"is_transit":false},{"distance":1829,"time":2,"i_lat":-6.209188,"i_long":106.861737,"transit":false,"station_name":"Pondok Jati","line":11,"station_id":"POK","is_transit":false},{"time":9,"distance":1236,"i_long":106.86807400000001,"station_id":"JNG","line":1,"transit":true,"i_lat":-6.215091,"is_transit":true,"station_name":"Jatinegara"},{"station_name":"Klender","i_lat":-6.2135,"line":1,"is_transit":false,"station_id":"KLD","time":3,"transit":false,"i_long":106.899548,"distance":3395}],[{"station_name":"Ancol","transit":false,"i_lat":-6.128023,"i_long":106.84464,"line":4,"time":0,"station_id":"AC","distance":0,"is_transit":false},{"distance":2185,"i_lat":-6.132549,"transit":true,"station_name":"Kampung Bandan","station_id":"KPB","is_transit":true,"i_long":106.826365,"line":4,"time":4},{"i_long":106.79867,"station_name":"Angke","i_lat":-6.144674,"transit":false,"station_id":"AK","time":9,"line":1,"is_transit":false,"distance":4102},{"i_long":106.800832,"line":1,"time":4,"transit":false,"station_name":"Duri","station_id":"DU","is_transit":false,"i_lat":-6.155215,"distance":1230},{"i_lat":-6.185545,"line":1,"station_name":"Tanah Abang","time":8,"distance":3632,"transit":false,"is_transit":false,"i_long":106.811091,"station_id":"THB"},{"i_lat":-6.20132,"i_long":106.816351,"transit":false,"time":5,"is_transit":false,"distance":2029,"station_id":"KAT","line":1,"station_name":"Karet"},{"time":1,"i_lat":-6.201433,"station_id":"SUDB","station_name":"Sudirman Baru","i_long":106.819881,"is_transit":false,"distance":471,"line":1,"transit":false},{"distance":280,"station_name":"Sudirman","line":1,"station_id":"SUD","is_transit":false,"transit":false,"i_lat":-6.202263,"time":1,"i_long":106.822649},{"station_id":"MRI","i_long":106.84912,"i_lat":-6.209883,"station_name":"Manggarai","time":4,"is_transit":false,"line":2,"distance":3186,"transit":false},{"transit":false,"distance":1275,"is_transit":false,"station_id":"MTR","i_long":106.858896,"line":1,"time":2,"i_lat":-6.212485,"station_name":"Matraman"},{"i_lat":-6.215091,"i_long":106.86807400000001,"is_transit":false,"time":8,"station_id":"JNG","transit":false,"distance":1377,"line":1,"station_name":"Jatinegara"},{"time":3,"i_long":106.899548,"distance":3395,"is_transit":false,"station_name":"Klender","i_lat":-6.2135,"line":1,"transit":false,"station_id":"KLD"}],[{"i_lat":-6.128023,"distance":0,"i_long":106.84464,"is_transit":false,"time":0,"transit":false,"station_name":"Ancol","line":4,"station_id":"AC"},{"station_id":"KPB","is_transit":true,"transit":true,"i_lat":-6.132549,"i_long":106.826365,"station_name":"Kampung Bandan","time":4,"distance":2185,"line":4},{"distance":1364,"transit":true,"station_name":"Jakarta Kota","is_transit":true,"station_id":"JAKK","i_long":106.812439,"line":2,"time":3,"i_lat":-6.137569},{"is_transit":false,"time":4,"i_lat":-6.141205,"station_id":"JAY","line":2,"i_long":106.820901,"transit":false,"distance":1264,"station_name":"Jayakarta"},{"transit":false,"i_long":106.82482,"station_name":"Manggabesar","is_transit":false,"distance":1080,"line":2,"i_lat":-6.149769,"station_id":"MGB","time":2},{"transit":false,"time":2,"station_id":"SW","i_long":106.827103,"i_lat":-6.160725,"line":2,"distance":906,"station_name":"Sawah Besar","is_transit":false},{"station_id":"JUA","i_lat":-6.166716,"distance":1149,"transit":false,"line":2,"station_name":"Juanda","time":2,"i_long":106.828284,"is_transit":false},{"time":4,"distance":2015,"i_long":106.832183,"line":2,"station_name":"Gondangdia","station_id":"GDD","transit":false,"is_transit":false,"i_lat":-6.186295},{"i_long":106.840169,"transit":false,"line":2,"time":3,"i_lat":-6.198556,"station_id":"CKI","station_name":"Cikini","is_transit":false,"distance":1750},{"station_id":"MRI","i_lat":-6.209883,"i_long":106.84912,"distance":1590,"transit":true,"line":2,"time":4,"station_name":"Manggarai","is_transit":true},{"transit":false,"station_id":"MTR","time":2,"i_lat":-6.212485,"i_long":106.858896,"is_transit":false,"distance":1275,"station_name":"Matraman","line":1},{"transit":false,"distance":1377,"is_transit":false,"station_name":"Jatinegara","time":8,"line":1,"i_long":106.86807400000001,"station_id":"JNG","i_lat":-6.215091},{"distance":3395,"is_transit":false,"line":1,"station_id":"KLD","station_name":"Klender","time":3,"i_lat":-6.2135,"transit":false,"i_long":106.899548}]]}