{"data":[[{"station_name":"Ancol","station_id":"AC","i_long":106.84464,"transit":false,"is_transit":false,"time":0,"i_lat":-6.128023,"line":4,"distance":0},{"line":4,"time":4,"transit":true,"is_transit":true,"distance":2185,"station_name":"Kampung Bandan","station_id":"KPB","i_long":106.826365,"i_lat":-6.132549},{"is_transit":false,"station_id":"RJW","time":3,"distance":1444,"station_name":"Rajawali","i_lat":-6.14505,"transit":false,"i_long":106.836569,"line":11},{"i_lat":-6.161728,"station_name":"Kemayoran","i_long":106.839204,"is_transit":false,"distance":1901,"time":5,"transit":false,"line":11,"station_id":"KMO"},{"time":4,"transit":false,"line":11,"station_name":"Pasar Senen","i_lat":-6.174784,"is_transit":false,"station_id":"PSE","i_long":106.84368,"distance":1436},{"i_long":106.850107,"station_id":"GST","i_lat":-6.185975,"is_transit":false,"time":8,"line":11,"station_name":"Gang Sentiong","transit":false,"distance":1567},{"station_name":"Kramat","line":11,"i_lat":-6.193792,"is_transit":false,"distance":973,"station_id":"KMT","time":1,"transit":false,"i_long":106.855437},{"station_id":"POK","distance":1829,"i_long":106.861737,"transit":false,"time":2,"is_transit":false,"i_lat":-6.209188,"line":11,"station_name":"Pondok Jati"},{"station_name":"Jatinegara","i_lat":-6.215091,"transit":true,"i_long":106.86807400000001,"station_id":"JNG","time":9,"is_transit":true,"distance":1236,"line":1},{"line":1,"i_long":106.899548,"station_name":"Klender","is_transit":false,"distance":3395,"i_lat":-6.2135,"time":3,"transit":false,"station_id":"KLD"},{"station_name":"Buaran","line":1,"time":2,"station_id":"BUA","is_transit":false,"transit":false,"distance":3100,"i_long":106.922662,"i_lat":-6.215568},{"station_id":"KLDB","line":1,"time":1,"i_lat":-6.217455,"i_long":106.939679,"transit":false,"is_transit":false,"station_name":"Klenderbaru","distance":1305},{"i_lat":-6.219053,"station_id":"CUK","line":1,"is_transit":false,"time":8,"i_long":106.951283,"distance":1385,"transit":false,"station_name":"Cakung"},{"transit":false,"station_id":"KRI","is_transit":false,"time":3,"line":1,"i_long":106.977657,"i_lat":-6.224515,"station_name":"Kranji","distance":3097}],[{"transit":false,"i_lat":-6.128023,"distance":0,"station_name":"Ancol","station_id":"AC","time":0,"line":4,"is_transit":false,"i_long":106.84464},{"time":4,"distance":2185,"line":4,"station_name":"Kampung Bandan","transit":true,"i_lat":-6.132549,"station_id":"KPB","i_long":106.826365,"is_transit":true},{"station_id":"AK","i_long":106.79867,"station_name":"Angke","transit":false,"line":1,"i_lat":-6.144674,"is_transit":false,"time":9,"distance":4102},{"transit":false,"time":4,"distance":1230,"i_lat":-6.155215,"is_transit":false,"station_id":"DU","i_long":106.800832,"line":1,"station_name":"Duri"},{"time":8,"station_id":"THB","i_lat":-6.185545,"i_long":106.811091,"line":1,"distance":3632,"is_transit":false,"transit":false,"station_name":"Tanah Abang"},{"station_name":"Karet","is_transit":false,"i_long":106.816351,"station_id":"KAT","distance":2029,"i_lat":-6.20132,"time":5,"line":1,"transit":false},{"is_transit":false,"time":1,"distance":471,"station_id":"SUDB","i_lat":-6.201433,"transit":false,"station_name":"Sudirman Baru","i_long":106.819881,"line":1},{"line":1,"time":1,"transit":false,"station_name":"Sudirman","station_id":"SUD","distance":280,"i_lat":-6.202263,"is_transit":false,"i_long":106.822649},{"i_lat":-6.209883,"transit":false,"station_name":"Manggarai","line":2,"is_transit":false,"station_id":"MRI","time":4,"i_long":106.84912,"distance":3186},{"i_lat":-6.212485,"station_id":"MTR","line":1,"time":2,"distance":1275,"station_name":"Matraman","transit":false,"i_long":106.858896,"is_transit":false},{"station_id":"JNG","station_name":"Jatinegara","transit":false,"i_long":106.86807400000001,"line":1,"is_transit":false,"time":8,"distance":1377,"i_lat":-6.215091},{"i_long":106.899548,"station_name":"Klender","distance":3395,"i_lat":-6.2135,"time":3,"line":1,"station_id":"KLD","transit":false,"is_transit":false},{"distance":3100,"station_name":"Buaran","is_transit":false,"i_lat":-6.215568,"time":2,"station_id":"BUA","i_long":106.922662,"transit":false,"line":1},{"i_long":106.939679,"transit":false,"station_id":"KLDB","is_transit":false,"station_name":"Klenderbaru","time":1,"distance":1305,"i_lat":-6.217455,"line":1},{"station_id":"CUK","i_long":106.951283,"time":8,"i_lat":-6.219053,"station_name":"Cakung","transit":false,"distance":1385,"line":1,"is_transit":false},{"time":3,"transit":false,"station_name":"Kranji","station_id":"KRI","distance":3097,"i_lat":-6.224515,"line":1,"i_long":106.977657,"is_transit":false}],[{"transit":false,"station_name":"Ancol","time":0,"distance":0,"station_id":"AC","i_lat":-6.128023,"is_transit":false,"i_long":106.84464,"line":4},{"station_id":"KPB","time":4,"line":4,"transit":true,"is_transit":true,"distance":2185,"i_lat":-6.132549,"station_name":"Kampung Bandan","i_long":106.826365},{"is_transit":true,"i_lat":-6.137569,"station_id":"JAKK","line":2,"transit":true,"station_name":"Jakarta Kota","time":3,"distance":1364,"i_long":106.812439},{"is_transit":false,"i_lat":-6.141205,"line":2,"transit":false,"distance":1264,"station_id":"JAY","time":4,"station_name":"Jayakarta","i_long":106.820901},{"transit":false,"station_id":"MGB","time":2,"i_long":106.82482,"station_name":"Manggabesar","line":2,"is_transit":false,"distance":1080,"i_lat":-6.149769},{"time":2,"station_id":"SW","transit":false,"distance":906,"i_lat":-6.160725,"i_long":106.827103,"is_transit":false,"line":2,"station_name":"Sawah Besar"},{"time":2,"station_id":"JUA","transit":false,"i_lat":-6.166716,"station_name":"Juanda","is_transit":false,"distance":1149,"i_long":106.828284,"line":2},{"station_name":"Gondangdia","time":4,"i_lat":-6.186295,"transit":false,"station_id":"GDD","is_transit":false,"distance":2015,"i_long":106.832183,"line":2},{"i_long":106.840169,"transit":false,"is_transit":false,"station_name":"Cikini","station_id":"CKI","distance":1750,"i_lat":-6.198556,"line":2,"time":3},{"i_lat":-6.209883,"line":2,"station_id":"MRI","station_name":"Manggarai","transit":true,"is_transit":true,"time":4,"distance":1590,"i_long":106.84912},{"distance":1275,"transit":false,"line":1,"is_transit":false,"i_lat":-6.212485,"station_id":"MTR","station_name":"Matraman","time":2,"i_long":106.858896},{"line":1,"distance":1377,"i_lat":-6.215091,"transit":false,"station_id":"JNG","is_transit":false,"time":8,"i_long":106.86807400000001,"station_name":"Jatinegara"},{"transit":false,"station_id":"KLD","line":1,"i_long":106.899548,"station_name":"Klender","i_lat":-6.2135,"distance":3395,"is_transit":false,"time":3},{"is_transit":false,"distance":3100,"line":1,"station_name":"Buaran","time":2,"transit":false,"i_lat":-6.215568,"i_long":106.922662,"station_id":"BUA"},{"time":1,"distance":1305,"i_lat":-6.217455,"i_long":106.939679,"is_transit":false,"station_name":"Klenderbaru","line":1,"transit":false,"station_id":"KLDB"},{"i_lat":-6.219053,"station_name":"Cakung","is_transit":false,"station_id":"CUK","distance":1385,"i_long":106.951283,"time":8,"transit":false,"line":1},{"is_transit":false,"i_lat":-6.224515,"line":1,"transit":false,"station_name":"Kranji","station_id":"KRI","i_long":106.977657,"distance":3097,"time":3}]]}