{"data":[[{"time":0,"station_name":"Ancol","station_id":"AC","transit":false,"i_lat":-6.128023,"distance":0,"line":4,"i_long":106.84464,"is_transit":false},{"time":4,"i_lat":-6.132549,"line":4,"is_transit":true,"i_long":106.826365,"station_name":"Kampung Bandan","station_id":"KPB","distance":2185,"transit":true},{"is_transit":false,"transit":false,"line":11,"distance":1444,"i_long":106.836569,"station_id":"RJW","time":3,"station_name":"Rajawali","i_lat":-6.14505},{"station_name":"Kemayoran","station_id":"KMO","i_lat":-6.161728,"i_long":106.839204,"line":11,"is_transit":false,"distance":1901,"transit":false,"time":5},{"station_name":"Pasar Senen","time":4,"transit":false,"i_lat":-6.174784,"line":11,"is_transit":false,"i_long":106.84368,"distance":1436,"station_id":"PSE"},{"line":11,"distance":1567,"station_name":"Gang Sentiong","time":8,"transit":false,"is_transit":false,"i_lat":-6.185975,"station_id":"GST","i_long":106.850107},{"is_transit":false,"line":11,"distance":973,"station_id":"KMT","time":1,"station_name":"Kramat","transit":false,"i_long":106.855437,"i_lat":-6.193792},{"line":11,"i_lat":-6.209188,"time":2,"i_long":106.861737,"is_transit":false,"transit":false,"station_name":"Pondok Jati","station_id":"POK","distance":1829},{"i_lat":-6.215091,"line":1,"time":9,"station_id":"JNG","i_long":106.86807400000001,"transit":true,"distance":1236,"station_name":"Jatinegara","is_transit":true},{"distance":3395,"i_long":106.899548,"time":3,"is_transit":false,"station_name":"Klender","station_id":"KLD","transit":false,"line":1,"i_lat":-6.2135}],[{"i_long":106.84464,"time":0,"station_id":"AC","distance":0,"is_transit":false,"line":4,"station_name":"Ancol","transit":false,"i_lat":-6.128023},{"distance":2185,"time":4,"station_name":"Kampung Bandan","is_transit":true,"i_lat":-6.132549,"i_long":106.826365,"line":4,"station_id":"KPB","transit":true},{"station_id":"AK","transit":false,"line":1,"distance":4102,"i_lat":-6.144674,"time":9,"i_long":106.79867,"station_name":"Angke","is_transit":false},{"station_name":"Duri","is_transit":false,"line":1,"i_lat":-6.155215,"i_long":106.800832,"station_id":"DU","time":4,"distance":1230,"transit":false},{"line":1,"station_id":"THB","distance":3632,"station_name":"Tanah Abang","is_transit":false,"i_lat":-6.185545,"time":8,"transit":false,"i_long":106.811091},{"distance":2029,"station_id":"KAT","is_transit":false,"i_lat":-6.20132,"line":1,"transit":false,"i_long":106.816351,"station_name":"Karet","time":5},{"transit":false,"i_long":106.819881,"is_transit":false,"time":1,"station_id":"SUDB","i_lat":-6.201433,"line":1,"station_name":"Sudirman Baru","distance":471},{"i_lat":-6.202263,"distance":280,"is_transit":false,"time":1,"transit":false,"i_long":106.822649,"line":1,"station_name":"Sudirman","station_id":"SUD"},{"i_long":106.84912,"i_lat":-6.209883,"line":2,"is_transit":false,"station_name":"Manggarai","distance":3186,"time":4,"station_id":"MRI","transit":false},{"station_id":"MTR","i_lat":-6.212485,"distance":1275,"transit":false,"i_long":106.858896,"line":1,"station_name":"Matraman","is_transit":false,"time":2},{"i_lat":-6.215091,"distance":1377,"station_name":"Jatinegara","time":8,"station_id":"JNG","is_transit":false,"transit":false,"line":1,"i_long":106.86807400000001},{"distance":3395,"station_name":"Klender","time":3,"station_id":"KLD","transit":false,"i_long":106.899548,"line":1,"is_transit":false,"i_lat":-6.2135}],[{"station_name":"Ancol","time":0,"transit":false,"is_transit":false,"distance":0,"i_long":106.84464,"line":4,"station_id":"AC","i_lat":-6.128023},{"station_id":"KPB","transit":true,"station_name":"Kampung Bandan","i_lat":-6.132549,"i_long":106.826365,"line":4,"distance":2185,"is_transit":true,"time":4},{"distance":1364,"i_lat":-6.137569,"i_long":106.812439,"transit":true,"is_transit":true,"station_id":"JAKK","line":2,"time":3,"station_name":"Jakarta Kota"},{"i_lat":-6.141205,"i_long":106.820901,"line":2,"distance":1264,"station_name":"Jayakarta","station_id":"JAY","is_transit":false,"time":4,"transit":false},{"line":2,"station_id":"MGB","distance":1080,"time":2,"transit":false,"i_long":106.82482,"station_name":"Manggabesar","is_transit":false,"i_lat":-6.149769},{"station_id":"SW","station_name":"Sawah Besar","distance":906,"line":2,"i_lat":-6.160725,"time":2,"is_transit":false,"transit":false,"i_long":106.827103},{"i_lat":-6.166716,"line":2,"distance":1149,"is_transit":false,"time":2,"transit":false,"i_long":106.828284,"station_name":"Juanda","station_id":"JUA"},{"station_id":"GDD","i_lat":-6.186295,"i_long":106.832183,"distance":2015,"transit":false,"station_name":"Gondangdia","line":2,"is_transit":false,"time":4},{"station_name":"Cikini","is_transit":false,"i_lat":-6.198556,"transit":false,"time":3,"line":2,"i_long":106.840169,"station_id":"CKI","distance":1750},{"station_id":"MRI","i_lat":-6.209883,"i_long":106.84912,"transit":true,"line":2,"time":4,"distance":1590,"station_name":"Manggarai","is_transit":true},{"is_transit":false,"i_long":106.858896,"i_lat":-6.212485,"time":2,"station_id":"MTR","line":1,"distance":1275,"transit":false,"station_name":"Matraman"},{"station_id":"JNG","station_name":"Jatinegara","distance":1377,"is_transit":false,"transit":false,"i_lat":-6.215091,"time":8,"i_long":106.86807400000001,"line":1},{"station_name":"Klender","distance":3395,"time":3,"station_id":"KLD","line":1,"transit":false,"i_lat":-6.2135,"is_transit":false,"i_long":106.899548}]]}