{"data":[[{"transit":false,"station_name":"Ancol","time":0,"i_lat":-6.128023,"is_transit":false,"i_long":106.84464,"line":4,"distance":0,"station_id":"AC"},{"station_name":"Kampung Bandan","i_lat":-6.132549,"distance":2185,"line":4,"station_id":"KPB","time":4,"i_long":106.826365,"transit":true,"is_transit":true},{"time":3,"is_transit":false,"line":11,"i_lat":-6.14505,"station_id":"RJW","distance":1444,"transit":false,"station_name":"Rajawali","i_long":106.836569},{"is_transit":false,"station_id":"KMO","i_lat":-6.161728,"transit":false,"i_long":106.839204,"line":11,"time":5,"station_name":"Kemayoran","distance":1901},{"station_name":"Pasar Senen","distance":1436,"i_long":106.84368,"line":11,"time":4,"transit":false,"station_id":"PSE","i_lat":-6.174784,"is_transit":false},{"i_long":106.850107,"time":8,"is_transit":false,"i_lat":-6.185975,"station_id":"GST","distance":1567,"station_name":"Gang Sentiong","line":11,"transit":false},{"i_lat":-6.193792,"distance":973,"station_id":"KMT","station_name":"Kramat","i_long":106.855437,"is_transit":false,"line":11,"time":1,"transit":false},{"station_name":"Pondok Jati","transit":false,"is_transit":false,"i_lat":-6.209188,"time":2,"station_id":"POK","distance":1829,"i_long":106.861737,"line":11},{"is_transit":true,"time":9,"transit":true,"i_long":106.86807400000001,"station_id":"JNG","station_name":"Jatinegara","line":1,"distance":1236,"i_lat":-6.215091},{"time":3,"transit":false,"station_name":"Klender","i_long":106.899548,"is_transit":false,"i_lat":-6.2135,"station_id":"KLD","line":1,"distance":3395},{"station_name":"Buaran","line":1,"time":2,"is_transit":false,"station_id":"BUA","i_lat":-6.215568,"i_long":106.922662,"distance":3100,"transit":false},{"line":1,"is_transit":false,"i_long":106.939679,"station_name":"Klenderbaru","distance":1305,"time":1,"station_id":"KLDB","i_lat":-6.217455,"transit":false},{"station_name":"Cakung","station_id":"CUK","line":1,"transit":false,"is_transit":false,"distance":1385,"i_lat":-6.219053,"time":8,"i_long":106.951283},{"distance":3097,"transit":false,"i_long":106.977657,"i_lat":-6.224515,"station_id":"KRI","station_name":"Kranji","is_transit":false,"line":1,"time":3}],[{"i_lat":-6.128023,"station_id":"AC","line":4,"transit":false,"time":0,"is_transit":false,"i_long":106.84464,"station_name":"Ancol","distance":0},{"distance":2185,"transit":true,"time":4,"i_long":106.826365,"station_id":"KPB","is_transit":true,"line":4,"i_lat":-6.132549,"station_name":"Kampung Bandan"},{"line":1,"i_long":106.79867,"station_id":"AK","is_transit":false,"i_lat":-6.144674,"station_name":"Angke","distance":4102,"transit":false,"time":9},{"station_id":"DU","transit":false,"i_long":106.800832,"i_lat":-6.155215,"is_transit":false,"distance":1230,"station_name":"Duri","line":1,"time":4},{"transit":false,"distance":3632,"i_long":106.811091,"line":1,"is_transit":false,"time":8,"station_name":"Tanah Abang","i_lat":-6.185545,"station_id":"THB"},{"time":5,"line":1,"distance":2029,"station_id":"KAT","i_lat":-6.20132,"i_long":106.816351,"transit":false,"station_name":"Karet","is_transit":false},{"transit":false,"i_long":106.819881,"time":1,"line":1,"i_lat":-6.201433,"station_name":"Sudirman Baru","station_id":"SUDB","distance":471,"is_transit":false},{"is_transit":false,"time":1,"distance":280,"station_name":"Sudirman","i_long":106.822649,"transit":false,"i_lat":-6.202263,"station_id":"SUD","line":1},{"i_lat":-6.209883,"distance":3186,"station_name":"Manggarai","transit":false,"time":4,"i_long":106.84912,"station_id":"MRI","line":2,"is_transit":false},{"distance":1275,"station_name":"Matraman","is_transit":false,"i_long":106.858896,"time":2,"transit":false,"line":1,"i_lat":-6.212485,"station_id":"MTR"},{"transit":false,"line":1,"station_name":"Jatinegara","time":8,"i_long":106.86807400000001,"i_lat":-6.215091,"station_id":"JNG","distance":1377,"is_transit":false},{"distance":3395,"is_transit":false,"i_long":106.899548,"station_id":"KLD","time":3,"station_name":"Klender","transit":false,"i_lat":-6.2135,"line":1},{"line":1,"distance":3100,"station_name":"Buaran","is_transit":false,"i_lat":-6.215568,"station_id":"BUA","time":2,"transit":false,"i_long":106.922662},{"time":1,"station_name":"Klenderbaru","station_id":"KLDB","is_transit":false,"i_lat":-6.217455,"transit":false,"line":1,"i_long":106.939679,"distance":1305},{"i_long":106.951283,"distance":1385,"station_name":"Cakung","station_id":"CUK","transit":false,"line":1,"time":8,"is_transit":false,"i_lat":-6.219053},{"is_transit":false,"distance":3097,"i_long":106.977657,"transit":false,"time":3,"station_name":"Kranji","station_id":"KRI","line":1,"i_lat":-6.224515}],[{"i_lat":-6.128023,"i_long":106.84464,"station_name":"Ancol","is_transit":false,"distance":0,"time":0,"station_id":"AC","line":4,"transit":false},{"station_name":"Kampung Bandan","station_id":"KPB","transit":true,"distance":2185,"is_transit":true,"time":4,"i_lat":-6.132549,"line":4,"i_long":106.826365},{"i_long":106.812439,"line":2,"is_transit":true,"station_id":"JAKK","distance":1364,"transit":true,"time":3,"i_lat":-6.137569,"station_name":"Jakarta Kota"},{"i_lat":-6.141205,"time":4,"i_long":106.820901,"distance":1264,"station_id":"JAY","is_transit":false,"line":2,"station_name":"Jayakarta","transit":false},{"station_name":"Manggabesar","i_lat":-6.149769,"i_long":106.82482,"line":2,"is_transit":false,"distance":1080,"station_id":"MGB","time":2,"transit":false},{"transit":false,"time":2,"distance":906,"station_name":"Sawah Besar","station_id":"SW","i_lat":-6.160725,"line":2,"i_long":106.827103,"is_transit":false},{"station_name":"Juanda","line":2,"i_lat":-6.166716,"i_long":106.828284,"transit":false,"time":2,"station_id":"JUA","is_transit":false,"distance":1149},{"i_long":106.832183,"station_name":"Gondangdia","transit":false,"distance":2015,"time":4,"i_lat":-6.186295,"line":2,"is_transit":false,"station_id":"GDD"},{"distance":1750,"station_id":"CKI","i_lat":-6.198556,"transit":false,"i_long":106.840169,"is_transit":false,"line":2,"station_name":"Cikini","time":3},{"distance":1590,"station_id":"MRI","i_long":106.84912,"station_name":"Manggarai","i_lat":-6.209883,"line":2,"is_transit":true,"time":4,"transit":true},{"i_lat":-6.212485,"line":1,"station_id":"MTR","transit":false,"time":2,"station_name":"Matraman","distance":1275,"i_long":106.858896,"is_transit":false},{"distance":1377,"is_transit":false,"i_lat":-6.215091,"station_name":"Jatinegara","i_long":106.86807400000001,"transit":false,"time":8,"line":1,"station_id":"JNG"},{"i_lat":-6.2135,"station_name":"Klender","transit":false,"is_transit":false,"time":3,"i_long":106.899548,"line":1,"station_id":"KLD","distance":3395},{"is_transit":false,"time":2,"transit":false,"i_lat":-6.215568,"line":1,"station_id":"BUA","i_long":106.922662,"station_name":"Buaran","distance":3100},{"time":1,"station_id":"KLDB","distance":1305,"is_transit":false,"i_lat":-6.217455,"transit":false,"i_long":106.939679,"line":1,"station_name":"Klenderbaru"},{"distance":1385,"line":1,"time":8,"i_long":106.951283,"transit":false,"is_transit":false,"i_lat":-6.219053,"station_id":"CUK","station_name":"Cakung"},{"distance":3097,"is_transit":false,"station_name":"Kranji","i_long":106.977657,"transit":false,"line":1,"i_lat":-6.224515,"station_id":"KRI","time":3}]]}