{"data":[[{"i_long":106.84464,"is_transit":false,"i_lat":-6.128023,"transit":false,"distance":0,"station_name":"Ancol","line":0,"time":0,"station_id":"AC"},{"i_lat":-6.132549,"distance":2185,"line":0,"i_long":106.826365,"station_name":"Kampung Bandan","is_transit":true,"transit":true,"station_id":"KPB","time":4},{"i_long":106.836569,"transit":false,"station_name":"Rajawali","time":3,"line":11,"distance":1444,"is_transit":false,"i_lat":-6.14505,"station_id":"RJW"},{"is_transit":false,"station_id":"KMO","station_name":"Kemayoran","i_lat":-6.161728,"i_long":106.839204,"line":11,"time":5,"transit":false,"distance":1901},{"transit":false,"distance":1436,"i_lat":-6.174784,"is_transit":false,"time":4,"station_name":"Pasar Senen","station_id":"PSE","i_long":106.84368,"line":11},{"station_name":"Gang Sentiong","transit":false,"distance":1567,"time":8,"i_lat":-6.185975,"i_long":106.850107,"line":11,"station_id":"GST","is_transit":false},{"distance":973,"transit":false,"is_transit":false,"i_lat":-6.193792,"i_long":106.855437,"line":11,"time":1,"station_id":"KMT","station_name":"Kramat"},{"station_id":"POK","distance":1829,"i_long":106.861737,"station_name":"Pondok Jati","line":11,"time":2,"i_lat":-6.209188,"is_transit":false,"transit":false},{"station_name":"Jatinegara","distance":1236,"i_long":106.86807400000001,"is_transit":true,"i_lat":-6.215091,"time":9,"station_id":"JNG","line":0,"transit":true},{"line":1,"station_name":"Klender","distance":3395,"is_transit":false,"i_lat":-6.2135,"transit":false,"time":3,"station_id":"KLD","i_long":106.899548}],[{"i_lat":-6.128023,"line":0,"i_long":106.84464,"station_id":"AC","station_name":"Ancol","time":0,"transit":false,"distance":0,"is_transit":false},{"line":0,"station_name":"Kampung Bandan","time":4,"i_lat":-6.132549,"station_id":"KPB","i_long":106.826365,"distance":2185,"transit":false,"is_transit":true},{"line":0,"i_lat":-6.144674,"i_long":106.79867,"station_id":"AK","distance":4102,"time":9,"is_transit":false,"transit":false,"station_name":"Angke"},{"i_lat":-6.155215,"i_long":106.800832,"time":4,"station_id":"DU","is_transit":true,"transit":true,"station_name":"Duri","distance":1230,"line":1},{"distance":3632,"i_lat":-6.185545,"station_name":"Tanah Abang","line":1,"time":8,"station_id":"THB","is_transit":true,"i_long":106.811091,"transit":false},{"distance":2029,"station_id":"KAT","i_lat":-6.20132,"is_transit":false,"station_name":"Karet","time":5,"transit":false,"i_long":106.816351,"line":1},{"i_lat":-6.201433,"transit":false,"i_long":106.819881,"is_transit":false,"time":1,"distance":471,"line":1,"station_id":"SUDB","station_name":"Sudirman Baru"},{"line":1,"i_long":106.822649,"is_transit":false,"station_name":"Sudirman","transit":false,"distance":280,"time":1,"station_id":"SUD","i_lat":-6.202263},{"line":0,"transit":false,"station_name":"Manggarai","station_id":"MRI","is_transit":true,"time":4,"i_lat":-6.209883,"distance":3186,"i_long":106.84912},{"is_transit":false,"transit":false,"station_name":"Matraman","i_lat":-6.212485,"i_long":106.858896,"line":1,"distance":1275,"time":2,"station_id":"MTR"},{"is_transit":true,"station_id":"JNG","station_name":"Jatinegara","distance":1377,"line":0,"i_long":106.86807400000001,"time":8,"transit":false,"i_lat":-6.215091},{"time":3,"transit":false,"is_transit":false,"distance":3395,"i_long":106.899548,"station_name":"Klender","line":1,"station_id":"KLD","i_lat":-6.2135}],[{"station_id":"AC","distance":0,"time":0,"station_name":"Ancol","i_lat":-6.128023,"line":0,"is_transit":false,"i_long":106.84464,"transit":false},{"i_lat":-6.132549,"transit":false,"station_name":"Kampung Bandan","time":4,"line":0,"station_id":"KPB","distance":2185,"is_transit":true,"i_long":106.826365},{"distance":1364,"i_long":106.812439,"line":0,"is_transit":true,"time":3,"station_name":"Jakarta Kota","transit":true,"station_id":"JAKK","i_lat":-6.137569},{"station_name":"Jayakarta","station_id":"JAY","is_transit":false,"time":4,"i_lat":-6.141205,"distance":1264,"line":7,"i_long":106.820901,"transit":false},{"station_name":"Manggabesar","transit":false,"distance":1080,"time":2,"is_transit":false,"i_lat":-6.149769,"station_id":"MGB","i_long":106.82482,"line":2},{"transit":false,"distance":906,"i_long":106.827103,"station_id":"SW","station_name":"Sawah Besar","is_transit":false,"i_lat":-6.160725,"time":2,"line":2},{"i_long":106.828284,"i_lat":-6.166716,"station_id":"JUA","line":2,"is_transit":false,"distance":1149,"station_name":"Juanda","time":2,"transit":false},{"station_name":"Gondangdia","transit":false,"is_transit":false,"station_id":"GDD","i_lat":-6.186295,"i_long":106.832183,"line":2,"distance":2015,"time":4},{"distance":1750,"is_transit":false,"time":3,"i_lat":-6.198556,"i_long":106.840169,"transit":false,"station_id":"CKI","line":0,"station_name":"Cikini"},{"time":4,"i_lat":-6.209883,"transit":true,"i_long":106.84912,"is_transit":true,"station_name":"Manggarai","distance":1590,"station_id":"MRI","line":0},{"is_transit":false,"transit":false,"station_id":"MTR","i_long":106.858896,"line":1,"station_name":"Matraman","time":2,"distance":1275,"i_lat":-6.212485},{"line":0,"station_id":"JNG","station_name":"Jatinegara","time":8,"i_long":106.86807400000001,"is_transit":true,"distance":1377,"transit":false,"i_lat":-6.215091},{"is_transit":false,"transit":false,"distance":3395,"station_id":"KLD","time":3,"i_long":106.899548,"station_name":"Klender","i_lat":-6.2135,"line":1}]]}