{"data":[[{"station_id":"AC","i_long":106.84464,"distance":0,"line":4,"station_name":"Ancol","i_lat":-6.128023,"is_transit":false,"transit":false,"time":0},{"time":4,"transit":true,"distance":2185,"station_id":"KPB","i_long":106.826365,"line":4,"station_name":"Kampung Bandan","is_transit":true,"i_lat":-6.132549},{"station_name":"Angke","is_transit":false,"transit":false,"i_long":106.79867,"station_id":"AK","line":1,"distance":4102,"time":9,"i_lat":-6.144674},{"i_lat":-6.155215,"line":1,"transit":true,"i_long":106.800832,"time":4,"is_transit":true,"distance":1230,"station_name":"Duri","station_id":"DU"},{"station_name":"Grogol","is_transit":false,"distance":1700,"time":3,"i_long":106.788277,"transit":false,"line":5,"station_id":"GGL","i_lat":-6.162021},{"station_id":"PSG","time":2,"station_name":"Pesing","transit":false,"distance":2036,"i_lat":-6.161433,"i_long":106.771379,"is_transit":false,"line":5},{"i_lat":-6.1587309999999995,"station_name":"Taman Kota","i_long":106.756522,"is_transit":false,"time":2,"line":5,"transit":false,"distance":1614,"station_id":"TKO"},{"is_transit":false,"time":2,"station_id":"BOI","station_name":"Bojongindah","i_lat":-6.159876,"distance":2334,"i_long":106.737035,"line":5,"transit":false},{"line":5,"is_transit":false,"i_long":106.723064,"time":4,"distance":1152,"transit":false,"station_id":"RW","i_lat":-6.162758,"station_name":"Rawa Buaya"},{"station_name":"Kalideres","transit":false,"time":3,"is_transit":false,"station_id":"KDS","line":5,"i_lat":-6.166068,"distance":2504,"i_long":106.701612}],[{"transit":false,"station_name":"Ancol","is_transit":false,"i_lat":-6.128023,"distance":0,"time":0,"line":4,"i_long":106.84464,"station_id":"AC"},{"i_long":106.826365,"distance":2185,"station_id":"KPB","transit":true,"i_lat":-6.132549,"station_name":"Kampung Bandan","is_transit":true,"time":4,"line":4},{"time":3,"line":2,"transit":true,"station_name":"Jakarta Kota","distance":1364,"is_transit":true,"i_lat":-6.137569,"station_id":"JAKK","i_long":106.812439},{"is_transit":false,"distance":1264,"i_long":106.820901,"line":2,"station_id":"JAY","time":4,"transit":false,"i_lat":-6.141205,"station_name":"Jayakarta"},{"station_id":"MGB","line":2,"i_long":106.82482,"distance":1080,"station_name":"Manggabesar","is_transit":false,"transit":false,"i_lat":-6.149769,"time":2},{"i_long":106.827103,"time":2,"station_name":"Sawah Besar","is_transit":false,"transit":false,"distance":906,"i_lat":-6.160725,"line":2,"station_id":"SW"},{"i_long":106.828284,"distance":1149,"is_transit":false,"station_id":"JUA","time":2,"i_lat":-6.166716,"transit":false,"line":2,"station_name":"Juanda"},{"line":2,"is_transit":false,"distance":2015,"station_name":"Gondangdia","i_lat":-6.186295,"i_long":106.832183,"time":4,"transit":false,"station_id":"GDD"},{"distance":1750,"station_id":"CKI","transit":false,"i_long":106.840169,"time":3,"line":2,"station_name":"Cikini","i_lat":-6.198556,"is_transit":false},{"time":4,"station_id":"MRI","i_lat":-6.209883,"i_long":106.84912,"station_name":"Manggarai","line":2,"transit":true,"distance":1590,"is_transit":true},{"distance":3186,"time":4,"i_lat":-6.202263,"station_id":"SUD","line":1,"transit":false,"i_long":106.822649,"is_transit":false,"station_name":"Sudirman"},{"distance":280,"line":1,"station_id":"SUDB","time":1,"station_name":"Sudirman Baru","i_lat":-6.201433,"i_long":106.819881,"is_transit":false,"transit":false},{"time":1,"station_id":"KAT","i_long":106.816351,"i_lat":-6.20132,"station_name":"Karet","transit":false,"is_transit":false,"line":1,"distance":471},{"station_id":"THB","station_name":"Tanah Abang","distance":2029,"i_lat":-6.185545,"transit":false,"time":5,"i_long":106.811091,"is_transit":false,"line":1},{"distance":3632,"is_transit":true,"station_id":"DU","line":1,"transit":true,"i_long":106.800832,"station_name":"Duri","time":8,"i_lat":-6.155215},{"i_long":106.788277,"station_name":"Grogol","distance":1700,"time":3,"station_id":"GGL","i_lat":-6.162021,"transit":false,"is_transit":false,"line":5},{"station_name":"Pesing","i_lat":-6.161433,"i_long":106.771379,"is_transit":false,"transit":false,"station_id":"PSG","distance":2036,"line":5,"time":2},{"is_transit":false,"transit":false,"i_long":106.756522,"i_lat":-6.1587309999999995,"line":5,"time":2,"station_id":"TKO","station_name":"Taman Kota","distance":1614},{"station_id":"BOI","time":2,"is_transit":false,"line":5,"i_long":106.737035,"transit":false,"station_name":"Bojongindah","i_lat":-6.159876,"distance":2334},{"i_long":106.723064,"station_name":"Rawa Buaya","distance":1152,"i_lat":-6.162758,"transit":false,"is_transit":false,"line":5,"station_id":"RW","time":4},{"station_name":"Kalideres","transit":false,"line":5,"station_id":"KDS","is_transit":false,"i_lat":-6.166068,"time":3,"i_long":106.701612,"distance":2504}],[{"transit":false,"distance":0,"is_transit":false,"i_lat":-6.128023,"time":0,"line":4,"i_long":106.84464,"station_name":"Ancol","station_id":"AC"},{"is_transit":true,"time":4,"transit":true,"station_name":"Kampung Bandan","distance":2185,"station_id":"KPB","i_long":106.826365,"i_lat":-6.132549,"line":4},{"line":11,"distance":1444,"i_long":106.836569,"station_name":"Rajawali","transit":false,"i_lat":-6.14505,"station_id":"RJW","is_transit":false,"time":3},{"i_lat":-6.161728,"line":11,"time":5,"station_name":"Kemayoran","i_long":106.839204,"transit":false,"distance":1901,"is_transit":false,"station_id":"KMO"},{"time":4,"station_id":"PSE","i_lat":-6.174784,"is_transit":false,"transit":false,"distance":1436,"i_long":106.84368,"line":11,"station_name":"Pasar Senen"},{"is_transit":false,"distance":1567,"station_id":"GST","station_name":"Gang Sentiong","transit":false,"i_long":106.850107,"i_lat":-6.185975,"time":8,"line":11},{"i_lat":-6.193792,"transit":false,"distance":973,"is_transit":false,"line":11,"time":1,"station_id":"KMT","i_long":106.855437,"station_name":"Kramat"},{"i_lat":-6.209188,"transit":false,"time":2,"distance":1829,"station_id":"POK","line":11,"is_transit":false,"i_long":106.861737,"station_name":"Pondok Jati"},{"line":1,"i_long":106.86807400000001,"station_name":"Jatinegara","is_transit":true,"time":9,"distance":1236,"i_lat":-6.215091,"transit":true,"station_id":"JNG"},{"line":1,"is_transit":false,"time":2,"i_lat":-6.212485,"transit":false,"station_name":"Matraman","distance":1377,"station_id":"MTR","i_long":106.858896},{"time":2,"i_long":106.84912,"station_name":"Manggarai","distance":1275,"station_id":"MRI","transit":false,"is_transit":false,"line":2,"i_lat":-6.209883},{"time":4,"is_transit":false,"transit":false,"i_lat":-6.202263,"station_name":"Sudirman","distance":3186,"line":1,"station_id":"SUD","i_long":106.822649},{"distance":280,"transit":false,"time":1,"station_id":"SUDB","line":1,"i_long":106.819881,"station_name":"Sudirman Baru","is_transit":false,"i_lat":-6.201433},{"distance":471,"station_name":"Karet","time":1,"station_id":"KAT","i_long":106.816351,"transit":false,"line":1,"is_transit":false,"i_lat":-6.20132},{"time":5,"transit":false,"i_lat":-6.185545,"line":1,"distance":2029,"station_id":"THB","i_long":106.811091,"is_transit":false,"station_name":"Tanah Abang"},{"line":1,"distance":3632,"station_name":"Duri","transit":true,"time":8,"i_lat":-6.155215,"i_long":106.800832,"station_id":"DU","is_transit":true},{"line":5,"transit":false,"i_lat":-6.162021,"station_name":"Grogol","i_long":106.788277,"is_transit":false,"time":3,"distance":1700,"station_id":"GGL"},{"transit":false,"i_lat":-6.161433,"time":2,"station_id":"PSG","station_name":"Pesing","i_long":106.771379,"line":5,"is_transit":false,"distance":2036},{"station_id":"TKO","i_lat":-6.1587309999999995,"time":2,"distance":1614,"i_long":106.756522,"is_transit":false,"transit":false,"station_name":"Taman Kota","line":5},{"i_lat":-6.159876,"station_name":"Bojongindah","is_transit":false,"distance":2334,"station_id":"BOI","line":5,"transit":false,"time":2,"i_long":106.737035},{"time":4,"i_lat":-6.162758,"i_long":106.723064,"station_id":"RW","line":5,"is_transit":false,"transit":false,"distance":1152,"station_name":"Rawa Buaya"},{"time":3,"transit":false,"line":5,"is_transit":false,"i_lat":-6.166068,"i_long":106.701612,"station_name":"Kalideres","station_id":"KDS","distance":2504}]]}