{"data":[[{"i_lat":-6.128023,"is_transit":false,"station_name":"Ancol","station_id":"AC","distance":0,"transit":false,"time":0,"i_long":106.84464,"line":4},{"distance":2185,"i_lat":-6.132549,"line":4,"transit":true,"is_transit":true,"i_long":106.826365,"station_id":"KPB","station_name":"Kampung Bandan","time":4},{"transit":false,"station_name":"Rajawali","station_id":"RJW","is_transit":false,"line":11,"distance":1444,"time":3,"i_long":106.836569,"i_lat":-6.14505},{"is_transit":false,"line":11,"i_long":106.839204,"time":5,"station_name":"Kemayoran","distance":1901,"transit":false,"i_lat":-6.161728,"station_id":"KMO"},{"is_transit":false,"time":4,"i_lat":-6.174784,"station_name":"Pasar Senen","line":11,"transit":false,"distance":1436,"i_long":106.84368,"station_id":"PSE"},{"line":11,"is_transit":false,"station_id":"GST","transit":false,"i_long":106.850107,"distance":1567,"station_name":"Gang Sentiong","time":8,"i_lat":-6.185975},{"station_id":"KMT","station_name":"Kramat","distance":973,"is_transit":false,"time":1,"transit":false,"i_lat":-6.193792,"i_long":106.855437,"line":11},{"line":11,"time":2,"is_transit":false,"i_lat":-6.209188,"station_id":"POK","distance":1829,"transit":false,"i_long":106.861737,"station_name":"Pondok Jati"},{"station_id":"JNG","time":9,"line":1,"is_transit":true,"transit":true,"i_long":106.86807400000001,"station_name":"Jatinegara","i_lat":-6.215091,"distance":1236},{"is_transit":false,"transit":false,"i_lat":-6.2135,"station_name":"Klender","line":1,"station_id":"KLD","distance":3395,"i_long":106.899548,"time":3},{"line":1,"station_name":"Buaran","i_long":106.922662,"station_id":"BUA","transit":false,"is_transit":false,"time":2,"i_lat":-6.215568,"distance":3100},{"line":1,"transit":false,"distance":1305,"station_id":"KLDB","is_transit":false,"i_long":106.939679,"station_name":"Klenderbaru","time":1,"i_lat":-6.217455},{"station_name":"Cakung","i_long":106.951283,"station_id":"CUK","time":8,"i_lat":-6.219053,"line":1,"transit":false,"distance":1385,"is_transit":false},{"i_long":106.977657,"i_lat":-6.224515,"station_name":"Kranji","station_id":"KRI","line":1,"transit":false,"distance":3097,"time":3,"is_transit":false}],[{"distance":0,"station_name":"Ancol","time":0,"transit":false,"line":4,"is_transit":false,"i_long":106.84464,"i_lat":-6.128023,"station_id":"AC"},{"station_name":"Kampung Bandan","station_id":"KPB","i_lat":-6.132549,"transit":true,"distance":2185,"is_transit":true,"time":4,"i_long":106.826365,"line":4},{"i_long":106.79867,"is_transit":false,"station_id":"AK","time":9,"transit":false,"station_name":"Angke","line":1,"distance":4102,"i_lat":-6.144674},{"time":4,"is_transit":false,"station_name":"Duri","i_long":106.800832,"transit":false,"i_lat":-6.155215,"distance":1230,"station_id":"DU","line":1},{"station_name":"Tanah Abang","distance":3632,"time":8,"station_id":"THB","is_transit":false,"i_long":106.811091,"transit":false,"line":1,"i_lat":-6.185545},{"line":1,"distance":2029,"time":5,"station_id":"KAT","station_name":"Karet","is_transit":false,"i_lat":-6.20132,"transit":false,"i_long":106.816351},{"distance":471,"i_lat":-6.201433,"station_name":"Sudirman Baru","i_long":106.819881,"line":1,"station_id":"SUDB","transit":false,"time":1,"is_transit":false},{"i_long":106.822649,"is_transit":false,"station_id":"SUD","transit":false,"i_lat":-6.202263,"station_name":"Sudirman","time":1,"line":1,"distance":280},{"transit":false,"station_id":"MRI","i_long":106.84912,"time":4,"i_lat":-6.209883,"line":2,"is_transit":false,"distance":3186,"station_name":"Manggarai"},{"i_lat":-6.212485,"i_long":106.858896,"station_id":"MTR","station_name":"Matraman","is_transit":false,"time":2,"line":1,"distance":1275,"transit":false},{"distance":1377,"line":1,"time":8,"i_lat":-6.215091,"station_name":"Jatinegara","station_id":"JNG","is_transit":false,"transit":false,"i_long":106.86807400000001},{"distance":3395,"time":3,"transit":false,"station_id":"KLD","i_lat":-6.2135,"i_long":106.899548,"is_transit":false,"line":1,"station_name":"Klender"},{"station_id":"BUA","i_lat":-6.215568,"is_transit":false,"transit":false,"time":2,"i_long":106.922662,"station_name":"Buaran","distance":3100,"line":1},{"line":1,"is_transit":false,"transit":false,"time":1,"station_id":"KLDB","i_long":106.939679,"station_name":"Klenderbaru","i_lat":-6.217455,"distance":1305},{"transit":false,"i_long":106.951283,"line":1,"is_transit":false,"distance":1385,"i_lat":-6.219053,"time":8,"station_name":"Cakung","station_id":"CUK"},{"station_id":"KRI","i_long":106.977657,"i_lat":-6.224515,"station_name":"Kranji","transit":false,"distance":3097,"is_transit":false,"line":1,"time":3}],[{"transit":false,"line":4,"distance":0,"station_id":"AC","i_lat":-6.128023,"i_long":106.84464,"time":0,"is_transit":false,"station_name":"Ancol"},{"transit":true,"station_name":"Kampung Bandan","i_long":106.826365,"is_transit":true,"distance":2185,"i_lat":-6.132549,"line":4,"station_id":"KPB","time":4},{"time":3,"station_id":"JAKK","i_lat":-6.137569,"transit":true,"station_name":"Jakarta Kota","i_long":106.812439,"is_transit":true,"line":2,"distance":1364},{"distance":1264,"time":4,"transit":false,"i_lat":-6.141205,"station_id":"JAY","i_long":106.820901,"station_name":"Jayakarta","line":2,"is_transit":false},{"transit":false,"station_id":"MGB","is_transit":false,"distance":1080,"i_lat":-6.149769,"time":2,"i_long":106.82482,"station_name":"Manggabesar","line":2},{"is_transit":false,"line":2,"station_name":"Sawah Besar","distance":906,"station_id":"SW","time":2,"i_lat":-6.160725,"transit":false,"i_long":106.827103},{"station_name":"Juanda","station_id":"JUA","line":2,"i_lat":-6.166716,"i_long":106.828284,"distance":1149,"transit":false,"time":2,"is_transit":false},{"line":2,"is_transit":false,"i_long":106.832183,"station_id":"GDD","time":4,"transit":false,"station_name":"Gondangdia","distance":2015,"i_lat":-6.186295},{"is_transit":false,"distance":1750,"transit":false,"i_lat":-6.198556,"i_long":106.840169,"time":3,"line":2,"station_name":"Cikini","station_id":"CKI"},{"i_lat":-6.209883,"is_transit":true,"distance":1590,"station_id":"MRI","station_name":"Manggarai","time":4,"transit":true,"i_long":106.84912,"line":2},{"distance":1275,"transit":false,"station_name":"Matraman","i_lat":-6.212485,"i_long":106.858896,"time":2,"line":1,"station_id":"MTR","is_transit":false},{"i_lat":-6.215091,"station_name":"Jatinegara","station_id":"JNG","distance":1377,"time":8,"transit":false,"line":1,"is_transit":false,"i_long":106.86807400000001},{"i_long":106.899548,"is_transit":false,"transit":false,"i_lat":-6.2135,"station_id":"KLD","line":1,"station_name":"Klender","distance":3395,"time":3},{"i_lat":-6.215568,"distance":3100,"line":1,"station_id":"BUA","is_transit":false,"time":2,"transit":false,"station_name":"Buaran","i_long":106.922662},{"i_long":106.939679,"line":1,"station_name":"Klenderbaru","is_transit":false,"transit":false,"station_id":"KLDB","distance":1305,"i_lat":-6.217455,"time":1},{"transit":false,"i_long":106.951283,"is_transit":false,"distance":1385,"station_id":"CUK","line":1,"time":8,"i_lat":-6.219053,"station_name":"Cakung"},{"station_id":"KRI","transit":false,"line":1,"i_lat":-6.224515,"station_name":"Kranji","is_transit":false,"distance":3097,"i_long":106.977657,"time":3}]]}