{"data":[[{"is_transit":false,"station_name":"Ancol","transit":false,"station_id":"AC","time":0,"distance":0,"i_lat":-6.128023,"i_long":106.84464,"line":4},{"i_long":106.826365,"line":4,"station_name":"Kampung Bandan","transit":true,"is_transit":true,"i_lat":-6.132549,"distance":2185,"station_id":"KPB","time":4},{"transit":false,"line":1,"is_transit":false,"time":9,"distance":4102,"station_name":"Angke","i_long":106.79867,"i_lat":-6.144674,"station_id":"AK"},{"distance":1230,"time":4,"i_lat":-6.155215,"transit":true,"line":1,"station_name":"Duri","is_transit":true,"station_id":"DU","i_long":106.800832},{"transit":false,"i_long":106.788277,"is_transit":false,"time":3,"station_id":"GGL","line":5,"station_name":"Grogol","distance":1700,"i_lat":-6.162021},{"station_name":"Pesing","i_long":106.771379,"transit":false,"i_lat":-6.161433,"distance":2036,"station_id":"PSG","line":5,"is_transit":false,"time":2},{"transit":false,"station_name":"Taman Kota","time":2,"i_long":106.756522,"is_transit":false,"station_id":"TKO","distance":1614,"i_lat":-6.1587309999999995,"line":5},{"station_name":"Bojongindah","i_long":106.737035,"station_id":"BOI","line":5,"is_transit":false,"time":2,"transit":false,"i_lat":-6.159876,"distance":2334},{"time":4,"line":5,"station_id":"RW","distance":1152,"i_long":106.723064,"i_lat":-6.162758,"transit":false,"station_name":"Rawa Buaya","is_transit":false},{"distance":2504,"station_id":"KDS","i_lat":-6.166068,"i_long":106.701612,"transit":false,"is_transit":false,"time":3,"station_name":"Kalideres","line":5}],[{"i_lat":-6.128023,"distance":0,"station_name":"Ancol","station_id":"AC","transit":false,"time":0,"i_long":106.84464,"line":4,"is_transit":false},{"i_lat":-6.132549,"time":4,"station_id":"KPB","transit":true,"i_long":106.826365,"is_transit":true,"line":4,"station_name":"Kampung Bandan","distance":2185},{"distance":1364,"line":2,"station_name":"Jakarta Kota","transit":true,"time":3,"i_lat":-6.137569,"station_id":"JAKK","i_long":106.812439,"is_transit":true},{"time":4,"line":2,"station_name":"Jayakarta","station_id":"JAY","is_transit":false,"i_long":106.820901,"transit":false,"distance":1264,"i_lat":-6.141205},{"station_id":"MGB","i_long":106.82482,"distance":1080,"line":2,"transit":false,"time":2,"is_transit":false,"station_name":"Manggabesar","i_lat":-6.149769},{"time":2,"i_lat":-6.160725,"is_transit":false,"transit":false,"i_long":106.827103,"station_id":"SW","station_name":"Sawah Besar","line":2,"distance":906},{"line":2,"distance":1149,"is_transit":false,"station_id":"JUA","i_long":106.828284,"transit":false,"station_name":"Juanda","i_lat":-6.166716,"time":2},{"i_lat":-6.186295,"station_id":"GDD","time":4,"station_name":"Gondangdia","is_transit":false,"transit":false,"i_long":106.832183,"line":2,"distance":2015},{"transit":false,"i_lat":-6.198556,"is_transit":false,"station_name":"Cikini","time":3,"distance":1750,"station_id":"CKI","i_long":106.840169,"line":2},{"station_name":"Manggarai","line":2,"i_lat":-6.209883,"transit":true,"distance":1590,"station_id":"MRI","time":4,"i_long":106.84912,"is_transit":true},{"line":1,"station_name":"Sudirman","is_transit":false,"i_long":106.822649,"station_id":"SUD","transit":false,"i_lat":-6.202263,"distance":3186,"time":4},{"station_name":"Sudirman Baru","distance":280,"i_long":106.819881,"station_id":"SUDB","time":1,"transit":false,"line":1,"i_lat":-6.201433,"is_transit":false},{"i_long":106.816351,"line":1,"is_transit":false,"time":1,"station_id":"KAT","i_lat":-6.20132,"transit":false,"station_name":"Karet","distance":471},{"i_long":106.811091,"distance":2029,"time":5,"transit":false,"i_lat":-6.185545,"station_id":"THB","station_name":"Tanah Abang","line":1,"is_transit":false},{"line":1,"transit":true,"i_long":106.800832,"station_name":"Duri","station_id":"DU","distance":3632,"time":8,"is_transit":true,"i_lat":-6.155215},{"is_transit":false,"distance":1700,"station_id":"GGL","i_long":106.788277,"line":5,"transit":false,"i_lat":-6.162021,"station_name":"Grogol","time":3},{"i_lat":-6.161433,"station_id":"PSG","line":5,"time":2,"station_name":"Pesing","is_transit":false,"transit":false,"distance":2036,"i_long":106.771379},{"station_name":"Taman Kota","distance":1614,"time":2,"i_long":106.756522,"station_id":"TKO","transit":false,"is_transit":false,"line":5,"i_lat":-6.1587309999999995},{"i_long":106.737035,"line":5,"distance":2334,"station_id":"BOI","time":2,"i_lat":-6.159876,"station_name":"Bojongindah","transit":false,"is_transit":false},{"is_transit":false,"i_lat":-6.162758,"transit":false,"station_id":"RW","line":5,"time":4,"i_long":106.723064,"station_name":"Rawa Buaya","distance":1152},{"time":3,"distance":2504,"line":5,"is_transit":false,"transit":false,"i_lat":-6.166068,"i_long":106.701612,"station_id":"KDS","station_name":"Kalideres"}],[{"line":4,"distance":0,"station_name":"Ancol","i_lat":-6.128023,"transit":false,"is_transit":false,"time":0,"i_long":106.84464,"station_id":"AC"},{"transit":true,"i_lat":-6.132549,"is_transit":true,"distance":2185,"station_id":"KPB","line":4,"station_name":"Kampung Bandan","time":4,"i_long":106.826365},{"line":11,"station_id":"RJW","time":3,"station_name":"Rajawali","is_transit":false,"i_long":106.836569,"transit":false,"distance":1444,"i_lat":-6.14505},{"station_id":"KMO","station_name":"Kemayoran","distance":1901,"is_transit":false,"line":11,"i_long":106.839204,"i_lat":-6.161728,"time":5,"transit":false},{"i_long":106.84368,"line":11,"i_lat":-6.174784,"is_transit":false,"station_name":"Pasar Senen","distance":1436,"station_id":"PSE","time":4,"transit":false},{"transit":false,"station_id":"GST","time":8,"line":11,"distance":1567,"station_name":"Gang Sentiong","is_transit":false,"i_lat":-6.185975,"i_long":106.850107},{"is_transit":false,"i_long":106.855437,"i_lat":-6.193792,"line":11,"time":1,"station_name":"Kramat","transit":false,"distance":973,"station_id":"KMT"},{"is_transit":false,"time":2,"i_long":106.861737,"i_lat":-6.209188,"station_name":"Pondok Jati","distance":1829,"station_id":"POK","transit":false,"line":11},{"station_name":"Jatinegara","i_long":106.86807400000001,"transit":true,"station_id":"JNG","i_lat":-6.215091,"time":9,"distance":1236,"line":1,"is_transit":true},{"line":1,"distance":1377,"i_long":106.858896,"station_name":"Matraman","transit":false,"is_transit":false,"i_lat":-6.212485,"station_id":"MTR","time":2},{"line":2,"transit":false,"station_name":"Manggarai","time":2,"distance":1275,"i_lat":-6.209883,"is_transit":false,"station_id":"MRI","i_long":106.84912},{"transit":false,"station_name":"Sudirman","i_lat":-6.202263,"i_long":106.822649,"line":1,"is_transit":false,"station_id":"SUD","time":4,"distance":3186},{"i_long":106.819881,"line":1,"time":1,"transit":false,"is_transit":false,"distance":280,"station_id":"SUDB","station_name":"Sudirman Baru","i_lat":-6.201433},{"time":1,"station_name":"Karet","is_transit":false,"line":1,"i_lat":-6.20132,"station_id":"KAT","distance":471,"i_long":106.816351,"transit":false},{"transit":false,"is_transit":false,"station_name":"Tanah Abang","time":5,"line":1,"i_long":106.811091,"i_lat":-6.185545,"distance":2029,"station_id":"THB"},{"time":8,"line":1,"i_lat":-6.155215,"i_long":106.800832,"transit":true,"is_transit":true,"distance":3632,"station_name":"Duri","station_id":"DU"},{"station_name":"Grogol","station_id":"GGL","transit":false,"time":3,"i_lat":-6.162021,"distance":1700,"is_transit":false,"i_long":106.788277,"line":5},{"distance":2036,"transit":false,"line":5,"is_transit":false,"i_lat":-6.161433,"station_id":"PSG","station_name":"Pesing","time":2,"i_long":106.771379},{"line":5,"distance":1614,"i_lat":-6.1587309999999995,"transit":false,"station_id":"TKO","is_transit":false,"time":2,"i_long":106.756522,"station_name":"Taman Kota"},{"transit":false,"station_id":"BOI","line":5,"i_long":106.737035,"station_name":"Bojongindah","i_lat":-6.159876,"distance":2334,"is_transit":false,"time":2},{"is_transit":false,"distance":1152,"line":5,"station_name":"Rawa Buaya","time":4,"transit":false,"i_lat":-6.162758,"i_long":106.723064,"station_id":"RW"},{"time":3,"distance":2504,"i_lat":-6.166068,"i_long":106.701612,"is_transit":false,"station_name":"Kalideres","line":5,"transit":false,"station_id":"KDS"}]]}