{"data":[[{"station_id":"AC","distance":0,"i_lat":-6.128023,"is_transit":false,"line":4,"station_name":"Ancol","time":0,"i_long":106.84464,"transit":false},{"i_lat":-6.132549,"i_long":106.826365,"is_transit":true,"station_id":"KPB","station_name":"Kampung Bandan","line":4,"time":4,"transit":true,"distance":2185},{"station_id":"AK","station_name":"Angke","line":1,"transit":false,"i_long":106.79867,"is_transit":false,"i_lat":-6.144674,"time":9,"distance":4102},{"time":4,"transit":false,"line":1,"i_long":106.800832,"distance":1230,"is_transit":false,"station_id":"DU","i_lat":-6.155215,"station_name":"Duri"},{"i_long":106.811091,"transit":false,"station_name":"Tanah Abang","i_lat":-6.185545,"time":8,"line":1,"station_id":"THB","distance":3632,"is_transit":false},{"is_transit":false,"line":1,"distance":2029,"station_id":"KAT","transit":false,"i_lat":-6.20132,"time":5,"i_long":106.816351,"station_name":"Karet"},{"line":1,"time":1,"i_long":106.819881,"is_transit":false,"distance":471,"station_name":"Sudirman Baru","station_id":"SUDB","transit":false,"i_lat":-6.201433},{"station_id":"SUD","transit":false,"is_transit":false,"i_lat":-6.202263,"line":1,"station_name":"Sudirman","i_long":106.822649,"distance":280,"time":1},{"transit":true,"station_id":"MRI","station_name":"Manggarai","time":4,"is_transit":true,"i_lat":-6.209883,"i_long":106.84912,"line":2,"distance":3186},{"i_long":106.857948,"is_transit":false,"distance":2610,"transit":false,"time":4,"station_id":"TEB","station_name":"Tebet","i_lat":-6.226659,"line":2},{"is_transit":false,"time":2,"transit":false,"station_id":"CW","i_lat":-6.242512,"line":2,"station_name":"Cawang","distance":1230,"i_long":106.856607},{"i_long":106.85449,"i_lat":-6.255332,"station_name":"Duren Kalibata","transit":false,"is_transit":false,"station_id":"DRN","time":3,"line":2,"distance":1546},{"station_id":"PSMB","i_long":106.851577,"distance":824,"station_name":"Pasar Minggu Baru","transit":false,"line":2,"time":2,"is_transit":false,"i_lat":-6.263214},{"transit":false,"time":2,"i_long":106.843999,"station_id":"PSM","station_name":"Pasar Minggu","distance":2380,"is_transit":false,"line":2,"i_lat":-6.2842400000000005},{"distance":2820,"station_id":"TNT","transit":false,"i_long":106.838896,"line":2,"time":4,"station_name":"Tanjung Barat","i_lat":-6.3080680000000005,"is_transit":false},{"i_long":106.832616,"i_lat":-6.330363,"line":2,"is_transit":false,"station_name":"Lenteng Agung","distance":2671,"time":3,"transit":false,"station_id":"LNA"}],[{"station_id":"AC","i_lat":-6.128023,"distance":0,"transit":false,"i_long":106.84464,"line":4,"station_name":"Ancol","time":0,"is_transit":false},{"i_lat":-6.132549,"distance":2185,"station_name":"Kampung Bandan","time":4,"station_id":"KPB","transit":true,"is_transit":true,"line":4,"i_long":106.826365},{"distance":1364,"station_name":"Jakarta Kota","time":3,"transit":true,"station_id":"JAKK","i_long":106.812439,"line":2,"is_transit":true,"i_lat":-6.137569},{"station_name":"Jayakarta","time":4,"transit":false,"is_transit":false,"distance":1264,"i_long":106.820901,"line":2,"station_id":"JAY","i_lat":-6.141205},{"transit":false,"station_id":"MGB","station_name":"Manggabesar","i_lat":-6.149769,"i_long":106.82482,"line":2,"distance":1080,"is_transit":false,"time":2},{"distance":906,"i_lat":-6.160725,"i_long":106.827103,"transit":false,"is_transit":false,"station_id":"SW","line":2,"time":2,"station_name":"Sawah Besar"},{"i_lat":-6.166716,"i_long":106.828284,"line":2,"distance":1149,"station_name":"Juanda","transit":false,"time":2,"is_transit":false,"station_id":"JUA"},{"line":2,"station_id":"GDD","distance":2015,"time":4,"transit":false,"i_long":106.832183,"station_name":"Gondangdia","is_transit":false,"i_lat":-6.186295},{"station_id":"CKI","station_name":"Cikini","distance":1750,"line":2,"i_lat":-6.198556,"time":3,"transit":false,"is_transit":false,"i_long":106.840169},{"i_lat":-6.209883,"line":2,"distance":1590,"is_transit":false,"time":4,"transit":false,"i_long":106.84912,"station_name":"Manggarai","station_id":"MRI"},{"station_id":"TEB","i_lat":-6.226659,"i_long":106.857948,"distance":2610,"transit":false,"station_name":"Tebet","line":2,"is_transit":false,"time":4},{"station_name":"Cawang","is_transit":false,"i_lat":-6.242512,"transit":false,"time":2,"line":2,"i_long":106.856607,"station_id":"CW","distance":1230},{"station_id":"DRN","i_lat":-6.255332,"i_long":106.85449,"transit":false,"line":2,"time":3,"distance":1546,"station_name":"Duren Kalibata","is_transit":false},{"is_transit":false,"i_long":106.851577,"i_lat":-6.263214,"time":2,"station_id":"PSMB","line":2,"distance":824,"transit":false,"station_name":"Pasar Minggu Baru"},{"station_id":"PSM","station_name":"Pasar Minggu","distance":2380,"transit":false,"is_transit":false,"i_lat":-6.2842400000000005,"time":2,"i_long":106.843999,"line":2},{"distance":2820,"station_name":"Tanjung Barat","time":4,"station_id":"TNT","line":2,"transit":false,"i_lat":-6.3080680000000005,"is_transit":false,"i_long":106.838896},{"i_long":106.832616,"i_lat":-6.330363,"station_name":"Lenteng Agung","distance":2671,"time":3,"is_transit":false,"station_id":"LNA","line":2,"transit":false}],[{"station_id":"AC","i_lat":-6.128023,"transit":false,"station_name":"Ancol","i_long":106.84464,"distance":0,"time":0,"line":4,"is_transit":false},{"line":4,"i_lat":-6.132549,"station_id":"KPB","distance":2185,"time":4,"transit":true,"i_long":106.826365,"station_name":"Kampung Bandan","is_transit":true},{"i_long":106.836569,"line":11,"station_name":"Rajawali","distance":1444,"station_id":"RJW","transit":false,"is_transit":false,"i_lat":-6.14505,"time":3},{"station_name":"Kemayoran","is_transit":false,"line":11,"time":5,"station_id":"KMO","distance":1901,"transit":false,"i_lat":-6.161728,"i_long":106.839204},{"line":11,"station_id":"PSE","i_lat":-6.174784,"transit":false,"i_long":106.84368,"distance":1436,"station_name":"Pasar Senen","time":4,"is_transit":false},{"distance":1567,"line":11,"i_long":106.850107,"i_lat":-6.185975,"station_name":"Gang Sentiong","is_transit":false,"station_id":"GST","time":8,"transit":false},{"station_id":"KMT","i_lat":-6.193792,"station_name":"Kramat","line":11,"distance":973,"time":1,"transit":false,"is_transit":false,"i_long":106.855437},{"station_id":"POK","i_lat":-6.209188,"station_name":"Pondok Jati","line":11,"distance":1829,"i_long":106.861737,"transit":false,"is_transit":false,"time":2},{"line":1,"station_name":"Jatinegara","station_id":"JNG","is_transit":true,"i_lat":-6.215091,"i_long":106.86807400000001,"transit":true,"distance":1236,"time":9},{"i_lat":-6.212485,"line":1,"time":2,"station_id":"MTR","station_name":"Matraman","i_long":106.858896,"transit":false,"is_transit":false,"distance":1377},{"i_long":106.84912,"line":2,"i_lat":-6.209883,"station_id":"MRI","distance":1275,"time":2,"is_transit":true,"station_name":"Manggarai","transit":true},{"i_lat":-6.226659,"distance":2610,"time":4,"station_id":"TEB","transit":false,"is_transit":false,"line":2,"i_long":106.857948,"station_name":"Tebet"},{"is_transit":false,"station_name":"Cawang","station_id":"CW","i_lat":-6.242512,"i_long":106.856607,"line":2,"distance":1230,"time":2,"transit":false},{"i_lat":-6.255332,"time":3,"station_id":"DRN","i_long":106.85449,"distance":1546,"station_name":"Duren Kalibata","is_transit":false,"transit":false,"line":2},{"time":2,"station_name":"Pasar Minggu Baru","is_transit":false,"i_long":106.851577,"station_id":"PSMB","i_lat":-6.263214,"distance":824,"transit":false,"line":2},{"station_name":"Pasar Minggu","time":2,"transit":false,"station_id":"PSM","line":2,"i_long":106.843999,"distance":2380,"is_transit":false,"i_lat":-6.2842400000000005},{"station_id":"TNT","line":2,"transit":false,"time":4,"distance":2820,"i_long":106.838896,"i_lat":-6.3080680000000005,"station_name":"Tanjung Barat","is_transit":false},{"transit":false,"i_lat":-6.330363,"station_id":"LNA","i_long":106.832616,"is_transit":false,"station_name":"Lenteng Agung","line":2,"time":3,"distance":2671}]]}