{"data":[[{"distance":0,"station_name":"Ancol","time":0,"i_long":106.84464,"station_id":"AC","transit":false,"i_lat":-6.128023,"is_transit":false,"line":4},{"i_long":106.826365,"station_id":"KPB","distance":2185,"station_name":"Kampung Bandan","line":4,"i_lat":-6.132549,"transit":true,"time":4,"is_transit":true},{"i_long":106.79867,"distance":4102,"is_transit":false,"station_name":"Angke","transit":false,"i_lat":-6.144674,"station_id":"AK","time":9,"line":1},{"station_name":"Duri","station_id":"DU","i_lat":-6.155215,"line":1,"time":4,"is_transit":false,"distance":1230,"transit":false,"i_long":106.800832},{"time":8,"station_id":"THB","i_lat":-6.185545,"station_name":"Tanah Abang","distance":3632,"is_transit":false,"transit":false,"i_long":106.811091,"line":1},{"transit":false,"is_transit":false,"time":5,"station_id":"KAT","station_name":"Karet","i_lat":-6.20132,"i_long":106.816351,"line":1,"distance":2029},{"station_name":"Sudirman Baru","time":1,"distance":471,"is_transit":false,"i_long":106.819881,"line":1,"station_id":"SUDB","i_lat":-6.201433,"transit":false},{"station_id":"SUD","is_transit":false,"time":1,"transit":false,"i_lat":-6.202263,"distance":280,"line":1,"i_long":106.822649,"station_name":"Sudirman"},{"time":4,"i_lat":-6.209883,"i_long":106.84912,"transit":true,"station_id":"MRI","station_name":"Manggarai","is_transit":true,"line":2,"distance":3186},{"i_long":106.857948,"line":2,"transit":false,"station_id":"TEB","is_transit":false,"time":4,"distance":2610,"station_name":"Tebet","i_lat":-6.226659},{"station_id":"CW","time":2,"distance":1230,"i_lat":-6.242512,"is_transit":false,"station_name":"Cawang","i_long":106.856607,"line":2,"transit":false},{"station_id":"DRN","transit":false,"i_long":106.85449,"line":2,"station_name":"Duren Kalibata","distance":1546,"i_lat":-6.255332,"is_transit":false,"time":3},{"station_name":"Pasar Minggu Baru","i_lat":-6.263214,"time":2,"is_transit":false,"transit":false,"station_id":"PSMB","i_long":106.851577,"distance":824,"line":2},{"distance":2380,"station_name":"Pasar Minggu","i_long":106.843999,"line":2,"transit":false,"time":2,"is_transit":false,"i_lat":-6.2842400000000005,"station_id":"PSM"},{"distance":2820,"station_id":"TNT","i_long":106.838896,"line":2,"station_name":"Tanjung Barat","is_transit":false,"i_lat":-6.3080680000000005,"time":4,"transit":false},{"i_long":106.832616,"line":2,"station_name":"Lenteng Agung","transit":false,"time":3,"i_lat":-6.330363,"is_transit":false,"distance":2671,"station_id":"LNA"}],[{"station_id":"AC","distance":0,"transit":false,"line":4,"station_name":"Ancol","i_long":106.84464,"time":0,"is_transit":false,"i_lat":-6.128023},{"station_id":"KPB","is_transit":true,"transit":true,"i_lat":-6.132549,"i_long":106.826365,"line":4,"station_name":"Kampung Bandan","time":4,"distance":2185},{"i_long":106.812439,"line":2,"distance":1364,"station_id":"JAKK","time":3,"station_name":"Jakarta Kota","is_transit":true,"transit":true,"i_lat":-6.137569},{"distance":1264,"i_lat":-6.141205,"is_transit":false,"station_name":"Jayakarta","time":4,"transit":false,"line":2,"i_long":106.820901,"station_id":"JAY"},{"time":2,"i_lat":-6.149769,"distance":1080,"station_id":"MGB","station_name":"Manggabesar","is_transit":false,"i_long":106.82482,"line":2,"transit":false},{"distance":906,"is_transit":false,"station_name":"Sawah Besar","time":2,"transit":false,"i_lat":-6.160725,"i_long":106.827103,"line":2,"station_id":"SW"},{"transit":false,"distance":1149,"i_long":106.828284,"i_lat":-6.166716,"time":2,"station_id":"JUA","station_name":"Juanda","is_transit":false,"line":2},{"i_lat":-6.186295,"line":2,"is_transit":false,"distance":2015,"transit":false,"i_long":106.832183,"time":4,"station_id":"GDD","station_name":"Gondangdia"},{"station_id":"CKI","line":2,"distance":1750,"time":3,"i_long":106.840169,"is_transit":false,"i_lat":-6.198556,"transit":false,"station_name":"Cikini"},{"time":4,"transit":false,"distance":1590,"station_name":"Manggarai","is_transit":false,"i_lat":-6.209883,"i_long":106.84912,"station_id":"MRI","line":2},{"transit":false,"line":2,"distance":2610,"time":4,"i_lat":-6.226659,"station_id":"TEB","station_name":"Tebet","i_long":106.857948,"is_transit":false},{"transit":false,"i_lat":-6.242512,"line":2,"station_id":"CW","time":2,"is_transit":false,"station_name":"Cawang","i_long":106.856607,"distance":1230},{"line":2,"station_name":"Duren Kalibata","i_lat":-6.255332,"station_id":"DRN","time":3,"is_transit":false,"distance":1546,"transit":false,"i_long":106.85449},{"station_name":"Pasar Minggu Baru","transit":false,"i_lat":-6.263214,"line":2,"time":2,"i_long":106.851577,"station_id":"PSMB","is_transit":false,"distance":824},{"line":2,"distance":2380,"station_id":"PSM","is_transit":false,"i_lat":-6.2842400000000005,"station_name":"Pasar Minggu","i_long":106.843999,"time":2,"transit":false},{"time":4,"is_transit":false,"i_long":106.838896,"station_name":"Tanjung Barat","transit":false,"line":2,"i_lat":-6.3080680000000005,"distance":2820,"station_id":"TNT"},{"distance":2671,"station_name":"Lenteng Agung","time":3,"is_transit":false,"line":2,"i_lat":-6.330363,"station_id":"LNA","i_long":106.832616,"transit":false}],[{"i_lat":-6.128023,"transit":false,"station_id":"AC","i_long":106.84464,"line":4,"station_name":"Ancol","time":0,"distance":0,"is_transit":false},{"is_transit":true,"distance":2185,"station_name":"Kampung Bandan","line":4,"i_lat":-6.132549,"time":4,"transit":true,"station_id":"KPB","i_long":106.826365},{"is_transit":false,"distance":1444,"station_name":"Rajawali","i_lat":-6.14505,"transit":false,"time":3,"i_long":106.836569,"line":11,"station_id":"RJW"},{"line":11,"distance":1901,"transit":false,"station_name":"Kemayoran","is_transit":false,"time":5,"station_id":"KMO","i_lat":-6.161728,"i_long":106.839204},{"station_id":"PSE","transit":false,"line":11,"is_transit":false,"station_name":"Pasar Senen","i_lat":-6.174784,"time":4,"i_long":106.84368,"distance":1436},{"i_lat":-6.185975,"distance":1567,"i_long":106.850107,"is_transit":false,"station_id":"GST","time":8,"transit":false,"station_name":"Gang Sentiong","line":11},{"distance":973,"time":1,"i_long":106.855437,"station_name":"Kramat","i_lat":-6.193792,"line":11,"is_transit":false,"transit":false,"station_id":"KMT"},{"is_transit":false,"station_id":"POK","station_name":"Pondok Jati","i_lat":-6.209188,"i_long":106.861737,"time":2,"distance":1829,"line":11,"transit":false},{"transit":true,"station_id":"JNG","line":1,"time":9,"i_long":106.86807400000001,"station_name":"Jatinegara","distance":1236,"is_transit":true,"i_lat":-6.215091},{"line":1,"is_transit":false,"station_name":"Matraman","station_id":"MTR","i_lat":-6.212485,"distance":1377,"i_long":106.858896,"time":2,"transit":false},{"is_transit":true,"station_id":"MRI","i_lat":-6.209883,"transit":true,"distance":1275,"line":2,"station_name":"Manggarai","i_long":106.84912,"time":2},{"line":2,"station_id":"TEB","i_long":106.857948,"station_name":"Tebet","transit":false,"distance":2610,"i_lat":-6.226659,"time":4,"is_transit":false},{"distance":1230,"station_id":"CW","i_lat":-6.242512,"time":2,"is_transit":false,"i_long":106.856607,"line":2,"transit":false,"station_name":"Cawang"},{"is_transit":false,"transit":false,"i_long":106.85449,"station_id":"DRN","distance":1546,"station_name":"Duren Kalibata","time":3,"i_lat":-6.255332,"line":2},{"station_name":"Pasar Minggu Baru","transit":false,"i_long":106.851577,"station_id":"PSMB","is_transit":false,"time":2,"distance":824,"i_lat":-6.263214,"line":2},{"transit":false,"station_id":"PSM","station_name":"Pasar Minggu","i_lat":-6.2842400000000005,"i_long":106.843999,"time":2,"distance":2380,"line":2,"is_transit":false},{"line":2,"transit":false,"station_id":"TNT","distance":2820,"station_name":"Tanjung Barat","i_lat":-6.3080680000000005,"i_long":106.838896,"time":4,"is_transit":false},{"distance":2671,"i_long":106.832616,"time":3,"is_transit":false,"transit":false,"station_name":"Lenteng Agung","station_id":"LNA","i_lat":-6.330363,"line":2}]]}