{"data":[[{"line":4,"is_transit":false,"distance":0,"station_name":"Ancol","i_long":106.84464,"station_id":"AC","transit":false,"i_lat":-6.128023,"time":0},{"line":4,"station_name":"Kampung Bandan","transit":true,"i_long":106.826365,"station_id":"KPB","is_transit":true,"time":4,"i_lat":-6.132549,"distance":2185},{"time":9,"i_lat":-6.144674,"station_id":"AK","transit":false,"is_transit":false,"i_long":106.79867,"distance":4102,"line":1,"station_name":"Angke"},{"time":4,"station_name":"Duri","line":1,"station_id":"DU","distance":1230,"i_long":106.800832,"is_transit":false,"i_lat":-6.155215,"transit":false},{"i_lat":-6.185545,"station_id":"THB","i_long":106.811091,"distance":3632,"time":8,"is_transit":false,"station_name":"Tanah Abang","line":1,"transit":false},{"i_lat":-6.20132,"i_long":106.816351,"line":1,"time":5,"distance":2029,"transit":false,"is_transit":false,"station_id":"KAT","station_name":"Karet"},{"is_transit":false,"transit":false,"distance":471,"station_id":"SUDB","station_name":"Sudirman Baru","time":1,"i_long":106.819881,"line":1,"i_lat":-6.201433},{"i_long":106.822649,"is_transit":false,"station_id":"SUD","distance":280,"line":1,"time":1,"transit":false,"i_lat":-6.202263,"station_name":"Sudirman"},{"time":4,"i_long":106.84912,"station_id":"MRI","line":2,"distance":3186,"station_name":"Manggarai","transit":true,"i_lat":-6.209883,"is_transit":true},{"distance":2610,"station_id":"TEB","transit":false,"i_lat":-6.226659,"i_long":106.857948,"line":2,"station_name":"Tebet","is_transit":false,"time":4},{"station_id":"CW","distance":1230,"i_lat":-6.242512,"transit":false,"station_name":"Cawang","time":2,"line":2,"i_long":106.856607,"is_transit":false},{"i_lat":-6.255332,"is_transit":false,"i_long":106.85449,"station_name":"Duren Kalibata","distance":1546,"line":2,"transit":false,"station_id":"DRN","time":3},{"station_id":"PSMB","line":2,"station_name":"Pasar Minggu Baru","distance":824,"i_lat":-6.263214,"time":2,"is_transit":false,"i_long":106.851577,"transit":false},{"transit":false,"i_lat":-6.2842400000000005,"distance":2380,"line":2,"station_id":"PSM","station_name":"Pasar Minggu","time":2,"is_transit":false,"i_long":106.843999},{"i_lat":-6.3080680000000005,"i_long":106.838896,"transit":false,"is_transit":false,"line":2,"station_name":"Tanjung Barat","time":4,"station_id":"TNT","distance":2820},{"i_lat":-6.330363,"station_id":"LNA","i_long":106.832616,"line":2,"time":3,"station_name":"Lenteng Agung","transit":false,"is_transit":false,"distance":2671}],[{"distance":0,"transit":false,"time":0,"is_transit":false,"station_name":"Ancol","line":4,"i_lat":-6.128023,"i_long":106.84464,"station_id":"AC"},{"transit":true,"i_long":106.826365,"station_id":"KPB","time":4,"is_transit":true,"line":4,"i_lat":-6.132549,"station_name":"Kampung Bandan","distance":2185},{"station_id":"JAKK","transit":true,"line":2,"i_lat":-6.137569,"i_long":106.812439,"station_name":"Jakarta Kota","distance":1364,"is_transit":true,"time":3},{"i_lat":-6.141205,"transit":false,"i_long":106.820901,"station_id":"JAY","is_transit":false,"time":4,"station_name":"Jayakarta","distance":1264,"line":2},{"distance":1080,"i_lat":-6.149769,"i_long":106.82482,"is_transit":false,"station_name":"Manggabesar","transit":false,"time":2,"station_id":"MGB","line":2},{"i_long":106.827103,"distance":906,"line":2,"i_lat":-6.160725,"station_id":"SW","transit":false,"time":2,"station_name":"Sawah Besar","is_transit":false},{"station_name":"Juanda","is_transit":false,"time":2,"distance":1149,"i_long":106.828284,"i_lat":-6.166716,"station_id":"JUA","line":2,"transit":false},{"station_name":"Gondangdia","transit":false,"station_id":"GDD","is_transit":false,"i_long":106.832183,"time":4,"line":2,"i_lat":-6.186295,"distance":2015},{"i_lat":-6.198556,"transit":false,"distance":1750,"time":3,"line":2,"station_id":"CKI","station_name":"Cikini","i_long":106.840169,"is_transit":false},{"i_lat":-6.209883,"transit":false,"line":2,"station_name":"Manggarai","is_transit":false,"i_long":106.84912,"station_id":"MRI","distance":1590,"time":4},{"line":2,"time":4,"i_lat":-6.226659,"transit":false,"is_transit":false,"i_long":106.857948,"station_name":"Tebet","station_id":"TEB","distance":2610},{"time":2,"line":2,"is_transit":false,"station_id":"CW","i_long":106.856607,"station_name":"Cawang","transit":false,"distance":1230,"i_lat":-6.242512},{"station_name":"Duren Kalibata","station_id":"DRN","is_transit":false,"distance":1546,"i_lat":-6.255332,"i_long":106.85449,"transit":false,"time":3,"line":2},{"time":2,"station_name":"Pasar Minggu Baru","line":2,"is_transit":false,"i_lat":-6.263214,"distance":824,"station_id":"PSMB","transit":false,"i_long":106.851577},{"is_transit":false,"station_id":"PSM","distance":2380,"transit":false,"station_name":"Pasar Minggu","i_lat":-6.2842400000000005,"i_long":106.843999,"time":2,"line":2},{"transit":false,"time":4,"line":2,"is_transit":false,"distance":2820,"station_id":"TNT","station_name":"Tanjung Barat","i_long":106.838896,"i_lat":-6.3080680000000005},{"i_lat":-6.330363,"transit":false,"time":3,"station_id":"LNA","is_transit":false,"line":2,"i_long":106.832616,"station_name":"Lenteng Agung","distance":2671}],[{"transit":false,"distance":0,"line":4,"is_transit":false,"station_name":"Ancol","time":0,"station_id":"AC","i_long":106.84464,"i_lat":-6.128023},{"station_id":"KPB","i_long":106.826365,"i_lat":-6.132549,"distance":2185,"time":4,"transit":true,"station_name":"Kampung Bandan","is_transit":true,"line":4},{"station_name":"Rajawali","distance":1444,"station_id":"RJW","transit":false,"time":3,"i_long":106.836569,"i_lat":-6.14505,"line":11,"is_transit":false},{"i_lat":-6.161728,"time":5,"i_long":106.839204,"station_id":"KMO","distance":1901,"line":11,"transit":false,"is_transit":false,"station_name":"Kemayoran"},{"station_name":"Pasar Senen","i_lat":-6.174784,"station_id":"PSE","transit":false,"i_long":106.84368,"is_transit":false,"time":4,"line":11,"distance":1436},{"distance":1567,"station_name":"Gang Sentiong","is_transit":false,"station_id":"GST","transit":false,"i_lat":-6.185975,"time":8,"line":11,"i_long":106.850107},{"i_lat":-6.193792,"i_long":106.855437,"line":11,"station_id":"KMT","transit":false,"distance":973,"is_transit":false,"station_name":"Kramat","time":1},{"transit":false,"i_lat":-6.209188,"time":2,"distance":1829,"station_id":"POK","is_transit":false,"i_long":106.861737,"line":11,"station_name":"Pondok Jati"},{"distance":1236,"i_lat":-6.215091,"i_long":106.86807400000001,"is_transit":true,"line":1,"station_name":"Jatinegara","station_id":"JNG","time":9,"transit":true},{"time":2,"i_long":106.858896,"station_name":"Matraman","line":1,"transit":false,"distance":1377,"is_transit":false,"i_lat":-6.212485,"station_id":"MTR"},{"is_transit":true,"i_lat":-6.209883,"transit":true,"station_id":"MRI","i_long":106.84912,"line":2,"time":2,"distance":1275,"station_name":"Manggarai"},{"line":2,"i_long":106.857948,"is_transit":false,"i_lat":-6.226659,"station_name":"Tebet","transit":false,"station_id":"TEB","time":4,"distance":2610},{"line":2,"i_long":106.856607,"transit":false,"station_id":"CW","is_transit":false,"time":2,"station_name":"Cawang","distance":1230,"i_lat":-6.242512},{"is_transit":false,"time":3,"station_name":"Duren Kalibata","distance":1546,"i_lat":-6.255332,"line":2,"station_id":"DRN","i_long":106.85449,"transit":false},{"i_lat":-6.263214,"i_long":106.851577,"is_transit":false,"transit":false,"station_name":"Pasar Minggu Baru","distance":824,"station_id":"PSMB","time":2,"line":2},{"distance":2380,"station_id":"PSM","transit":false,"station_name":"Pasar Minggu","i_lat":-6.2842400000000005,"line":2,"is_transit":false,"i_long":106.843999,"time":2},{"i_lat":-6.3080680000000005,"is_transit":false,"transit":false,"distance":2820,"time":4,"line":2,"station_id":"TNT","i_long":106.838896,"station_name":"Tanjung Barat"},{"i_long":106.832616,"transit":false,"distance":2671,"line":2,"i_lat":-6.330363,"station_name":"Lenteng Agung","is_transit":false,"time":3,"station_id":"LNA"}]]}