{"data":[[{"line":4,"i_lat":-6.128023,"time":0,"transit":false,"station_name":"Ancol","station_id":"AC","is_transit":false,"i_long":106.84464,"distance":0},{"transit":true,"i_lat":-6.132549,"station_name":"Kampung Bandan","time":4,"station_id":"KPB","is_transit":true,"i_long":106.826365,"line":4,"distance":2185},{"is_transit":false,"time":9,"transit":false,"i_long":106.79867,"station_id":"AK","station_name":"Angke","distance":4102,"i_lat":-6.144674,"line":1},{"i_lat":-6.155215,"i_long":106.800832,"station_id":"DU","is_transit":false,"time":4,"distance":1230,"transit":false,"line":1,"station_name":"Duri"},{"station_id":"THB","is_transit":false,"line":1,"i_long":106.811091,"distance":3632,"station_name":"Tanah Abang","time":8,"i_lat":-6.185545,"transit":false},{"i_long":106.816351,"time":5,"transit":false,"station_id":"KAT","line":1,"i_lat":-6.20132,"distance":2029,"station_name":"Karet","is_transit":false},{"i_lat":-6.201433,"line":1,"transit":false,"is_transit":false,"distance":471,"station_id":"SUDB","station_name":"Sudirman Baru","i_long":106.819881,"time":1},{"station_id":"SUD","is_transit":false,"time":1,"distance":280,"station_name":"Sudirman","transit":false,"i_long":106.822649,"i_lat":-6.202263,"line":1},{"time":4,"distance":3186,"station_name":"Manggarai","i_long":106.84912,"station_id":"MRI","i_lat":-6.209883,"is_transit":false,"transit":false,"line":2}],[{"i_lat":-6.128023,"station_id":"AC","is_transit":false,"transit":false,"i_long":106.84464,"time":0,"distance":0,"station_name":"Ancol","line":4},{"station_id":"KPB","i_lat":-6.132549,"line":4,"time":4,"i_long":106.826365,"station_name":"Kampung Bandan","is_transit":true,"distance":2185,"transit":true},{"is_transit":true,"i_lat":-6.137569,"line":2,"station_name":"Jakarta Kota","distance":1364,"time":3,"station_id":"JAKK","transit":true,"i_long":106.812439},{"i_lat":-6.141205,"transit":false,"line":2,"i_long":106.820901,"distance":1264,"time":4,"station_name":"Jayakarta","is_transit":false,"station_id":"JAY"},{"transit":false,"is_transit":false,"i_lat":-6.149769,"station_name":"Manggabesar","time":2,"i_long":106.82482,"distance":1080,"line":2,"station_id":"MGB"},{"is_transit":false,"station_id":"SW","time":2,"transit":false,"line":2,"i_long":106.827103,"distance":906,"i_lat":-6.160725,"station_name":"Sawah Besar"},{"i_long":106.828284,"station_id":"JUA","time":2,"transit":false,"station_name":"Juanda","line":2,"i_lat":-6.166716,"distance":1149,"is_transit":false},{"transit":false,"time":4,"station_name":"Gondangdia","i_long":106.832183,"distance":2015,"station_id":"GDD","is_transit":false,"line":2,"i_lat":-6.186295},{"i_long":106.840169,"transit":false,"i_lat":-6.198556,"station_name":"Cikini","station_id":"CKI","is_transit":false,"time":3,"line":2,"distance":1750},{"i_lat":-6.209883,"is_transit":false,"station_id":"MRI","station_name":"Manggarai","i_long":106.84912,"line":2,"distance":1590,"time":4,"transit":false}],[{"transit":false,"i_long":106.84464,"station_name":"Ancol","time":0,"station_id":"AC","distance":0,"is_transit":false,"i_lat":-6.128023,"line":4},{"distance":2185,"line":4,"is_transit":true,"transit":true,"i_lat":-6.132549,"time":4,"station_id":"KPB","i_long":106.826365,"station_name":"Kampung Bandan"},{"station_name":"Rajawali","line":11,"station_id":"RJW","time":3,"i_long":106.836569,"is_transit":false,"distance":1444,"transit":false,"i_lat":-6.14505},{"is_transit":false,"transit":false,"distance":1901,"i_lat":-6.161728,"line":11,"station_id":"KMO","i_long":106.839204,"station_name":"Kemayoran","time":5},{"line":11,"i_lat":-6.174784,"distance":1436,"transit":false,"station_name":"Pasar Senen","time":4,"is_transit":false,"station_id":"PSE","i_long":106.84368},{"transit":false,"line":11,"time":8,"is_transit":false,"station_id":"GST","i_long":106.850107,"distance":1567,"station_name":"Gang Sentiong","i_lat":-6.185975},{"time":1,"distance":973,"is_transit":false,"i_lat":-6.193792,"station_id":"KMT","transit":false,"station_name":"Kramat","line":11,"i_long":106.855437},{"distance":1829,"station_name":"Pondok Jati","station_id":"POK","is_transit":false,"time":2,"i_lat":-6.209188,"i_long":106.861737,"line":11,"transit":false},{"station_id":"JNG","transit":true,"line":1,"time":9,"i_lat":-6.215091,"station_name":"Jatinegara","distance":1236,"is_transit":true,"i_long":106.86807400000001},{"transit":false,"is_transit":false,"i_lat":-6.212485,"station_name":"Matraman","line":1,"station_id":"MTR","i_long":106.858896,"time":2,"distance":1377},{"distance":1275,"station_id":"MRI","station_name":"Manggarai","i_lat":-6.209883,"i_long":106.84912,"time":2,"transit":false,"line":2,"is_transit":false}]]}