{"data":[[{"station_id":"AC","transit":false,"is_transit":false,"time":0,"line":4,"i_long":106.84464,"distance":0,"station_name":"Ancol","i_lat":-6.128023},{"is_transit":true,"distance":2185,"station_id":"KPB","time":4,"i_long":106.826365,"transit":true,"i_lat":-6.132549,"station_name":"Kampung Bandan","line":4},{"i_long":106.79867,"station_id":"AK","station_name":"Angke","time":9,"distance":4102,"is_transit":false,"transit":false,"line":1,"i_lat":-6.144674},{"transit":false,"station_id":"DU","is_transit":false,"time":4,"i_long":106.800832,"distance":1230,"line":1,"station_name":"Duri","i_lat":-6.155215},{"station_id":"THB","distance":3632,"transit":false,"is_transit":false,"time":8,"i_lat":-6.185545,"i_long":106.811091,"station_name":"Tanah Abang","line":1},{"station_name":"Karet","transit":false,"i_long":106.816351,"distance":2029,"is_transit":false,"station_id":"KAT","i_lat":-6.20132,"line":1,"time":5},{"station_name":"Sudirman Baru","i_lat":-6.201433,"transit":false,"i_long":106.819881,"station_id":"SUDB","is_transit":false,"distance":471,"time":1,"line":1},{"time":1,"station_name":"Sudirman","is_transit":false,"station_id":"SUD","i_lat":-6.202263,"line":1,"transit":false,"distance":280,"i_long":106.822649},{"station_id":"MRI","transit":false,"i_long":106.84912,"is_transit":false,"time":4,"i_lat":-6.209883,"line":2,"distance":3186,"station_name":"Manggarai"}],[{"station_id":"AC","i_lat":-6.128023,"distance":0,"station_name":"Ancol","line":4,"i_long":106.84464,"time":0,"is_transit":false,"transit":false},{"station_name":"Kampung Bandan","i_lat":-6.132549,"is_transit":true,"line":4,"station_id":"KPB","i_long":106.826365,"transit":true,"distance":2185,"time":4},{"time":3,"distance":1364,"i_long":106.812439,"line":2,"station_id":"JAKK","station_name":"Jakarta Kota","is_transit":true,"i_lat":-6.137569,"transit":true},{"station_id":"JAY","i_lat":-6.141205,"line":2,"time":4,"station_name":"Jayakarta","transit":false,"distance":1264,"is_transit":false,"i_long":106.820901},{"transit":false,"is_transit":false,"i_long":106.82482,"time":2,"line":2,"distance":1080,"station_name":"Manggabesar","i_lat":-6.149769,"station_id":"MGB"},{"is_transit":false,"line":2,"station_id":"SW","station_name":"Sawah Besar","transit":false,"distance":906,"i_lat":-6.160725,"i_long":106.827103,"time":2},{"transit":false,"i_lat":-6.166716,"time":2,"i_long":106.828284,"line":2,"is_transit":false,"distance":1149,"station_id":"JUA","station_name":"Juanda"},{"time":4,"line":2,"i_long":106.832183,"is_transit":false,"station_id":"GDD","station_name":"Gondangdia","transit":false,"i_lat":-6.186295,"distance":2015},{"i_long":106.840169,"is_transit":false,"line":2,"station_id":"CKI","distance":1750,"station_name":"Cikini","time":3,"transit":false,"i_lat":-6.198556},{"line":2,"time":4,"is_transit":false,"i_lat":-6.209883,"transit":false,"i_long":106.84912,"station_id":"MRI","distance":1590,"station_name":"Manggarai"}],[{"i_long":106.84464,"line":4,"is_transit":false,"i_lat":-6.128023,"time":0,"distance":0,"station_name":"Ancol","transit":false,"station_id":"AC"},{"i_long":106.826365,"is_transit":true,"transit":true,"station_name":"Kampung Bandan","station_id":"KPB","distance":2185,"line":4,"time":4,"i_lat":-6.132549},{"i_long":106.836569,"time":3,"line":11,"is_transit":false,"distance":1444,"station_name":"Rajawali","transit":false,"i_lat":-6.14505,"station_id":"RJW"},{"i_long":106.839204,"transit":false,"time":5,"station_id":"KMO","is_transit":false,"station_name":"Kemayoran","line":11,"i_lat":-6.161728,"distance":1901},{"distance":1436,"station_id":"PSE","transit":false,"is_transit":false,"time":4,"line":11,"station_name":"Pasar Senen","i_long":106.84368,"i_lat":-6.174784},{"time":8,"i_lat":-6.185975,"line":11,"i_long":106.850107,"is_transit":false,"distance":1567,"station_id":"GST","station_name":"Gang Sentiong","transit":false},{"station_id":"KMT","station_name":"Kramat","i_lat":-6.193792,"distance":973,"line":11,"is_transit":false,"i_long":106.855437,"time":1,"transit":false},{"distance":1829,"line":11,"transit":false,"station_id":"POK","i_lat":-6.209188,"station_name":"Pondok Jati","time":2,"is_transit":false,"i_long":106.861737},{"distance":1236,"is_transit":true,"line":1,"station_name":"Jatinegara","time":9,"station_id":"JNG","i_lat":-6.215091,"i_long":106.86807400000001,"transit":true},{"line":1,"i_lat":-6.212485,"distance":1377,"station_name":"Matraman","station_id":"MTR","transit":false,"is_transit":false,"time":2,"i_long":106.858896},{"i_long":106.84912,"transit":false,"i_lat":-6.209883,"is_transit":false,"line":2,"station_id":"MRI","station_name":"Manggarai","time":2,"distance":1275}]]}