{"data":[[{"is_transit":false,"distance":0,"line":4,"station_id":"AC","transit":false,"time":0,"i_long":106.84464,"i_lat":-6.128023,"station_name":"Ancol"},{"time":4,"i_long":106.826365,"line":4,"is_transit":true,"i_lat":-6.132549,"station_name":"Kampung Bandan","distance":2185,"transit":true,"station_id":"KPB"},{"station_id":"JAKK","time":3,"i_long":106.812439,"is_transit":true,"i_lat":-6.137569,"station_name":"Jakarta Kota","transit":true,"distance":1364,"line":2},{"distance":1264,"line":2,"i_long":106.820901,"transit":false,"station_name":"Jayakarta","is_transit":false,"i_lat":-6.141205,"station_id":"JAY","time":4},{"transit":false,"i_lat":-6.149769,"distance":1080,"is_transit":false,"station_name":"Manggabesar","line":2,"time":2,"i_long":106.82482,"station_id":"MGB"}],[{"time":0,"distance":0,"i_lat":-6.128023,"is_transit":false,"transit":false,"station_name":"Ancol","line":4,"station_id":"AC","i_long":106.84464},{"station_name":"Kampung Bandan","distance":2185,"transit":true,"i_long":106.826365,"is_transit":true,"line":4,"i_lat":-6.132549,"time":4,"station_id":"KPB"},{"is_transit":false,"distance":4102,"station_id":"AK","time":9,"line":1,"station_name":"Angke","transit":false,"i_lat":-6.144674,"i_long":106.79867},{"is_transit":false,"line":1,"i_long":106.800832,"transit":false,"time":4,"distance":1230,"station_name":"Duri","station_id":"DU","i_lat":-6.155215},{"time":8,"station_name":"Tanah Abang","distance":3632,"station_id":"THB","i_lat":-6.185545,"is_transit":false,"line":1,"transit":false,"i_long":106.811091},{"is_transit":false,"distance":2029,"i_lat":-6.20132,"time":5,"i_long":106.816351,"line":1,"transit":false,"station_name":"Karet","station_id":"KAT"},{"i_lat":-6.201433,"is_transit":false,"distance":471,"line":1,"i_long":106.819881,"time":1,"station_id":"SUDB","transit":false,"station_name":"Sudirman Baru"},{"transit":false,"station_name":"Sudirman","time":1,"i_long":106.822649,"line":1,"distance":280,"station_id":"SUD","is_transit":false,"i_lat":-6.202263},{"time":4,"line":2,"i_lat":-6.209883,"is_transit":true,"station_id":"MRI","distance":3186,"transit":true,"station_name":"Manggarai","i_long":106.84912},{"time":4,"station_name":"Cikini","transit":false,"line":2,"is_transit":false,"station_id":"CKI","distance":1590,"i_lat":-6.198556,"i_long":106.840169},{"line":2,"station_name":"Gondangdia","distance":1750,"station_id":"GDD","is_transit":false,"transit":false,"time":3,"i_lat":-6.186295,"i_long":106.832183},{"transit":false,"station_id":"JUA","station_name":"Juanda","time":4,"i_lat":-6.166716,"i_long":106.828284,"line":2,"distance":2015,"is_transit":false},{"time":2,"is_transit":false,"station_id":"SW","i_long":106.827103,"line":2,"i_lat":-6.160725,"distance":1149,"transit":false,"station_name":"Sawah Besar"},{"i_long":106.82482,"line":2,"distance":906,"station_id":"MGB","time":2,"station_name":"Manggabesar","i_lat":-6.149769,"is_transit":false,"transit":false}],[{"distance":0,"transit":false,"i_lat":-6.128023,"line":4,"station_id":"AC","is_transit":false,"station_name":"Ancol","time":0,"i_long":106.84464},{"i_lat":-6.132549,"transit":true,"station_name":"Kampung Bandan","station_id":"KPB","is_transit":true,"time":4,"distance":2185,"i_long":106.826365,"line":4},{"transit":false,"station_name":"Rajawali","distance":1444,"i_lat":-6.14505,"line":11,"is_transit":false,"i_long":106.836569,"time":3,"station_id":"RJW"},{"transit":false,"distance":1901,"station_name":"Kemayoran","is_transit":false,"i_long":106.839204,"station_id":"KMO","time":5,"i_lat":-6.161728,"line":11},{"i_lat":-6.174784,"station_name":"Pasar Senen","transit":false,"is_transit":false,"distance":1436,"i_long":106.84368,"line":11,"time":4,"station_id":"PSE"},{"time":8,"distance":1567,"station_name":"Gang Sentiong","line":11,"i_lat":-6.185975,"station_id":"GST","transit":false,"i_long":106.850107,"is_transit":false},{"station_id":"KMT","time":1,"distance":973,"line":11,"i_long":106.855437,"transit":false,"i_lat":-6.193792,"station_name":"Kramat","is_transit":false},{"time":2,"line":11,"transit":false,"station_name":"Pondok Jati","station_id":"POK","is_transit":false,"i_long":106.861737,"distance":1829,"i_lat":-6.209188},{"station_name":"Jatinegara","i_long":106.86807400000001,"time":9,"station_id":"JNG","i_lat":-6.215091,"transit":true,"distance":1236,"line":1,"is_transit":true},{"distance":1377,"i_lat":-6.212485,"time":2,"i_long":106.858896,"station_id":"MTR","transit":false,"station_name":"Matraman","line":1,"is_transit":false},{"transit":true,"is_transit":true,"station_name":"Manggarai","time":2,"distance":1275,"i_lat":-6.209883,"line":2,"station_id":"MRI","i_long":106.84912},{"station_id":"CKI","station_name":"Cikini","is_transit":false,"distance":1590,"i_lat":-6.198556,"line":2,"i_long":106.840169,"transit":false,"time":4},{"station_name":"Gondangdia","station_id":"GDD","i_lat":-6.186295,"is_transit":false,"transit":false,"time":3,"distance":1750,"i_long":106.832183,"line":2},{"station_name":"Juanda","station_id":"JUA","i_lat":-6.166716,"distance":2015,"line":2,"is_transit":false,"transit":false,"time":4,"i_long":106.828284},{"is_transit":false,"time":2,"station_name":"Sawah Besar","i_lat":-6.160725,"station_id":"SW","i_long":106.827103,"transit":false,"distance":1149,"line":2},{"station_name":"Manggabesar","i_lat":-6.149769,"transit":false,"time":2,"i_long":106.82482,"line":2,"is_transit":false,"distance":906,"station_id":"MGB"}]]}