{"data":[[{"i_long":106.84464,"distance":0,"time":0,"station_name":"Ancol","station_id":"AC","is_transit":false,"transit":false,"i_lat":-6.128023,"line":0},{"transit":false,"station_id":"KPB","i_long":106.826365,"is_transit":true,"distance":2185,"time":4,"i_lat":-6.132549,"line":0,"station_name":"Kampung Bandan"},{"station_name":"Jakarta Kota","distance":1364,"line":0,"transit":true,"time":3,"station_id":"JAKK","is_transit":true,"i_lat":-6.137569,"i_long":106.812439},{"i_lat":-6.141205,"station_name":"Jayakarta","station_id":"JAY","distance":1264,"time":4,"line":7,"transit":false,"i_long":106.820901,"is_transit":false},{"i_long":106.82482,"i_lat":-6.149769,"time":2,"is_transit":false,"transit":false,"station_id":"MGB","line":2,"distance":1080,"station_name":"Manggabesar"}],[{"i_lat":-6.128023,"time":0,"station_name":"Ancol","line":0,"station_id":"AC","is_transit":false,"i_long":106.84464,"distance":0,"transit":false},{"distance":2185,"i_lat":-6.132549,"transit":false,"line":0,"station_name":"Kampung Bandan","i_long":106.826365,"station_id":"KPB","time":4,"is_transit":true},{"distance":4102,"time":9,"transit":false,"station_id":"AK","i_lat":-6.144674,"line":0,"station_name":"Angke","i_long":106.79867,"is_transit":false},{"time":4,"i_long":106.800832,"line":1,"station_name":"Duri","is_transit":true,"distance":1230,"transit":true,"i_lat":-6.155215,"station_id":"DU"},{"is_transit":true,"transit":false,"i_long":106.811091,"line":1,"station_name":"Tanah Abang","distance":3632,"station_id":"THB","time":8,"i_lat":-6.185545},{"i_long":106.816351,"station_id":"KAT","is_transit":false,"time":5,"station_name":"Karet","line":1,"distance":2029,"transit":false,"i_lat":-6.20132},{"i_lat":-6.201433,"line":1,"time":1,"transit":false,"station_id":"SUDB","distance":471,"is_transit":false,"i_long":106.819881,"station_name":"Sudirman Baru"},{"time":1,"transit":false,"station_id":"SUD","line":1,"station_name":"Sudirman","i_lat":-6.202263,"i_long":106.822649,"distance":280,"is_transit":false},{"i_lat":-6.209883,"i_long":106.84912,"is_transit":true,"transit":true,"time":4,"distance":3186,"station_name":"Manggarai","station_id":"MRI","line":0},{"time":4,"i_long":106.840169,"i_lat":-6.198556,"transit":false,"station_name":"Cikini","station_id":"CKI","is_transit":false,"line":0,"distance":1590},{"transit":false,"distance":1750,"station_id":"GDD","station_name":"Gondangdia","is_transit":false,"i_lat":-6.186295,"line":2,"time":3,"i_long":106.832183},{"line":2,"time":4,"distance":2015,"station_name":"Juanda","station_id":"JUA","is_transit":false,"i_lat":-6.166716,"i_long":106.828284,"transit":false},{"i_lat":-6.160725,"distance":1149,"is_transit":false,"station_name":"Sawah Besar","i_long":106.827103,"line":2,"station_id":"SW","transit":false,"time":2},{"transit":false,"distance":906,"is_transit":false,"station_name":"Manggabesar","time":2,"i_lat":-6.149769,"station_id":"MGB","i_long":106.82482,"line":2}],[{"station_id":"AC","line":0,"distance":0,"station_name":"Ancol","transit":false,"i_lat":-6.128023,"i_long":106.84464,"is_transit":false,"time":0},{"station_id":"KPB","time":4,"transit":true,"line":0,"distance":2185,"station_name":"Kampung Bandan","i_lat":-6.132549,"is_transit":true,"i_long":106.826365},{"station_id":"RJW","i_lat":-6.14505,"is_transit":false,"station_name":"Rajawali","distance":1444,"line":11,"i_long":106.836569,"transit":false,"time":3},{"line":11,"i_lat":-6.161728,"time":5,"i_long":106.839204,"is_transit":false,"distance":1901,"station_name":"Kemayoran","station_id":"KMO","transit":false},{"time":4,"station_name":"Pasar Senen","transit":false,"station_id":"PSE","is_transit":false,"i_lat":-6.174784,"line":11,"i_long":106.84368,"distance":1436},{"is_transit":false,"transit":false,"distance":1567,"station_name":"Gang Sentiong","i_long":106.850107,"station_id":"GST","line":11,"time":8,"i_lat":-6.185975},{"i_long":106.855437,"station_id":"KMT","line":11,"i_lat":-6.193792,"transit":false,"time":1,"station_name":"Kramat","is_transit":false,"distance":973},{"i_long":106.861737,"transit":false,"station_name":"Pondok Jati","distance":1829,"i_lat":-6.209188,"line":11,"station_id":"POK","is_transit":false,"time":2},{"line":0,"i_long":106.86807400000001,"station_id":"JNG","is_transit":true,"transit":true,"time":9,"station_name":"Jatinegara","distance":1236,"i_lat":-6.215091},{"distance":1377,"station_name":"Matraman","time":2,"i_lat":-6.212485,"transit":false,"i_long":106.858896,"line":1,"station_id":"MTR","is_transit":false},{"distance":1275,"station_name":"Manggarai","is_transit":true,"transit":true,"time":2,"i_lat":-6.209883,"i_long":106.84912,"station_id":"MRI","line":0},{"station_id":"CKI","transit":false,"station_name":"Cikini","i_lat":-6.198556,"is_transit":false,"distance":1590,"i_long":106.840169,"time":4,"line":0},{"i_lat":-6.186295,"station_name":"Gondangdia","station_id":"GDD","transit":false,"line":2,"is_transit":false,"time":3,"i_long":106.832183,"distance":1750},{"i_long":106.828284,"station_id":"JUA","line":2,"transit":false,"distance":2015,"station_name":"Juanda","i_lat":-6.166716,"time":4,"is_transit":false},{"i_long":106.827103,"line":2,"is_transit":false,"transit":false,"time":2,"distance":1149,"station_name":"Sawah Besar","i_lat":-6.160725,"station_id":"SW"},{"i_lat":-6.149769,"station_name":"Manggabesar","station_id":"MGB","time":2,"transit":false,"is_transit":false,"line":2,"distance":906,"i_long":106.82482}]]}