{"data":[[{"station_id":"AC","i_lat":-6.128023,"station_name":"Ancol","transit":false,"time":0,"distance":0,"line":4,"is_transit":false,"i_long":106.84464},{"i_long":106.826365,"line":4,"transit":true,"is_transit":true,"station_name":"Kampung Bandan","time":4,"i_lat":-6.132549,"distance":2185,"station_id":"KPB"},{"line":2,"time":3,"transit":true,"i_long":106.812439,"distance":1364,"is_transit":true,"station_name":"Jakarta Kota","i_lat":-6.137569,"station_id":"JAKK"},{"station_name":"Jayakarta","i_long":106.820901,"line":2,"i_lat":-6.141205,"distance":1264,"station_id":"JAY","is_transit":false,"transit":false,"time":4},{"distance":1080,"station_name":"Manggabesar","line":2,"station_id":"MGB","transit":false,"time":2,"i_long":106.82482,"is_transit":false,"i_lat":-6.149769}],[{"distance":0,"station_name":"Ancol","i_lat":-6.128023,"i_long":106.84464,"time":0,"transit":false,"station_id":"AC","line":4,"is_transit":false},{"transit":true,"time":4,"is_transit":true,"i_lat":-6.132549,"i_long":106.826365,"station_id":"KPB","station_name":"Kampung Bandan","distance":2185,"line":4},{"time":9,"station_id":"AK","distance":4102,"i_lat":-6.144674,"transit":false,"station_name":"Angke","is_transit":false,"i_long":106.79867,"line":1},{"line":1,"station_name":"Duri","distance":1230,"station_id":"DU","is_transit":false,"i_lat":-6.155215,"transit":false,"i_long":106.800832,"time":4},{"distance":3632,"station_name":"Tanah Abang","i_long":106.811091,"transit":false,"line":1,"is_transit":false,"time":8,"station_id":"THB","i_lat":-6.185545},{"station_id":"KAT","time":5,"i_lat":-6.20132,"distance":2029,"i_long":106.816351,"station_name":"Karet","is_transit":false,"transit":false,"line":1},{"time":1,"i_long":106.819881,"transit":false,"is_transit":false,"distance":471,"line":1,"station_id":"SUDB","i_lat":-6.201433,"station_name":"Sudirman Baru"},{"i_long":106.822649,"station_id":"SUD","station_name":"Sudirman","line":1,"time":1,"is_transit":false,"distance":280,"i_lat":-6.202263,"transit":false},{"distance":3186,"station_id":"MRI","time":4,"line":2,"transit":true,"is_transit":true,"i_lat":-6.209883,"station_name":"Manggarai","i_long":106.84912},{"station_id":"CKI","time":4,"is_transit":false,"i_lat":-6.198556,"distance":1590,"line":2,"station_name":"Cikini","transit":false,"i_long":106.840169},{"line":2,"distance":1750,"station_name":"Gondangdia","station_id":"GDD","is_transit":false,"transit":false,"i_lat":-6.186295,"time":3,"i_long":106.832183},{"transit":false,"line":2,"time":4,"station_id":"JUA","is_transit":false,"i_lat":-6.166716,"station_name":"Juanda","i_long":106.828284,"distance":2015},{"station_id":"SW","station_name":"Sawah Besar","transit":false,"time":2,"distance":1149,"line":2,"is_transit":false,"i_lat":-6.160725,"i_long":106.827103},{"transit":false,"line":2,"time":2,"station_id":"MGB","i_long":106.82482,"station_name":"Manggabesar","i_lat":-6.149769,"is_transit":false,"distance":906}],[{"station_name":"Ancol","transit":false,"i_lat":-6.128023,"time":0,"is_transit":false,"distance":0,"line":4,"station_id":"AC","i_long":106.84464},{"is_transit":true,"station_name":"Kampung Bandan","time":4,"distance":2185,"line":4,"transit":true,"station_id":"KPB","i_long":106.826365,"i_lat":-6.132549},{"transit":false,"i_lat":-6.14505,"time":3,"station_name":"Rajawali","station_id":"RJW","distance":1444,"is_transit":false,"line":11,"i_long":106.836569},{"i_lat":-6.161728,"i_long":106.839204,"is_transit":false,"station_id":"KMO","station_name":"Kemayoran","line":11,"transit":false,"distance":1901,"time":5},{"transit":false,"station_id":"PSE","time":4,"is_transit":false,"distance":1436,"i_lat":-6.174784,"i_long":106.84368,"station_name":"Pasar Senen","line":11},{"station_name":"Gang Sentiong","is_transit":false,"station_id":"GST","time":8,"transit":false,"i_long":106.850107,"line":11,"i_lat":-6.185975,"distance":1567},{"i_long":106.855437,"station_name":"Kramat","distance":973,"line":11,"time":1,"station_id":"KMT","transit":false,"is_transit":false,"i_lat":-6.193792},{"transit":false,"time":2,"distance":1829,"is_transit":false,"i_long":106.861737,"i_lat":-6.209188,"station_name":"Pondok Jati","line":11,"station_id":"POK"},{"station_name":"Jatinegara","line":1,"time":9,"is_transit":true,"distance":1236,"i_lat":-6.215091,"i_long":106.86807400000001,"transit":true,"station_id":"JNG"},{"transit":false,"station_id":"MTR","distance":1377,"i_long":106.858896,"is_transit":false,"station_name":"Matraman","i_lat":-6.212485,"time":2,"line":1},{"i_lat":-6.209883,"line":2,"transit":true,"station_name":"Manggarai","time":2,"i_long":106.84912,"distance":1275,"is_transit":true,"station_id":"MRI"},{"i_lat":-6.198556,"i_long":106.840169,"line":2,"station_name":"Cikini","distance":1590,"transit":false,"is_transit":false,"station_id":"CKI","time":4},{"i_long":106.832183,"transit":false,"station_name":"Gondangdia","is_transit":false,"station_id":"GDD","time":3,"line":2,"distance":1750,"i_lat":-6.186295},{"i_lat":-6.166716,"line":2,"time":4,"transit":false,"i_long":106.828284,"station_id":"JUA","is_transit":false,"station_name":"Juanda","distance":2015},{"time":2,"i_lat":-6.160725,"transit":false,"station_id":"SW","i_long":106.827103,"distance":1149,"line":2,"station_name":"Sawah Besar","is_transit":false},{"transit":false,"i_long":106.82482,"station_name":"Manggabesar","i_lat":-6.149769,"line":2,"is_transit":false,"time":2,"distance":906,"station_id":"MGB"}]]}