{"data":[[{"station_id":"AC","distance":0,"transit":false,"i_long":106.84464,"time":0,"is_transit":false,"station_name":"Ancol","i_lat":-6.128023,"line":4},{"station_name":"Kampung Bandan","i_long":106.826365,"time":4,"distance":2185,"station_id":"KPB","is_transit":true,"transit":true,"i_lat":-6.132549,"line":4},{"station_id":"JAKK","is_transit":true,"distance":1364,"time":3,"transit":true,"station_name":"Jakarta Kota","i_long":106.812439,"line":2,"i_lat":-6.137569},{"i_lat":-6.141205,"distance":1264,"station_name":"Jayakarta","transit":false,"station_id":"JAY","line":2,"time":4,"is_transit":false,"i_long":106.820901},{"station_id":"MGB","time":2,"is_transit":false,"i_long":106.82482,"distance":1080,"station_name":"Manggabesar","i_lat":-6.149769,"transit":false,"line":2}],[{"station_name":"Ancol","time":0,"i_lat":-6.128023,"distance":0,"is_transit":false,"i_long":106.84464,"line":4,"station_id":"AC","transit":false},{"line":4,"i_lat":-6.132549,"distance":2185,"station_id":"KPB","is_transit":true,"time":4,"station_name":"Kampung Bandan","transit":true,"i_long":106.826365},{"time":9,"transit":false,"station_name":"Angke","i_lat":-6.144674,"line":1,"distance":4102,"station_id":"AK","is_transit":false,"i_long":106.79867},{"time":4,"i_lat":-6.155215,"distance":1230,"is_transit":false,"transit":false,"i_long":106.800832,"station_name":"Duri","station_id":"DU","line":1},{"station_id":"THB","i_lat":-6.185545,"time":8,"distance":3632,"transit":false,"is_transit":false,"station_name":"Tanah Abang","i_long":106.811091,"line":1},{"is_transit":false,"time":5,"station_id":"KAT","i_lat":-6.20132,"station_name":"Karet","distance":2029,"transit":false,"i_long":106.816351,"line":1},{"i_lat":-6.201433,"i_long":106.819881,"time":1,"is_transit":false,"station_id":"SUDB","line":1,"station_name":"Sudirman Baru","distance":471,"transit":false},{"time":1,"i_long":106.822649,"i_lat":-6.202263,"transit":false,"station_id":"SUD","station_name":"Sudirman","is_transit":false,"distance":280,"line":1},{"transit":true,"station_name":"Manggarai","is_transit":true,"line":2,"i_long":106.84912,"station_id":"MRI","i_lat":-6.209883,"distance":3186,"time":4},{"distance":1590,"station_id":"CKI","transit":false,"is_transit":false,"station_name":"Cikini","time":4,"i_long":106.840169,"i_lat":-6.198556,"line":2},{"line":2,"time":3,"is_transit":false,"station_name":"Gondangdia","i_lat":-6.186295,"station_id":"GDD","transit":false,"distance":1750,"i_long":106.832183},{"distance":2015,"station_name":"Juanda","transit":false,"i_long":106.828284,"station_id":"JUA","i_lat":-6.166716,"time":4,"is_transit":false,"line":2},{"distance":1149,"transit":false,"time":2,"i_lat":-6.160725,"line":2,"is_transit":false,"station_name":"Sawah Besar","i_long":106.827103,"station_id":"SW"},{"station_name":"Manggabesar","station_id":"MGB","time":2,"distance":906,"i_lat":-6.149769,"i_long":106.82482,"is_transit":false,"transit":false,"line":2}],[{"i_lat":-6.128023,"transit":false,"distance":0,"station_name":"Ancol","i_long":106.84464,"is_transit":false,"line":4,"time":0,"station_id":"AC"},{"i_long":106.826365,"distance":2185,"time":4,"station_name":"Kampung Bandan","is_transit":true,"transit":true,"i_lat":-6.132549,"line":4,"station_id":"KPB"},{"i_long":106.836569,"station_id":"RJW","transit":false,"is_transit":false,"i_lat":-6.14505,"distance":1444,"station_name":"Rajawali","time":3,"line":11},{"distance":1901,"line":11,"is_transit":false,"time":5,"station_id":"KMO","station_name":"Kemayoran","transit":false,"i_lat":-6.161728,"i_long":106.839204},{"is_transit":false,"i_long":106.84368,"line":11,"station_name":"Pasar Senen","i_lat":-6.174784,"distance":1436,"station_id":"PSE","time":4,"transit":false},{"time":8,"station_name":"Gang Sentiong","station_id":"GST","is_transit":false,"i_lat":-6.185975,"line":11,"i_long":106.850107,"transit":false,"distance":1567},{"distance":973,"transit":false,"i_lat":-6.193792,"time":1,"station_id":"KMT","is_transit":false,"station_name":"Kramat","i_long":106.855437,"line":11},{"i_lat":-6.209188,"transit":false,"distance":1829,"i_long":106.861737,"station_name":"Pondok Jati","line":11,"time":2,"station_id":"POK","is_transit":false},{"transit":true,"station_id":"JNG","distance":1236,"station_name":"Jatinegara","is_transit":true,"i_lat":-6.215091,"i_long":106.86807400000001,"line":1,"time":9},{"i_lat":-6.212485,"line":1,"i_long":106.858896,"is_transit":false,"transit":false,"station_id":"MTR","time":2,"distance":1377,"station_name":"Matraman"},{"station_name":"Manggarai","is_transit":true,"time":2,"i_lat":-6.209883,"transit":true,"station_id":"MRI","distance":1275,"i_long":106.84912,"line":2},{"time":4,"i_lat":-6.198556,"station_name":"Cikini","i_long":106.840169,"line":2,"distance":1590,"station_id":"CKI","is_transit":false,"transit":false},{"i_lat":-6.186295,"transit":false,"distance":1750,"is_transit":false,"line":2,"i_long":106.832183,"time":3,"station_name":"Gondangdia","station_id":"GDD"},{"transit":false,"i_long":106.828284,"station_name":"Juanda","line":2,"time":4,"distance":2015,"station_id":"JUA","is_transit":false,"i_lat":-6.166716},{"time":2,"i_lat":-6.160725,"station_id":"SW","is_transit":false,"transit":false,"distance":1149,"line":2,"i_long":106.827103,"station_name":"Sawah Besar"},{"station_id":"MGB","i_lat":-6.149769,"time":2,"station_name":"Manggabesar","transit":false,"i_long":106.82482,"is_transit":false,"distance":906,"line":2}]]}