{"data":[[{"i_lat":-6.128023,"station_id":"AC","station_name":"Ancol","time":0,"line":0,"is_transit":false,"i_long":106.84464,"transit":false,"distance":0},{"station_name":"Kampung Bandan","transit":false,"i_long":106.826365,"i_lat":-6.132549,"distance":2185,"line":0,"is_transit":true,"time":4,"station_id":"KPB"},{"i_lat":-6.144674,"transit":false,"line":0,"i_long":106.79867,"station_id":"AK","is_transit":false,"time":9,"station_name":"Angke","distance":4102},{"is_transit":true,"transit":true,"i_long":106.800832,"i_lat":-6.155215,"time":4,"distance":1230,"station_name":"Duri","station_id":"DU","line":1},{"transit":false,"i_lat":-6.185545,"distance":3632,"station_name":"Tanah Abang","station_id":"THB","i_long":106.811091,"is_transit":true,"line":1,"time":8},{"distance":2029,"i_lat":-6.20132,"line":1,"transit":false,"i_long":106.816351,"station_name":"Karet","time":5,"station_id":"KAT","is_transit":false},{"station_name":"Sudirman Baru","distance":471,"time":1,"is_transit":false,"station_id":"SUDB","i_long":106.819881,"line":1,"transit":false,"i_lat":-6.201433},{"i_long":106.822649,"transit":false,"time":1,"is_transit":false,"station_id":"SUD","station_name":"Sudirman","i_lat":-6.202263,"line":1,"distance":280},{"distance":3186,"i_lat":-6.209883,"transit":false,"station_id":"MRI","i_long":106.84912,"station_name":"Manggarai","is_transit":true,"line":0,"time":4}],[{"line":0,"i_lat":-6.128023,"is_transit":false,"distance":0,"time":0,"station_id":"AC","i_long":106.84464,"station_name":"Ancol","transit":false},{"time":4,"station_name":"Kampung Bandan","station_id":"KPB","distance":2185,"i_long":106.826365,"i_lat":-6.132549,"line":0,"is_transit":true,"transit":false},{"station_name":"Jakarta Kota","is_transit":true,"station_id":"JAKK","transit":true,"distance":1364,"i_lat":-6.137569,"i_long":106.812439,"line":0,"time":3},{"i_lat":-6.141205,"station_name":"Jayakarta","time":4,"distance":1264,"transit":false,"is_transit":false,"i_long":106.820901,"line":7,"station_id":"JAY"},{"time":2,"i_long":106.82482,"i_lat":-6.149769,"station_name":"Manggabesar","transit":false,"distance":1080,"is_transit":false,"line":2,"station_id":"MGB"},{"i_lat":-6.160725,"station_id":"SW","transit":false,"time":2,"is_transit":false,"distance":906,"station_name":"Sawah Besar","i_long":106.827103,"line":2},{"is_transit":false,"time":2,"i_lat":-6.166716,"transit":false,"station_name":"Juanda","line":2,"i_long":106.828284,"station_id":"JUA","distance":1149},{"i_lat":-6.186295,"station_id":"GDD","line":2,"i_long":106.832183,"is_transit":false,"distance":2015,"station_name":"Gondangdia","time":4,"transit":false},{"i_lat":-6.198556,"time":3,"is_transit":false,"station_name":"Cikini","distance":1750,"i_long":106.840169,"station_id":"CKI","transit":false,"line":0},{"is_transit":true,"station_name":"Manggarai","i_lat":-6.209883,"time":4,"transit":false,"i_long":106.84912,"station_id":"MRI","distance":1590,"line":0}],[{"distance":0,"i_lat":-6.128023,"station_id":"AC","i_long":106.84464,"line":0,"time":0,"transit":false,"station_name":"Ancol","is_transit":false},{"i_lat":-6.132549,"line":0,"i_long":106.826365,"station_name":"Kampung Bandan","time":4,"is_transit":true,"transit":true,"distance":2185,"station_id":"KPB"},{"time":3,"i_lat":-6.14505,"is_transit":false,"transit":false,"distance":1444,"i_long":106.836569,"station_name":"Rajawali","line":11,"station_id":"RJW"},{"is_transit":false,"station_id":"KMO","time":5,"i_long":106.839204,"i_lat":-6.161728,"station_name":"Kemayoran","distance":1901,"transit":false,"line":11},{"station_id":"PSE","transit":false,"is_transit":false,"time":4,"i_long":106.84368,"line":11,"distance":1436,"i_lat":-6.174784,"station_name":"Pasar Senen"},{"i_long":106.850107,"line":11,"station_name":"Gang Sentiong","transit":false,"distance":1567,"is_transit":false,"time":8,"station_id":"GST","i_lat":-6.185975},{"distance":973,"station_id":"KMT","i_lat":-6.193792,"line":11,"i_long":106.855437,"time":1,"is_transit":false,"station_name":"Kramat","transit":false},{"station_id":"POK","time":2,"i_long":106.861737,"distance":1829,"i_lat":-6.209188,"transit":false,"station_name":"Pondok Jati","line":11,"is_transit":false},{"distance":1236,"is_transit":true,"station_id":"JNG","i_lat":-6.215091,"station_name":"Jatinegara","line":0,"time":9,"i_long":106.86807400000001,"transit":true},{"is_transit":false,"time":2,"station_name":"Matraman","distance":1377,"line":1,"i_long":106.858896,"station_id":"MTR","transit":false,"i_lat":-6.212485},{"distance":1275,"line":0,"i_lat":-6.209883,"station_name":"Manggarai","transit":false,"is_transit":true,"i_long":106.84912,"station_id":"MRI","time":2}]]}