{"data":[[{"station_name":"Ancol","line":4,"station_id":"AC","transit":false,"is_transit":false,"time":0,"i_long":106.84464,"distance":0,"i_lat":-6.128023},{"time":4,"station_name":"Kampung Bandan","transit":true,"station_id":"KPB","distance":2185,"i_long":106.826365,"i_lat":-6.132549,"is_transit":true,"line":4},{"time":9,"station_name":"Angke","distance":4102,"transit":false,"i_long":106.79867,"line":1,"station_id":"AK","is_transit":false,"i_lat":-6.144674},{"station_id":"DU","distance":1230,"i_lat":-6.155215,"i_long":106.800832,"transit":false,"station_name":"Duri","is_transit":false,"line":1,"time":4},{"time":8,"i_lat":-6.185545,"transit":false,"is_transit":false,"station_id":"THB","station_name":"Tanah Abang","i_long":106.811091,"line":1,"distance":3632},{"station_name":"Karet","time":5,"line":1,"station_id":"KAT","is_transit":false,"distance":2029,"i_long":106.816351,"transit":false,"i_lat":-6.20132},{"distance":471,"i_lat":-6.201433,"time":1,"transit":false,"line":1,"station_name":"Sudirman Baru","is_transit":false,"i_long":106.819881,"station_id":"SUDB"},{"time":1,"is_transit":false,"station_id":"SUD","line":1,"transit":false,"station_name":"Sudirman","i_long":106.822649,"i_lat":-6.202263,"distance":280},{"line":2,"i_long":106.84912,"time":4,"station_name":"Manggarai","i_lat":-6.209883,"station_id":"MRI","transit":false,"distance":3186,"is_transit":false}],[{"station_id":"AC","time":0,"transit":false,"i_lat":-6.128023,"is_transit":false,"distance":0,"i_long":106.84464,"line":4,"station_name":"Ancol"},{"distance":2185,"transit":true,"station_id":"KPB","is_transit":true,"i_lat":-6.132549,"i_long":106.826365,"line":4,"station_name":"Kampung Bandan","time":4},{"time":3,"distance":1364,"i_lat":-6.137569,"i_long":106.812439,"line":2,"station_id":"JAKK","transit":true,"station_name":"Jakarta Kota","is_transit":true},{"is_transit":false,"i_lat":-6.141205,"transit":false,"i_long":106.820901,"distance":1264,"line":2,"station_id":"JAY","station_name":"Jayakarta","time":4},{"time":2,"station_name":"Manggabesar","station_id":"MGB","i_lat":-6.149769,"line":2,"distance":1080,"i_long":106.82482,"transit":false,"is_transit":false},{"line":2,"distance":906,"time":2,"i_lat":-6.160725,"transit":false,"station_name":"Sawah Besar","station_id":"SW","is_transit":false,"i_long":106.827103},{"distance":1149,"station_id":"JUA","time":2,"i_lat":-6.166716,"transit":false,"i_long":106.828284,"is_transit":false,"line":2,"station_name":"Juanda"},{"i_lat":-6.186295,"station_id":"GDD","i_long":106.832183,"transit":false,"line":2,"is_transit":false,"time":4,"station_name":"Gondangdia","distance":2015},{"i_lat":-6.198556,"i_long":106.840169,"line":2,"time":3,"transit":false,"station_name":"Cikini","station_id":"CKI","is_transit":false,"distance":1750},{"transit":false,"i_lat":-6.209883,"distance":1590,"line":2,"is_transit":false,"station_name":"Manggarai","i_long":106.84912,"time":4,"station_id":"MRI"}],[{"transit":false,"is_transit":false,"i_lat":-6.128023,"i_long":106.84464,"station_name":"Ancol","time":0,"line":4,"station_id":"AC","distance":0},{"station_id":"KPB","line":4,"transit":true,"station_name":"Kampung Bandan","distance":2185,"i_long":106.826365,"i_lat":-6.132549,"time":4,"is_transit":true},{"i_long":106.836569,"station_name":"Rajawali","station_id":"RJW","is_transit":false,"distance":1444,"time":3,"transit":false,"i_lat":-6.14505,"line":11},{"line":11,"time":5,"i_lat":-6.161728,"station_name":"Kemayoran","distance":1901,"is_transit":false,"transit":false,"station_id":"KMO","i_long":106.839204},{"station_name":"Pasar Senen","i_long":106.84368,"transit":false,"is_transit":false,"i_lat":-6.174784,"distance":1436,"line":11,"time":4,"station_id":"PSE"},{"i_lat":-6.185975,"line":11,"is_transit":false,"i_long":106.850107,"station_id":"GST","distance":1567,"transit":false,"station_name":"Gang Sentiong","time":8},{"station_id":"KMT","line":11,"distance":973,"is_transit":false,"station_name":"Kramat","time":1,"i_lat":-6.193792,"transit":false,"i_long":106.855437},{"station_id":"POK","distance":1829,"i_lat":-6.209188,"transit":false,"station_name":"Pondok Jati","is_transit":false,"time":2,"i_long":106.861737,"line":11},{"distance":1236,"line":1,"station_name":"Jatinegara","station_id":"JNG","time":9,"i_lat":-6.215091,"transit":true,"is_transit":true,"i_long":106.86807400000001},{"station_id":"MTR","i_lat":-6.212485,"time":2,"i_long":106.858896,"distance":1377,"transit":false,"station_name":"Matraman","line":1,"is_transit":false},{"transit":false,"station_id":"MRI","i_long":106.84912,"time":2,"station_name":"Manggarai","line":2,"is_transit":false,"i_lat":-6.209883,"distance":1275}]]}