{"data":[[{"station_id":"AC","station_name":"Ancol","i_lat":-6.128023,"i_long":106.84464,"is_transit":false,"time":0,"distance":0,"line":4,"transit":false},{"line":4,"is_transit":true,"transit":true,"time":4,"i_long":106.826365,"i_lat":-6.132549,"distance":2185,"station_id":"KPB","station_name":"Kampung Bandan"},{"i_long":106.79867,"transit":false,"i_lat":-6.144674,"is_transit":false,"station_id":"AK","distance":4102,"time":9,"station_name":"Angke","line":1},{"distance":1230,"station_id":"DU","i_lat":-6.155215,"i_long":106.800832,"transit":false,"station_name":"Duri","line":1,"is_transit":false,"time":4},{"i_long":106.811091,"station_id":"THB","is_transit":false,"station_name":"Tanah Abang","i_lat":-6.185545,"time":8,"transit":false,"line":1,"distance":3632},{"line":1,"transit":false,"time":5,"station_id":"KAT","i_long":106.816351,"distance":2029,"station_name":"Karet","is_transit":false,"i_lat":-6.20132},{"transit":false,"i_long":106.819881,"is_transit":false,"i_lat":-6.201433,"station_name":"Sudirman Baru","distance":471,"line":1,"time":1,"station_id":"SUDB"},{"station_id":"SUD","distance":280,"time":1,"i_long":106.822649,"station_name":"Sudirman","is_transit":false,"line":1,"transit":false,"i_lat":-6.202263},{"is_transit":true,"station_name":"Manggarai","i_long":106.84912,"line":2,"transit":true,"distance":3186,"time":4,"station_id":"MRI","i_lat":-6.209883},{"line":2,"is_transit":false,"distance":2610,"i_long":106.857948,"time":4,"i_lat":-6.226659,"transit":false,"station_id":"TEB","station_name":"Tebet"},{"time":2,"distance":1230,"station_id":"CW","is_transit":false,"transit":false,"station_name":"Cawang","i_long":106.856607,"i_lat":-6.242512,"line":2},{"is_transit":false,"i_long":106.85449,"line":2,"time":3,"station_name":"Duren Kalibata","i_lat":-6.255332,"distance":1546,"transit":false,"station_id":"DRN"},{"station_name":"Pasar Minggu Baru","i_lat":-6.263214,"line":2,"distance":824,"station_id":"PSMB","transit":false,"i_long":106.851577,"is_transit":false,"time":2},{"i_long":106.843999,"station_name":"Pasar Minggu","transit":false,"distance":2380,"station_id":"PSM","is_transit":false,"i_lat":-6.2842400000000005,"line":2,"time":2},{"i_lat":-6.3080680000000005,"line":2,"is_transit":false,"transit":false,"station_id":"TNT","distance":2820,"time":4,"station_name":"Tanjung Barat","i_long":106.838896},{"i_lat":-6.330363,"i_long":106.832616,"station_name":"Lenteng Agung","line":2,"station_id":"LNA","is_transit":false,"distance":2671,"transit":false,"time":3},{"i_lat":-6.339291,"station_name":"Univ. Pancasila","transit":false,"time":2,"i_long":106.834175,"distance":1029,"station_id":"UP","line":2,"is_transit":false},{"line":2,"time":3,"station_id":"UI","i_lat":-6.360749,"is_transit":false,"station_name":"Univ. Indonesia","transit":false,"distance":2264,"i_long":106.831474},{"line":2,"is_transit":false,"i_lat":-6.369073,"station_name":"Pondok Cina","time":2,"transit":false,"distance":1109,"station_id":"POC","i_long":106.831114},{"station_id":"DPB","is_transit":false,"time":4,"i_long":106.819451,"transit":false,"station_name":"Depokbaru","distance":2727,"i_lat":-6.391065,"line":2},{"transit":false,"line":2,"is_transit":false,"i_lat":-6.405256,"station_id":"DP","time":3,"i_long":106.816926,"distance":1584,"station_name":"Depok"},{"station_name":"Citayam","time":6,"i_lat":-6.448811,"distance":5084,"i_long":106.800298,"transit":true,"station_id":"CTA","line":2,"is_transit":true},{"is_transit":false,"i_long":106.824374,"station_id":"PDRG","i_lat":-6.460735,"station_name":"Pondok Rajeg","line":21,"transit":false,"distance":0,"time":0},{"distance":0,"i_long":106.851978,"line":21,"time":0,"station_name":"Cibinong","transit":false,"station_id":"CBN","i_lat":-6.46424,"is_transit":false},{"i_long":106.905196,"station_name":"Nambo","i_lat":-6.466285,"line":21,"station_id":"NMO","transit":false,"is_transit":false,"time":10,"distance":6527}],[{"transit":false,"is_transit":false,"station_name":"Ancol","line":4,"station_id":"AC","distance":0,"i_lat":-6.128023,"time":0,"i_long":106.84464},{"transit":true,"is_transit":true,"station_id":"KPB","station_name":"Kampung Bandan","line":4,"time":4,"i_long":106.826365,"distance":2185,"i_lat":-6.132549},{"distance":1364,"i_long":106.812439,"i_lat":-6.137569,"is_transit":true,"line":2,"time":3,"station_id":"JAKK","station_name":"Jakarta Kota","transit":true},{"line":2,"station_name":"Jayakarta","is_transit":false,"i_long":106.820901,"transit":false,"station_id":"JAY","distance":1264,"i_lat":-6.141205,"time":4},{"distance":1080,"station_name":"Manggabesar","i_lat":-6.149769,"line":2,"transit":false,"is_transit":false,"station_id":"MGB","i_long":106.82482,"time":2},{"i_lat":-6.160725,"station_name":"Sawah Besar","is_transit":false,"transit":false,"i_long":106.827103,"station_id":"SW","time":2,"line":2,"distance":906},{"distance":1149,"is_transit":false,"time":2,"i_lat":-6.166716,"i_long":106.828284,"transit":false,"line":2,"station_name":"Juanda","station_id":"JUA"},{"i_long":106.832183,"i_lat":-6.186295,"station_name":"Gondangdia","distance":2015,"is_transit":false,"transit":false,"line":2,"station_id":"GDD","time":4},{"distance":1750,"i_long":106.840169,"station_name":"Cikini","is_transit":false,"station_id":"CKI","line":2,"transit":false,"i_lat":-6.198556,"time":3},{"station_name":"Manggarai","is_transit":false,"station_id":"MRI","i_long":106.84912,"line":2,"distance":1590,"transit":false,"time":4,"i_lat":-6.209883},{"station_id":"TEB","i_lat":-6.226659,"is_transit":false,"station_name":"Tebet","transit":false,"line":2,"i_long":106.857948,"distance":2610,"time":4},{"line":2,"distance":1230,"time":2,"is_transit":false,"transit":false,"station_id":"CW","station_name":"Cawang","i_lat":-6.242512,"i_long":106.856607},{"i_lat":-6.255332,"transit":false,"line":2,"station_id":"DRN","time":3,"is_transit":false,"distance":1546,"station_name":"Duren Kalibata","i_long":106.85449},{"station_name":"Pasar Minggu Baru","distance":824,"i_lat":-6.263214,"i_long":106.851577,"time":2,"station_id":"PSMB","transit":false,"is_transit":false,"line":2},{"i_long":106.843999,"is_transit":false,"i_lat":-6.2842400000000005,"distance":2380,"time":2,"transit":false,"station_name":"Pasar Minggu","station_id":"PSM","line":2},{"distance":2820,"is_transit":false,"i_long":106.838896,"station_name":"Tanjung Barat","station_id":"TNT","time":4,"i_lat":-6.3080680000000005,"line":2,"transit":false},{"i_long":106.832616,"i_lat":-6.330363,"transit":false,"station_name":"Lenteng Agung","time":3,"station_id":"LNA","is_transit":false,"line":2,"distance":2671},{"i_lat":-6.339291,"distance":1029,"station_name":"Univ. Pancasila","station_id":"UP","is_transit":false,"i_long":106.834175,"transit":false,"time":2,"line":2},{"station_name":"Univ. Indonesia","line":2,"time":3,"transit":false,"is_transit":false,"i_lat":-6.360749,"station_id":"UI","i_long":106.831474,"distance":2264},{"line":2,"distance":1109,"station_id":"POC","i_long":106.831114,"is_transit":false,"transit":false,"station_name":"Pondok Cina","time":2,"i_lat":-6.369073},{"distance":2727,"i_lat":-6.391065,"is_transit":false,"station_name":"Depokbaru","station_id":"DPB","transit":false,"line":2,"i_long":106.819451,"time":4},{"station_id":"DP","time":3,"is_transit":false,"transit":false,"i_lat":-6.405256,"i_long":106.816926,"distance":1584,"station_name":"Depok","line":2},{"i_lat":-6.448811,"is_transit":true,"station_id":"CTA","i_long":106.800298,"line":2,"time":6,"distance":5084,"station_name":"Citayam","transit":true},{"distance":0,"line":21,"is_transit":false,"station_name":"Pondok Rajeg","transit":false,"i_lat":-6.460735,"time":0,"i_long":106.824374,"station_id":"PDRG"},{"is_transit":false,"time":0,"transit":false,"distance":0,"station_id":"CBN","i_lat":-6.46424,"station_name":"Cibinong","i_long":106.851978,"line":21},{"time":10,"station_name":"Nambo","is_transit":false,"distance":6527,"station_id":"NMO","i_lat":-6.466285,"line":21,"transit":false,"i_long":106.905196}],[{"i_lat":-6.128023,"is_transit":false,"transit":false,"line":4,"station_name":"Ancol","i_long":106.84464,"station_id":"AC","time":0,"distance":0},{"station_id":"KPB","time":4,"i_long":106.826365,"line":4,"transit":true,"i_lat":-6.132549,"station_name":"Kampung Bandan","is_transit":true,"distance":2185},{"station_name":"Rajawali","time":3,"line":11,"i_long":106.836569,"distance":1444,"i_lat":-6.14505,"transit":false,"is_transit":false,"station_id":"RJW"},{"transit":false,"station_id":"KMO","i_lat":-6.161728,"distance":1901,"station_name":"Kemayoran","is_transit":false,"line":11,"i_long":106.839204,"time":5},{"i_long":106.84368,"transit":false,"time":4,"i_lat":-6.174784,"is_transit":false,"distance":1436,"station_id":"PSE","line":11,"station_name":"Pasar Senen"},{"i_long":106.850107,"is_transit":false,"time":8,"distance":1567,"station_id":"GST","i_lat":-6.185975,"transit":false,"station_name":"Gang Sentiong","line":11},{"station_name":"Kramat","station_id":"KMT","distance":973,"is_transit":false,"transit":false,"time":1,"i_lat":-6.193792,"line":11,"i_long":106.855437},{"i_lat":-6.209188,"line":11,"station_id":"POK","transit":false,"distance":1829,"station_name":"Pondok Jati","time":2,"i_long":106.861737,"is_transit":false},{"i_lat":-6.215091,"distance":1236,"time":9,"station_id":"JNG","station_name":"Jatinegara","transit":true,"i_long":106.86807400000001,"line":1,"is_transit":true},{"transit":false,"is_transit":false,"i_long":106.858896,"station_name":"Matraman","time":2,"line":1,"i_lat":-6.212485,"distance":1377,"station_id":"MTR"},{"line":2,"i_long":106.84912,"transit":true,"is_transit":true,"time":2,"station_name":"Manggarai","station_id":"MRI","distance":1275,"i_lat":-6.209883},{"distance":2610,"i_lat":-6.226659,"station_id":"TEB","transit":false,"station_name":"Tebet","line":2,"is_transit":false,"i_long":106.857948,"time":4},{"i_lat":-6.242512,"is_transit":false,"transit":false,"station_id":"CW","i_long":106.856607,"time":2,"line":2,"station_name":"Cawang","distance":1230},{"transit":false,"i_long":106.85449,"station_id":"DRN","i_lat":-6.255332,"time":3,"distance":1546,"line":2,"is_transit":false,"station_name":"Duren Kalibata"},{"i_long":106.851577,"station_name":"Pasar Minggu Baru","is_transit":false,"line":2,"station_id":"PSMB","time":2,"transit":false,"distance":824,"i_lat":-6.263214},{"is_transit":false,"time":2,"distance":2380,"line":2,"i_long":106.843999,"transit":false,"station_name":"Pasar Minggu","station_id":"PSM","i_lat":-6.2842400000000005},{"station_name":"Tanjung Barat","station_id":"TNT","time":4,"transit":false,"distance":2820,"is_transit":false,"i_lat":-6.3080680000000005,"i_long":106.838896,"line":2},{"is_transit":false,"transit":false,"station_id":"LNA","line":2,"station_name":"Lenteng Agung","time":3,"distance":2671,"i_lat":-6.330363,"i_long":106.832616},{"line":2,"is_transit":false,"station_name":"Univ. Pancasila","i_lat":-6.339291,"transit":false,"i_long":106.834175,"station_id":"UP","distance":1029,"time":2},{"station_name":"Univ. Indonesia","i_long":106.831474,"i_lat":-6.360749,"is_transit":false,"station_id":"UI","line":2,"time":3,"transit":false,"distance":2264},{"station_name":"Pondok Cina","line":2,"distance":1109,"transit":false,"station_id":"POC","i_lat":-6.369073,"time":2,"i_long":106.831114,"is_transit":false},{"i_lat":-6.391065,"station_id":"DPB","time":4,"transit":false,"is_transit":false,"station_name":"Depokbaru","i_long":106.819451,"distance":2727,"line":2},{"time":3,"line":2,"i_lat":-6.405256,"transit":false,"station_name":"Depok","station_id":"DP","distance":1584,"is_transit":false,"i_long":106.816926},{"transit":true,"station_name":"Citayam","line":2,"i_lat":-6.448811,"station_id":"CTA","i_long":106.800298,"distance":5084,"is_transit":true,"time":6},{"station_id":"PDRG","station_name":"Pondok Rajeg","distance":0,"line":21,"is_transit":false,"transit":false,"i_long":106.824374,"time":0,"i_lat":-6.460735},{"i_long":106.851978,"i_lat":-6.46424,"transit":false,"is_transit":false,"distance":0,"station_name":"Cibinong","line":21,"time":0,"station_id":"CBN"},{"i_long":106.905196,"station_id":"NMO","transit":false,"is_transit":false,"distance":6527,"time":10,"station_name":"Nambo","i_lat":-6.466285,"line":21}]]}