{"data":[[{"is_transit":false,"transit":false,"time":0,"i_lat":-6.128023,"i_long":106.84464,"station_id":"AC","distance":0,"station_name":"Ancol","line":4},{"i_long":106.826365,"i_lat":-6.132549,"line":4,"is_transit":true,"station_name":"Kampung Bandan","transit":true,"distance":2185,"time":4,"station_id":"KPB"},{"line":1,"station_id":"AK","station_name":"Angke","time":9,"transit":false,"i_lat":-6.144674,"i_long":106.79867,"distance":4102,"is_transit":false},{"station_name":"Duri","is_transit":false,"i_long":106.800832,"transit":false,"i_lat":-6.155215,"line":1,"distance":1230,"station_id":"DU","time":4},{"is_transit":false,"distance":3632,"i_long":106.811091,"line":1,"station_id":"THB","i_lat":-6.185545,"time":8,"station_name":"Tanah Abang","transit":false},{"i_lat":-6.20132,"distance":2029,"station_id":"KAT","is_transit":false,"transit":false,"i_long":106.816351,"line":1,"station_name":"Karet","time":5},{"station_name":"Sudirman Baru","distance":471,"i_lat":-6.201433,"i_long":106.819881,"line":1,"time":1,"transit":false,"station_id":"SUDB","is_transit":false},{"i_long":106.822649,"distance":280,"time":1,"is_transit":false,"transit":false,"i_lat":-6.202263,"station_id":"SUD","station_name":"Sudirman","line":1},{"is_transit":true,"i_long":106.84912,"transit":true,"time":4,"station_name":"Manggarai","distance":3186,"station_id":"MRI","i_lat":-6.209883,"line":2},{"station_id":"TEB","line":2,"is_transit":false,"distance":2610,"i_long":106.857948,"transit":false,"i_lat":-6.226659,"time":4,"station_name":"Tebet"},{"transit":false,"line":2,"i_long":106.856607,"is_transit":false,"station_id":"CW","distance":1230,"i_lat":-6.242512,"station_name":"Cawang","time":2},{"i_lat":-6.255332,"i_long":106.85449,"line":2,"time":3,"station_id":"DRN","station_name":"Duren Kalibata","is_transit":false,"transit":false,"distance":1546},{"station_id":"PSMB","i_lat":-6.263214,"i_long":106.851577,"is_transit":false,"distance":824,"transit":false,"station_name":"Pasar Minggu Baru","time":2,"line":2},{"distance":2380,"i_long":106.843999,"is_transit":false,"time":2,"station_name":"Pasar Minggu","station_id":"PSM","transit":false,"line":2,"i_lat":-6.2842400000000005},{"i_long":106.838896,"time":4,"distance":2820,"is_transit":false,"transit":false,"line":2,"station_id":"TNT","station_name":"Tanjung Barat","i_lat":-6.3080680000000005},{"time":3,"i_lat":-6.330363,"is_transit":false,"i_long":106.832616,"transit":false,"distance":2671,"station_name":"Lenteng Agung","line":2,"station_id":"LNA"},{"transit":false,"is_transit":false,"distance":1029,"station_name":"Univ. Pancasila","station_id":"UP","time":2,"i_lat":-6.339291,"i_long":106.834175,"line":2},{"time":3,"station_id":"UI","i_long":106.831474,"line":2,"distance":2264,"station_name":"Univ. Indonesia","is_transit":false,"i_lat":-6.360749,"transit":false},{"i_long":106.831114,"transit":false,"station_name":"Pondok Cina","station_id":"POC","line":2,"time":2,"is_transit":false,"i_lat":-6.369073,"distance":1109},{"time":4,"is_transit":false,"station_id":"DPB","transit":false,"i_long":106.819451,"line":2,"station_name":"Depokbaru","i_lat":-6.391065,"distance":2727},{"is_transit":false,"distance":1584,"transit":false,"line":2,"i_long":106.816926,"time":3,"station_name":"Depok","station_id":"DP","i_lat":-6.405256},{"transit":true,"station_id":"CTA","i_long":106.800298,"station_name":"Citayam","distance":5084,"i_lat":-6.448811,"line":2,"time":6,"is_transit":true},{"i_lat":-6.460735,"time":0,"station_id":"PDRG","line":21,"is_transit":false,"distance":0,"station_name":"Pondok Rajeg","transit":false,"i_long":106.824374},{"station_id":"CBN","time":0,"i_long":106.851978,"is_transit":false,"station_name":"Cibinong","line":21,"transit":false,"distance":0,"i_lat":-6.46424},{"station_name":"Nambo","transit":false,"time":10,"i_lat":-6.466285,"station_id":"NMO","line":21,"is_transit":false,"i_long":106.905196,"distance":6527}],[{"i_lat":-6.128023,"transit":false,"distance":0,"time":0,"station_name":"Ancol","station_id":"AC","i_long":106.84464,"line":4,"is_transit":false},{"i_lat":-6.132549,"line":4,"time":4,"station_id":"KPB","is_transit":true,"distance":2185,"i_long":106.826365,"station_name":"Kampung Bandan","transit":true},{"distance":1364,"i_long":106.812439,"station_id":"JAKK","i_lat":-6.137569,"transit":true,"station_name":"Jakarta Kota","is_transit":true,"line":2,"time":3},{"station_name":"Jayakarta","i_lat":-6.141205,"line":2,"time":4,"is_transit":false,"station_id":"JAY","distance":1264,"i_long":106.820901,"transit":false},{"station_name":"Manggabesar","i_lat":-6.149769,"distance":1080,"transit":false,"time":2,"station_id":"MGB","i_long":106.82482,"line":2,"is_transit":false},{"time":2,"station_id":"SW","i_long":106.827103,"is_transit":false,"station_name":"Sawah Besar","i_lat":-6.160725,"distance":906,"line":2,"transit":false},{"time":2,"station_id":"JUA","i_long":106.828284,"is_transit":false,"line":2,"transit":false,"distance":1149,"station_name":"Juanda","i_lat":-6.166716},{"time":4,"station_name":"Gondangdia","transit":false,"i_lat":-6.186295,"line":2,"i_long":106.832183,"station_id":"GDD","distance":2015,"is_transit":false},{"is_transit":false,"i_long":106.840169,"i_lat":-6.198556,"line":2,"time":3,"distance":1750,"transit":false,"station_id":"CKI","station_name":"Cikini"},{"i_lat":-6.209883,"is_transit":false,"station_name":"Manggarai","time":4,"i_long":106.84912,"transit":false,"distance":1590,"line":2,"station_id":"MRI"},{"i_long":106.857948,"time":4,"distance":2610,"line":2,"transit":false,"station_id":"TEB","station_name":"Tebet","is_transit":false,"i_lat":-6.226659},{"station_name":"Cawang","distance":1230,"is_transit":false,"station_id":"CW","i_long":106.856607,"i_lat":-6.242512,"transit":false,"time":2,"line":2},{"i_long":106.85449,"distance":1546,"station_name":"Duren Kalibata","transit":false,"station_id":"DRN","is_transit":false,"i_lat":-6.255332,"line":2,"time":3},{"station_name":"Pasar Minggu Baru","time":2,"distance":824,"i_lat":-6.263214,"is_transit":false,"line":2,"transit":false,"i_long":106.851577,"station_id":"PSMB"},{"distance":2380,"time":2,"station_id":"PSM","line":2,"station_name":"Pasar Minggu","is_transit":false,"i_lat":-6.2842400000000005,"i_long":106.843999,"transit":false},{"station_name":"Tanjung Barat","station_id":"TNT","i_lat":-6.3080680000000005,"time":4,"i_long":106.838896,"line":2,"is_transit":false,"transit":false,"distance":2820},{"station_id":"LNA","is_transit":false,"i_long":106.832616,"transit":false,"station_name":"Lenteng Agung","i_lat":-6.330363,"time":3,"line":2,"distance":2671},{"distance":1029,"station_name":"Univ. Pancasila","station_id":"UP","is_transit":false,"i_long":106.834175,"i_lat":-6.339291,"line":2,"time":2,"transit":false},{"station_id":"UI","line":2,"distance":2264,"is_transit":false,"i_long":106.831474,"transit":false,"time":3,"station_name":"Univ. Indonesia","i_lat":-6.360749},{"station_id":"POC","distance":1109,"station_name":"Pondok Cina","is_transit":false,"i_lat":-6.369073,"line":2,"i_long":106.831114,"transit":false,"time":2},{"is_transit":false,"distance":2727,"station_id":"DPB","i_lat":-6.391065,"i_long":106.819451,"time":4,"transit":false,"station_name":"Depokbaru","line":2},{"station_id":"DP","i_long":106.816926,"time":3,"transit":false,"distance":1584,"station_name":"Depok","i_lat":-6.405256,"line":2,"is_transit":false},{"line":2,"transit":true,"time":6,"i_lat":-6.448811,"is_transit":true,"distance":5084,"i_long":106.800298,"station_name":"Citayam","station_id":"CTA"},{"distance":0,"transit":false,"i_lat":-6.460735,"i_long":106.824374,"is_transit":false,"line":21,"station_name":"Pondok Rajeg","station_id":"PDRG","time":0},{"i_lat":-6.46424,"is_transit":false,"time":0,"transit":false,"distance":0,"station_name":"Cibinong","station_id":"CBN","i_long":106.851978,"line":21},{"i_lat":-6.466285,"transit":false,"is_transit":false,"time":10,"station_id":"NMO","line":21,"i_long":106.905196,"station_name":"Nambo","distance":6527}],[{"time":0,"i_lat":-6.128023,"is_transit":false,"station_id":"AC","transit":false,"distance":0,"station_name":"Ancol","i_long":106.84464,"line":4},{"line":4,"transit":true,"is_transit":true,"station_id":"KPB","distance":2185,"time":4,"station_name":"Kampung Bandan","i_lat":-6.132549,"i_long":106.826365},{"transit":false,"i_long":106.836569,"is_transit":false,"i_lat":-6.14505,"station_name":"Rajawali","distance":1444,"station_id":"RJW","line":11,"time":3},{"time":5,"station_name":"Kemayoran","is_transit":false,"transit":false,"line":11,"station_id":"KMO","distance":1901,"i_lat":-6.161728,"i_long":106.839204},{"station_name":"Pasar Senen","distance":1436,"is_transit":false,"i_long":106.84368,"line":11,"station_id":"PSE","time":4,"i_lat":-6.174784,"transit":false},{"distance":1567,"station_name":"Gang Sentiong","station_id":"GST","transit":false,"is_transit":false,"i_long":106.850107,"time":8,"i_lat":-6.185975,"line":11},{"i_long":106.855437,"transit":false,"distance":973,"i_lat":-6.193792,"station_name":"Kramat","time":1,"line":11,"station_id":"KMT","is_transit":false},{"is_transit":false,"station_name":"Pondok Jati","transit":false,"time":2,"station_id":"POK","i_long":106.861737,"distance":1829,"line":11,"i_lat":-6.209188},{"is_transit":true,"line":1,"station_name":"Jatinegara","station_id":"JNG","time":9,"transit":true,"i_lat":-6.215091,"i_long":106.86807400000001,"distance":1236},{"is_transit":false,"station_name":"Matraman","i_long":106.858896,"transit":false,"station_id":"MTR","distance":1377,"i_lat":-6.212485,"line":1,"time":2},{"station_name":"Manggarai","i_lat":-6.209883,"i_long":106.84912,"transit":true,"time":2,"is_transit":true,"line":2,"distance":1275,"station_id":"MRI"},{"station_name":"Tebet","transit":false,"time":4,"station_id":"TEB","i_lat":-6.226659,"i_long":106.857948,"line":2,"distance":2610,"is_transit":false},{"transit":false,"i_lat":-6.242512,"is_transit":false,"time":2,"i_long":106.856607,"station_id":"CW","station_name":"Cawang","distance":1230,"line":2},{"time":3,"distance":1546,"station_name":"Duren Kalibata","line":2,"is_transit":false,"i_lat":-6.255332,"transit":false,"i_long":106.85449,"station_id":"DRN"},{"line":2,"i_lat":-6.263214,"distance":824,"i_long":106.851577,"station_id":"PSMB","is_transit":false,"time":2,"station_name":"Pasar Minggu Baru","transit":false},{"line":2,"i_lat":-6.2842400000000005,"distance":2380,"time":2,"transit":false,"i_long":106.843999,"station_name":"Pasar Minggu","station_id":"PSM","is_transit":false},{"i_long":106.838896,"transit":false,"line":2,"station_id":"TNT","time":4,"station_name":"Tanjung Barat","i_lat":-6.3080680000000005,"distance":2820,"is_transit":false},{"is_transit":false,"station_name":"Lenteng Agung","distance":2671,"i_lat":-6.330363,"transit":false,"station_id":"LNA","i_long":106.832616,"line":2,"time":3},{"is_transit":false,"i_lat":-6.339291,"station_id":"UP","distance":1029,"i_long":106.834175,"time":2,"station_name":"Univ. Pancasila","transit":false,"line":2},{"time":3,"station_name":"Univ. Indonesia","i_long":106.831474,"transit":false,"i_lat":-6.360749,"distance":2264,"station_id":"UI","is_transit":false,"line":2},{"station_id":"POC","line":2,"station_name":"Pondok Cina","transit":false,"i_lat":-6.369073,"i_long":106.831114,"is_transit":false,"distance":1109,"time":2},{"station_name":"Depokbaru","time":4,"distance":2727,"i_lat":-6.391065,"transit":false,"i_long":106.819451,"is_transit":false,"line":2,"station_id":"DPB"},{"is_transit":false,"i_lat":-6.405256,"line":2,"distance":1584,"transit":false,"time":3,"station_id":"DP","i_long":106.816926,"station_name":"Depok"},{"station_id":"CTA","i_lat":-6.448811,"time":6,"i_long":106.800298,"station_name":"Citayam","distance":5084,"transit":true,"is_transit":true,"line":2},{"station_id":"PDRG","i_long":106.824374,"line":21,"time":0,"distance":0,"is_transit":false,"transit":false,"i_lat":-6.460735,"station_name":"Pondok Rajeg"},{"transit":false,"is_transit":false,"line":21,"station_name":"Cibinong","i_long":106.851978,"distance":0,"i_lat":-6.46424,"station_id":"CBN","time":0},{"station_name":"Nambo","distance":6527,"station_id":"NMO","transit":false,"time":10,"i_lat":-6.466285,"is_transit":false,"i_long":106.905196,"line":21}]]}