{"data":[[{"is_transit":false,"time":0,"i_lat":-6.128023,"transit":false,"station_name":"Ancol","distance":0,"i_long":106.84464,"station_id":"AC","line":4},{"time":4,"transit":true,"station_id":"KPB","is_transit":true,"i_lat":-6.132549,"station_name":"Kampung Bandan","line":4,"i_long":106.826365,"distance":2185},{"is_transit":false,"transit":false,"station_name":"Angke","i_lat":-6.144674,"line":1,"station_id":"AK","distance":4102,"i_long":106.79867,"time":9},{"distance":1230,"i_lat":-6.155215,"is_transit":false,"station_id":"DU","time":4,"i_long":106.800832,"transit":false,"station_name":"Duri","line":1},{"i_lat":-6.185545,"time":8,"line":1,"distance":3632,"transit":false,"is_transit":false,"station_id":"THB","station_name":"Tanah Abang","i_long":106.811091},{"is_transit":false,"station_name":"Karet","i_lat":-6.20132,"distance":2029,"transit":false,"station_id":"KAT","line":1,"time":5,"i_long":106.816351},{"transit":false,"station_name":"Sudirman Baru","line":1,"distance":471,"is_transit":false,"time":1,"i_long":106.819881,"i_lat":-6.201433,"station_id":"SUDB"},{"station_name":"Sudirman","i_lat":-6.202263,"i_long":106.822649,"station_id":"SUD","line":1,"distance":280,"time":1,"is_transit":false,"transit":false},{"is_transit":true,"i_long":106.84912,"time":4,"distance":3186,"transit":true,"line":2,"station_name":"Manggarai","i_lat":-6.209883,"station_id":"MRI"},{"station_id":"TEB","distance":2610,"time":4,"transit":false,"i_lat":-6.226659,"line":2,"station_name":"Tebet","i_long":106.857948,"is_transit":false},{"i_lat":-6.242512,"station_name":"Cawang","time":2,"station_id":"CW","line":2,"is_transit":false,"i_long":106.856607,"transit":false,"distance":1230},{"station_id":"DRN","i_long":106.85449,"line":2,"transit":false,"station_name":"Duren Kalibata","distance":1546,"i_lat":-6.255332,"time":3,"is_transit":false},{"station_name":"Pasar Minggu Baru","station_id":"PSMB","i_lat":-6.263214,"is_transit":false,"time":2,"distance":824,"transit":false,"line":2,"i_long":106.851577},{"i_long":106.843999,"line":2,"transit":false,"time":2,"station_name":"Pasar Minggu","is_transit":false,"station_id":"PSM","i_lat":-6.2842400000000005,"distance":2380},{"station_name":"Tanjung Barat","time":4,"distance":2820,"line":2,"i_long":106.838896,"i_lat":-6.3080680000000005,"transit":false,"is_transit":false,"station_id":"TNT"},{"i_long":106.832616,"is_transit":false,"transit":false,"time":3,"distance":2671,"line":2,"station_name":"Lenteng Agung","station_id":"LNA","i_lat":-6.330363},{"i_lat":-6.339291,"is_transit":false,"time":2,"i_long":106.834175,"transit":false,"station_id":"UP","station_name":"Univ. Pancasila","distance":1029,"line":2},{"i_long":106.831474,"time":3,"station_id":"UI","is_transit":false,"i_lat":-6.360749,"distance":2264,"transit":false,"station_name":"Univ. Indonesia","line":2},{"i_lat":-6.369073,"i_long":106.831114,"distance":1109,"time":2,"transit":false,"station_name":"Pondok Cina","station_id":"POC","is_transit":false,"line":2},{"is_transit":false,"line":2,"time":4,"i_long":106.819451,"distance":2727,"transit":false,"station_id":"DPB","station_name":"Depokbaru","i_lat":-6.391065},{"i_long":106.816926,"transit":false,"station_name":"Depok","time":3,"station_id":"DP","distance":1584,"i_lat":-6.405256,"is_transit":false,"line":2},{"distance":5084,"is_transit":true,"station_name":"Citayam","station_id":"CTA","line":2,"transit":true,"i_long":106.800298,"i_lat":-6.448811,"time":6},{"time":0,"station_name":"Pondok Rajeg","distance":0,"i_lat":-6.460735,"transit":false,"station_id":"PDRG","is_transit":false,"line":21,"i_long":106.824374},{"is_transit":false,"transit":false,"i_lat":-6.46424,"station_name":"Cibinong","time":0,"line":21,"i_long":106.851978,"station_id":"CBN","distance":0},{"station_name":"Nambo","time":10,"distance":6527,"line":21,"transit":false,"station_id":"NMO","i_long":106.905196,"is_transit":false,"i_lat":-6.466285}],[{"station_id":"AC","i_lat":-6.128023,"time":0,"transit":false,"station_name":"Ancol","distance":0,"i_long":106.84464,"is_transit":false,"line":4},{"time":4,"station_name":"Kampung Bandan","i_long":106.826365,"is_transit":true,"line":4,"station_id":"KPB","i_lat":-6.132549,"transit":true,"distance":2185},{"line":2,"transit":true,"station_name":"Jakarta Kota","is_transit":true,"time":3,"i_long":106.812439,"station_id":"JAKK","i_lat":-6.137569,"distance":1364},{"is_transit":false,"distance":1264,"time":4,"transit":false,"station_id":"JAY","i_lat":-6.141205,"i_long":106.820901,"line":2,"station_name":"Jayakarta"},{"i_long":106.82482,"is_transit":false,"transit":false,"i_lat":-6.149769,"station_id":"MGB","line":2,"station_name":"Manggabesar","distance":1080,"time":2},{"station_name":"Sawah Besar","station_id":"SW","i_lat":-6.160725,"transit":false,"time":2,"line":2,"is_transit":false,"distance":906,"i_long":106.827103},{"i_lat":-6.166716,"transit":false,"time":2,"distance":1149,"i_long":106.828284,"station_name":"Juanda","is_transit":false,"station_id":"JUA","line":2},{"transit":false,"i_lat":-6.186295,"line":2,"station_name":"Gondangdia","is_transit":false,"distance":2015,"time":4,"i_long":106.832183,"station_id":"GDD"},{"is_transit":false,"i_lat":-6.198556,"station_id":"CKI","time":3,"transit":false,"station_name":"Cikini","distance":1750,"i_long":106.840169,"line":2},{"station_name":"Manggarai","transit":false,"time":4,"station_id":"MRI","i_lat":-6.209883,"distance":1590,"is_transit":false,"i_long":106.84912,"line":2},{"station_name":"Tebet","i_lat":-6.226659,"transit":false,"time":4,"i_long":106.857948,"is_transit":false,"station_id":"TEB","distance":2610,"line":2},{"station_id":"CW","i_lat":-6.242512,"station_name":"Cawang","is_transit":false,"distance":1230,"line":2,"transit":false,"i_long":106.856607,"time":2},{"line":2,"i_long":106.85449,"station_id":"DRN","station_name":"Duren Kalibata","time":3,"transit":false,"distance":1546,"i_lat":-6.255332,"is_transit":false},{"line":2,"station_name":"Pasar Minggu Baru","transit":false,"is_transit":false,"time":2,"distance":824,"i_lat":-6.263214,"i_long":106.851577,"station_id":"PSMB"},{"i_lat":-6.2842400000000005,"is_transit":false,"distance":2380,"i_long":106.843999,"transit":false,"station_name":"Pasar Minggu","line":2,"time":2,"station_id":"PSM"},{"line":2,"distance":2820,"transit":false,"station_name":"Tanjung Barat","is_transit":false,"time":4,"station_id":"TNT","i_lat":-6.3080680000000005,"i_long":106.838896},{"i_long":106.832616,"line":2,"station_id":"LNA","i_lat":-6.330363,"distance":2671,"transit":false,"is_transit":false,"time":3,"station_name":"Lenteng Agung"},{"i_long":106.834175,"station_name":"Univ. Pancasila","is_transit":false,"transit":false,"line":2,"time":2,"distance":1029,"station_id":"UP","i_lat":-6.339291},{"transit":false,"distance":2264,"i_lat":-6.360749,"i_long":106.831474,"time":3,"line":2,"station_id":"UI","is_transit":false,"station_name":"Univ. Indonesia"},{"is_transit":false,"i_long":106.831114,"time":2,"transit":false,"station_name":"Pondok Cina","distance":1109,"station_id":"POC","i_lat":-6.369073,"line":2},{"i_long":106.819451,"station_id":"DPB","transit":false,"station_name":"Depokbaru","time":4,"distance":2727,"i_lat":-6.391065,"line":2,"is_transit":false},{"station_name":"Depok","is_transit":false,"time":3,"i_lat":-6.405256,"distance":1584,"i_long":106.816926,"line":2,"station_id":"DP","transit":false},{"line":2,"i_long":106.800298,"station_name":"Citayam","time":6,"station_id":"CTA","transit":true,"is_transit":true,"distance":5084,"i_lat":-6.448811},{"line":21,"transit":false,"is_transit":false,"distance":0,"time":0,"station_name":"Pondok Rajeg","station_id":"PDRG","i_lat":-6.460735,"i_long":106.824374},{"time":0,"i_long":106.851978,"station_id":"CBN","is_transit":false,"i_lat":-6.46424,"distance":0,"transit":false,"station_name":"Cibinong","line":21},{"i_long":106.905196,"transit":false,"station_id":"NMO","distance":6527,"station_name":"Nambo","time":10,"i_lat":-6.466285,"is_transit":false,"line":21}],[{"i_lat":-6.128023,"station_id":"AC","station_name":"Ancol","time":0,"distance":0,"i_long":106.84464,"is_transit":false,"transit":false,"line":4},{"station_name":"Kampung Bandan","i_lat":-6.132549,"line":4,"distance":2185,"i_long":106.826365,"station_id":"KPB","is_transit":true,"time":4,"transit":true},{"is_transit":false,"station_name":"Rajawali","line":11,"time":3,"i_lat":-6.14505,"distance":1444,"transit":false,"station_id":"RJW","i_long":106.836569},{"i_long":106.839204,"transit":false,"station_id":"KMO","station_name":"Kemayoran","i_lat":-6.161728,"is_transit":false,"line":11,"distance":1901,"time":5},{"line":11,"station_name":"Pasar Senen","is_transit":false,"transit":false,"station_id":"PSE","distance":1436,"i_lat":-6.174784,"i_long":106.84368,"time":4},{"distance":1567,"i_lat":-6.185975,"is_transit":false,"station_id":"GST","time":8,"line":11,"i_long":106.850107,"station_name":"Gang Sentiong","transit":false},{"transit":false,"station_id":"KMT","time":1,"line":11,"station_name":"Kramat","is_transit":false,"i_long":106.855437,"distance":973,"i_lat":-6.193792},{"is_transit":false,"time":2,"i_long":106.861737,"transit":false,"distance":1829,"i_lat":-6.209188,"line":11,"station_name":"Pondok Jati","station_id":"POK"},{"station_id":"JNG","i_lat":-6.215091,"i_long":106.86807400000001,"station_name":"Jatinegara","time":9,"distance":1236,"transit":true,"is_transit":true,"line":1},{"line":1,"time":2,"transit":false,"is_transit":false,"distance":1377,"station_name":"Matraman","i_long":106.858896,"station_id":"MTR","i_lat":-6.212485},{"transit":true,"i_long":106.84912,"station_id":"MRI","i_lat":-6.209883,"is_transit":true,"line":2,"station_name":"Manggarai","distance":1275,"time":2},{"i_lat":-6.226659,"transit":false,"station_id":"TEB","is_transit":false,"time":4,"distance":2610,"line":2,"i_long":106.857948,"station_name":"Tebet"},{"station_name":"Cawang","is_transit":false,"i_long":106.856607,"transit":false,"distance":1230,"station_id":"CW","time":2,"line":2,"i_lat":-6.242512},{"i_lat":-6.255332,"time":3,"i_long":106.85449,"line":2,"station_id":"DRN","transit":false,"is_transit":false,"station_name":"Duren Kalibata","distance":1546},{"line":2,"i_lat":-6.263214,"time":2,"i_long":106.851577,"station_name":"Pasar Minggu Baru","is_transit":false,"station_id":"PSMB","transit":false,"distance":824},{"station_name":"Pasar Minggu","time":2,"station_id":"PSM","line":2,"transit":false,"is_transit":false,"distance":2380,"i_lat":-6.2842400000000005,"i_long":106.843999},{"station_id":"TNT","i_long":106.838896,"time":4,"distance":2820,"is_transit":false,"transit":false,"line":2,"i_lat":-6.3080680000000005,"station_name":"Tanjung Barat"},{"transit":false,"station_id":"LNA","time":3,"i_lat":-6.330363,"is_transit":false,"distance":2671,"i_long":106.832616,"line":2,"station_name":"Lenteng Agung"},{"station_name":"Univ. Pancasila","line":2,"distance":1029,"station_id":"UP","transit":false,"i_long":106.834175,"is_transit":false,"time":2,"i_lat":-6.339291},{"transit":false,"time":3,"station_id":"UI","i_lat":-6.360749,"station_name":"Univ. Indonesia","is_transit":false,"distance":2264,"i_long":106.831474,"line":2},{"distance":1109,"line":2,"station_id":"POC","is_transit":false,"i_lat":-6.369073,"time":2,"station_name":"Pondok Cina","transit":false,"i_long":106.831114},{"line":2,"time":4,"station_name":"Depokbaru","distance":2727,"transit":false,"i_lat":-6.391065,"is_transit":false,"i_long":106.819451,"station_id":"DPB"},{"distance":1584,"i_lat":-6.405256,"i_long":106.816926,"station_name":"Depok","station_id":"DP","line":2,"time":3,"transit":false,"is_transit":false},{"station_id":"CTA","station_name":"Citayam","transit":true,"is_transit":true,"time":6,"i_lat":-6.448811,"distance":5084,"line":2,"i_long":106.800298},{"i_long":106.824374,"i_lat":-6.460735,"line":21,"time":0,"transit":false,"is_transit":false,"distance":0,"station_name":"Pondok Rajeg","station_id":"PDRG"},{"station_id":"CBN","line":21,"transit":false,"i_lat":-6.46424,"distance":0,"station_name":"Cibinong","i_long":106.851978,"is_transit":false,"time":0},{"distance":6527,"is_transit":false,"i_long":106.905196,"i_lat":-6.466285,"line":21,"station_name":"Nambo","transit":false,"time":10,"station_id":"NMO"}]]}