{"data":[[{"distance":0,"station_id":"AC","transit":false,"is_transit":false,"i_long":106.84464,"i_lat":-6.128023,"line":0,"time":0,"station_name":"Ancol"},{"is_transit":true,"station_name":"Kampung Bandan","i_long":106.826365,"line":0,"station_id":"KPB","time":4,"distance":2185,"transit":false,"i_lat":-6.132549},{"transit":false,"time":9,"distance":4102,"i_lat":-6.144674,"i_long":106.79867,"station_id":"AK","line":0,"is_transit":false,"station_name":"Angke"},{"station_id":"DU","time":4,"station_name":"Duri","transit":true,"i_lat":-6.155215,"i_long":106.800832,"line":1,"distance":1230,"is_transit":true},{"is_transit":true,"line":1,"i_long":106.811091,"distance":3632,"station_id":"THB","i_lat":-6.185545,"transit":false,"station_name":"Tanah Abang","time":8},{"is_transit":false,"i_lat":-6.20132,"distance":2029,"station_id":"KAT","time":5,"line":1,"transit":false,"station_name":"Karet","i_long":106.816351},{"distance":471,"time":1,"station_name":"Sudirman Baru","transit":false,"is_transit":false,"i_long":106.819881,"line":1,"station_id":"SUDB","i_lat":-6.201433},{"distance":280,"line":1,"station_name":"Sudirman","is_transit":false,"i_lat":-6.202263,"station_id":"SUD","transit":false,"time":1,"i_long":106.822649},{"line":0,"time":4,"transit":true,"i_long":106.84912,"i_lat":-6.209883,"station_name":"Manggarai","distance":3186,"station_id":"MRI","is_transit":true},{"station_id":"TEB","i_long":106.857948,"is_transit":false,"line":2,"time":4,"i_lat":-6.226659,"transit":false,"distance":2610,"station_name":"Tebet"},{"i_long":106.856607,"line":0,"i_lat":-6.242512,"station_id":"CW","distance":1230,"is_transit":false,"time":2,"station_name":"Cawang","transit":false},{"time":3,"distance":1546,"i_lat":-6.255332,"station_id":"DRN","is_transit":false,"i_long":106.85449,"station_name":"Duren Kalibata","line":0,"transit":false},{"station_id":"PSMB","is_transit":false,"i_lat":-6.263214,"time":2,"transit":false,"distance":824,"line":2,"i_long":106.851577,"station_name":"Pasar Minggu Baru"},{"is_transit":false,"transit":false,"station_id":"PSM","i_long":106.843999,"distance":2380,"time":2,"station_name":"Pasar Minggu","i_lat":-6.2842400000000005,"line":2},{"transit":false,"time":4,"station_id":"TNT","station_name":"Tanjung Barat","i_lat":-6.3080680000000005,"is_transit":false,"i_long":106.838896,"distance":2820,"line":2},{"distance":2671,"i_long":106.832616,"station_id":"LNA","time":3,"is_transit":false,"station_name":"Lenteng Agung","i_lat":-6.330363,"transit":false,"line":2},{"i_long":106.834175,"time":2,"distance":1029,"i_lat":-6.339291,"line":2,"transit":false,"station_id":"UP","is_transit":false,"station_name":"Univ. Pancasila"},{"i_lat":-6.360749,"time":3,"i_long":106.831474,"distance":2264,"station_id":"UI","station_name":"Univ. Indonesia","transit":false,"line":2,"is_transit":false},{"line":2,"station_name":"Pondok Cina","i_lat":-6.369073,"distance":1109,"transit":false,"time":2,"i_long":106.831114,"is_transit":false,"station_id":"POC"},{"station_name":"Depokbaru","is_transit":false,"station_id":"DPB","line":0,"transit":false,"i_lat":-6.391065,"i_long":106.819451,"distance":2727,"time":4},{"line":0,"station_id":"DP","i_lat":-6.405256,"transit":false,"distance":1584,"station_name":"Depok","i_long":106.816926,"is_transit":false,"time":3},{"distance":5084,"station_id":"CTA","transit":false,"i_lat":-6.448811,"station_name":"Citayam","line":1,"time":6,"is_transit":true,"i_long":106.800298},{"time":10,"line":0,"i_lat":-6.46424,"is_transit":false,"station_id":"CBN","transit":false,"i_long":106.851978,"station_name":"Cibinong","distance":6740},{"distance":6527,"station_name":"Nambo","transit":false,"time":10,"i_lat":-6.466285,"line":21,"i_long":106.905196,"is_transit":false,"station_id":"NMO"}],[{"is_transit":false,"transit":false,"line":0,"i_long":106.84464,"station_name":"Ancol","distance":0,"time":0,"i_lat":-6.128023,"station_id":"AC"},{"distance":2185,"station_name":"Kampung Bandan","station_id":"KPB","time":4,"i_lat":-6.132549,"transit":false,"line":0,"is_transit":true,"i_long":106.826365},{"distance":1364,"line":0,"is_transit":true,"i_lat":-6.137569,"time":3,"station_id":"JAKK","transit":true,"i_long":106.812439,"station_name":"Jakarta Kota"},{"station_id":"JAY","transit":false,"is_transit":false,"i_long":106.820901,"station_name":"Jayakarta","time":4,"i_lat":-6.141205,"distance":1264,"line":7},{"i_long":106.82482,"line":2,"is_transit":false,"station_name":"Manggabesar","distance":1080,"station_id":"MGB","time":2,"transit":false,"i_lat":-6.149769},{"is_transit":false,"i_lat":-6.160725,"i_long":106.827103,"line":2,"time":2,"distance":906,"station_name":"Sawah Besar","station_id":"SW","transit":false},{"is_transit":false,"line":2,"time":2,"i_long":106.828284,"station_name":"Juanda","i_lat":-6.166716,"transit":false,"distance":1149,"station_id":"JUA"},{"is_transit":false,"line":2,"station_name":"Gondangdia","i_lat":-6.186295,"i_long":106.832183,"distance":2015,"transit":false,"time":4,"station_id":"GDD"},{"i_long":106.840169,"is_transit":false,"station_name":"Cikini","time":3,"line":0,"transit":false,"distance":1750,"station_id":"CKI","i_lat":-6.198556},{"line":0,"transit":true,"time":4,"i_lat":-6.209883,"station_id":"MRI","distance":1590,"station_name":"Manggarai","is_transit":true,"i_long":106.84912},{"distance":2610,"station_id":"TEB","time":4,"transit":false,"i_lat":-6.226659,"i_long":106.857948,"line":2,"is_transit":false,"station_name":"Tebet"},{"is_transit":false,"line":0,"transit":false,"i_lat":-6.242512,"distance":1230,"i_long":106.856607,"station_name":"Cawang","time":2,"station_id":"CW"},{"line":0,"transit":false,"time":3,"distance":1546,"is_transit":false,"station_name":"Duren Kalibata","i_long":106.85449,"i_lat":-6.255332,"station_id":"DRN"},{"i_long":106.851577,"is_transit":false,"distance":824,"station_name":"Pasar Minggu Baru","line":2,"transit":false,"station_id":"PSMB","time":2,"i_lat":-6.263214},{"station_id":"PSM","i_lat":-6.2842400000000005,"transit":false,"station_name":"Pasar Minggu","is_transit":false,"time":2,"distance":2380,"i_long":106.843999,"line":2},{"i_lat":-6.3080680000000005,"is_transit":false,"i_long":106.838896,"line":2,"station_name":"Tanjung Barat","distance":2820,"station_id":"TNT","transit":false,"time":4},{"distance":2671,"station_name":"Lenteng Agung","station_id":"LNA","i_long":106.832616,"is_transit":false,"time":3,"line":2,"i_lat":-6.330363,"transit":false},{"station_name":"Univ. Pancasila","i_lat":-6.339291,"station_id":"UP","transit":false,"is_transit":false,"time":2,"line":2,"i_long":106.834175,"distance":1029},{"i_long":106.831474,"time":3,"i_lat":-6.360749,"station_name":"Univ. Indonesia","station_id":"UI","line":2,"distance":2264,"is_transit":false,"transit":false},{"time":2,"distance":1109,"station_name":"Pondok Cina","is_transit":false,"station_id":"POC","line":2,"transit":false,"i_lat":-6.369073,"i_long":106.831114},{"i_lat":-6.391065,"line":0,"time":4,"is_transit":false,"transit":false,"i_long":106.819451,"station_name":"Depokbaru","station_id":"DPB","distance":2727},{"line":0,"station_id":"DP","i_lat":-6.405256,"time":3,"transit":false,"is_transit":false,"station_name":"Depok","i_long":106.816926,"distance":1584},{"is_transit":true,"i_lat":-6.448811,"transit":false,"time":6,"i_long":106.800298,"station_name":"Citayam","station_id":"CTA","distance":5084,"line":1},{"i_long":106.851978,"station_id":"CBN","distance":6740,"i_lat":-6.46424,"line":0,"is_transit":false,"station_name":"Cibinong","transit":false,"time":10},{"line":21,"i_lat":-6.466285,"time":10,"station_name":"Nambo","station_id":"NMO","is_transit":false,"i_long":106.905196,"transit":false,"distance":6527}],[{"station_name":"Ancol","i_long":106.84464,"line":0,"i_lat":-6.128023,"station_id":"AC","transit":false,"is_transit":false,"time":0,"distance":0},{"i_long":106.826365,"line":0,"station_name":"Kampung Bandan","is_transit":true,"station_id":"KPB","time":4,"i_lat":-6.132549,"transit":true,"distance":2185},{"transit":false,"time":3,"station_name":"Rajawali","i_lat":-6.14505,"is_transit":false,"station_id":"RJW","i_long":106.836569,"distance":1444,"line":11},{"is_transit":false,"i_long":106.839204,"transit":false,"time":5,"station_id":"KMO","line":11,"i_lat":-6.161728,"station_name":"Kemayoran","distance":1901},{"i_lat":-6.174784,"station_name":"Pasar Senen","distance":1436,"is_transit":false,"time":4,"station_id":"PSE","i_long":106.84368,"line":11,"transit":false},{"i_lat":-6.185975,"i_long":106.850107,"is_transit":false,"distance":1567,"station_id":"GST","line":11,"transit":false,"station_name":"Gang Sentiong","time":8},{"is_transit":false,"station_id":"KMT","i_lat":-6.193792,"transit":false,"station_name":"Kramat","distance":973,"line":11,"i_long":106.855437,"time":1},{"is_transit":false,"station_name":"Pondok Jati","station_id":"POK","distance":1829,"time":2,"transit":false,"i_lat":-6.209188,"i_long":106.861737,"line":11},{"time":9,"is_transit":true,"line":0,"i_long":106.86807400000001,"station_name":"Jatinegara","i_lat":-6.215091,"transit":true,"distance":1236,"station_id":"JNG"},{"transit":false,"line":1,"distance":1377,"i_lat":-6.212485,"station_id":"MTR","is_transit":false,"time":2,"i_long":106.858896,"station_name":"Matraman"},{"i_lat":-6.209883,"station_id":"MRI","line":0,"time":2,"is_transit":true,"i_long":106.84912,"distance":1275,"station_name":"Manggarai","transit":true},{"transit":false,"i_lat":-6.226659,"station_name":"Tebet","time":4,"distance":2610,"i_long":106.857948,"station_id":"TEB","line":2,"is_transit":false},{"station_id":"CW","i_lat":-6.242512,"time":2,"i_long":106.856607,"station_name":"Cawang","transit":false,"distance":1230,"is_transit":false,"line":0},{"time":3,"distance":1546,"transit":false,"i_long":106.85449,"is_transit":false,"line":0,"station_id":"DRN","i_lat":-6.255332,"station_name":"Duren Kalibata"},{"distance":824,"i_lat":-6.263214,"is_transit":false,"time":2,"station_id":"PSMB","i_long":106.851577,"line":2,"station_name":"Pasar Minggu Baru","transit":false},{"time":2,"i_lat":-6.2842400000000005,"i_long":106.843999,"distance":2380,"station_id":"PSM","line":2,"station_name":"Pasar Minggu","transit":false,"is_transit":false},{"station_name":"Tanjung Barat","distance":2820,"line":2,"i_long":106.838896,"is_transit":false,"transit":false,"time":4,"i_lat":-6.3080680000000005,"station_id":"TNT"},{"station_name":"Lenteng Agung","distance":2671,"is_transit":false,"i_lat":-6.330363,"station_id":"LNA","transit":false,"i_long":106.832616,"time":3,"line":2},{"i_long":106.834175,"transit":false,"time":2,"i_lat":-6.339291,"line":2,"is_transit":false,"station_name":"Univ. Pancasila","distance":1029,"station_id":"UP"},{"station_id":"UI","time":3,"line":2,"transit":false,"is_transit":false,"distance":2264,"i_long":106.831474,"station_name":"Univ. Indonesia","i_lat":-6.360749},{"station_id":"POC","transit":false,"is_transit":false,"time":2,"line":2,"distance":1109,"station_name":"Pondok Cina","i_lat":-6.369073,"i_long":106.831114},{"i_lat":-6.391065,"line":0,"transit":false,"distance":2727,"station_id":"DPB","is_transit":false,"i_long":106.819451,"station_name":"Depokbaru","time":4},{"transit":false,"time":3,"line":0,"station_id":"DP","station_name":"Depok","i_long":106.816926,"distance":1584,"is_transit":false,"i_lat":-6.405256},{"station_name":"Citayam","station_id":"CTA","i_lat":-6.448811,"is_transit":true,"transit":false,"time":6,"line":1,"distance":5084,"i_long":106.800298},{"i_lat":-6.46424,"time":10,"transit":false,"distance":6740,"station_name":"Cibinong","station_id":"CBN","is_transit":false,"i_long":106.851978,"line":0},{"station_name":"Nambo","time":10,"line":21,"i_lat":-6.466285,"i_long":106.905196,"station_id":"NMO","distance":6527,"is_transit":false,"transit":false}]]}