{"data":[[{"i_lat":-6.128023,"is_transit":false,"distance":0,"transit":false,"station_name":"Ancol","station_id":"AC","time":0,"i_long":106.84464,"line":4},{"i_lat":-6.132549,"is_transit":true,"i_long":106.826365,"transit":true,"line":4,"distance":2185,"station_id":"KPB","time":4,"station_name":"Kampung Bandan"},{"distance":4102,"i_lat":-6.144674,"line":1,"transit":false,"time":9,"station_name":"Angke","is_transit":false,"i_long":106.79867,"station_id":"AK"},{"distance":1230,"transit":true,"i_long":106.800832,"time":4,"station_id":"DU","station_name":"Duri","line":1,"is_transit":true,"i_lat":-6.155215},{"station_id":"GGL","station_name":"Grogol","is_transit":false,"transit":false,"time":3,"distance":1700,"i_lat":-6.162021,"i_long":106.788277,"line":5},{"line":5,"i_lat":-6.161433,"i_long":106.771379,"time":2,"distance":2036,"is_transit":false,"station_id":"PSG","transit":false,"station_name":"Pesing"}],[{"station_id":"AC","line":4,"i_long":106.84464,"transit":false,"i_lat":-6.128023,"is_transit":false,"station_name":"Ancol","distance":0,"time":0},{"line":4,"station_id":"KPB","station_name":"Kampung Bandan","is_transit":true,"i_lat":-6.132549,"transit":true,"i_long":106.826365,"distance":2185,"time":4},{"time":3,"transit":true,"station_id":"JAKK","distance":1364,"station_name":"Jakarta Kota","is_transit":true,"i_lat":-6.137569,"i_long":106.812439,"line":2},{"time":4,"is_transit":false,"transit":false,"station_name":"Jayakarta","distance":1264,"i_lat":-6.141205,"line":2,"station_id":"JAY","i_long":106.820901},{"time":2,"station_name":"Manggabesar","transit":false,"distance":1080,"is_transit":false,"i_lat":-6.149769,"i_long":106.82482,"line":2,"station_id":"MGB"},{"station_name":"Sawah Besar","i_long":106.827103,"line":2,"is_transit":false,"i_lat":-6.160725,"distance":906,"transit":false,"time":2,"station_id":"SW"},{"i_lat":-6.166716,"line":2,"time":2,"station_name":"Juanda","distance":1149,"transit":false,"station_id":"JUA","is_transit":false,"i_long":106.828284},{"i_lat":-6.186295,"station_name":"Gondangdia","is_transit":false,"transit":false,"distance":2015,"station_id":"GDD","i_long":106.832183,"time":4,"line":2},{"station_id":"CKI","transit":false,"time":3,"line":2,"i_lat":-6.198556,"station_name":"Cikini","is_transit":false,"distance":1750,"i_long":106.840169},{"time":4,"i_lat":-6.209883,"is_transit":true,"line":2,"distance":1590,"i_long":106.84912,"station_name":"Manggarai","transit":true,"station_id":"MRI"},{"i_lat":-6.202263,"distance":3186,"time":4,"station_name":"Sudirman","transit":false,"i_long":106.822649,"line":1,"is_transit":false,"station_id":"SUD"},{"line":1,"transit":false,"i_lat":-6.201433,"is_transit":false,"i_long":106.819881,"distance":280,"station_id":"SUDB","time":1,"station_name":"Sudirman Baru"},{"station_id":"KAT","transit":false,"distance":471,"time":1,"station_name":"Karet","is_transit":false,"i_lat":-6.20132,"i_long":106.816351,"line":1},{"time":5,"station_name":"Tanah Abang","i_lat":-6.185545,"line":1,"transit":false,"station_id":"THB","distance":2029,"i_long":106.811091,"is_transit":false},{"line":1,"station_id":"DU","station_name":"Duri","i_long":106.800832,"transit":true,"time":8,"i_lat":-6.155215,"is_transit":true,"distance":3632},{"station_id":"GGL","time":3,"is_transit":false,"i_lat":-6.162021,"i_long":106.788277,"transit":false,"distance":1700,"station_name":"Grogol","line":5},{"distance":2036,"time":2,"i_long":106.771379,"is_transit":false,"station_id":"PSG","i_lat":-6.161433,"station_name":"Pesing","line":5,"transit":false}],[{"station_name":"Ancol","transit":false,"station_id":"AC","line":4,"i_long":106.84464,"i_lat":-6.128023,"time":0,"is_transit":false,"distance":0},{"line":4,"time":4,"transit":true,"station_name":"Kampung Bandan","station_id":"KPB","is_transit":true,"distance":2185,"i_long":106.826365,"i_lat":-6.132549},{"station_id":"RJW","transit":false,"distance":1444,"is_transit":false,"i_lat":-6.14505,"time":3,"station_name":"Rajawali","line":11,"i_long":106.836569},{"line":11,"transit":false,"is_transit":false,"distance":1901,"station_id":"KMO","time":5,"station_name":"Kemayoran","i_lat":-6.161728,"i_long":106.839204},{"transit":false,"is_transit":false,"distance":1436,"station_name":"Pasar Senen","time":4,"i_long":106.84368,"line":11,"station_id":"PSE","i_lat":-6.174784},{"station_name":"Gang Sentiong","i_long":106.850107,"distance":1567,"line":11,"time":8,"station_id":"GST","is_transit":false,"i_lat":-6.185975,"transit":false},{"is_transit":false,"station_id":"KMT","i_long":106.855437,"distance":973,"time":1,"line":11,"transit":false,"station_name":"Kramat","i_lat":-6.193792},{"i_lat":-6.209188,"station_id":"POK","station_name":"Pondok Jati","transit":false,"time":2,"is_transit":false,"i_long":106.861737,"distance":1829,"line":11},{"distance":1236,"station_id":"JNG","transit":true,"station_name":"Jatinegara","time":9,"i_lat":-6.215091,"line":1,"i_long":106.86807400000001,"is_transit":true},{"line":1,"distance":1377,"i_long":106.858896,"station_name":"Matraman","time":2,"transit":false,"is_transit":false,"station_id":"MTR","i_lat":-6.212485},{"time":2,"is_transit":false,"station_name":"Manggarai","line":2,"station_id":"MRI","transit":false,"distance":1275,"i_lat":-6.209883,"i_long":106.84912},{"transit":false,"station_id":"SUD","i_long":106.822649,"line":1,"station_name":"Sudirman","distance":3186,"is_transit":false,"i_lat":-6.202263,"time":4},{"i_lat":-6.201433,"line":1,"time":1,"station_name":"Sudirman Baru","station_id":"SUDB","i_long":106.819881,"distance":280,"transit":false,"is_transit":false},{"distance":471,"transit":false,"station_name":"Karet","line":1,"is_transit":false,"time":1,"station_id":"KAT","i_lat":-6.20132,"i_long":106.816351},{"i_long":106.811091,"station_id":"THB","transit":false,"distance":2029,"time":5,"station_name":"Tanah Abang","is_transit":false,"i_lat":-6.185545,"line":1},{"i_long":106.800832,"distance":3632,"station_id":"DU","station_name":"Duri","transit":true,"i_lat":-6.155215,"is_transit":true,"line":1,"time":8},{"distance":1700,"line":5,"is_transit":false,"station_name":"Grogol","i_long":106.788277,"i_lat":-6.162021,"time":3,"transit":false,"station_id":"GGL"},{"is_transit":false,"i_long":106.771379,"station_name":"Pesing","station_id":"PSG","line":5,"time":2,"i_lat":-6.161433,"transit":false,"distance":2036}]]}