{"data":[[{"station_id":"AC","is_transit":false,"time":0,"i_lat":-6.128023,"i_long":106.84464,"line":0,"station_name":"Ancol","distance":0,"transit":false},{"i_lat":-6.132549,"line":0,"i_long":106.826365,"distance":2185,"transit":false,"station_name":"Kampung Bandan","station_id":"KPB","time":4,"is_transit":true},{"distance":4102,"transit":false,"station_id":"AK","time":9,"i_long":106.79867,"station_name":"Angke","i_lat":-6.144674,"is_transit":false,"line":0},{"station_name":"Duri","time":4,"i_lat":-6.155215,"distance":1230,"station_id":"DU","is_transit":true,"i_long":106.800832,"line":1,"transit":true},{"i_long":106.811091,"i_lat":-6.185545,"distance":3632,"line":1,"station_id":"THB","time":8,"is_transit":true,"station_name":"Tanah Abang","transit":true},{"time":6,"i_long":106.79689,"distance":3191,"station_name":"Palmerah","i_lat":-6.207404,"line":6,"is_transit":false,"transit":false,"station_id":"PLM"}],[{"transit":false,"station_id":"AC","station_name":"Ancol","time":0,"is_transit":false,"distance":0,"i_long":106.84464,"line":0,"i_lat":-6.128023},{"time":4,"transit":false,"station_name":"Kampung Bandan","station_id":"KPB","distance":2185,"is_transit":true,"i_lat":-6.132549,"line":0,"i_long":106.826365},{"distance":1364,"station_id":"JAKK","line":0,"transit":true,"station_name":"Jakarta Kota","time":3,"i_lat":-6.137569,"i_long":106.812439,"is_transit":true},{"station_name":"Jayakarta","is_transit":false,"time":4,"distance":1264,"station_id":"JAY","i_lat":-6.141205,"transit":false,"i_long":106.820901,"line":7},{"station_name":"Manggabesar","transit":false,"is_transit":false,"distance":1080,"i_long":106.82482,"line":2,"station_id":"MGB","time":2,"i_lat":-6.149769},{"distance":906,"line":2,"is_transit":false,"station_name":"Sawah Besar","station_id":"SW","transit":false,"i_long":106.827103,"i_lat":-6.160725,"time":2},{"time":2,"distance":1149,"is_transit":false,"i_lat":-6.166716,"station_id":"JUA","station_name":"Juanda","transit":false,"i_long":106.828284,"line":2},{"i_lat":-6.186295,"line":2,"distance":2015,"is_transit":false,"i_long":106.832183,"station_name":"Gondangdia","time":4,"transit":false,"station_id":"GDD"},{"line":0,"i_long":106.840169,"transit":false,"i_lat":-6.198556,"is_transit":false,"time":3,"distance":1750,"station_name":"Cikini","station_id":"CKI"},{"station_name":"Manggarai","transit":true,"i_lat":-6.209883,"i_long":106.84912,"station_id":"MRI","distance":1590,"line":0,"is_transit":true,"time":4},{"station_name":"Sudirman","time":4,"line":1,"is_transit":false,"distance":3186,"transit":false,"i_lat":-6.202263,"station_id":"SUD","i_long":106.822649},{"is_transit":false,"line":1,"transit":false,"distance":280,"station_name":"Sudirman Baru","station_id":"SUDB","time":1,"i_lat":-6.201433,"i_long":106.819881},{"i_lat":-6.20132,"station_id":"KAT","is_transit":false,"transit":false,"i_long":106.816351,"line":1,"station_name":"Karet","distance":471,"time":1},{"time":5,"distance":2029,"i_long":106.811091,"is_transit":true,"station_name":"Tanah Abang","transit":true,"i_lat":-6.185545,"line":1,"station_id":"THB"},{"time":6,"station_id":"PLM","distance":3191,"i_lat":-6.207404,"i_long":106.79689,"line":6,"transit":false,"station_name":"Palmerah","is_transit":false}],[{"i_lat":-6.128023,"i_long":106.84464,"station_name":"Ancol","time":0,"distance":0,"line":0,"is_transit":false,"transit":false,"station_id":"AC"},{"time":4,"station_name":"Kampung Bandan","line":0,"distance":2185,"is_transit":true,"station_id":"KPB","i_long":106.826365,"i_lat":-6.132549,"transit":true},{"time":3,"distance":1444,"i_long":106.836569,"station_name":"Rajawali","is_transit":false,"station_id":"RJW","transit":false,"i_lat":-6.14505,"line":11},{"distance":1901,"transit":false,"i_long":106.839204,"station_name":"Kemayoran","is_transit":false,"time":5,"i_lat":-6.161728,"line":11,"station_id":"KMO"},{"line":11,"time":4,"distance":1436,"i_lat":-6.174784,"station_name":"Pasar Senen","transit":false,"is_transit":false,"station_id":"PSE","i_long":106.84368},{"i_long":106.850107,"station_name":"Gang Sentiong","i_lat":-6.185975,"transit":false,"time":8,"is_transit":false,"station_id":"GST","distance":1567,"line":11},{"transit":false,"is_transit":false,"line":11,"i_lat":-6.193792,"time":1,"i_long":106.855437,"station_id":"KMT","distance":973,"station_name":"Kramat"},{"is_transit":false,"distance":1829,"time":2,"i_lat":-6.209188,"station_id":"POK","i_long":106.861737,"station_name":"Pondok Jati","transit":false,"line":11},{"i_lat":-6.215091,"i_long":106.86807400000001,"station_id":"JNG","distance":1236,"is_transit":true,"line":0,"time":9,"transit":true,"station_name":"Jatinegara"},{"station_id":"MTR","i_long":106.858896,"time":2,"i_lat":-6.212485,"is_transit":false,"distance":1377,"line":1,"transit":false,"station_name":"Matraman"},{"is_transit":true,"time":2,"i_long":106.84912,"station_name":"Manggarai","distance":1275,"line":0,"station_id":"MRI","transit":false,"i_lat":-6.209883},{"distance":3186,"i_long":106.822649,"i_lat":-6.202263,"time":4,"line":1,"is_transit":false,"station_id":"SUD","transit":false,"station_name":"Sudirman"},{"i_long":106.819881,"i_lat":-6.201433,"line":1,"station_id":"SUDB","is_transit":false,"transit":false,"distance":280,"station_name":"Sudirman Baru","time":1},{"is_transit":false,"i_long":106.816351,"i_lat":-6.20132,"station_name":"Karet","line":1,"distance":471,"transit":false,"station_id":"KAT","time":1},{"station_name":"Tanah Abang","time":5,"line":1,"is_transit":true,"station_id":"THB","transit":true,"i_lat":-6.185545,"distance":2029,"i_long":106.811091},{"i_long":106.79689,"transit":false,"i_lat":-6.207404,"is_transit":false,"station_id":"PLM","time":6,"distance":3191,"line":6,"station_name":"Palmerah"}]]}