{"data":[[{"station_name":"Ancol","line":4,"transit":false,"station_id":"AC","i_lat":-6.128023,"distance":0,"is_transit":false,"time":0,"i_long":106.84464},{"distance":2185,"station_name":"Kampung Bandan","is_transit":true,"transit":true,"station_id":"KPB","time":4,"i_lat":-6.132549,"i_long":106.826365,"line":4},{"distance":4102,"transit":false,"line":1,"i_lat":-6.144674,"i_long":106.79867,"station_id":"AK","station_name":"Angke","is_transit":false,"time":9},{"i_lat":-6.155215,"transit":false,"distance":1230,"i_long":106.800832,"line":1,"time":4,"station_name":"Duri","station_id":"DU","is_transit":false},{"line":1,"station_name":"Tanah Abang","station_id":"THB","is_transit":true,"distance":3632,"i_lat":-6.185545,"time":8,"transit":true,"i_long":106.811091},{"station_id":"PLM","distance":3191,"station_name":"Palmerah","transit":false,"is_transit":false,"i_lat":-6.207404,"i_long":106.79689,"line":6,"time":6},{"i_lat":-6.237242,"i_long":106.780334,"time":7,"station_name":"Kebayoran","transit":false,"distance":3737,"line":6,"station_id":"KBY","is_transit":false},{"i_lat":-6.276362,"transit":false,"line":6,"i_long":106.74273,"station_name":"Pondokranji","distance":6218,"station_id":"PDJ","is_transit":false,"time":8},{"transit":false,"is_transit":false,"station_id":"JMU","time":3,"distance":2179,"i_lat":-6.288927,"line":6,"station_name":"Jurangmangu","i_long":106.728916},{"i_long":106.712277,"transit":false,"station_name":"Sudimara","is_transit":false,"distance":1994,"i_lat":-6.296963,"time":4,"station_id":"SDM","line":6},{"station_name":"Rawa Buntu","i_lat":-6.314823,"i_long":106.675475,"time":6,"transit":false,"is_transit":false,"distance":4566,"station_id":"RU","line":6},{"station_name":"Serpong","station_id":"SRP","is_transit":false,"i_long":106.66566,"time":4,"distance":2413,"line":6,"i_lat":-6.319871,"transit":false},{"i_long":106.640411,"transit":false,"line":3,"station_name":"Cisauk","i_lat":-6.32484,"time":4,"is_transit":false,"distance":1784,"station_id":"CSK"},{"time":4,"distance":2519,"station_id":"CC","station_name":"Cicayur","is_transit":false,"i_long":106.617853,"i_lat":-6.329547,"line":3,"transit":false},{"station_id":"PRP","distance":5968,"is_transit":false,"station_name":"Parung Panjang","i_lat":-6.3441410000000005,"transit":false,"i_long":106.568863,"time":8,"line":6}],[{"is_transit":false,"station_name":"Ancol","station_id":"AC","transit":false,"i_lat":-6.128023,"time":0,"line":4,"i_long":106.84464,"distance":0},{"station_id":"KPB","i_long":106.826365,"time":4,"station_name":"Kampung Bandan","transit":true,"is_transit":true,"distance":2185,"i_lat":-6.132549,"line":4},{"station_id":"JAKK","distance":1364,"i_lat":-6.137569,"i_long":106.812439,"transit":true,"station_name":"Jakarta Kota","is_transit":true,"line":2,"time":3},{"i_long":106.820901,"line":2,"is_transit":false,"transit":false,"distance":1264,"station_name":"Jayakarta","i_lat":-6.141205,"station_id":"JAY","time":4},{"line":2,"distance":1080,"station_id":"MGB","i_long":106.82482,"transit":false,"is_transit":false,"time":2,"station_name":"Manggabesar","i_lat":-6.149769},{"time":2,"distance":906,"is_transit":false,"station_name":"Sawah Besar","i_lat":-6.160725,"transit":false,"line":2,"i_long":106.827103,"station_id":"SW"},{"is_transit":false,"distance":1149,"time":2,"station_id":"JUA","i_long":106.828284,"transit":false,"station_name":"Juanda","i_lat":-6.166716,"line":2},{"station_name":"Gondangdia","i_long":106.832183,"is_transit":false,"transit":false,"time":4,"station_id":"GDD","line":2,"i_lat":-6.186295,"distance":2015},{"is_transit":false,"station_name":"Cikini","transit":false,"i_long":106.840169,"i_lat":-6.198556,"station_id":"CKI","line":2,"time":3,"distance":1750},{"station_id":"MRI","station_name":"Manggarai","distance":1590,"time":4,"i_lat":-6.209883,"i_long":106.84912,"line":2,"is_transit":true,"transit":true},{"transit":false,"i_long":106.822649,"station_id":"SUD","is_transit":false,"time":4,"station_name":"Sudirman","i_lat":-6.202263,"line":1,"distance":3186},{"i_lat":-6.201433,"line":1,"time":1,"transit":false,"station_name":"Sudirman Baru","i_long":106.819881,"station_id":"SUDB","is_transit":false,"distance":280},{"time":1,"transit":false,"station_id":"KAT","line":1,"station_name":"Karet","i_lat":-6.20132,"distance":471,"i_long":106.816351,"is_transit":false},{"i_lat":-6.185545,"time":5,"i_long":106.811091,"station_name":"Tanah Abang","station_id":"THB","line":1,"distance":2029,"is_transit":true,"transit":true},{"station_id":"PLM","i_lat":-6.207404,"line":6,"is_transit":false,"i_long":106.79689,"transit":false,"time":6,"station_name":"Palmerah","distance":3191},{"i_long":106.780334,"is_transit":false,"station_name":"Kebayoran","transit":false,"i_lat":-6.237242,"distance":3737,"line":6,"time":7,"station_id":"KBY"},{"i_long":106.74273,"line":6,"is_transit":false,"station_id":"PDJ","time":8,"transit":false,"station_name":"Pondokranji","i_lat":-6.276362,"distance":6218},{"i_lat":-6.288927,"time":3,"station_name":"Jurangmangu","distance":2179,"line":6,"station_id":"JMU","is_transit":false,"i_long":106.728916,"transit":false},{"distance":1994,"time":4,"is_transit":false,"transit":false,"i_lat":-6.296963,"i_long":106.712277,"line":6,"station_id":"SDM","station_name":"Sudimara"},{"i_lat":-6.314823,"station_id":"RU","time":6,"line":6,"is_transit":false,"distance":4566,"station_name":"Rawa Buntu","i_long":106.675475,"transit":false},{"is_transit":false,"i_long":106.66566,"i_lat":-6.319871,"transit":false,"distance":2413,"station_id":"SRP","time":4,"station_name":"Serpong","line":6},{"i_lat":-6.32484,"line":3,"transit":false,"time":4,"is_transit":false,"distance":1784,"i_long":106.640411,"station_name":"Cisauk","station_id":"CSK"},{"i_long":106.617853,"transit":false,"i_lat":-6.329547,"line":3,"time":4,"is_transit":false,"distance":2519,"station_name":"Cicayur","station_id":"CC"},{"station_id":"PRP","is_transit":false,"distance":5968,"i_lat":-6.3441410000000005,"station_name":"Parung Panjang","time":8,"transit":false,"i_long":106.568863,"line":6}],[{"is_transit":false,"distance":0,"line":4,"time":0,"station_name":"Ancol","i_long":106.84464,"i_lat":-6.128023,"transit":false,"station_id":"AC"},{"i_long":106.826365,"distance":2185,"station_name":"Kampung Bandan","station_id":"KPB","line":4,"time":4,"is_transit":true,"i_lat":-6.132549,"transit":true},{"time":3,"distance":1444,"transit":false,"line":11,"station_name":"Rajawali","station_id":"RJW","i_long":106.836569,"i_lat":-6.14505,"is_transit":false},{"station_id":"KMO","i_long":106.839204,"is_transit":false,"station_name":"Kemayoran","i_lat":-6.161728,"transit":false,"distance":1901,"line":11,"time":5},{"time":4,"i_lat":-6.174784,"line":11,"is_transit":false,"distance":1436,"station_name":"Pasar Senen","station_id":"PSE","transit":false,"i_long":106.84368},{"is_transit":false,"station_name":"Gang Sentiong","transit":false,"line":11,"distance":1567,"station_id":"GST","time":8,"i_lat":-6.185975,"i_long":106.850107},{"distance":973,"i_long":106.855437,"line":11,"station_name":"Kramat","time":1,"transit":false,"station_id":"KMT","is_transit":false,"i_lat":-6.193792},{"station_id":"POK","i_lat":-6.209188,"line":11,"distance":1829,"i_long":106.861737,"is_transit":false,"station_name":"Pondok Jati","time":2,"transit":false},{"is_transit":true,"transit":true,"i_lat":-6.215091,"i_long":106.86807400000001,"line":1,"station_name":"Jatinegara","distance":1236,"time":9,"station_id":"JNG"},{"distance":1377,"transit":false,"station_id":"MTR","is_transit":false,"line":1,"time":2,"i_long":106.858896,"station_name":"Matraman","i_lat":-6.212485},{"distance":1275,"is_transit":false,"station_name":"Manggarai","transit":false,"i_long":106.84912,"i_lat":-6.209883,"line":2,"time":2,"station_id":"MRI"},{"station_name":"Sudirman","is_transit":false,"line":1,"distance":3186,"station_id":"SUD","i_lat":-6.202263,"transit":false,"time":4,"i_long":106.822649},{"i_lat":-6.201433,"is_transit":false,"transit":false,"time":1,"distance":280,"station_name":"Sudirman Baru","station_id":"SUDB","i_long":106.819881,"line":1},{"i_lat":-6.20132,"is_transit":false,"time":1,"transit":false,"line":1,"station_name":"Karet","i_long":106.816351,"distance":471,"station_id":"KAT"},{"time":5,"i_lat":-6.185545,"distance":2029,"line":1,"is_transit":true,"transit":true,"station_name":"Tanah Abang","i_long":106.811091,"station_id":"THB"},{"station_name":"Palmerah","is_transit":false,"distance":3191,"transit":false,"station_id":"PLM","i_lat":-6.207404,"time":6,"i_long":106.79689,"line":6},{"line":6,"time":7,"transit":false,"distance":3737,"station_id":"KBY","is_transit":false,"station_name":"Kebayoran","i_long":106.780334,"i_lat":-6.237242},{"line":6,"time":8,"station_name":"Pondokranji","transit":false,"is_transit":false,"i_long":106.74273,"i_lat":-6.276362,"station_id":"PDJ","distance":6218},{"line":6,"i_lat":-6.288927,"time":3,"distance":2179,"is_transit":false,"i_long":106.728916,"station_name":"Jurangmangu","station_id":"JMU","transit":false},{"i_lat":-6.296963,"distance":1994,"time":4,"i_long":106.712277,"is_transit":false,"station_name":"Sudimara","line":6,"station_id":"SDM","transit":false},{"station_id":"RU","line":6,"time":6,"i_lat":-6.314823,"i_long":106.675475,"transit":false,"is_transit":false,"distance":4566,"station_name":"Rawa Buntu"},{"line":6,"i_long":106.66566,"distance":2413,"is_transit":false,"i_lat":-6.319871,"station_name":"Serpong","time":4,"transit":false,"station_id":"SRP"},{"is_transit":false,"time":4,"station_name":"Cisauk","i_lat":-6.32484,"line":3,"distance":1784,"transit":false,"station_id":"CSK","i_long":106.640411},{"i_long":106.617853,"is_transit":false,"i_lat":-6.329547,"transit":false,"station_name":"Cicayur","station_id":"CC","distance":2519,"time":4,"line":3},{"transit":false,"time":8,"station_id":"PRP","i_long":106.568863,"is_transit":false,"distance":5968,"i_lat":-6.3441410000000005,"line":6,"station_name":"Parung Panjang"}]]}