{"data":[[{"i_long":106.84464,"i_lat":-6.128023,"line":4,"station_name":"Ancol","time":0,"station_id":"AC","transit":false,"is_transit":false,"distance":0},{"i_lat":-6.132549,"line":4,"distance":2185,"i_long":106.826365,"is_transit":true,"station_name":"Kampung Bandan","time":4,"transit":true,"station_id":"KPB"},{"distance":4102,"i_long":106.79867,"transit":false,"is_transit":false,"line":1,"station_id":"AK","station_name":"Angke","time":9,"i_lat":-6.144674},{"station_name":"Duri","i_long":106.800832,"station_id":"DU","line":1,"time":4,"transit":false,"distance":1230,"is_transit":false,"i_lat":-6.155215},{"i_lat":-6.185545,"transit":false,"line":1,"time":8,"station_name":"Tanah Abang","station_id":"THB","distance":3632,"is_transit":false,"i_long":106.811091},{"station_id":"KAT","line":1,"distance":2029,"is_transit":false,"i_lat":-6.20132,"i_long":106.816351,"station_name":"Karet","transit":false,"time":5},{"time":1,"station_name":"Sudirman Baru","is_transit":false,"line":1,"distance":471,"i_long":106.819881,"transit":false,"i_lat":-6.201433,"station_id":"SUDB"},{"transit":false,"station_id":"SUD","is_transit":false,"distance":280,"i_lat":-6.202263,"i_long":106.822649,"line":1,"time":1,"station_name":"Sudirman"},{"transit":true,"station_id":"MRI","distance":3186,"line":2,"i_long":106.84912,"station_name":"Manggarai","time":4,"i_lat":-6.209883,"is_transit":true},{"i_lat":-6.226659,"distance":2610,"transit":false,"line":2,"time":4,"station_id":"TEB","station_name":"Tebet","is_transit":false,"i_long":106.857948},{"distance":1230,"is_transit":false,"i_long":106.856607,"time":2,"station_name":"Cawang","station_id":"CW","line":2,"i_lat":-6.242512,"transit":false},{"station_id":"DRN","station_name":"Duren Kalibata","transit":false,"i_long":106.85449,"time":3,"is_transit":false,"distance":1546,"i_lat":-6.255332,"line":2},{"station_name":"Pasar Minggu Baru","distance":824,"i_long":106.851577,"station_id":"PSMB","is_transit":false,"i_lat":-6.263214,"line":2,"transit":false,"time":2},{"is_transit":false,"transit":false,"i_long":106.843999,"station_name":"Pasar Minggu","distance":2380,"station_id":"PSM","line":2,"time":2,"i_lat":-6.2842400000000005},{"is_transit":false,"station_id":"TNT","i_lat":-6.3080680000000005,"time":4,"station_name":"Tanjung Barat","line":2,"transit":false,"i_long":106.838896,"distance":2820},{"is_transit":false,"transit":false,"i_lat":-6.330363,"station_name":"Lenteng Agung","time":3,"distance":2671,"line":2,"i_long":106.832616,"station_id":"LNA"},{"i_long":106.834175,"station_name":"Univ. Pancasila","station_id":"UP","is_transit":false,"transit":false,"distance":1029,"time":2,"i_lat":-6.339291,"line":2},{"transit":false,"station_id":"UI","time":3,"is_transit":false,"distance":2264,"line":2,"station_name":"Univ. Indonesia","i_long":106.831474,"i_lat":-6.360749},{"distance":1109,"i_lat":-6.369073,"line":2,"i_long":106.831114,"is_transit":false,"station_name":"Pondok Cina","time":2,"transit":false,"station_id":"POC"}],[{"station_name":"Ancol","station_id":"AC","i_lat":-6.128023,"distance":0,"line":4,"is_transit":false,"i_long":106.84464,"time":0,"transit":false},{"distance":2185,"line":4,"transit":true,"station_id":"KPB","i_lat":-6.132549,"station_name":"Kampung Bandan","time":4,"is_transit":true,"i_long":106.826365},{"is_transit":true,"distance":1364,"line":2,"station_name":"Jakarta Kota","time":3,"station_id":"JAKK","i_lat":-6.137569,"i_long":106.812439,"transit":true},{"line":2,"i_lat":-6.141205,"distance":1264,"station_name":"Jayakarta","station_id":"JAY","transit":false,"time":4,"is_transit":false,"i_long":106.820901},{"i_long":106.82482,"transit":false,"i_lat":-6.149769,"is_transit":false,"line":2,"time":2,"station_name":"Manggabesar","station_id":"MGB","distance":1080},{"time":2,"station_id":"SW","transit":false,"station_name":"Sawah Besar","distance":906,"i_lat":-6.160725,"line":2,"is_transit":false,"i_long":106.827103},{"station_id":"JUA","line":2,"transit":false,"i_lat":-6.166716,"station_name":"Juanda","distance":1149,"i_long":106.828284,"time":2,"is_transit":false},{"station_id":"GDD","i_lat":-6.186295,"i_long":106.832183,"transit":false,"line":2,"time":4,"distance":2015,"station_name":"Gondangdia","is_transit":false},{"transit":false,"station_name":"Cikini","distance":1750,"i_lat":-6.198556,"time":3,"is_transit":false,"i_long":106.840169,"line":2,"station_id":"CKI"},{"transit":false,"line":2,"time":4,"station_name":"Manggarai","is_transit":false,"distance":1590,"i_lat":-6.209883,"i_long":106.84912,"station_id":"MRI"},{"line":2,"transit":false,"i_long":106.857948,"time":4,"i_lat":-6.226659,"station_name":"Tebet","distance":2610,"is_transit":false,"station_id":"TEB"},{"station_name":"Cawang","distance":1230,"i_lat":-6.242512,"line":2,"i_long":106.856607,"transit":false,"time":2,"is_transit":false,"station_id":"CW"},{"line":2,"transit":false,"time":3,"station_id":"DRN","is_transit":false,"i_lat":-6.255332,"i_long":106.85449,"station_name":"Duren Kalibata","distance":1546},{"i_lat":-6.263214,"i_long":106.851577,"line":2,"time":2,"transit":false,"station_name":"Pasar Minggu Baru","station_id":"PSMB","is_transit":false,"distance":824},{"transit":false,"i_lat":-6.2842400000000005,"station_id":"PSM","distance":2380,"i_long":106.843999,"line":2,"is_transit":false,"station_name":"Pasar Minggu","time":2},{"line":2,"station_name":"Tanjung Barat","distance":2820,"transit":false,"time":4,"station_id":"TNT","is_transit":false,"i_lat":-6.3080680000000005,"i_long":106.838896},{"time":3,"station_name":"Lenteng Agung","is_transit":false,"i_long":106.832616,"line":2,"distance":2671,"i_lat":-6.330363,"transit":false,"station_id":"LNA"},{"i_lat":-6.339291,"transit":false,"distance":1029,"station_id":"UP","is_transit":false,"time":2,"i_long":106.834175,"line":2,"station_name":"Univ. Pancasila"},{"i_long":106.831474,"line":2,"i_lat":-6.360749,"transit":false,"time":3,"station_id":"UI","is_transit":false,"distance":2264,"station_name":"Univ. Indonesia"},{"transit":false,"is_transit":false,"i_long":106.831114,"station_name":"Pondok Cina","station_id":"POC","i_lat":-6.369073,"line":2,"distance":1109,"time":2}],[{"station_name":"Ancol","time":0,"station_id":"AC","distance":0,"is_transit":false,"i_long":106.84464,"transit":false,"i_lat":-6.128023,"line":4},{"station_name":"Kampung Bandan","distance":2185,"i_lat":-6.132549,"is_transit":true,"i_long":106.826365,"station_id":"KPB","transit":true,"line":4,"time":4},{"is_transit":false,"station_id":"RJW","line":11,"distance":1444,"i_lat":-6.14505,"time":3,"i_long":106.836569,"transit":false,"station_name":"Rajawali"},{"i_lat":-6.161728,"distance":1901,"transit":false,"time":5,"is_transit":false,"station_id":"KMO","station_name":"Kemayoran","i_long":106.839204,"line":11},{"i_long":106.84368,"line":11,"transit":false,"station_name":"Pasar Senen","is_transit":false,"time":4,"station_id":"PSE","i_lat":-6.174784,"distance":1436},{"is_transit":false,"line":11,"i_lat":-6.185975,"distance":1567,"transit":false,"station_name":"Gang Sentiong","i_long":106.850107,"time":8,"station_id":"GST"},{"station_id":"KMT","distance":973,"line":11,"is_transit":false,"transit":false,"i_lat":-6.193792,"i_long":106.855437,"time":1,"station_name":"Kramat"},{"time":2,"is_transit":false,"i_long":106.861737,"line":11,"transit":false,"station_name":"Pondok Jati","distance":1829,"station_id":"POK","i_lat":-6.209188},{"station_name":"Jatinegara","i_lat":-6.215091,"i_long":106.86807400000001,"station_id":"JNG","time":9,"transit":true,"line":1,"is_transit":true,"distance":1236},{"is_transit":false,"station_id":"MTR","i_lat":-6.212485,"distance":1377,"station_name":"Matraman","time":2,"line":1,"transit":false,"i_long":106.858896},{"i_long":106.84912,"distance":1275,"is_transit":true,"station_name":"Manggarai","i_lat":-6.209883,"line":2,"time":2,"station_id":"MRI","transit":true},{"station_id":"TEB","distance":2610,"i_lat":-6.226659,"is_transit":false,"i_long":106.857948,"station_name":"Tebet","time":4,"line":2,"transit":false},{"is_transit":false,"distance":1230,"station_name":"Cawang","transit":false,"time":2,"i_lat":-6.242512,"i_long":106.856607,"station_id":"CW","line":2},{"is_transit":false,"i_lat":-6.255332,"station_name":"Duren Kalibata","distance":1546,"line":2,"transit":false,"station_id":"DRN","time":3,"i_long":106.85449},{"station_name":"Pasar Minggu Baru","transit":false,"is_transit":false,"i_lat":-6.263214,"i_long":106.851577,"line":2,"time":2,"station_id":"PSMB","distance":824},{"i_lat":-6.2842400000000005,"station_name":"Pasar Minggu","i_long":106.843999,"line":2,"time":2,"distance":2380,"transit":false,"station_id":"PSM","is_transit":false},{"is_transit":false,"time":4,"i_long":106.838896,"line":2,"station_name":"Tanjung Barat","station_id":"TNT","distance":2820,"i_lat":-6.3080680000000005,"transit":false},{"i_lat":-6.330363,"time":3,"distance":2671,"i_long":106.832616,"station_id":"LNA","station_name":"Lenteng Agung","line":2,"transit":false,"is_transit":false},{"time":2,"transit":false,"station_id":"UP","distance":1029,"i_lat":-6.339291,"is_transit":false,"i_long":106.834175,"station_name":"Univ. Pancasila","line":2},{"station_id":"UI","time":3,"is_transit":false,"i_lat":-6.360749,"distance":2264,"transit":false,"i_long":106.831474,"line":2,"station_name":"Univ. Indonesia"},{"is_transit":false,"i_long":106.831114,"time":2,"transit":false,"distance":1109,"line":2,"i_lat":-6.369073,"station_id":"POC","station_name":"Pondok Cina"}]]}