{"data":[[{"i_long":106.84464,"line":4,"time":0,"distance":0,"station_name":"Ancol","i_lat":-6.128023,"station_id":"AC","is_transit":false,"transit":false},{"distance":2185,"station_name":"Kampung Bandan","station_id":"KPB","line":4,"i_lat":-6.132549,"is_transit":true,"time":4,"transit":true,"i_long":106.826365},{"i_lat":-6.14505,"time":3,"transit":false,"station_name":"Rajawali","line":11,"station_id":"RJW","distance":1444,"is_transit":false,"i_long":106.836569},{"transit":false,"distance":1901,"i_lat":-6.161728,"is_transit":false,"station_name":"Kemayoran","line":11,"station_id":"KMO","time":5,"i_long":106.839204},{"station_name":"Pasar Senen","distance":1436,"line":11,"is_transit":false,"station_id":"PSE","transit":false,"i_long":106.84368,"time":4,"i_lat":-6.174784}],[{"distance":0,"line":4,"time":0,"transit":false,"i_long":106.84464,"station_name":"Ancol","station_id":"AC","i_lat":-6.128023,"is_transit":false},{"time":4,"distance":2185,"line":4,"station_name":"Kampung Bandan","is_transit":true,"station_id":"KPB","i_lat":-6.132549,"transit":true,"i_long":106.826365},{"is_transit":false,"i_lat":-6.144674,"station_id":"AK","distance":4102,"time":9,"i_long":106.79867,"station_name":"Angke","line":1,"transit":false},{"distance":1230,"time":4,"i_lat":-6.155215,"i_long":106.800832,"is_transit":false,"line":1,"station_id":"DU","station_name":"Duri","transit":false},{"station_id":"THB","transit":false,"i_long":106.811091,"time":8,"i_lat":-6.185545,"line":1,"distance":3632,"station_name":"Tanah Abang","is_transit":false},{"station_id":"KAT","station_name":"Karet","is_transit":false,"i_lat":-6.20132,"distance":2029,"line":1,"i_long":106.816351,"time":5,"transit":false},{"i_long":106.819881,"transit":false,"is_transit":false,"station_name":"Sudirman Baru","time":1,"station_id":"SUDB","i_lat":-6.201433,"distance":471,"line":1},{"distance":280,"line":1,"i_lat":-6.202263,"i_long":106.822649,"time":1,"station_name":"Sudirman","is_transit":false,"station_id":"SUD","transit":false},{"is_transit":false,"distance":3186,"time":4,"transit":false,"station_name":"Manggarai","station_id":"MRI","i_lat":-6.209883,"i_long":106.84912,"line":2},{"i_lat":-6.212485,"i_long":106.858896,"distance":1275,"time":2,"station_name":"Matraman","station_id":"MTR","transit":false,"line":1,"is_transit":false},{"station_name":"Jatinegara","transit":true,"station_id":"JNG","i_lat":-6.215091,"distance":1377,"i_long":106.86807400000001,"is_transit":true,"time":8,"line":1},{"i_long":106.861737,"line":11,"is_transit":false,"distance":1236,"time":2,"station_name":"Pondok Jati","station_id":"POK","transit":false,"i_lat":-6.209188},{"line":11,"i_long":106.855437,"i_lat":-6.193792,"transit":false,"distance":1829,"station_name":"Kramat","time":2,"station_id":"KMT","is_transit":false},{"distance":973,"transit":false,"is_transit":false,"i_lat":-6.185975,"station_name":"Gang Sentiong","station_id":"GST","i_long":106.850107,"time":1,"line":11},{"is_transit":false,"station_id":"PSE","i_lat":-6.174784,"station_name":"Pasar Senen","i_long":106.84368,"line":11,"transit":false,"time":8,"distance":1567}],[{"time":0,"line":4,"is_transit":false,"transit":false,"station_id":"AC","i_long":106.84464,"i_lat":-6.128023,"station_name":"Ancol","distance":0},{"i_lat":-6.132549,"line":4,"i_long":106.826365,"transit":true,"is_transit":true,"distance":2185,"time":4,"station_id":"KPB","station_name":"Kampung Bandan"},{"line":2,"distance":1364,"i_lat":-6.137569,"station_id":"JAKK","is_transit":true,"transit":true,"station_name":"Jakarta Kota","i_long":106.812439,"time":3},{"time":4,"distance":1264,"is_transit":false,"station_id":"JAY","transit":false,"station_name":"Jayakarta","i_lat":-6.141205,"line":2,"i_long":106.820901},{"is_transit":false,"i_long":106.82482,"distance":1080,"station_id":"MGB","station_name":"Manggabesar","transit":false,"i_lat":-6.149769,"line":2,"time":2},{"transit":false,"time":2,"i_lat":-6.160725,"i_long":106.827103,"is_transit":false,"line":2,"station_id":"SW","distance":906,"station_name":"Sawah Besar"},{"distance":1149,"station_id":"JUA","station_name":"Juanda","is_transit":false,"i_lat":-6.166716,"i_long":106.828284,"time":2,"transit":false,"line":2},{"distance":2015,"station_name":"Gondangdia","i_lat":-6.186295,"is_transit":false,"time":4,"station_id":"GDD","i_long":106.832183,"line":2,"transit":false},{"distance":1750,"i_long":106.840169,"i_lat":-6.198556,"is_transit":false,"station_id":"CKI","time":3,"transit":false,"station_name":"Cikini","line":2},{"is_transit":true,"station_id":"MRI","i_lat":-6.209883,"i_long":106.84912,"transit":true,"station_name":"Manggarai","line":2,"time":4,"distance":1590},{"distance":1275,"station_name":"Matraman","i_long":106.858896,"i_lat":-6.212485,"transit":false,"line":1,"time":2,"station_id":"MTR","is_transit":false},{"time":8,"is_transit":true,"i_long":106.86807400000001,"distance":1377,"transit":true,"line":1,"station_name":"Jatinegara","i_lat":-6.215091,"station_id":"JNG"},{"is_transit":false,"station_id":"POK","line":11,"station_name":"Pondok Jati","distance":1236,"time":2,"transit":false,"i_long":106.861737,"i_lat":-6.209188},{"transit":false,"i_long":106.855437,"is_transit":false,"time":2,"station_name":"Kramat","i_lat":-6.193792,"line":11,"distance":1829,"station_id":"KMT"},{"station_name":"Gang Sentiong","transit":false,"i_long":106.850107,"is_transit":false,"distance":973,"time":1,"station_id":"GST","i_lat":-6.185975,"line":11},{"station_name":"Pasar Senen","station_id":"PSE","i_lat":-6.174784,"distance":1567,"transit":false,"line":11,"time":8,"i_long":106.84368,"is_transit":false}]]}