{"data":[[{"station_name":"Ancol","transit":false,"is_transit":false,"distance":0,"i_lat":-6.128023,"i_long":106.84464,"station_id":"AC","time":0,"line":4},{"station_name":"Kampung Bandan","station_id":"KPB","i_lat":-6.132549,"is_transit":true,"distance":2185,"i_long":106.826365,"line":4,"transit":true,"time":4},{"station_id":"AK","i_lat":-6.144674,"is_transit":false,"station_name":"Angke","time":9,"line":1,"transit":false,"i_long":106.79867,"distance":4102},{"distance":1230,"line":1,"station_name":"Duri","is_transit":false,"i_long":106.800832,"station_id":"DU","time":4,"transit":false,"i_lat":-6.155215},{"i_lat":-6.185545,"time":8,"station_name":"Tanah Abang","transit":false,"i_long":106.811091,"station_id":"THB","line":1,"is_transit":false,"distance":3632},{"is_transit":false,"station_name":"Karet","time":5,"i_long":106.816351,"line":1,"i_lat":-6.20132,"distance":2029,"station_id":"KAT","transit":false},{"distance":471,"i_long":106.819881,"station_id":"SUDB","transit":false,"station_name":"Sudirman Baru","line":1,"is_transit":false,"i_lat":-6.201433,"time":1},{"i_long":106.822649,"line":1,"is_transit":false,"station_name":"Sudirman","transit":false,"distance":280,"station_id":"SUD","time":1,"i_lat":-6.202263},{"station_name":"Manggarai","distance":3186,"is_transit":true,"line":2,"i_long":106.84912,"station_id":"MRI","i_lat":-6.209883,"transit":true,"time":4},{"i_lat":-6.226659,"distance":2610,"transit":false,"is_transit":false,"time":4,"station_name":"Tebet","line":2,"i_long":106.857948,"station_id":"TEB"},{"station_id":"CW","i_long":106.856607,"transit":false,"is_transit":false,"distance":1230,"time":2,"line":2,"station_name":"Cawang","i_lat":-6.242512},{"station_name":"Duren Kalibata","i_long":106.85449,"line":2,"time":3,"is_transit":false,"station_id":"DRN","transit":false,"distance":1546,"i_lat":-6.255332},{"station_name":"Pasar Minggu Baru","station_id":"PSMB","i_long":106.851577,"line":2,"i_lat":-6.263214,"distance":824,"time":2,"transit":false,"is_transit":false},{"i_long":106.843999,"line":2,"station_name":"Pasar Minggu","is_transit":false,"station_id":"PSM","time":2,"i_lat":-6.2842400000000005,"transit":false,"distance":2380},{"i_long":106.838896,"distance":2820,"time":4,"line":2,"station_name":"Tanjung Barat","is_transit":false,"station_id":"TNT","transit":false,"i_lat":-6.3080680000000005},{"transit":false,"time":3,"i_long":106.832616,"is_transit":false,"station_name":"Lenteng Agung","distance":2671,"station_id":"LNA","i_lat":-6.330363,"line":2},{"distance":1029,"line":2,"i_lat":-6.339291,"time":2,"station_id":"UP","i_long":106.834175,"transit":false,"is_transit":false,"station_name":"Univ. Pancasila"},{"line":2,"station_id":"UI","time":3,"distance":2264,"i_long":106.831474,"i_lat":-6.360749,"is_transit":false,"station_name":"Univ. Indonesia","transit":false},{"station_id":"POC","i_lat":-6.369073,"distance":1109,"line":2,"is_transit":false,"station_name":"Pondok Cina","time":2,"transit":false,"i_long":106.831114}],[{"is_transit":false,"distance":0,"i_lat":-6.128023,"station_name":"Ancol","i_long":106.84464,"line":4,"station_id":"AC","transit":false,"time":0},{"line":4,"station_name":"Kampung Bandan","time":4,"i_lat":-6.132549,"distance":2185,"transit":true,"is_transit":true,"i_long":106.826365,"station_id":"KPB"},{"station_id":"JAKK","is_transit":true,"line":2,"station_name":"Jakarta Kota","i_long":106.812439,"transit":true,"time":3,"i_lat":-6.137569,"distance":1364},{"station_name":"Jayakarta","transit":false,"station_id":"JAY","is_transit":false,"time":4,"line":2,"distance":1264,"i_lat":-6.141205,"i_long":106.820901},{"is_transit":false,"line":2,"i_lat":-6.149769,"time":2,"transit":false,"station_name":"Manggabesar","station_id":"MGB","distance":1080,"i_long":106.82482},{"i_long":106.827103,"transit":false,"station_id":"SW","distance":906,"station_name":"Sawah Besar","i_lat":-6.160725,"is_transit":false,"line":2,"time":2},{"station_name":"Juanda","time":2,"line":2,"transit":false,"i_lat":-6.166716,"distance":1149,"station_id":"JUA","is_transit":false,"i_long":106.828284},{"transit":false,"station_id":"GDD","distance":2015,"time":4,"i_long":106.832183,"line":2,"station_name":"Gondangdia","is_transit":false,"i_lat":-6.186295},{"distance":1750,"i_lat":-6.198556,"i_long":106.840169,"line":2,"is_transit":false,"transit":false,"station_id":"CKI","station_name":"Cikini","time":3},{"time":4,"i_long":106.84912,"station_id":"MRI","distance":1590,"station_name":"Manggarai","line":2,"is_transit":false,"i_lat":-6.209883,"transit":false},{"i_long":106.857948,"station_id":"TEB","distance":2610,"is_transit":false,"line":2,"i_lat":-6.226659,"station_name":"Tebet","transit":false,"time":4},{"transit":false,"is_transit":false,"station_name":"Cawang","station_id":"CW","time":2,"distance":1230,"i_lat":-6.242512,"i_long":106.856607,"line":2},{"time":3,"transit":false,"is_transit":false,"station_name":"Duren Kalibata","distance":1546,"i_lat":-6.255332,"i_long":106.85449,"station_id":"DRN","line":2},{"distance":824,"transit":false,"line":2,"i_long":106.851577,"station_id":"PSMB","is_transit":false,"time":2,"station_name":"Pasar Minggu Baru","i_lat":-6.263214},{"transit":false,"station_name":"Pasar Minggu","i_lat":-6.2842400000000005,"station_id":"PSM","time":2,"is_transit":false,"distance":2380,"i_long":106.843999,"line":2},{"is_transit":false,"line":2,"station_name":"Tanjung Barat","i_long":106.838896,"station_id":"TNT","transit":false,"time":4,"distance":2820,"i_lat":-6.3080680000000005},{"is_transit":false,"line":2,"station_name":"Lenteng Agung","station_id":"LNA","time":3,"transit":false,"i_long":106.832616,"distance":2671,"i_lat":-6.330363},{"transit":false,"is_transit":false,"station_name":"Univ. Pancasila","station_id":"UP","line":2,"i_long":106.834175,"time":2,"distance":1029,"i_lat":-6.339291},{"i_long":106.831474,"transit":false,"i_lat":-6.360749,"is_transit":false,"station_id":"UI","station_name":"Univ. Indonesia","time":3,"line":2,"distance":2264},{"transit":false,"i_long":106.831114,"line":2,"distance":1109,"station_id":"POC","i_lat":-6.369073,"station_name":"Pondok Cina","time":2,"is_transit":false}],[{"station_name":"Ancol","time":0,"station_id":"AC","is_transit":false,"distance":0,"line":4,"i_long":106.84464,"i_lat":-6.128023,"transit":false},{"line":4,"station_id":"KPB","transit":true,"time":4,"is_transit":true,"i_lat":-6.132549,"station_name":"Kampung Bandan","i_long":106.826365,"distance":2185},{"line":11,"is_transit":false,"i_lat":-6.14505,"time":3,"distance":1444,"i_long":106.836569,"transit":false,"station_id":"RJW","station_name":"Rajawali"},{"distance":1901,"line":11,"station_name":"Kemayoran","time":5,"i_long":106.839204,"transit":false,"is_transit":false,"i_lat":-6.161728,"station_id":"KMO"},{"station_name":"Pasar Senen","distance":1436,"i_lat":-6.174784,"line":11,"transit":false,"i_long":106.84368,"is_transit":false,"station_id":"PSE","time":4},{"line":11,"time":8,"i_lat":-6.185975,"i_long":106.850107,"station_id":"GST","transit":false,"station_name":"Gang Sentiong","is_transit":false,"distance":1567},{"station_id":"KMT","station_name":"Kramat","is_transit":false,"i_lat":-6.193792,"distance":973,"i_long":106.855437,"line":11,"time":1,"transit":false},{"is_transit":false,"i_long":106.861737,"station_name":"Pondok Jati","line":11,"station_id":"POK","transit":false,"time":2,"i_lat":-6.209188,"distance":1829},{"i_lat":-6.215091,"distance":1236,"is_transit":true,"line":1,"station_id":"JNG","station_name":"Jatinegara","transit":true,"i_long":106.86807400000001,"time":9},{"time":2,"distance":1377,"i_lat":-6.212485,"transit":false,"i_long":106.858896,"station_id":"MTR","is_transit":false,"line":1,"station_name":"Matraman"},{"i_lat":-6.209883,"station_id":"MRI","is_transit":true,"transit":true,"distance":1275,"time":2,"i_long":106.84912,"line":2,"station_name":"Manggarai"},{"station_id":"TEB","is_transit":false,"station_name":"Tebet","distance":2610,"i_long":106.857948,"line":2,"i_lat":-6.226659,"transit":false,"time":4},{"transit":false,"time":2,"i_long":106.856607,"i_lat":-6.242512,"station_id":"CW","is_transit":false,"station_name":"Cawang","distance":1230,"line":2},{"is_transit":false,"i_long":106.85449,"station_name":"Duren Kalibata","station_id":"DRN","time":3,"i_lat":-6.255332,"line":2,"transit":false,"distance":1546},{"time":2,"distance":824,"station_name":"Pasar Minggu Baru","i_long":106.851577,"transit":false,"i_lat":-6.263214,"station_id":"PSMB","is_transit":false,"line":2},{"time":2,"station_id":"PSM","i_lat":-6.2842400000000005,"station_name":"Pasar Minggu","distance":2380,"is_transit":false,"transit":false,"i_long":106.843999,"line":2},{"i_long":106.838896,"i_lat":-6.3080680000000005,"time":4,"line":2,"station_name":"Tanjung Barat","is_transit":false,"distance":2820,"station_id":"TNT","transit":false},{"station_name":"Lenteng Agung","transit":false,"i_long":106.832616,"time":3,"is_transit":false,"i_lat":-6.330363,"line":2,"distance":2671,"station_id":"LNA"},{"i_lat":-6.339291,"transit":false,"station_id":"UP","is_transit":false,"station_name":"Univ. Pancasila","i_long":106.834175,"time":2,"line":2,"distance":1029},{"is_transit":false,"station_id":"UI","i_lat":-6.360749,"i_long":106.831474,"distance":2264,"transit":false,"time":3,"station_name":"Univ. Indonesia","line":2},{"station_id":"POC","is_transit":false,"time":2,"transit":false,"distance":1109,"i_long":106.831114,"station_name":"Pondok Cina","i_lat":-6.369073,"line":2}]]}