{"data":[[{"station_id":"AC","station_name":"Ancol","is_transit":false,"time":0,"distance":0,"i_lat":-6.128023,"i_long":106.84464,"line":4,"transit":false},{"station_id":"KPB","time":4,"i_long":106.826365,"station_name":"Kampung Bandan","is_transit":true,"distance":2185,"i_lat":-6.132549,"line":4,"transit":true},{"time":9,"distance":4102,"is_transit":false,"line":1,"station_id":"AK","transit":false,"station_name":"Angke","i_long":106.79867,"i_lat":-6.144674},{"transit":true,"i_long":106.800832,"station_name":"Duri","is_transit":true,"line":1,"i_lat":-6.155215,"distance":1230,"station_id":"DU","time":4},{"station_name":"Grogol","line":5,"time":3,"i_lat":-6.162021,"distance":1700,"transit":false,"i_long":106.788277,"is_transit":false,"station_id":"GGL"},{"station_name":"Pesing","line":5,"transit":false,"i_long":106.771379,"time":2,"station_id":"PSG","is_transit":false,"i_lat":-6.161433,"distance":2036}],[{"line":4,"is_transit":false,"time":0,"i_lat":-6.128023,"i_long":106.84464,"station_name":"Ancol","transit":false,"station_id":"AC","distance":0},{"is_transit":true,"i_lat":-6.132549,"i_long":106.826365,"line":4,"transit":true,"station_name":"Kampung Bandan","distance":2185,"time":4,"station_id":"KPB"},{"transit":true,"station_id":"JAKK","station_name":"Jakarta Kota","distance":1364,"is_transit":true,"i_lat":-6.137569,"line":2,"time":3,"i_long":106.812439},{"i_lat":-6.141205,"time":4,"line":2,"station_name":"Jayakarta","is_transit":false,"i_long":106.820901,"transit":false,"distance":1264,"station_id":"JAY"},{"station_name":"Manggabesar","distance":1080,"i_lat":-6.149769,"station_id":"MGB","i_long":106.82482,"is_transit":false,"transit":false,"line":2,"time":2},{"is_transit":false,"time":2,"i_lat":-6.160725,"distance":906,"station_id":"SW","transit":false,"station_name":"Sawah Besar","line":2,"i_long":106.827103},{"distance":1149,"station_name":"Juanda","time":2,"is_transit":false,"line":2,"transit":false,"i_lat":-6.166716,"i_long":106.828284,"station_id":"JUA"},{"time":4,"line":2,"station_name":"Gondangdia","i_lat":-6.186295,"i_long":106.832183,"distance":2015,"station_id":"GDD","is_transit":false,"transit":false},{"station_id":"CKI","is_transit":false,"time":3,"station_name":"Cikini","line":2,"transit":false,"i_lat":-6.198556,"i_long":106.840169,"distance":1750},{"distance":1590,"time":4,"transit":true,"i_lat":-6.209883,"i_long":106.84912,"is_transit":true,"line":2,"station_name":"Manggarai","station_id":"MRI"},{"time":4,"station_id":"SUD","station_name":"Sudirman","i_long":106.822649,"distance":3186,"line":1,"is_transit":false,"transit":false,"i_lat":-6.202263},{"i_lat":-6.201433,"distance":280,"is_transit":false,"station_id":"SUDB","time":1,"transit":false,"station_name":"Sudirman Baru","i_long":106.819881,"line":1},{"station_id":"KAT","transit":false,"time":1,"is_transit":false,"station_name":"Karet","i_lat":-6.20132,"line":1,"distance":471,"i_long":106.816351},{"line":1,"time":5,"is_transit":false,"station_id":"THB","distance":2029,"station_name":"Tanah Abang","i_long":106.811091,"transit":false,"i_lat":-6.185545},{"is_transit":true,"i_lat":-6.155215,"station_name":"Duri","i_long":106.800832,"distance":3632,"station_id":"DU","line":1,"transit":true,"time":8},{"i_long":106.788277,"line":5,"i_lat":-6.162021,"transit":false,"station_id":"GGL","time":3,"distance":1700,"station_name":"Grogol","is_transit":false},{"distance":2036,"transit":false,"time":2,"i_lat":-6.161433,"i_long":106.771379,"station_id":"PSG","station_name":"Pesing","line":5,"is_transit":false}],[{"station_id":"AC","time":0,"transit":false,"distance":0,"i_long":106.84464,"i_lat":-6.128023,"line":4,"is_transit":false,"station_name":"Ancol"},{"transit":true,"i_long":106.826365,"i_lat":-6.132549,"station_id":"KPB","line":4,"station_name":"Kampung Bandan","distance":2185,"is_transit":true,"time":4},{"i_lat":-6.14505,"i_long":106.836569,"time":3,"distance":1444,"line":11,"station_name":"Rajawali","station_id":"RJW","is_transit":false,"transit":false},{"distance":1901,"station_id":"KMO","i_lat":-6.161728,"line":11,"time":5,"is_transit":false,"transit":false,"i_long":106.839204,"station_name":"Kemayoran"},{"distance":1436,"i_long":106.84368,"line":11,"transit":false,"is_transit":false,"station_id":"PSE","station_name":"Pasar Senen","time":4,"i_lat":-6.174784},{"i_lat":-6.185975,"time":8,"station_id":"GST","station_name":"Gang Sentiong","i_long":106.850107,"transit":false,"is_transit":false,"distance":1567,"line":11},{"i_long":106.855437,"i_lat":-6.193792,"station_id":"KMT","transit":false,"is_transit":false,"distance":973,"station_name":"Kramat","time":1,"line":11},{"distance":1829,"i_long":106.861737,"station_name":"Pondok Jati","station_id":"POK","is_transit":false,"time":2,"transit":false,"line":11,"i_lat":-6.209188},{"station_id":"JNG","i_long":106.86807400000001,"transit":true,"i_lat":-6.215091,"is_transit":true,"distance":1236,"station_name":"Jatinegara","time":9,"line":1},{"distance":1377,"i_long":106.858896,"time":2,"is_transit":false,"transit":false,"station_name":"Matraman","station_id":"MTR","i_lat":-6.212485,"line":1},{"line":2,"time":2,"i_long":106.84912,"station_name":"Manggarai","transit":false,"station_id":"MRI","distance":1275,"is_transit":false,"i_lat":-6.209883},{"station_name":"Sudirman","station_id":"SUD","time":4,"line":1,"i_lat":-6.202263,"is_transit":false,"transit":false,"distance":3186,"i_long":106.822649},{"station_name":"Sudirman Baru","station_id":"SUDB","time":1,"transit":false,"i_lat":-6.201433,"distance":280,"i_long":106.819881,"line":1,"is_transit":false},{"transit":false,"time":1,"is_transit":false,"i_long":106.816351,"line":1,"i_lat":-6.20132,"distance":471,"station_name":"Karet","station_id":"KAT"},{"is_transit":false,"station_id":"THB","station_name":"Tanah Abang","transit":false,"time":5,"i_lat":-6.185545,"i_long":106.811091,"line":1,"distance":2029},{"distance":3632,"i_lat":-6.155215,"time":8,"i_long":106.800832,"transit":true,"station_name":"Duri","line":1,"is_transit":true,"station_id":"DU"},{"i_long":106.788277,"line":5,"distance":1700,"transit":false,"is_transit":false,"station_id":"GGL","station_name":"Grogol","time":3,"i_lat":-6.162021},{"i_long":106.771379,"distance":2036,"transit":false,"i_lat":-6.161433,"time":2,"station_id":"PSG","station_name":"Pesing","line":5,"is_transit":false}]]}