{"data":[[{"station_name":"Ancol","line":4,"station_id":"AC","i_lat":-6.128023,"transit":false,"is_transit":false,"distance":0,"time":0,"i_long":106.84464},{"i_long":106.826365,"transit":true,"line":4,"i_lat":-6.132549,"distance":2185,"station_name":"Kampung Bandan","station_id":"KPB","is_transit":true,"time":4},{"station_name":"Angke","is_transit":false,"i_long":106.79867,"station_id":"AK","line":1,"transit":false,"time":9,"distance":4102,"i_lat":-6.144674},{"time":4,"transit":false,"is_transit":false,"station_name":"Duri","station_id":"DU","distance":1230,"i_long":106.800832,"i_lat":-6.155215,"line":1},{"transit":true,"i_long":106.811091,"is_transit":true,"time":8,"station_name":"Tanah Abang","station_id":"THB","distance":3632,"line":1,"i_lat":-6.185545},{"station_id":"PLM","distance":3191,"i_long":106.79689,"transit":false,"station_name":"Palmerah","is_transit":false,"time":6,"line":6,"i_lat":-6.207404}],[{"station_name":"Ancol","is_transit":false,"i_lat":-6.128023,"distance":0,"line":4,"i_long":106.84464,"transit":false,"station_id":"AC","time":0},{"station_name":"Kampung Bandan","is_transit":true,"distance":2185,"i_lat":-6.132549,"i_long":106.826365,"transit":true,"time":4,"line":4,"station_id":"KPB"},{"i_long":106.812439,"time":3,"is_transit":true,"i_lat":-6.137569,"line":2,"transit":true,"station_name":"Jakarta Kota","distance":1364,"station_id":"JAKK"},{"is_transit":false,"time":4,"distance":1264,"station_id":"JAY","i_lat":-6.141205,"i_long":106.820901,"transit":false,"line":2,"station_name":"Jayakarta"},{"distance":1080,"time":2,"i_long":106.82482,"transit":false,"is_transit":false,"i_lat":-6.149769,"station_name":"Manggabesar","line":2,"station_id":"MGB"},{"i_long":106.827103,"line":2,"is_transit":false,"station_name":"Sawah Besar","i_lat":-6.160725,"transit":false,"station_id":"SW","time":2,"distance":906},{"i_long":106.828284,"station_id":"JUA","station_name":"Juanda","is_transit":false,"i_lat":-6.166716,"distance":1149,"time":2,"transit":false,"line":2},{"i_long":106.832183,"line":2,"station_name":"Gondangdia","transit":false,"station_id":"GDD","is_transit":false,"distance":2015,"i_lat":-6.186295,"time":4},{"station_id":"CKI","transit":false,"time":3,"is_transit":false,"i_lat":-6.198556,"line":2,"station_name":"Cikini","distance":1750,"i_long":106.840169},{"transit":true,"is_transit":true,"i_lat":-6.209883,"line":2,"time":4,"distance":1590,"station_name":"Manggarai","station_id":"MRI","i_long":106.84912},{"transit":false,"line":1,"is_transit":false,"time":4,"distance":3186,"i_long":106.822649,"station_id":"SUD","station_name":"Sudirman","i_lat":-6.202263},{"time":1,"transit":false,"i_long":106.819881,"line":1,"i_lat":-6.201433,"is_transit":false,"station_name":"Sudirman Baru","station_id":"SUDB","distance":280},{"station_name":"Karet","line":1,"station_id":"KAT","distance":471,"time":1,"i_long":106.816351,"transit":false,"i_lat":-6.20132,"is_transit":false},{"line":1,"i_lat":-6.185545,"station_name":"Tanah Abang","transit":true,"distance":2029,"i_long":106.811091,"station_id":"THB","time":5,"is_transit":true},{"transit":false,"station_id":"PLM","i_lat":-6.207404,"distance":3191,"station_name":"Palmerah","i_long":106.79689,"time":6,"line":6,"is_transit":false}],[{"transit":false,"station_id":"AC","time":0,"station_name":"Ancol","is_transit":false,"line":4,"i_long":106.84464,"i_lat":-6.128023,"distance":0},{"distance":2185,"station_id":"KPB","transit":true,"station_name":"Kampung Bandan","i_lat":-6.132549,"is_transit":true,"time":4,"line":4,"i_long":106.826365},{"time":3,"i_lat":-6.14505,"station_name":"Rajawali","transit":false,"distance":1444,"i_long":106.836569,"line":11,"station_id":"RJW","is_transit":false},{"i_lat":-6.161728,"is_transit":false,"time":5,"station_name":"Kemayoran","station_id":"KMO","i_long":106.839204,"line":11,"transit":false,"distance":1901},{"time":4,"i_lat":-6.174784,"i_long":106.84368,"station_id":"PSE","station_name":"Pasar Senen","is_transit":false,"transit":false,"distance":1436,"line":11},{"time":8,"station_name":"Gang Sentiong","transit":false,"line":11,"is_transit":false,"distance":1567,"i_lat":-6.185975,"i_long":106.850107,"station_id":"GST"},{"i_lat":-6.193792,"station_id":"KMT","time":1,"distance":973,"line":11,"transit":false,"is_transit":false,"station_name":"Kramat","i_long":106.855437},{"station_name":"Pondok Jati","station_id":"POK","i_lat":-6.209188,"line":11,"i_long":106.861737,"time":2,"is_transit":false,"distance":1829,"transit":false},{"i_long":106.86807400000001,"station_id":"JNG","time":9,"is_transit":true,"line":1,"station_name":"Jatinegara","transit":true,"distance":1236,"i_lat":-6.215091},{"transit":false,"i_long":106.858896,"line":1,"i_lat":-6.212485,"distance":1377,"station_name":"Matraman","station_id":"MTR","is_transit":false,"time":2},{"distance":1275,"transit":false,"i_lat":-6.209883,"station_id":"MRI","line":2,"is_transit":false,"time":2,"station_name":"Manggarai","i_long":106.84912},{"station_name":"Sudirman","time":4,"distance":3186,"is_transit":false,"station_id":"SUD","i_long":106.822649,"i_lat":-6.202263,"transit":false,"line":1},{"line":1,"transit":false,"i_lat":-6.201433,"time":1,"distance":280,"station_name":"Sudirman Baru","i_long":106.819881,"is_transit":false,"station_id":"SUDB"},{"i_long":106.816351,"station_id":"KAT","line":1,"is_transit":false,"distance":471,"time":1,"i_lat":-6.20132,"transit":false,"station_name":"Karet"},{"i_long":106.811091,"line":1,"time":5,"is_transit":true,"distance":2029,"i_lat":-6.185545,"station_name":"Tanah Abang","transit":true,"station_id":"THB"},{"distance":3191,"is_transit":false,"transit":false,"station_id":"PLM","i_long":106.79689,"time":6,"line":6,"i_lat":-6.207404,"station_name":"Palmerah"}]]}