{"data":[[{"time":0,"transit":false,"line":4,"i_long":106.84464,"distance":0,"station_id":"AC","station_name":"Ancol","is_transit":false,"i_lat":-6.128023},{"station_name":"Kampung Bandan","i_long":106.826365,"transit":true,"line":4,"is_transit":true,"i_lat":-6.132549,"distance":2185,"station_id":"KPB","time":4},{"transit":false,"station_name":"Angke","line":1,"i_long":106.79867,"distance":4102,"is_transit":false,"i_lat":-6.144674,"station_id":"AK","time":9},{"station_name":"Duri","line":1,"i_lat":-6.155215,"time":4,"station_id":"DU","transit":false,"distance":1230,"i_long":106.800832,"is_transit":false},{"line":1,"distance":3632,"i_long":106.811091,"station_id":"THB","station_name":"Tanah Abang","transit":true,"i_lat":-6.185545,"is_transit":true,"time":8},{"transit":false,"distance":3191,"station_id":"PLM","is_transit":false,"line":6,"i_long":106.79689,"station_name":"Palmerah","i_lat":-6.207404,"time":6},{"station_id":"KBY","station_name":"Kebayoran","is_transit":false,"time":7,"line":6,"transit":false,"distance":3737,"i_lat":-6.237242,"i_long":106.780334},{"transit":false,"i_lat":-6.276362,"line":6,"distance":6218,"i_long":106.74273,"time":8,"station_name":"Pondokranji","is_transit":false,"station_id":"PDJ"},{"line":6,"station_name":"Jurangmangu","distance":2179,"transit":false,"i_long":106.728916,"time":3,"i_lat":-6.288927,"station_id":"JMU","is_transit":false},{"i_lat":-6.296963,"station_id":"SDM","distance":1994,"time":4,"is_transit":false,"i_long":106.712277,"line":6,"station_name":"Sudimara","transit":false},{"transit":false,"station_name":"Rawa Buntu","is_transit":false,"time":6,"station_id":"RU","i_long":106.675475,"i_lat":-6.314823,"line":6,"distance":4566},{"is_transit":false,"transit":false,"line":6,"time":4,"station_id":"SRP","station_name":"Serpong","i_lat":-6.319871,"distance":2413,"i_long":106.66566},{"station_name":"Cisauk","time":4,"station_id":"CSK","is_transit":false,"i_long":106.640411,"line":3,"distance":1784,"transit":false,"i_lat":-6.32484},{"station_id":"CC","i_lat":-6.329547,"station_name":"Cicayur","line":3,"distance":2519,"transit":false,"i_long":106.617853,"is_transit":false,"time":4},{"station_id":"PRP","transit":false,"line":6,"i_long":106.568863,"time":8,"distance":5968,"is_transit":false,"i_lat":-6.3441410000000005,"station_name":"Parung Panjang"}],[{"is_transit":false,"i_long":106.84464,"i_lat":-6.128023,"station_id":"AC","station_name":"Ancol","line":4,"time":0,"distance":0,"transit":false},{"time":4,"station_name":"Kampung Bandan","station_id":"KPB","is_transit":true,"transit":true,"i_lat":-6.132549,"i_long":106.826365,"line":4,"distance":2185},{"line":2,"distance":1364,"time":3,"i_long":106.812439,"station_name":"Jakarta Kota","i_lat":-6.137569,"transit":true,"is_transit":true,"station_id":"JAKK"},{"distance":1264,"time":4,"station_name":"Jayakarta","is_transit":false,"station_id":"JAY","transit":false,"i_lat":-6.141205,"i_long":106.820901,"line":2},{"is_transit":false,"distance":1080,"station_id":"MGB","transit":false,"station_name":"Manggabesar","line":2,"i_long":106.82482,"time":2,"i_lat":-6.149769},{"line":2,"time":2,"i_long":106.827103,"distance":906,"i_lat":-6.160725,"station_id":"SW","station_name":"Sawah Besar","transit":false,"is_transit":false},{"is_transit":false,"i_long":106.828284,"transit":false,"time":2,"distance":1149,"line":2,"i_lat":-6.166716,"station_id":"JUA","station_name":"Juanda"},{"i_lat":-6.186295,"i_long":106.832183,"time":4,"distance":2015,"station_name":"Gondangdia","transit":false,"line":2,"station_id":"GDD","is_transit":false},{"line":2,"is_transit":false,"distance":1750,"station_id":"CKI","i_long":106.840169,"station_name":"Cikini","time":3,"i_lat":-6.198556,"transit":false},{"is_transit":true,"i_lat":-6.209883,"distance":1590,"station_id":"MRI","transit":true,"time":4,"line":2,"station_name":"Manggarai","i_long":106.84912},{"station_id":"SUD","is_transit":false,"time":4,"i_lat":-6.202263,"line":1,"distance":3186,"station_name":"Sudirman","transit":false,"i_long":106.822649},{"time":1,"distance":280,"station_name":"Sudirman Baru","station_id":"SUDB","transit":false,"i_long":106.819881,"is_transit":false,"i_lat":-6.201433,"line":1},{"station_name":"Karet","station_id":"KAT","transit":false,"i_lat":-6.20132,"i_long":106.816351,"is_transit":false,"distance":471,"line":1,"time":1},{"station_name":"Tanah Abang","station_id":"THB","i_long":106.811091,"transit":true,"time":5,"is_transit":true,"line":1,"i_lat":-6.185545,"distance":2029},{"transit":false,"station_id":"PLM","i_long":106.79689,"station_name":"Palmerah","line":6,"time":6,"i_lat":-6.207404,"is_transit":false,"distance":3191},{"time":7,"distance":3737,"is_transit":false,"i_long":106.780334,"station_name":"Kebayoran","station_id":"KBY","i_lat":-6.237242,"line":6,"transit":false},{"distance":6218,"line":6,"time":8,"station_id":"PDJ","is_transit":false,"transit":false,"station_name":"Pondokranji","i_lat":-6.276362,"i_long":106.74273},{"station_id":"JMU","station_name":"Jurangmangu","i_lat":-6.288927,"distance":2179,"transit":false,"time":3,"is_transit":false,"i_long":106.728916,"line":6},{"i_long":106.712277,"is_transit":false,"line":6,"station_name":"Sudimara","distance":1994,"transit":false,"time":4,"i_lat":-6.296963,"station_id":"SDM"},{"station_id":"RU","time":6,"transit":false,"distance":4566,"station_name":"Rawa Buntu","is_transit":false,"i_lat":-6.314823,"i_long":106.675475,"line":6},{"time":4,"i_lat":-6.319871,"transit":false,"is_transit":false,"i_long":106.66566,"distance":2413,"line":6,"station_id":"SRP","station_name":"Serpong"},{"is_transit":false,"station_id":"CSK","i_lat":-6.32484,"distance":1784,"station_name":"Cisauk","time":4,"transit":false,"i_long":106.640411,"line":3},{"i_long":106.617853,"station_name":"Cicayur","transit":false,"line":3,"time":4,"i_lat":-6.329547,"station_id":"CC","distance":2519,"is_transit":false},{"i_lat":-6.3441410000000005,"distance":5968,"station_id":"PRP","i_long":106.568863,"transit":false,"line":6,"is_transit":false,"time":8,"station_name":"Parung Panjang"}],[{"i_lat":-6.128023,"i_long":106.84464,"transit":false,"station_id":"AC","time":0,"station_name":"Ancol","line":4,"distance":0,"is_transit":false},{"is_transit":true,"station_name":"Kampung Bandan","line":4,"i_long":106.826365,"distance":2185,"time":4,"transit":true,"station_id":"KPB","i_lat":-6.132549},{"transit":false,"station_name":"Rajawali","i_lat":-6.14505,"is_transit":false,"line":11,"distance":1444,"station_id":"RJW","i_long":106.836569,"time":3},{"distance":1901,"i_lat":-6.161728,"station_id":"KMO","station_name":"Kemayoran","i_long":106.839204,"transit":false,"time":5,"line":11,"is_transit":false},{"station_name":"Pasar Senen","station_id":"PSE","is_transit":false,"i_long":106.84368,"line":11,"distance":1436,"time":4,"transit":false,"i_lat":-6.174784},{"is_transit":false,"i_lat":-6.185975,"i_long":106.850107,"station_name":"Gang Sentiong","line":11,"time":8,"station_id":"GST","transit":false,"distance":1567},{"transit":false,"station_id":"KMT","is_transit":false,"time":1,"i_long":106.855437,"station_name":"Kramat","i_lat":-6.193792,"distance":973,"line":11},{"transit":false,"time":2,"station_name":"Pondok Jati","line":11,"distance":1829,"station_id":"POK","is_transit":false,"i_lat":-6.209188,"i_long":106.861737},{"i_lat":-6.215091,"i_long":106.86807400000001,"station_id":"JNG","distance":1236,"is_transit":true,"time":9,"transit":true,"line":1,"station_name":"Jatinegara"},{"time":2,"i_lat":-6.212485,"station_id":"MTR","transit":false,"is_transit":false,"station_name":"Matraman","line":1,"distance":1377,"i_long":106.858896},{"distance":1275,"is_transit":false,"transit":false,"line":2,"time":2,"i_long":106.84912,"i_lat":-6.209883,"station_id":"MRI","station_name":"Manggarai"},{"i_long":106.822649,"station_id":"SUD","i_lat":-6.202263,"line":1,"distance":3186,"transit":false,"station_name":"Sudirman","time":4,"is_transit":false},{"distance":280,"is_transit":false,"i_lat":-6.201433,"station_name":"Sudirman Baru","transit":false,"line":1,"station_id":"SUDB","time":1,"i_long":106.819881},{"time":1,"station_id":"KAT","i_lat":-6.20132,"i_long":106.816351,"station_name":"Karet","distance":471,"is_transit":false,"line":1,"transit":false},{"i_long":106.811091,"distance":2029,"transit":true,"line":1,"is_transit":true,"station_id":"THB","station_name":"Tanah Abang","time":5,"i_lat":-6.185545},{"time":6,"station_name":"Palmerah","i_lat":-6.207404,"is_transit":false,"transit":false,"line":6,"distance":3191,"station_id":"PLM","i_long":106.79689},{"i_lat":-6.237242,"distance":3737,"transit":false,"station_id":"KBY","time":7,"station_name":"Kebayoran","i_long":106.780334,"line":6,"is_transit":false},{"station_id":"PDJ","transit":false,"station_name":"Pondokranji","line":6,"is_transit":false,"i_lat":-6.276362,"time":8,"i_long":106.74273,"distance":6218},{"i_long":106.728916,"station_id":"JMU","distance":2179,"time":3,"transit":false,"i_lat":-6.288927,"is_transit":false,"station_name":"Jurangmangu","line":6},{"i_lat":-6.296963,"station_id":"SDM","is_transit":false,"time":4,"distance":1994,"transit":false,"i_long":106.712277,"station_name":"Sudimara","line":6},{"time":6,"line":6,"distance":4566,"transit":false,"station_id":"RU","i_long":106.675475,"is_transit":false,"station_name":"Rawa Buntu","i_lat":-6.314823},{"i_lat":-6.319871,"is_transit":false,"station_name":"Serpong","line":6,"time":4,"transit":false,"station_id":"SRP","i_long":106.66566,"distance":2413},{"station_id":"CSK","is_transit":false,"i_long":106.640411,"line":3,"transit":false,"distance":1784,"station_name":"Cisauk","time":4,"i_lat":-6.32484},{"i_lat":-6.329547,"station_name":"Cicayur","line":3,"distance":2519,"transit":false,"is_transit":false,"time":4,"i_long":106.617853,"station_id":"CC"},{"time":8,"line":6,"i_lat":-6.3441410000000005,"i_long":106.568863,"distance":5968,"transit":false,"is_transit":false,"station_name":"Parung Panjang","station_id":"PRP"}]]}