{"data":[[{"station_id":"AC","line":0,"station_name":"Ancol","transit":false,"time":0,"i_lat":-6.128023,"i_long":106.84464,"is_transit":false,"distance":0},{"distance":2185,"transit":false,"station_id":"KPB","i_lat":-6.132549,"i_long":106.826365,"line":0,"time":4,"station_name":"Kampung Bandan","is_transit":true},{"i_lat":-6.144674,"time":9,"station_id":"AK","is_transit":false,"transit":false,"station_name":"Angke","i_long":106.79867,"line":0,"distance":4102},{"line":1,"i_long":106.800832,"i_lat":-6.155215,"time":4,"transit":true,"station_id":"DU","station_name":"Duri","is_transit":true,"distance":1230},{"is_transit":true,"station_id":"THB","i_lat":-6.185545,"transit":false,"i_long":106.811091,"line":1,"station_name":"Tanah Abang","time":8,"distance":3632},{"transit":false,"i_long":106.816351,"station_name":"Karet","i_lat":-6.20132,"line":1,"is_transit":false,"station_id":"KAT","time":5,"distance":2029},{"distance":471,"station_name":"Sudirman Baru","time":1,"transit":false,"station_id":"SUDB","i_long":106.819881,"i_lat":-6.201433,"is_transit":false,"line":1},{"time":1,"transit":false,"i_long":106.822649,"station_name":"Sudirman","is_transit":false,"station_id":"SUD","i_lat":-6.202263,"line":1,"distance":280},{"transit":true,"i_long":106.84912,"line":0,"time":4,"distance":3186,"is_transit":true,"station_name":"Manggarai","station_id":"MRI","i_lat":-6.209883},{"station_id":"TEB","station_name":"Tebet","i_long":106.857948,"line":2,"time":4,"transit":false,"is_transit":false,"distance":2610,"i_lat":-6.226659},{"station_id":"CW","is_transit":false,"distance":1230,"station_name":"Cawang","transit":false,"i_lat":-6.242512,"line":0,"i_long":106.856607,"time":2},{"is_transit":false,"time":3,"i_lat":-6.255332,"transit":false,"distance":1546,"station_name":"Duren Kalibata","line":0,"i_long":106.85449,"station_id":"DRN"},{"i_lat":-6.263214,"distance":824,"i_long":106.851577,"time":2,"transit":false,"station_id":"PSMB","station_name":"Pasar Minggu Baru","is_transit":false,"line":2},{"distance":2380,"i_lat":-6.2842400000000005,"transit":false,"i_long":106.843999,"is_transit":false,"station_name":"Pasar Minggu","line":2,"time":2,"station_id":"PSM"},{"station_id":"TNT","i_lat":-6.3080680000000005,"i_long":106.838896,"is_transit":false,"distance":2820,"transit":false,"station_name":"Tanjung Barat","line":2,"time":4},{"time":3,"is_transit":false,"distance":2671,"transit":false,"i_long":106.832616,"station_name":"Lenteng Agung","i_lat":-6.330363,"station_id":"LNA","line":2},{"is_transit":false,"i_long":106.834175,"i_lat":-6.339291,"station_name":"Univ. Pancasila","distance":1029,"time":2,"transit":false,"station_id":"UP","line":2},{"transit":false,"is_transit":false,"i_lat":-6.360749,"distance":2264,"i_long":106.831474,"time":3,"station_id":"UI","line":2,"station_name":"Univ. Indonesia"},{"station_id":"POC","is_transit":false,"i_lat":-6.369073,"time":2,"distance":1109,"station_name":"Pondok Cina","i_long":106.831114,"transit":false,"line":2}],[{"i_long":106.84464,"is_transit":false,"station_id":"AC","station_name":"Ancol","i_lat":-6.128023,"transit":false,"distance":0,"line":0,"time":0},{"station_id":"KPB","is_transit":true,"i_lat":-6.132549,"transit":false,"time":4,"distance":2185,"i_long":106.826365,"line":0,"station_name":"Kampung Bandan"},{"line":0,"time":3,"is_transit":true,"station_id":"JAKK","i_lat":-6.137569,"distance":1364,"i_long":106.812439,"station_name":"Jakarta Kota","transit":true},{"station_id":"JAY","distance":1264,"i_lat":-6.141205,"line":7,"i_long":106.820901,"station_name":"Jayakarta","transit":false,"is_transit":false,"time":4},{"i_lat":-6.149769,"is_transit":false,"distance":1080,"i_long":106.82482,"transit":false,"station_id":"MGB","time":2,"line":2,"station_name":"Manggabesar"},{"i_lat":-6.160725,"line":2,"station_id":"SW","distance":906,"i_long":106.827103,"is_transit":false,"transit":false,"time":2,"station_name":"Sawah Besar"},{"is_transit":false,"distance":1149,"station_id":"JUA","i_long":106.828284,"i_lat":-6.166716,"line":2,"station_name":"Juanda","transit":false,"time":2},{"is_transit":false,"station_name":"Gondangdia","transit":false,"distance":2015,"station_id":"GDD","time":4,"i_lat":-6.186295,"line":2,"i_long":106.832183},{"i_long":106.840169,"time":3,"line":0,"station_name":"Cikini","transit":false,"is_transit":false,"i_lat":-6.198556,"station_id":"CKI","distance":1750},{"distance":1590,"station_name":"Manggarai","i_lat":-6.209883,"time":4,"station_id":"MRI","is_transit":true,"transit":true,"line":0,"i_long":106.84912},{"i_lat":-6.226659,"i_long":106.857948,"line":2,"time":4,"transit":false,"station_name":"Tebet","distance":2610,"station_id":"TEB","is_transit":false},{"line":0,"distance":1230,"transit":false,"i_long":106.856607,"is_transit":false,"time":2,"i_lat":-6.242512,"station_name":"Cawang","station_id":"CW"},{"station_name":"Duren Kalibata","station_id":"DRN","is_transit":false,"line":0,"time":3,"i_long":106.85449,"distance":1546,"i_lat":-6.255332,"transit":false},{"is_transit":false,"station_id":"PSMB","time":2,"line":2,"station_name":"Pasar Minggu Baru","transit":false,"distance":824,"i_long":106.851577,"i_lat":-6.263214},{"time":2,"station_id":"PSM","is_transit":false,"transit":false,"station_name":"Pasar Minggu","line":2,"i_lat":-6.2842400000000005,"i_long":106.843999,"distance":2380},{"time":4,"transit":false,"line":2,"station_name":"Tanjung Barat","i_lat":-6.3080680000000005,"station_id":"TNT","is_transit":false,"distance":2820,"i_long":106.838896},{"is_transit":false,"station_id":"LNA","i_lat":-6.330363,"i_long":106.832616,"distance":2671,"line":2,"time":3,"transit":false,"station_name":"Lenteng Agung"},{"line":2,"transit":false,"is_transit":false,"i_lat":-6.339291,"time":2,"station_id":"UP","distance":1029,"i_long":106.834175,"station_name":"Univ. Pancasila"},{"transit":false,"station_name":"Univ. Indonesia","i_long":106.831474,"line":2,"station_id":"UI","is_transit":false,"time":3,"i_lat":-6.360749,"distance":2264},{"is_transit":false,"station_id":"POC","i_lat":-6.369073,"i_long":106.831114,"line":2,"station_name":"Pondok Cina","distance":1109,"transit":false,"time":2}],[{"distance":0,"i_long":106.84464,"station_id":"AC","line":0,"station_name":"Ancol","transit":false,"time":0,"i_lat":-6.128023,"is_transit":false},{"line":0,"time":4,"i_long":106.826365,"station_id":"KPB","is_transit":true,"transit":true,"i_lat":-6.132549,"distance":2185,"station_name":"Kampung Bandan"},{"i_long":106.836569,"time":3,"station_name":"Rajawali","distance":1444,"i_lat":-6.14505,"line":11,"transit":false,"station_id":"RJW","is_transit":false},{"distance":1901,"i_lat":-6.161728,"i_long":106.839204,"station_name":"Kemayoran","transit":false,"line":11,"is_transit":false,"station_id":"KMO","time":5},{"line":11,"i_lat":-6.174784,"is_transit":false,"station_id":"PSE","station_name":"Pasar Senen","transit":false,"time":4,"i_long":106.84368,"distance":1436},{"time":8,"i_lat":-6.185975,"station_name":"Gang Sentiong","i_long":106.850107,"transit":false,"station_id":"GST","is_transit":false,"distance":1567,"line":11},{"line":11,"station_name":"Kramat","i_long":106.855437,"time":1,"transit":false,"station_id":"KMT","i_lat":-6.193792,"is_transit":false,"distance":973},{"i_lat":-6.209188,"line":11,"is_transit":false,"time":2,"transit":false,"station_name":"Pondok Jati","distance":1829,"station_id":"POK","i_long":106.861737},{"is_transit":true,"i_long":106.86807400000001,"transit":true,"station_name":"Jatinegara","distance":1236,"i_lat":-6.215091,"station_id":"JNG","time":9,"line":0},{"distance":1377,"transit":false,"station_id":"MTR","time":2,"station_name":"Matraman","line":1,"i_long":106.858896,"is_transit":false,"i_lat":-6.212485},{"station_name":"Manggarai","is_transit":true,"distance":1275,"station_id":"MRI","transit":true,"i_long":106.84912,"time":2,"i_lat":-6.209883,"line":0},{"transit":false,"station_id":"TEB","i_lat":-6.226659,"time":4,"is_transit":false,"line":2,"station_name":"Tebet","distance":2610,"i_long":106.857948},{"station_id":"CW","is_transit":false,"distance":1230,"station_name":"Cawang","transit":false,"i_long":106.856607,"time":2,"i_lat":-6.242512,"line":0},{"time":3,"distance":1546,"station_id":"DRN","transit":false,"station_name":"Duren Kalibata","i_long":106.85449,"is_transit":false,"line":0,"i_lat":-6.255332},{"distance":824,"transit":false,"station_id":"PSMB","i_long":106.851577,"line":2,"is_transit":false,"time":2,"i_lat":-6.263214,"station_name":"Pasar Minggu Baru"},{"time":2,"line":2,"is_transit":false,"station_name":"Pasar Minggu","station_id":"PSM","transit":false,"i_lat":-6.2842400000000005,"i_long":106.843999,"distance":2380},{"i_long":106.838896,"distance":2820,"station_name":"Tanjung Barat","transit":false,"is_transit":false,"station_id":"TNT","time":4,"line":2,"i_lat":-6.3080680000000005},{"transit":false,"station_id":"LNA","station_name":"Lenteng Agung","line":2,"i_lat":-6.330363,"is_transit":false,"time":3,"i_long":106.832616,"distance":2671},{"station_name":"Univ. Pancasila","i_long":106.834175,"i_lat":-6.339291,"line":2,"transit":false,"distance":1029,"is_transit":false,"station_id":"UP","time":2},{"distance":2264,"line":2,"station_name":"Univ. Indonesia","i_long":106.831474,"station_id":"UI","is_transit":false,"transit":false,"i_lat":-6.360749,"time":3},{"distance":1109,"line":2,"station_id":"POC","transit":false,"i_long":106.831114,"is_transit":false,"time":2,"station_name":"Pondok Cina","i_lat":-6.369073}]]}