{"data":[[{"time":0,"station_name":"Ancol","is_transit":false,"i_lat":-6.128023,"distance":0,"line":4,"station_id":"AC","transit":false,"i_long":106.84464},{"distance":2185,"is_transit":true,"time":4,"station_id":"KPB","transit":true,"station_name":"Kampung Bandan","i_long":106.826365,"i_lat":-6.132549,"line":4},{"i_lat":-6.14505,"station_name":"Rajawali","is_transit":false,"i_long":106.836569,"distance":1444,"time":3,"line":11,"transit":false,"station_id":"RJW"},{"is_transit":false,"distance":1901,"line":11,"transit":false,"station_id":"KMO","time":5,"i_lat":-6.161728,"i_long":106.839204,"station_name":"Kemayoran"},{"is_transit":false,"transit":false,"station_id":"PSE","time":4,"i_lat":-6.174784,"i_long":106.84368,"line":11,"station_name":"Pasar Senen","distance":1436}],[{"is_transit":false,"station_id":"AC","time":0,"distance":0,"line":4,"i_lat":-6.128023,"i_long":106.84464,"station_name":"Ancol","transit":false},{"transit":true,"station_id":"KPB","i_long":106.826365,"line":4,"time":4,"station_name":"Kampung Bandan","is_transit":true,"i_lat":-6.132549,"distance":2185},{"time":9,"i_long":106.79867,"is_transit":false,"line":1,"distance":4102,"station_id":"AK","station_name":"Angke","i_lat":-6.144674,"transit":false},{"station_name":"Duri","transit":false,"i_lat":-6.155215,"station_id":"DU","line":1,"is_transit":false,"time":4,"i_long":106.800832,"distance":1230},{"is_transit":false,"transit":false,"station_name":"Tanah Abang","time":8,"i_lat":-6.185545,"distance":3632,"i_long":106.811091,"line":1,"station_id":"THB"},{"i_long":106.816351,"distance":2029,"transit":false,"line":1,"station_id":"KAT","i_lat":-6.20132,"station_name":"Karet","is_transit":false,"time":5},{"i_lat":-6.201433,"i_long":106.819881,"station_id":"SUDB","is_transit":false,"line":1,"station_name":"Sudirman Baru","time":1,"transit":false,"distance":471},{"distance":280,"station_id":"SUD","station_name":"Sudirman","i_lat":-6.202263,"transit":false,"time":1,"is_transit":false,"i_long":106.822649,"line":1},{"station_id":"MRI","time":4,"transit":false,"is_transit":false,"station_name":"Manggarai","i_lat":-6.209883,"i_long":106.84912,"line":2,"distance":3186},{"distance":1275,"transit":false,"i_lat":-6.212485,"station_name":"Matraman","time":2,"i_long":106.858896,"line":1,"station_id":"MTR","is_transit":false},{"distance":1377,"transit":true,"i_long":106.86807400000001,"line":1,"is_transit":true,"i_lat":-6.215091,"time":8,"station_name":"Jatinegara","station_id":"JNG"},{"is_transit":false,"station_name":"Pondok Jati","transit":false,"i_long":106.861737,"time":2,"line":11,"station_id":"POK","distance":1236,"i_lat":-6.209188},{"time":2,"is_transit":false,"station_name":"Kramat","i_long":106.855437,"station_id":"KMT","transit":false,"i_lat":-6.193792,"line":11,"distance":1829},{"is_transit":false,"time":1,"station_id":"GST","i_long":106.850107,"transit":false,"station_name":"Gang Sentiong","i_lat":-6.185975,"distance":973,"line":11},{"station_name":"Pasar Senen","distance":1567,"line":11,"station_id":"PSE","is_transit":false,"transit":false,"time":8,"i_lat":-6.174784,"i_long":106.84368}],[{"station_name":"Ancol","time":0,"i_long":106.84464,"line":4,"distance":0,"transit":false,"i_lat":-6.128023,"station_id":"AC","is_transit":false},{"is_transit":true,"station_name":"Kampung Bandan","line":4,"time":4,"i_lat":-6.132549,"transit":true,"i_long":106.826365,"distance":2185,"station_id":"KPB"},{"i_long":106.812439,"is_transit":true,"station_name":"Jakarta Kota","station_id":"JAKK","time":3,"transit":true,"line":2,"distance":1364,"i_lat":-6.137569},{"line":2,"time":4,"distance":1264,"transit":false,"i_lat":-6.141205,"station_id":"JAY","i_long":106.820901,"station_name":"Jayakarta","is_transit":false},{"distance":1080,"station_name":"Manggabesar","station_id":"MGB","transit":false,"line":2,"is_transit":false,"time":2,"i_lat":-6.149769,"i_long":106.82482},{"is_transit":false,"i_lat":-6.160725,"distance":906,"i_long":106.827103,"transit":false,"station_name":"Sawah Besar","time":2,"station_id":"SW","line":2},{"station_name":"Juanda","is_transit":false,"time":2,"i_long":106.828284,"line":2,"station_id":"JUA","transit":false,"i_lat":-6.166716,"distance":1149},{"station_name":"Gondangdia","station_id":"GDD","distance":2015,"transit":false,"time":4,"i_lat":-6.186295,"is_transit":false,"i_long":106.832183,"line":2},{"station_name":"Cikini","i_long":106.840169,"distance":1750,"station_id":"CKI","transit":false,"i_lat":-6.198556,"time":3,"is_transit":false,"line":2},{"is_transit":true,"line":2,"time":4,"i_long":106.84912,"i_lat":-6.209883,"transit":true,"distance":1590,"station_id":"MRI","station_name":"Manggarai"},{"line":1,"station_name":"Matraman","i_long":106.858896,"station_id":"MTR","is_transit":false,"i_lat":-6.212485,"transit":false,"distance":1275,"time":2},{"line":1,"is_transit":true,"i_lat":-6.215091,"station_id":"JNG","distance":1377,"station_name":"Jatinegara","i_long":106.86807400000001,"transit":true,"time":8},{"i_lat":-6.209188,"distance":1236,"time":2,"i_long":106.861737,"is_transit":false,"station_name":"Pondok Jati","transit":false,"line":11,"station_id":"POK"},{"distance":1829,"station_name":"Kramat","is_transit":false,"i_lat":-6.193792,"line":11,"transit":false,"station_id":"KMT","time":2,"i_long":106.855437},{"line":11,"station_id":"GST","distance":973,"station_name":"Gang Sentiong","transit":false,"time":1,"i_lat":-6.185975,"i_long":106.850107,"is_transit":false},{"i_long":106.84368,"station_id":"PSE","i_lat":-6.174784,"line":11,"distance":1567,"is_transit":false,"station_name":"Pasar Senen","transit":false,"time":8}]]}