{"data":[[{"station_name":"Ancol","i_long":106.84464,"station_id":"AC","is_transit":false,"time":0,"transit":false,"i_lat":-6.128023,"line":4,"distance":0},{"line":4,"transit":true,"i_long":106.826365,"is_transit":true,"station_id":"KPB","time":4,"station_name":"Kampung Bandan","i_lat":-6.132549,"distance":2185},{"i_long":106.79867,"distance":4102,"time":9,"is_transit":false,"line":1,"transit":false,"station_name":"Angke","i_lat":-6.144674,"station_id":"AK"},{"station_name":"Duri","distance":1230,"i_lat":-6.155215,"time":4,"transit":false,"is_transit":false,"i_long":106.800832,"line":1,"station_id":"DU"},{"i_long":106.811091,"distance":3632,"station_id":"THB","station_name":"Tanah Abang","is_transit":true,"line":1,"transit":true,"time":8,"i_lat":-6.185545},{"transit":false,"line":6,"i_long":106.79689,"i_lat":-6.207404,"is_transit":false,"time":6,"station_name":"Palmerah","station_id":"PLM","distance":3191}],[{"i_lat":-6.128023,"distance":0,"time":0,"is_transit":false,"station_name":"Ancol","transit":false,"line":4,"station_id":"AC","i_long":106.84464},{"is_transit":true,"transit":true,"distance":2185,"time":4,"line":4,"i_lat":-6.132549,"station_id":"KPB","station_name":"Kampung Bandan","i_long":106.826365},{"line":2,"transit":true,"station_id":"JAKK","i_long":106.812439,"is_transit":true,"time":3,"distance":1364,"i_lat":-6.137569,"station_name":"Jakarta Kota"},{"i_long":106.820901,"transit":false,"station_name":"Jayakarta","line":2,"distance":1264,"i_lat":-6.141205,"is_transit":false,"station_id":"JAY","time":4},{"i_long":106.82482,"line":2,"i_lat":-6.149769,"distance":1080,"station_id":"MGB","station_name":"Manggabesar","time":2,"is_transit":false,"transit":false},{"is_transit":false,"distance":906,"transit":false,"station_name":"Sawah Besar","time":2,"i_long":106.827103,"station_id":"SW","i_lat":-6.160725,"line":2},{"station_name":"Juanda","i_long":106.828284,"time":2,"distance":1149,"transit":false,"is_transit":false,"station_id":"JUA","line":2,"i_lat":-6.166716},{"transit":false,"station_id":"GDD","station_name":"Gondangdia","line":2,"time":4,"distance":2015,"is_transit":false,"i_lat":-6.186295,"i_long":106.832183},{"distance":1750,"i_lat":-6.198556,"is_transit":false,"transit":false,"time":3,"line":2,"i_long":106.840169,"station_name":"Cikini","station_id":"CKI"},{"distance":1590,"is_transit":true,"station_id":"MRI","i_lat":-6.209883,"time":4,"transit":true,"station_name":"Manggarai","line":2,"i_long":106.84912},{"station_name":"Sudirman","distance":3186,"transit":false,"is_transit":false,"i_long":106.822649,"time":4,"station_id":"SUD","line":1,"i_lat":-6.202263},{"is_transit":false,"transit":false,"i_long":106.819881,"distance":280,"i_lat":-6.201433,"line":1,"station_id":"SUDB","station_name":"Sudirman Baru","time":1},{"i_long":106.816351,"is_transit":false,"i_lat":-6.20132,"time":1,"line":1,"station_id":"KAT","transit":false,"station_name":"Karet","distance":471},{"time":5,"station_name":"Tanah Abang","is_transit":true,"line":1,"transit":true,"i_long":106.811091,"i_lat":-6.185545,"distance":2029,"station_id":"THB"},{"station_id":"PLM","i_long":106.79689,"transit":false,"time":6,"i_lat":-6.207404,"distance":3191,"line":6,"station_name":"Palmerah","is_transit":false}],[{"station_name":"Ancol","transit":false,"distance":0,"is_transit":false,"line":4,"i_long":106.84464,"time":0,"i_lat":-6.128023,"station_id":"AC"},{"time":4,"is_transit":true,"i_long":106.826365,"line":4,"transit":true,"distance":2185,"station_name":"Kampung Bandan","station_id":"KPB","i_lat":-6.132549},{"station_id":"RJW","line":11,"i_long":106.836569,"transit":false,"station_name":"Rajawali","time":3,"distance":1444,"is_transit":false,"i_lat":-6.14505},{"station_name":"Kemayoran","distance":1901,"station_id":"KMO","i_long":106.839204,"time":5,"is_transit":false,"line":11,"transit":false,"i_lat":-6.161728},{"i_long":106.84368,"station_id":"PSE","line":11,"is_transit":false,"transit":false,"distance":1436,"i_lat":-6.174784,"time":4,"station_name":"Pasar Senen"},{"time":8,"station_name":"Gang Sentiong","transit":false,"distance":1567,"is_transit":false,"i_lat":-6.185975,"i_long":106.850107,"station_id":"GST","line":11},{"time":1,"i_long":106.855437,"i_lat":-6.193792,"station_id":"KMT","station_name":"Kramat","line":11,"distance":973,"is_transit":false,"transit":false},{"station_id":"POK","station_name":"Pondok Jati","time":2,"is_transit":false,"i_lat":-6.209188,"i_long":106.861737,"line":11,"distance":1829,"transit":false},{"i_long":106.86807400000001,"station_id":"JNG","time":9,"line":1,"is_transit":true,"transit":true,"distance":1236,"i_lat":-6.215091,"station_name":"Jatinegara"},{"is_transit":false,"line":1,"i_long":106.858896,"station_id":"MTR","time":2,"i_lat":-6.212485,"station_name":"Matraman","distance":1377,"transit":false},{"is_transit":false,"time":2,"distance":1275,"i_long":106.84912,"line":2,"i_lat":-6.209883,"transit":false,"station_name":"Manggarai","station_id":"MRI"},{"i_long":106.822649,"station_name":"Sudirman","station_id":"SUD","line":1,"distance":3186,"transit":false,"time":4,"i_lat":-6.202263,"is_transit":false},{"time":1,"is_transit":false,"station_id":"SUDB","distance":280,"station_name":"Sudirman Baru","i_lat":-6.201433,"line":1,"i_long":106.819881,"transit":false},{"i_lat":-6.20132,"time":1,"line":1,"i_long":106.816351,"transit":false,"station_name":"Karet","is_transit":false,"station_id":"KAT","distance":471},{"time":5,"station_name":"Tanah Abang","i_lat":-6.185545,"station_id":"THB","i_long":106.811091,"distance":2029,"is_transit":true,"transit":true,"line":1},{"distance":3191,"station_name":"Palmerah","time":6,"i_long":106.79689,"line":6,"transit":false,"i_lat":-6.207404,"is_transit":false,"station_id":"PLM"}]]}