{"data":[[{"station_id":"AC","time":0,"station_name":"Ancol","is_transit":false,"transit":false,"distance":0,"i_lat":-6.128023,"i_long":106.84464,"line":4},{"is_transit":true,"time":4,"distance":2185,"station_id":"KPB","transit":true,"i_lat":-6.132549,"station_name":"Kampung Bandan","i_long":106.826365,"line":4},{"is_transit":false,"station_name":"Angke","distance":4102,"time":9,"station_id":"AK","i_long":106.79867,"i_lat":-6.144674,"transit":false,"line":1},{"station_name":"Duri","is_transit":false,"time":4,"distance":1230,"station_id":"DU","transit":false,"i_lat":-6.155215,"i_long":106.800832,"line":1},{"i_lat":-6.185545,"line":1,"distance":3632,"time":8,"station_id":"THB","is_transit":true,"transit":true,"i_long":106.811091,"station_name":"Tanah Abang"},{"time":6,"line":6,"is_transit":false,"i_lat":-6.207404,"station_id":"PLM","i_long":106.79689,"distance":3191,"station_name":"Palmerah","transit":false}],[{"i_long":106.84464,"i_lat":-6.128023,"is_transit":false,"line":4,"distance":0,"time":0,"station_name":"Ancol","transit":false,"station_id":"AC"},{"distance":2185,"i_lat":-6.132549,"station_name":"Kampung Bandan","station_id":"KPB","i_long":106.826365,"time":4,"is_transit":true,"transit":true,"line":4},{"station_id":"JAKK","is_transit":true,"time":3,"i_lat":-6.137569,"distance":1364,"i_long":106.812439,"station_name":"Jakarta Kota","transit":true,"line":2},{"transit":false,"line":2,"distance":1264,"i_long":106.820901,"time":4,"station_name":"Jayakarta","is_transit":false,"i_lat":-6.141205,"station_id":"JAY"},{"distance":1080,"station_id":"MGB","station_name":"Manggabesar","is_transit":false,"i_long":106.82482,"transit":false,"i_lat":-6.149769,"line":2,"time":2},{"transit":false,"station_name":"Sawah Besar","is_transit":false,"i_lat":-6.160725,"i_long":106.827103,"line":2,"distance":906,"time":2,"station_id":"SW"},{"i_lat":-6.166716,"line":2,"i_long":106.828284,"distance":1149,"station_id":"JUA","is_transit":false,"transit":false,"time":2,"station_name":"Juanda"},{"i_long":106.832183,"time":4,"transit":false,"i_lat":-6.186295,"station_id":"GDD","distance":2015,"station_name":"Gondangdia","line":2,"is_transit":false},{"distance":1750,"i_lat":-6.198556,"station_name":"Cikini","i_long":106.840169,"time":3,"line":2,"station_id":"CKI","is_transit":false,"transit":false},{"transit":true,"distance":1590,"time":4,"i_long":106.84912,"station_id":"MRI","station_name":"Manggarai","is_transit":true,"line":2,"i_lat":-6.209883},{"i_long":106.822649,"station_id":"SUD","station_name":"Sudirman","transit":false,"distance":3186,"is_transit":false,"i_lat":-6.202263,"time":4,"line":1},{"distance":280,"station_name":"Sudirman Baru","i_long":106.819881,"is_transit":false,"line":1,"station_id":"SUDB","time":1,"transit":false,"i_lat":-6.201433},{"station_id":"KAT","i_lat":-6.20132,"station_name":"Karet","i_long":106.816351,"transit":false,"line":1,"time":1,"distance":471,"is_transit":false},{"station_id":"THB","time":5,"station_name":"Tanah Abang","is_transit":true,"i_lat":-6.185545,"transit":true,"i_long":106.811091,"distance":2029,"line":1},{"i_lat":-6.207404,"distance":3191,"transit":false,"i_long":106.79689,"time":6,"line":6,"station_name":"Palmerah","is_transit":false,"station_id":"PLM"}],[{"time":0,"i_long":106.84464,"is_transit":false,"i_lat":-6.128023,"line":4,"distance":0,"station_id":"AC","station_name":"Ancol","transit":false},{"transit":true,"station_id":"KPB","station_name":"Kampung Bandan","i_long":106.826365,"time":4,"distance":2185,"i_lat":-6.132549,"is_transit":true,"line":4},{"line":11,"distance":1444,"station_id":"RJW","is_transit":false,"station_name":"Rajawali","i_lat":-6.14505,"time":3,"transit":false,"i_long":106.836569},{"transit":false,"i_long":106.839204,"time":5,"station_name":"Kemayoran","distance":1901,"is_transit":false,"i_lat":-6.161728,"line":11,"station_id":"KMO"},{"station_name":"Pasar Senen","station_id":"PSE","distance":1436,"i_lat":-6.174784,"i_long":106.84368,"is_transit":false,"line":11,"time":4,"transit":false},{"i_long":106.850107,"station_name":"Gang Sentiong","time":8,"transit":false,"is_transit":false,"distance":1567,"station_id":"GST","i_lat":-6.185975,"line":11},{"time":1,"is_transit":false,"transit":false,"i_long":106.855437,"distance":973,"station_id":"KMT","station_name":"Kramat","line":11,"i_lat":-6.193792},{"i_lat":-6.209188,"i_long":106.861737,"station_id":"POK","transit":false,"line":11,"time":2,"distance":1829,"is_transit":false,"station_name":"Pondok Jati"},{"station_id":"JNG","i_long":106.86807400000001,"line":1,"transit":true,"i_lat":-6.215091,"is_transit":true,"time":9,"distance":1236,"station_name":"Jatinegara"},{"line":1,"distance":1377,"i_long":106.858896,"station_name":"Matraman","i_lat":-6.212485,"time":2,"transit":false,"station_id":"MTR","is_transit":false},{"distance":1275,"line":2,"time":2,"station_id":"MRI","station_name":"Manggarai","is_transit":false,"transit":false,"i_long":106.84912,"i_lat":-6.209883},{"station_id":"SUD","i_lat":-6.202263,"distance":3186,"time":4,"line":1,"transit":false,"station_name":"Sudirman","is_transit":false,"i_long":106.822649},{"station_name":"Sudirman Baru","distance":280,"station_id":"SUDB","transit":false,"time":1,"i_lat":-6.201433,"i_long":106.819881,"is_transit":false,"line":1},{"station_id":"KAT","line":1,"i_long":106.816351,"is_transit":false,"time":1,"station_name":"Karet","distance":471,"transit":false,"i_lat":-6.20132},{"is_transit":true,"i_lat":-6.185545,"time":5,"transit":true,"line":1,"station_id":"THB","distance":2029,"station_name":"Tanah Abang","i_long":106.811091},{"i_long":106.79689,"is_transit":false,"distance":3191,"time":6,"station_name":"Palmerah","station_id":"PLM","line":6,"transit":false,"i_lat":-6.207404}]]}