{"data":[[{"line":4,"station_name":"Ancol","i_long":106.84464,"transit":false,"station_id":"AC","time":0,"i_lat":-6.128023,"is_transit":false,"distance":0},{"station_name":"Kampung Bandan","time":4,"transit":true,"is_transit":true,"line":4,"station_id":"KPB","i_lat":-6.132549,"i_long":106.826365,"distance":2185},{"time":3,"transit":false,"i_long":106.836569,"station_id":"RJW","distance":1444,"station_name":"Rajawali","line":11,"i_lat":-6.14505,"is_transit":false},{"i_long":106.839204,"distance":1901,"transit":false,"station_name":"Kemayoran","time":5,"is_transit":false,"station_id":"KMO","i_lat":-6.161728,"line":11},{"distance":1436,"i_lat":-6.174784,"time":4,"station_name":"Pasar Senen","i_long":106.84368,"transit":false,"is_transit":false,"station_id":"PSE","line":11}],[{"i_lat":-6.128023,"time":0,"line":4,"transit":false,"station_name":"Ancol","station_id":"AC","distance":0,"is_transit":false,"i_long":106.84464},{"time":4,"station_id":"KPB","transit":true,"i_long":106.826365,"is_transit":true,"i_lat":-6.132549,"station_name":"Kampung Bandan","distance":2185,"line":4},{"line":1,"i_lat":-6.144674,"distance":4102,"i_long":106.79867,"is_transit":false,"station_id":"AK","transit":false,"time":9,"station_name":"Angke"},{"station_name":"Duri","station_id":"DU","is_transit":false,"transit":false,"i_lat":-6.155215,"line":1,"i_long":106.800832,"distance":1230,"time":4},{"line":1,"i_lat":-6.185545,"distance":3632,"station_name":"Tanah Abang","station_id":"THB","transit":false,"i_long":106.811091,"is_transit":false,"time":8},{"line":1,"time":5,"transit":false,"i_lat":-6.20132,"station_name":"Karet","is_transit":false,"distance":2029,"station_id":"KAT","i_long":106.816351},{"i_long":106.819881,"i_lat":-6.201433,"time":1,"station_name":"Sudirman Baru","distance":471,"transit":false,"line":1,"station_id":"SUDB","is_transit":false},{"transit":false,"station_name":"Sudirman","is_transit":false,"time":1,"station_id":"SUD","i_lat":-6.202263,"line":1,"i_long":106.822649,"distance":280},{"station_name":"Manggarai","i_lat":-6.209883,"line":2,"station_id":"MRI","time":4,"is_transit":false,"transit":false,"distance":3186,"i_long":106.84912},{"i_long":106.858896,"i_lat":-6.212485,"line":1,"is_transit":false,"station_name":"Matraman","distance":1275,"time":2,"station_id":"MTR","transit":false},{"station_id":"JNG","i_lat":-6.215091,"distance":1377,"transit":true,"i_long":106.86807400000001,"line":1,"station_name":"Jatinegara","is_transit":true,"time":8},{"i_lat":-6.209188,"distance":1236,"station_name":"Pondok Jati","time":2,"station_id":"POK","is_transit":false,"transit":false,"line":11,"i_long":106.861737},{"distance":1829,"station_name":"Kramat","time":2,"station_id":"KMT","transit":false,"i_long":106.855437,"line":11,"is_transit":false,"i_lat":-6.193792},{"station_name":"Gang Sentiong","time":1,"transit":false,"is_transit":false,"distance":973,"i_long":106.850107,"line":11,"station_id":"GST","i_lat":-6.185975},{"station_id":"PSE","transit":false,"station_name":"Pasar Senen","i_lat":-6.174784,"i_long":106.84368,"line":11,"distance":1567,"is_transit":false,"time":8}],[{"distance":0,"i_lat":-6.128023,"i_long":106.84464,"transit":false,"is_transit":false,"station_id":"AC","line":4,"time":0,"station_name":"Ancol"},{"i_lat":-6.132549,"i_long":106.826365,"line":4,"distance":2185,"station_name":"Kampung Bandan","station_id":"KPB","is_transit":true,"time":4,"transit":true},{"line":2,"station_id":"JAKK","distance":1364,"time":3,"transit":true,"i_long":106.812439,"station_name":"Jakarta Kota","is_transit":true,"i_lat":-6.137569},{"station_id":"JAY","station_name":"Jayakarta","distance":1264,"line":2,"i_lat":-6.141205,"time":4,"is_transit":false,"transit":false,"i_long":106.820901},{"i_lat":-6.149769,"line":2,"distance":1080,"is_transit":false,"time":2,"transit":false,"i_long":106.82482,"station_name":"Manggabesar","station_id":"MGB"},{"station_id":"SW","i_lat":-6.160725,"i_long":106.827103,"distance":906,"transit":false,"station_name":"Sawah Besar","line":2,"is_transit":false,"time":2},{"station_name":"Juanda","is_transit":false,"i_lat":-6.166716,"transit":false,"time":2,"line":2,"i_long":106.828284,"station_id":"JUA","distance":1149},{"station_id":"GDD","i_lat":-6.186295,"i_long":106.832183,"transit":false,"line":2,"time":4,"distance":2015,"station_name":"Gondangdia","is_transit":false},{"is_transit":false,"i_long":106.840169,"i_lat":-6.198556,"time":3,"station_id":"CKI","line":2,"distance":1750,"transit":false,"station_name":"Cikini"},{"station_id":"MRI","station_name":"Manggarai","distance":1590,"is_transit":true,"transit":true,"i_lat":-6.209883,"time":4,"i_long":106.84912,"line":2},{"station_name":"Matraman","distance":1275,"time":2,"station_id":"MTR","line":1,"transit":false,"i_lat":-6.212485,"is_transit":false,"i_long":106.858896},{"i_long":106.86807400000001,"i_lat":-6.215091,"station_name":"Jatinegara","distance":1377,"is_transit":true,"time":8,"station_id":"JNG","line":1,"transit":true},{"station_id":"POK","i_lat":-6.209188,"transit":false,"station_name":"Pondok Jati","i_long":106.861737,"distance":1236,"time":2,"line":11,"is_transit":false},{"line":11,"i_lat":-6.193792,"station_id":"KMT","distance":1829,"time":2,"transit":false,"i_long":106.855437,"station_name":"Kramat","is_transit":false},{"i_long":106.850107,"line":11,"station_name":"Gang Sentiong","distance":973,"station_id":"GST","is_transit":false,"transit":false,"i_lat":-6.185975,"time":1},{"station_name":"Pasar Senen","is_transit":false,"line":11,"time":8,"station_id":"PSE","distance":1567,"transit":false,"i_lat":-6.174784,"i_long":106.84368}]]}