{"data":[[{"transit":false,"line":0,"station_id":"AC","i_lat":-6.128023,"i_long":106.84464,"time":0,"distance":0,"station_name":"Ancol","is_transit":false},{"station_name":"Kampung Bandan","i_lat":-6.132549,"station_id":"KPB","transit":false,"i_long":106.826365,"line":0,"distance":2185,"is_transit":true,"time":4},{"distance":4102,"i_long":106.79867,"i_lat":-6.144674,"is_transit":false,"time":9,"line":0,"station_name":"Angke","station_id":"AK","transit":false},{"transit":true,"station_name":"Duri","distance":1230,"station_id":"DU","is_transit":true,"time":4,"i_long":106.800832,"i_lat":-6.155215,"line":1},{"time":3,"is_transit":false,"i_lat":-6.162021,"line":5,"i_long":106.788277,"station_id":"GGL","station_name":"Grogol","transit":false,"distance":1700},{"distance":2036,"is_transit":false,"station_id":"PSG","line":5,"station_name":"Pesing","time":2,"i_lat":-6.161433,"i_long":106.771379,"transit":false}],[{"distance":0,"is_transit":false,"time":0,"i_lat":-6.128023,"i_long":106.84464,"station_name":"Ancol","line":0,"station_id":"AC","transit":false},{"station_name":"Kampung Bandan","transit":false,"distance":2185,"station_id":"KPB","is_transit":true,"i_lat":-6.132549,"i_long":106.826365,"line":0,"time":4},{"transit":true,"time":3,"station_id":"JAKK","is_transit":true,"i_long":106.812439,"distance":1364,"i_lat":-6.137569,"station_name":"Jakarta Kota","line":0},{"time":4,"distance":1264,"i_lat":-6.141205,"transit":false,"station_name":"Jayakarta","i_long":106.820901,"line":7,"station_id":"JAY","is_transit":false},{"time":2,"distance":1080,"is_transit":false,"i_lat":-6.149769,"transit":false,"line":2,"station_id":"MGB","station_name":"Manggabesar","i_long":106.82482},{"transit":false,"distance":906,"is_transit":false,"station_id":"SW","time":2,"station_name":"Sawah Besar","line":2,"i_lat":-6.160725,"i_long":106.827103},{"station_id":"JUA","time":2,"station_name":"Juanda","transit":false,"is_transit":false,"distance":1149,"line":2,"i_long":106.828284,"i_lat":-6.166716},{"station_name":"Gondangdia","transit":false,"line":2,"i_long":106.832183,"time":4,"i_lat":-6.186295,"distance":2015,"station_id":"GDD","is_transit":false},{"time":3,"transit":false,"i_long":106.840169,"i_lat":-6.198556,"station_id":"CKI","is_transit":false,"station_name":"Cikini","distance":1750,"line":0},{"transit":true,"station_name":"Manggarai","i_long":106.84912,"time":4,"is_transit":true,"distance":1590,"line":0,"i_lat":-6.209883,"station_id":"MRI"},{"i_long":106.822649,"station_name":"Sudirman","time":4,"station_id":"SUD","i_lat":-6.202263,"line":1,"distance":3186,"is_transit":false,"transit":false},{"time":1,"station_id":"SUDB","line":1,"distance":280,"transit":false,"is_transit":false,"i_long":106.819881,"station_name":"Sudirman Baru","i_lat":-6.201433},{"transit":false,"station_name":"Karet","distance":471,"time":1,"is_transit":false,"i_long":106.816351,"i_lat":-6.20132,"line":1,"station_id":"KAT"},{"is_transit":true,"transit":false,"line":1,"station_name":"Tanah Abang","time":5,"i_lat":-6.185545,"i_long":106.811091,"station_id":"THB","distance":2029},{"transit":true,"i_lat":-6.155215,"time":8,"station_id":"DU","station_name":"Duri","distance":3632,"i_long":106.800832,"line":1,"is_transit":true},{"distance":1700,"transit":false,"is_transit":false,"i_lat":-6.162021,"station_id":"GGL","i_long":106.788277,"line":5,"station_name":"Grogol","time":3},{"line":5,"distance":2036,"station_name":"Pesing","station_id":"PSG","is_transit":false,"i_lat":-6.161433,"i_long":106.771379,"time":2,"transit":false}],[{"station_name":"Ancol","is_transit":false,"transit":false,"distance":0,"time":0,"i_long":106.84464,"line":0,"station_id":"AC","i_lat":-6.128023},{"transit":true,"distance":2185,"i_lat":-6.132549,"station_id":"KPB","i_long":106.826365,"line":0,"is_transit":true,"time":4,"station_name":"Kampung Bandan"},{"station_name":"Rajawali","transit":false,"i_long":106.836569,"i_lat":-6.14505,"line":11,"distance":1444,"is_transit":false,"station_id":"RJW","time":3},{"i_long":106.839204,"time":5,"line":11,"is_transit":false,"station_id":"KMO","transit":false,"distance":1901,"i_lat":-6.161728,"station_name":"Kemayoran"},{"line":11,"distance":1436,"station_name":"Pasar Senen","i_long":106.84368,"station_id":"PSE","transit":false,"time":4,"is_transit":false,"i_lat":-6.174784},{"is_transit":false,"line":11,"station_id":"GST","transit":false,"station_name":"Gang Sentiong","distance":1567,"i_long":106.850107,"i_lat":-6.185975,"time":8},{"station_id":"KMT","is_transit":false,"station_name":"Kramat","distance":973,"i_long":106.855437,"i_lat":-6.193792,"line":11,"time":1,"transit":false},{"station_name":"Pondok Jati","is_transit":false,"i_long":106.861737,"line":11,"time":2,"transit":false,"i_lat":-6.209188,"distance":1829,"station_id":"POK"},{"line":0,"station_name":"Jatinegara","time":9,"station_id":"JNG","is_transit":true,"i_long":106.86807400000001,"transit":true,"distance":1236,"i_lat":-6.215091},{"transit":false,"i_lat":-6.212485,"i_long":106.858896,"station_name":"Matraman","station_id":"MTR","distance":1377,"line":1,"is_transit":false,"time":2},{"station_name":"Manggarai","transit":false,"i_lat":-6.209883,"line":0,"station_id":"MRI","time":2,"is_transit":true,"i_long":106.84912,"distance":1275},{"line":1,"time":4,"is_transit":false,"station_id":"SUD","distance":3186,"transit":false,"i_lat":-6.202263,"station_name":"Sudirman","i_long":106.822649},{"i_long":106.819881,"line":1,"transit":false,"station_name":"Sudirman Baru","station_id":"SUDB","time":1,"distance":280,"is_transit":false,"i_lat":-6.201433},{"distance":471,"i_lat":-6.20132,"line":1,"station_id":"KAT","time":1,"station_name":"Karet","i_long":106.816351,"transit":false,"is_transit":false},{"i_lat":-6.185545,"transit":false,"station_id":"THB","is_transit":true,"station_name":"Tanah Abang","distance":2029,"i_long":106.811091,"line":1,"time":5},{"station_name":"Duri","station_id":"DU","i_lat":-6.155215,"transit":true,"distance":3632,"time":8,"is_transit":true,"line":1,"i_long":106.800832},{"time":3,"distance":1700,"station_id":"GGL","line":5,"transit":false,"station_name":"Grogol","is_transit":false,"i_lat":-6.162021,"i_long":106.788277},{"i_lat":-6.161433,"transit":false,"station_name":"Pesing","i_long":106.771379,"distance":2036,"time":2,"is_transit":false,"station_id":"PSG","line":5}]]}