{"data":[[{"line":4,"transit":false,"distance":0,"i_long":106.84464,"station_id":"AC","i_lat":-6.128023,"time":0,"station_name":"Ancol","is_transit":false},{"is_transit":true,"transit":true,"line":4,"i_lat":-6.132549,"time":4,"i_long":106.826365,"distance":2185,"station_id":"KPB","station_name":"Kampung Bandan"},{"distance":4102,"transit":false,"line":1,"i_lat":-6.144674,"is_transit":false,"station_id":"AK","time":9,"station_name":"Angke","i_long":106.79867},{"i_long":106.800832,"time":4,"station_name":"Duri","is_transit":false,"transit":false,"line":1,"distance":1230,"station_id":"DU","i_lat":-6.155215},{"station_name":"Tanah Abang","station_id":"THB","transit":false,"distance":3632,"time":8,"line":1,"i_lat":-6.185545,"i_long":106.811091,"is_transit":false},{"station_id":"KAT","station_name":"Karet","line":1,"time":5,"is_transit":false,"transit":false,"i_lat":-6.20132,"distance":2029,"i_long":106.816351},{"station_id":"SUDB","distance":471,"i_lat":-6.201433,"i_long":106.819881,"transit":false,"station_name":"Sudirman Baru","line":1,"time":1,"is_transit":false},{"line":1,"station_id":"SUD","i_long":106.822649,"time":1,"distance":280,"station_name":"Sudirman","i_lat":-6.202263,"is_transit":false,"transit":false},{"transit":true,"i_lat":-6.209883,"station_id":"MRI","i_long":106.84912,"distance":3186,"time":4,"is_transit":true,"line":2,"station_name":"Manggarai"},{"distance":2610,"line":2,"transit":false,"time":4,"is_transit":false,"station_name":"Tebet","i_lat":-6.226659,"i_long":106.857948,"station_id":"TEB"},{"time":2,"distance":1230,"station_id":"CW","i_long":106.856607,"station_name":"Cawang","is_transit":false,"transit":false,"i_lat":-6.242512,"line":2},{"i_lat":-6.255332,"station_name":"Duren Kalibata","line":2,"is_transit":false,"station_id":"DRN","time":3,"distance":1546,"transit":false,"i_long":106.85449},{"distance":824,"transit":false,"is_transit":false,"station_name":"Pasar Minggu Baru","line":2,"time":2,"station_id":"PSMB","i_lat":-6.263214,"i_long":106.851577},{"station_id":"PSM","time":2,"station_name":"Pasar Minggu","is_transit":false,"transit":false,"line":2,"i_long":106.843999,"i_lat":-6.2842400000000005,"distance":2380},{"time":4,"line":2,"transit":false,"is_transit":false,"station_id":"TNT","i_lat":-6.3080680000000005,"distance":2820,"station_name":"Tanjung Barat","i_long":106.838896},{"station_id":"LNA","line":2,"station_name":"Lenteng Agung","i_long":106.832616,"transit":false,"time":3,"is_transit":false,"i_lat":-6.330363,"distance":2671},{"distance":1029,"i_long":106.834175,"line":2,"i_lat":-6.339291,"time":2,"station_name":"Univ. Pancasila","transit":false,"is_transit":false,"station_id":"UP"},{"time":3,"i_lat":-6.360749,"station_name":"Univ. Indonesia","i_long":106.831474,"line":2,"distance":2264,"station_id":"UI","is_transit":false,"transit":false},{"i_lat":-6.369073,"transit":false,"distance":1109,"is_transit":false,"line":2,"i_long":106.831114,"time":2,"station_name":"Pondok Cina","station_id":"POC"}],[{"transit":false,"i_long":106.84464,"station_name":"Ancol","line":4,"station_id":"AC","distance":0,"time":0,"is_transit":false,"i_lat":-6.128023},{"time":4,"i_lat":-6.132549,"station_id":"KPB","is_transit":true,"transit":true,"distance":2185,"line":4,"i_long":106.826365,"station_name":"Kampung Bandan"},{"station_id":"JAKK","i_lat":-6.137569,"time":3,"station_name":"Jakarta Kota","transit":true,"i_long":106.812439,"is_transit":true,"distance":1364,"line":2},{"i_lat":-6.141205,"is_transit":false,"transit":false,"i_long":106.820901,"distance":1264,"station_name":"Jayakarta","line":2,"station_id":"JAY","time":4},{"distance":1080,"is_transit":false,"i_lat":-6.149769,"station_id":"MGB","time":2,"i_long":106.82482,"transit":false,"station_name":"Manggabesar","line":2},{"station_id":"SW","distance":906,"time":2,"station_name":"Sawah Besar","transit":false,"is_transit":false,"i_lat":-6.160725,"line":2,"i_long":106.827103},{"distance":1149,"station_name":"Juanda","transit":false,"is_transit":false,"station_id":"JUA","i_long":106.828284,"line":2,"time":2,"i_lat":-6.166716},{"transit":false,"time":4,"i_long":106.832183,"distance":2015,"station_name":"Gondangdia","is_transit":false,"station_id":"GDD","i_lat":-6.186295,"line":2},{"time":3,"transit":false,"station_name":"Cikini","line":2,"station_id":"CKI","distance":1750,"i_lat":-6.198556,"is_transit":false,"i_long":106.840169},{"i_lat":-6.209883,"line":2,"station_name":"Manggarai","is_transit":false,"distance":1590,"i_long":106.84912,"time":4,"station_id":"MRI","transit":false},{"i_long":106.857948,"time":4,"i_lat":-6.226659,"station_id":"TEB","station_name":"Tebet","is_transit":false,"transit":false,"line":2,"distance":2610},{"is_transit":false,"distance":1230,"time":2,"station_id":"CW","line":2,"station_name":"Cawang","transit":false,"i_lat":-6.242512,"i_long":106.856607},{"time":3,"is_transit":false,"i_lat":-6.255332,"station_id":"DRN","line":2,"distance":1546,"station_name":"Duren Kalibata","transit":false,"i_long":106.85449},{"i_lat":-6.263214,"line":2,"is_transit":false,"distance":824,"transit":false,"station_name":"Pasar Minggu Baru","station_id":"PSMB","i_long":106.851577,"time":2},{"i_long":106.843999,"i_lat":-6.2842400000000005,"station_id":"PSM","distance":2380,"time":2,"transit":false,"line":2,"station_name":"Pasar Minggu","is_transit":false},{"i_lat":-6.3080680000000005,"station_id":"TNT","is_transit":false,"transit":false,"station_name":"Tanjung Barat","i_long":106.838896,"line":2,"distance":2820,"time":4},{"time":3,"i_long":106.832616,"line":2,"transit":false,"station_name":"Lenteng Agung","distance":2671,"station_id":"LNA","is_transit":false,"i_lat":-6.330363},{"i_long":106.834175,"station_name":"Univ. Pancasila","line":2,"distance":1029,"station_id":"UP","transit":false,"time":2,"is_transit":false,"i_lat":-6.339291},{"time":3,"i_long":106.831474,"station_id":"UI","station_name":"Univ. Indonesia","is_transit":false,"i_lat":-6.360749,"transit":false,"line":2,"distance":2264},{"distance":1109,"station_id":"POC","i_lat":-6.369073,"time":2,"station_name":"Pondok Cina","i_long":106.831114,"line":2,"transit":false,"is_transit":false}],[{"line":4,"distance":0,"is_transit":false,"time":0,"station_name":"Ancol","i_long":106.84464,"i_lat":-6.128023,"station_id":"AC","transit":false},{"distance":2185,"i_long":106.826365,"time":4,"station_id":"KPB","station_name":"Kampung Bandan","transit":true,"is_transit":true,"i_lat":-6.132549,"line":4},{"i_long":106.836569,"line":11,"distance":1444,"i_lat":-6.14505,"time":3,"transit":false,"station_name":"Rajawali","is_transit":false,"station_id":"RJW"},{"i_lat":-6.161728,"distance":1901,"is_transit":false,"transit":false,"station_id":"KMO","time":5,"i_long":106.839204,"station_name":"Kemayoran","line":11},{"transit":false,"i_lat":-6.174784,"station_id":"PSE","time":4,"i_long":106.84368,"station_name":"Pasar Senen","line":11,"distance":1436,"is_transit":false},{"station_name":"Gang Sentiong","transit":false,"time":8,"i_lat":-6.185975,"distance":1567,"station_id":"GST","line":11,"is_transit":false,"i_long":106.850107},{"i_lat":-6.193792,"i_long":106.855437,"time":1,"transit":false,"is_transit":false,"line":11,"station_name":"Kramat","station_id":"KMT","distance":973},{"i_long":106.861737,"transit":false,"station_id":"POK","station_name":"Pondok Jati","line":11,"i_lat":-6.209188,"time":2,"distance":1829,"is_transit":false},{"i_long":106.86807400000001,"i_lat":-6.215091,"station_id":"JNG","distance":1236,"station_name":"Jatinegara","is_transit":true,"transit":true,"time":9,"line":1},{"is_transit":false,"line":1,"distance":1377,"station_name":"Matraman","transit":false,"i_lat":-6.212485,"station_id":"MTR","i_long":106.858896,"time":2},{"is_transit":true,"i_long":106.84912,"i_lat":-6.209883,"time":2,"station_name":"Manggarai","distance":1275,"line":2,"station_id":"MRI","transit":true},{"i_long":106.857948,"line":2,"is_transit":false,"station_id":"TEB","time":4,"station_name":"Tebet","i_lat":-6.226659,"distance":2610,"transit":false},{"station_id":"CW","station_name":"Cawang","is_transit":false,"line":2,"transit":false,"i_lat":-6.242512,"time":2,"distance":1230,"i_long":106.856607},{"station_id":"DRN","transit":false,"station_name":"Duren Kalibata","i_lat":-6.255332,"is_transit":false,"line":2,"time":3,"distance":1546,"i_long":106.85449},{"station_id":"PSMB","distance":824,"time":2,"station_name":"Pasar Minggu Baru","is_transit":false,"transit":false,"i_lat":-6.263214,"i_long":106.851577,"line":2},{"time":2,"station_id":"PSM","transit":false,"station_name":"Pasar Minggu","is_transit":false,"i_long":106.843999,"distance":2380,"line":2,"i_lat":-6.2842400000000005},{"station_id":"TNT","i_lat":-6.3080680000000005,"station_name":"Tanjung Barat","distance":2820,"time":4,"transit":false,"line":2,"is_transit":false,"i_long":106.838896},{"line":2,"i_lat":-6.330363,"i_long":106.832616,"distance":2671,"transit":false,"time":3,"station_name":"Lenteng Agung","is_transit":false,"station_id":"LNA"},{"station_name":"Univ. Pancasila","station_id":"UP","i_lat":-6.339291,"is_transit":false,"distance":1029,"time":2,"transit":false,"i_long":106.834175,"line":2},{"station_id":"UI","i_lat":-6.360749,"is_transit":false,"i_long":106.831474,"time":3,"distance":2264,"station_name":"Univ. Indonesia","transit":false,"line":2},{"i_lat":-6.369073,"line":2,"transit":false,"station_name":"Pondok Cina","is_transit":false,"distance":1109,"i_long":106.831114,"time":2,"station_id":"POC"}]]}