{"data":[[{"time":0,"distance":0,"is_transit":false,"station_name":"Ancol","i_lat":-6.128023,"i_long":106.84464,"line":4,"transit":false,"station_id":"AC"},{"distance":2185,"i_lat":-6.132549,"station_id":"KPB","i_long":106.826365,"line":4,"is_transit":true,"time":4,"station_name":"Kampung Bandan","transit":true},{"distance":4102,"i_lat":-6.144674,"line":1,"i_long":106.79867,"transit":false,"station_name":"Angke","station_id":"AK","time":9,"is_transit":false},{"station_id":"DU","time":4,"is_transit":false,"station_name":"Duri","i_lat":-6.155215,"line":1,"i_long":106.800832,"transit":false,"distance":1230},{"distance":3632,"i_long":106.811091,"station_name":"Tanah Abang","i_lat":-6.185545,"line":1,"time":8,"is_transit":true,"station_id":"THB","transit":true},{"transit":false,"time":6,"distance":3191,"i_lat":-6.207404,"line":6,"is_transit":false,"station_name":"Palmerah","i_long":106.79689,"station_id":"PLM"},{"line":6,"is_transit":false,"station_name":"Kebayoran","transit":false,"i_long":106.780334,"station_id":"KBY","distance":3737,"time":7,"i_lat":-6.237242},{"i_lat":-6.276362,"station_id":"PDJ","i_long":106.74273,"distance":6218,"is_transit":false,"transit":false,"time":8,"station_name":"Pondokranji","line":6},{"distance":2179,"i_lat":-6.288927,"i_long":106.728916,"line":6,"station_id":"JMU","is_transit":false,"transit":false,"station_name":"Jurangmangu","time":3},{"i_lat":-6.296963,"transit":false,"i_long":106.712277,"line":6,"station_name":"Sudimara","time":4,"is_transit":false,"distance":1994,"station_id":"SDM"},{"station_name":"Rawa Buntu","station_id":"RU","time":6,"distance":4566,"i_lat":-6.314823,"line":6,"i_long":106.675475,"transit":false,"is_transit":false},{"station_id":"SRP","is_transit":false,"station_name":"Serpong","i_lat":-6.319871,"transit":false,"time":4,"distance":2413,"i_long":106.66566,"line":6},{"distance":1784,"is_transit":false,"i_long":106.640411,"transit":false,"station_name":"Cisauk","line":3,"time":4,"station_id":"CSK","i_lat":-6.32484},{"time":4,"is_transit":false,"i_long":106.617853,"transit":false,"line":3,"distance":2519,"station_id":"CC","station_name":"Cicayur","i_lat":-6.329547},{"transit":false,"station_name":"Parung Panjang","time":8,"is_transit":false,"line":6,"distance":5968,"i_long":106.568863,"station_id":"PRP","i_lat":-6.3441410000000005}],[{"distance":0,"station_name":"Ancol","station_id":"AC","line":4,"transit":false,"i_lat":-6.128023,"is_transit":false,"i_long":106.84464,"time":0},{"transit":true,"is_transit":true,"distance":2185,"i_lat":-6.132549,"i_long":106.826365,"line":4,"station_name":"Kampung Bandan","station_id":"KPB","time":4},{"is_transit":true,"station_name":"Jakarta Kota","station_id":"JAKK","time":3,"i_lat":-6.137569,"transit":true,"i_long":106.812439,"distance":1364,"line":2},{"transit":false,"line":2,"station_id":"JAY","is_transit":false,"distance":1264,"i_long":106.820901,"time":4,"i_lat":-6.141205,"station_name":"Jayakarta"},{"is_transit":false,"distance":1080,"station_id":"MGB","station_name":"Manggabesar","transit":false,"i_lat":-6.149769,"i_long":106.82482,"line":2,"time":2},{"station_id":"SW","transit":false,"time":2,"i_lat":-6.160725,"is_transit":false,"station_name":"Sawah Besar","distance":906,"line":2,"i_long":106.827103},{"i_long":106.828284,"line":2,"transit":false,"station_id":"JUA","i_lat":-6.166716,"station_name":"Juanda","is_transit":false,"time":2,"distance":1149},{"i_long":106.832183,"line":2,"station_name":"Gondangdia","transit":false,"is_transit":false,"i_lat":-6.186295,"distance":2015,"station_id":"GDD","time":4},{"i_long":106.840169,"distance":1750,"transit":false,"station_id":"CKI","time":3,"is_transit":false,"i_lat":-6.198556,"station_name":"Cikini","line":2},{"station_name":"Manggarai","line":2,"station_id":"MRI","i_long":106.84912,"distance":1590,"transit":true,"i_lat":-6.209883,"time":4,"is_transit":true},{"is_transit":false,"station_id":"SUD","i_long":106.822649,"line":1,"time":4,"i_lat":-6.202263,"station_name":"Sudirman","distance":3186,"transit":false},{"station_id":"SUDB","is_transit":false,"time":1,"i_lat":-6.201433,"line":1,"transit":false,"distance":280,"station_name":"Sudirman Baru","i_long":106.819881},{"i_lat":-6.20132,"station_id":"KAT","transit":false,"i_long":106.816351,"is_transit":false,"time":1,"distance":471,"line":1,"station_name":"Karet"},{"station_id":"THB","i_long":106.811091,"transit":true,"time":5,"distance":2029,"line":1,"station_name":"Tanah Abang","i_lat":-6.185545,"is_transit":true},{"i_long":106.79689,"is_transit":false,"station_name":"Palmerah","distance":3191,"i_lat":-6.207404,"line":6,"station_id":"PLM","time":6,"transit":false},{"is_transit":false,"transit":false,"station_id":"KBY","i_lat":-6.237242,"line":6,"distance":3737,"i_long":106.780334,"station_name":"Kebayoran","time":7},{"station_name":"Pondokranji","i_lat":-6.276362,"transit":false,"time":8,"is_transit":false,"station_id":"PDJ","distance":6218,"line":6,"i_long":106.74273},{"distance":2179,"i_lat":-6.288927,"time":3,"is_transit":false,"station_id":"JMU","station_name":"Jurangmangu","transit":false,"line":6,"i_long":106.728916},{"i_lat":-6.296963,"time":4,"line":6,"is_transit":false,"transit":false,"i_long":106.712277,"station_name":"Sudimara","station_id":"SDM","distance":1994},{"i_long":106.675475,"time":6,"line":6,"station_id":"RU","i_lat":-6.314823,"transit":false,"distance":4566,"is_transit":false,"station_name":"Rawa Buntu"},{"station_name":"Serpong","distance":2413,"time":4,"i_lat":-6.319871,"is_transit":false,"transit":false,"station_id":"SRP","i_long":106.66566,"line":6},{"distance":1784,"time":4,"station_id":"CSK","is_transit":false,"station_name":"Cisauk","i_lat":-6.32484,"i_long":106.640411,"line":3,"transit":false},{"line":3,"station_name":"Cicayur","is_transit":false,"station_id":"CC","i_lat":-6.329547,"distance":2519,"time":4,"i_long":106.617853,"transit":false},{"line":6,"transit":false,"time":8,"distance":5968,"station_name":"Parung Panjang","station_id":"PRP","is_transit":false,"i_lat":-6.3441410000000005,"i_long":106.568863}],[{"time":0,"distance":0,"line":4,"station_id":"AC","is_transit":false,"i_lat":-6.128023,"transit":false,"station_name":"Ancol","i_long":106.84464},{"i_long":106.826365,"line":4,"station_name":"Kampung Bandan","transit":true,"is_transit":true,"i_lat":-6.132549,"station_id":"KPB","distance":2185,"time":4},{"station_id":"RJW","is_transit":false,"distance":1444,"i_lat":-6.14505,"i_long":106.836569,"station_name":"Rajawali","time":3,"transit":false,"line":11},{"i_lat":-6.161728,"is_transit":false,"distance":1901,"time":5,"station_name":"Kemayoran","transit":false,"i_long":106.839204,"station_id":"KMO","line":11},{"station_id":"PSE","i_lat":-6.174784,"station_name":"Pasar Senen","distance":1436,"time":4,"line":11,"transit":false,"i_long":106.84368,"is_transit":false},{"station_id":"GST","line":11,"station_name":"Gang Sentiong","i_lat":-6.185975,"is_transit":false,"transit":false,"time":8,"distance":1567,"i_long":106.850107},{"is_transit":false,"time":1,"distance":973,"station_name":"Kramat","station_id":"KMT","i_lat":-6.193792,"i_long":106.855437,"line":11,"transit":false},{"is_transit":false,"station_name":"Pondok Jati","distance":1829,"i_long":106.861737,"i_lat":-6.209188,"transit":false,"station_id":"POK","time":2,"line":11},{"time":9,"is_transit":true,"transit":true,"i_long":106.86807400000001,"line":1,"station_id":"JNG","i_lat":-6.215091,"distance":1236,"station_name":"Jatinegara"},{"line":1,"station_id":"MTR","transit":false,"time":2,"distance":1377,"is_transit":false,"i_lat":-6.212485,"i_long":106.858896,"station_name":"Matraman"},{"transit":false,"station_id":"MRI","distance":1275,"time":2,"i_long":106.84912,"line":2,"is_transit":false,"i_lat":-6.209883,"station_name":"Manggarai"},{"time":4,"i_lat":-6.202263,"i_long":106.822649,"station_name":"Sudirman","station_id":"SUD","transit":false,"is_transit":false,"line":1,"distance":3186},{"i_lat":-6.201433,"line":1,"i_long":106.819881,"is_transit":false,"transit":false,"time":1,"station_name":"Sudirman Baru","distance":280,"station_id":"SUDB"},{"distance":471,"station_name":"Karet","is_transit":false,"i_lat":-6.20132,"line":1,"i_long":106.816351,"time":1,"station_id":"KAT","transit":false},{"transit":true,"station_id":"THB","is_transit":true,"line":1,"i_long":106.811091,"distance":2029,"i_lat":-6.185545,"station_name":"Tanah Abang","time":5},{"station_id":"PLM","i_long":106.79689,"time":6,"transit":false,"distance":3191,"is_transit":false,"i_lat":-6.207404,"station_name":"Palmerah","line":6},{"i_lat":-6.237242,"transit":false,"i_long":106.780334,"station_name":"Kebayoran","station_id":"KBY","line":6,"distance":3737,"is_transit":false,"time":7},{"i_long":106.74273,"transit":false,"time":8,"line":6,"station_id":"PDJ","distance":6218,"i_lat":-6.276362,"station_name":"Pondokranji","is_transit":false},{"is_transit":false,"station_name":"Jurangmangu","i_lat":-6.288927,"time":3,"line":6,"transit":false,"i_long":106.728916,"station_id":"JMU","distance":2179},{"time":4,"i_long":106.712277,"distance":1994,"is_transit":false,"station_name":"Sudimara","transit":false,"station_id":"SDM","line":6,"i_lat":-6.296963},{"transit":false,"i_lat":-6.314823,"line":6,"distance":4566,"station_name":"Rawa Buntu","is_transit":false,"i_long":106.675475,"station_id":"RU","time":6},{"distance":2413,"transit":false,"is_transit":false,"time":4,"i_long":106.66566,"line":6,"station_name":"Serpong","station_id":"SRP","i_lat":-6.319871},{"station_id":"CSK","transit":false,"i_lat":-6.32484,"i_long":106.640411,"station_name":"Cisauk","line":3,"distance":1784,"is_transit":false,"time":4},{"i_lat":-6.329547,"station_id":"CC","transit":false,"is_transit":false,"station_name":"Cicayur","i_long":106.617853,"line":3,"time":4,"distance":2519},{"i_long":106.568863,"station_id":"PRP","transit":false,"line":6,"is_transit":false,"time":8,"station_name":"Parung Panjang","distance":5968,"i_lat":-6.3441410000000005}]]}