{"data":[[{"is_transit":false,"station_name":"Ancol","station_id":"AC","distance":0,"i_long":106.84464,"i_lat":-6.128023,"line":4,"transit":false,"time":0},{"transit":true,"station_name":"Kampung Bandan","distance":2185,"is_transit":true,"i_long":106.826365,"time":4,"line":4,"station_id":"KPB","i_lat":-6.132549},{"distance":4102,"transit":false,"station_id":"AK","is_transit":false,"i_long":106.79867,"line":1,"time":9,"station_name":"Angke","i_lat":-6.144674},{"i_lat":-6.155215,"station_id":"DU","station_name":"Duri","transit":true,"time":4,"is_transit":true,"i_long":106.800832,"distance":1230,"line":1},{"line":5,"time":3,"station_name":"Grogol","i_long":106.788277,"station_id":"GGL","i_lat":-6.162021,"is_transit":false,"transit":false,"distance":1700},{"distance":2036,"station_id":"PSG","is_transit":false,"transit":false,"station_name":"Pesing","i_long":106.771379,"time":2,"i_lat":-6.161433,"line":5}],[{"station_name":"Ancol","station_id":"AC","transit":false,"is_transit":false,"i_long":106.84464,"distance":0,"time":0,"i_lat":-6.128023,"line":4},{"line":4,"station_id":"KPB","is_transit":true,"station_name":"Kampung Bandan","i_lat":-6.132549,"i_long":106.826365,"distance":2185,"time":4,"transit":true},{"line":2,"i_lat":-6.137569,"is_transit":true,"station_id":"JAKK","distance":1364,"station_name":"Jakarta Kota","transit":true,"i_long":106.812439,"time":3},{"is_transit":false,"i_lat":-6.141205,"time":4,"line":2,"i_long":106.820901,"transit":false,"station_id":"JAY","distance":1264,"station_name":"Jayakarta"},{"line":2,"is_transit":false,"distance":1080,"time":2,"station_name":"Manggabesar","station_id":"MGB","transit":false,"i_long":106.82482,"i_lat":-6.149769},{"time":2,"i_lat":-6.160725,"transit":false,"station_id":"SW","station_name":"Sawah Besar","line":2,"is_transit":false,"i_long":106.827103,"distance":906},{"distance":1149,"transit":false,"station_id":"JUA","time":2,"station_name":"Juanda","i_long":106.828284,"is_transit":false,"i_lat":-6.166716,"line":2},{"i_long":106.832183,"is_transit":false,"station_id":"GDD","station_name":"Gondangdia","line":2,"time":4,"transit":false,"distance":2015,"i_lat":-6.186295},{"station_id":"CKI","distance":1750,"i_lat":-6.198556,"transit":false,"time":3,"station_name":"Cikini","is_transit":false,"i_long":106.840169,"line":2},{"station_name":"Manggarai","line":2,"i_lat":-6.209883,"distance":1590,"is_transit":true,"i_long":106.84912,"station_id":"MRI","transit":true,"time":4},{"i_long":106.822649,"station_name":"Sudirman","is_transit":false,"transit":false,"i_lat":-6.202263,"line":1,"distance":3186,"time":4,"station_id":"SUD"},{"station_id":"SUDB","station_name":"Sudirman Baru","is_transit":false,"i_lat":-6.201433,"i_long":106.819881,"transit":false,"time":1,"distance":280,"line":1},{"station_name":"Karet","transit":false,"time":1,"distance":471,"line":1,"i_lat":-6.20132,"station_id":"KAT","i_long":106.816351,"is_transit":false},{"distance":2029,"is_transit":false,"i_lat":-6.185545,"i_long":106.811091,"transit":false,"line":1,"time":5,"station_name":"Tanah Abang","station_id":"THB"},{"line":1,"i_lat":-6.155215,"station_id":"DU","station_name":"Duri","time":8,"transit":true,"i_long":106.800832,"is_transit":true,"distance":3632},{"i_lat":-6.162021,"distance":1700,"transit":false,"time":3,"i_long":106.788277,"line":5,"station_id":"GGL","is_transit":false,"station_name":"Grogol"},{"transit":false,"i_long":106.771379,"line":5,"time":2,"station_id":"PSG","station_name":"Pesing","i_lat":-6.161433,"is_transit":false,"distance":2036}],[{"station_name":"Ancol","distance":0,"transit":false,"i_lat":-6.128023,"i_long":106.84464,"station_id":"AC","is_transit":false,"time":0,"line":4},{"line":4,"transit":true,"station_name":"Kampung Bandan","time":4,"i_lat":-6.132549,"i_long":106.826365,"station_id":"KPB","is_transit":true,"distance":2185},{"station_name":"Rajawali","is_transit":false,"station_id":"RJW","line":11,"transit":false,"time":3,"distance":1444,"i_lat":-6.14505,"i_long":106.836569},{"distance":1901,"transit":false,"is_transit":false,"time":5,"station_name":"Kemayoran","line":11,"station_id":"KMO","i_long":106.839204,"i_lat":-6.161728},{"station_id":"PSE","transit":false,"line":11,"i_lat":-6.174784,"is_transit":false,"station_name":"Pasar Senen","time":4,"i_long":106.84368,"distance":1436},{"i_lat":-6.185975,"i_long":106.850107,"line":11,"transit":false,"station_id":"GST","is_transit":false,"distance":1567,"time":8,"station_name":"Gang Sentiong"},{"is_transit":false,"distance":973,"line":11,"time":1,"transit":false,"station_name":"Kramat","station_id":"KMT","i_lat":-6.193792,"i_long":106.855437},{"i_lat":-6.209188,"line":11,"station_name":"Pondok Jati","transit":false,"station_id":"POK","i_long":106.861737,"distance":1829,"is_transit":false,"time":2},{"station_name":"Jatinegara","transit":true,"i_long":106.86807400000001,"station_id":"JNG","i_lat":-6.215091,"line":1,"distance":1236,"time":9,"is_transit":true},{"i_long":106.858896,"distance":1377,"time":2,"transit":false,"station_name":"Matraman","line":1,"i_lat":-6.212485,"station_id":"MTR","is_transit":false},{"line":2,"is_transit":false,"distance":1275,"i_long":106.84912,"time":2,"i_lat":-6.209883,"station_id":"MRI","transit":false,"station_name":"Manggarai"},{"time":4,"i_long":106.822649,"is_transit":false,"distance":3186,"transit":false,"station_name":"Sudirman","station_id":"SUD","i_lat":-6.202263,"line":1},{"station_id":"SUDB","line":1,"station_name":"Sudirman Baru","is_transit":false,"i_lat":-6.201433,"transit":false,"time":1,"distance":280,"i_long":106.819881},{"station_name":"Karet","line":1,"is_transit":false,"station_id":"KAT","transit":false,"distance":471,"time":1,"i_long":106.816351,"i_lat":-6.20132},{"i_lat":-6.185545,"transit":false,"time":5,"station_id":"THB","i_long":106.811091,"distance":2029,"station_name":"Tanah Abang","is_transit":false,"line":1},{"transit":true,"is_transit":true,"distance":3632,"i_long":106.800832,"time":8,"station_name":"Duri","line":1,"i_lat":-6.155215,"station_id":"DU"},{"station_id":"GGL","time":3,"is_transit":false,"line":5,"i_long":106.788277,"transit":false,"i_lat":-6.162021,"distance":1700,"station_name":"Grogol"},{"distance":2036,"line":5,"i_lat":-6.161433,"station_id":"PSG","is_transit":false,"i_long":106.771379,"transit":false,"time":2,"station_name":"Pesing"}]]}