{"data":[[{"time":0,"station_name":"Ancol","i_lat":-6.128023,"i_long":106.84464,"distance":0,"station_id":"AC","line":0,"is_transit":false,"transit":false},{"i_long":106.826365,"station_name":"Kampung Bandan","line":0,"transit":true,"time":4,"is_transit":true,"station_id":"KPB","distance":2185,"i_lat":-6.132549},{"distance":1444,"station_name":"Rajawali","i_long":106.836569,"line":11,"i_lat":-6.14505,"is_transit":false,"transit":false,"station_id":"RJW","time":3},{"i_long":106.839204,"is_transit":false,"i_lat":-6.161728,"distance":1901,"line":11,"station_name":"Kemayoran","station_id":"KMO","time":5,"transit":false},{"station_name":"Pasar Senen","time":4,"is_transit":false,"station_id":"PSE","distance":1436,"i_long":106.84368,"transit":false,"i_lat":-6.174784,"line":11}],[{"time":0,"distance":0,"line":0,"station_name":"Ancol","is_transit":false,"transit":false,"station_id":"AC","i_lat":-6.128023,"i_long":106.84464},{"station_id":"KPB","is_transit":true,"station_name":"Kampung Bandan","i_lat":-6.132549,"i_long":106.826365,"line":0,"time":4,"distance":2185,"transit":false},{"i_lat":-6.144674,"is_transit":false,"transit":false,"station_id":"AK","i_long":106.79867,"station_name":"Angke","distance":4102,"line":0,"time":9},{"time":4,"distance":1230,"transit":true,"line":1,"is_transit":true,"station_id":"DU","i_long":106.800832,"station_name":"Duri","i_lat":-6.155215},{"transit":false,"station_id":"THB","distance":3632,"i_lat":-6.185545,"line":1,"is_transit":true,"i_long":106.811091,"station_name":"Tanah Abang","time":8},{"i_long":106.816351,"station_name":"Karet","distance":2029,"time":5,"transit":false,"i_lat":-6.20132,"is_transit":false,"line":1,"station_id":"KAT"},{"i_long":106.819881,"transit":false,"time":1,"is_transit":false,"i_lat":-6.201433,"distance":471,"station_id":"SUDB","station_name":"Sudirman Baru","line":1},{"is_transit":false,"transit":false,"station_id":"SUD","station_name":"Sudirman","time":1,"i_long":106.822649,"line":1,"i_lat":-6.202263,"distance":280},{"station_id":"MRI","i_lat":-6.209883,"transit":false,"i_long":106.84912,"line":0,"distance":3186,"time":4,"station_name":"Manggarai","is_transit":true},{"station_id":"MTR","is_transit":false,"i_lat":-6.212485,"i_long":106.858896,"station_name":"Matraman","transit":false,"line":1,"distance":1275,"time":2},{"station_id":"JNG","distance":1377,"station_name":"Jatinegara","is_transit":true,"i_lat":-6.215091,"i_long":106.86807400000001,"transit":true,"time":8,"line":0},{"distance":1236,"i_long":106.861737,"station_name":"Pondok Jati","is_transit":false,"station_id":"POK","transit":false,"time":2,"i_lat":-6.209188,"line":11},{"is_transit":false,"time":2,"i_long":106.855437,"line":11,"transit":false,"i_lat":-6.193792,"station_id":"KMT","station_name":"Kramat","distance":1829},{"i_lat":-6.185975,"is_transit":false,"distance":973,"line":11,"station_name":"Gang Sentiong","transit":false,"time":1,"i_long":106.850107,"station_id":"GST"},{"i_long":106.84368,"station_id":"PSE","i_lat":-6.174784,"time":8,"is_transit":false,"transit":false,"line":11,"distance":1567,"station_name":"Pasar Senen"}],[{"i_long":106.84464,"time":0,"is_transit":false,"line":0,"transit":false,"station_id":"AC","distance":0,"station_name":"Ancol","i_lat":-6.128023},{"time":4,"station_name":"Kampung Bandan","is_transit":true,"distance":2185,"line":0,"transit":false,"station_id":"KPB","i_lat":-6.132549,"i_long":106.826365},{"transit":true,"line":0,"station_id":"JAKK","is_transit":true,"distance":1364,"station_name":"Jakarta Kota","time":3,"i_long":106.812439,"i_lat":-6.137569},{"distance":1264,"i_lat":-6.141205,"transit":false,"time":4,"station_id":"JAY","station_name":"Jayakarta","i_long":106.820901,"is_transit":false,"line":7},{"line":2,"i_long":106.82482,"i_lat":-6.149769,"transit":false,"station_name":"Manggabesar","distance":1080,"station_id":"MGB","is_transit":false,"time":2},{"distance":906,"i_long":106.827103,"is_transit":false,"transit":false,"station_name":"Sawah Besar","i_lat":-6.160725,"line":2,"time":2,"station_id":"SW"},{"i_long":106.828284,"line":2,"transit":false,"is_transit":false,"station_name":"Juanda","station_id":"JUA","i_lat":-6.166716,"distance":1149,"time":2},{"i_lat":-6.186295,"station_name":"Gondangdia","line":2,"time":4,"is_transit":false,"distance":2015,"i_long":106.832183,"station_id":"GDD","transit":false},{"line":0,"station_id":"CKI","transit":false,"station_name":"Cikini","i_lat":-6.198556,"distance":1750,"i_long":106.840169,"time":3,"is_transit":false},{"transit":true,"distance":1590,"time":4,"i_long":106.84912,"line":0,"is_transit":true,"station_id":"MRI","station_name":"Manggarai","i_lat":-6.209883},{"i_long":106.858896,"i_lat":-6.212485,"transit":false,"station_id":"MTR","station_name":"Matraman","distance":1275,"is_transit":false,"line":1,"time":2},{"station_id":"JNG","transit":true,"station_name":"Jatinegara","is_transit":true,"i_lat":-6.215091,"i_long":106.86807400000001,"line":0,"time":8,"distance":1377},{"is_transit":false,"i_long":106.861737,"station_id":"POK","distance":1236,"station_name":"Pondok Jati","line":11,"i_lat":-6.209188,"transit":false,"time":2},{"station_id":"KMT","station_name":"Kramat","i_lat":-6.193792,"time":2,"i_long":106.855437,"line":11,"distance":1829,"transit":false,"is_transit":false},{"i_long":106.850107,"is_transit":false,"time":1,"transit":false,"line":11,"station_id":"GST","distance":973,"i_lat":-6.185975,"station_name":"Gang Sentiong"},{"i_long":106.84368,"line":11,"i_lat":-6.174784,"station_name":"Pasar Senen","station_id":"PSE","transit":false,"distance":1567,"time":8,"is_transit":false}]]}