{"data":[[{"i_long":106.84464,"distance":0,"transit":false,"i_lat":-6.128023,"station_name":"Ancol","time":0,"is_transit":false,"line":0,"station_id":"AC"},{"station_name":"Kampung Bandan","line":0,"i_lat":-6.132549,"transit":false,"i_long":106.826365,"distance":2185,"station_id":"KPB","time":4,"is_transit":true},{"transit":false,"i_long":106.79867,"station_id":"AK","line":0,"time":9,"i_lat":-6.144674,"is_transit":false,"distance":4102,"station_name":"Angke"},{"station_id":"DU","is_transit":true,"i_lat":-6.155215,"i_long":106.800832,"line":1,"station_name":"Duri","transit":true,"distance":1230,"time":4},{"station_id":"THB","station_name":"Tanah Abang","distance":3632,"i_long":106.811091,"i_lat":-6.185545,"line":1,"is_transit":true,"time":8,"transit":true},{"is_transit":false,"time":6,"distance":3191,"station_id":"PLM","station_name":"Palmerah","i_long":106.79689,"line":6,"i_lat":-6.207404,"transit":false},{"is_transit":false,"i_long":106.780334,"i_lat":-6.237242,"distance":3737,"line":6,"transit":false,"station_id":"KBY","station_name":"Kebayoran","time":7},{"line":6,"i_long":106.74273,"time":8,"transit":false,"i_lat":-6.276362,"is_transit":false,"distance":6218,"station_name":"Pondokranji","station_id":"PDJ"},{"time":3,"i_lat":-6.288927,"station_id":"JMU","i_long":106.728916,"distance":2179,"station_name":"Jurangmangu","transit":false,"is_transit":false,"line":6},{"station_id":"SDM","distance":1994,"time":4,"station_name":"Sudimara","i_long":106.712277,"transit":false,"i_lat":-6.296963,"line":6,"is_transit":false},{"time":6,"station_name":"Rawa Buntu","i_lat":-6.314823,"line":6,"distance":4566,"transit":false,"station_id":"RU","is_transit":false,"i_long":106.675475},{"distance":2413,"time":4,"line":6,"station_id":"SRP","transit":false,"i_lat":-6.319871,"station_name":"Serpong","is_transit":false,"i_long":106.66566},{"i_lat":-6.32484,"i_long":106.640411,"line":0,"time":4,"is_transit":false,"distance":1784,"station_name":"Cisauk","station_id":"CSK","transit":false},{"time":4,"distance":2519,"transit":false,"i_long":106.617853,"station_id":"CC","i_lat":-6.329547,"line":0,"is_transit":false,"station_name":"Cicayur"},{"i_lat":-6.3441410000000005,"i_long":106.568863,"station_name":"Parung Panjang","is_transit":false,"line":6,"time":8,"distance":5968,"transit":false,"station_id":"PRP"}],[{"station_id":"AC","station_name":"Ancol","line":0,"time":0,"is_transit":false,"transit":false,"i_long":106.84464,"distance":0,"i_lat":-6.128023},{"station_id":"KPB","i_long":106.826365,"distance":2185,"i_lat":-6.132549,"line":0,"transit":false,"is_transit":true,"station_name":"Kampung Bandan","time":4},{"i_long":106.812439,"transit":true,"station_id":"JAKK","i_lat":-6.137569,"distance":1364,"station_name":"Jakarta Kota","line":0,"time":3,"is_transit":true},{"distance":1264,"i_long":106.820901,"time":4,"transit":false,"station_name":"Jayakarta","is_transit":false,"line":7,"i_lat":-6.141205,"station_id":"JAY"},{"station_name":"Manggabesar","line":2,"distance":1080,"station_id":"MGB","i_lat":-6.149769,"transit":false,"is_transit":false,"i_long":106.82482,"time":2},{"time":2,"i_lat":-6.160725,"i_long":106.827103,"line":2,"station_name":"Sawah Besar","station_id":"SW","is_transit":false,"distance":906,"transit":false},{"i_lat":-6.166716,"transit":false,"distance":1149,"i_long":106.828284,"line":2,"station_id":"JUA","is_transit":false,"time":2,"station_name":"Juanda"},{"is_transit":false,"station_name":"Gondangdia","time":4,"station_id":"GDD","i_long":106.832183,"i_lat":-6.186295,"transit":false,"line":2,"distance":2015},{"time":3,"station_id":"CKI","transit":false,"station_name":"Cikini","is_transit":false,"i_long":106.840169,"distance":1750,"i_lat":-6.198556,"line":0},{"line":0,"station_name":"Manggarai","transit":true,"distance":1590,"time":4,"is_transit":true,"station_id":"MRI","i_lat":-6.209883,"i_long":106.84912},{"time":4,"station_name":"Sudirman","transit":false,"station_id":"SUD","i_long":106.822649,"distance":3186,"i_lat":-6.202263,"line":1,"is_transit":false},{"i_lat":-6.201433,"i_long":106.819881,"transit":false,"time":1,"distance":280,"is_transit":false,"station_name":"Sudirman Baru","line":1,"station_id":"SUDB"},{"station_id":"KAT","is_transit":false,"i_lat":-6.20132,"distance":471,"transit":false,"i_long":106.816351,"time":1,"line":1,"station_name":"Karet"},{"line":1,"is_transit":true,"station_name":"Tanah Abang","time":5,"transit":true,"distance":2029,"i_long":106.811091,"station_id":"THB","i_lat":-6.185545},{"station_name":"Palmerah","station_id":"PLM","transit":false,"i_lat":-6.207404,"i_long":106.79689,"time":6,"line":6,"is_transit":false,"distance":3191},{"time":7,"transit":false,"i_long":106.780334,"distance":3737,"i_lat":-6.237242,"is_transit":false,"station_id":"KBY","station_name":"Kebayoran","line":6},{"distance":6218,"transit":false,"station_name":"Pondokranji","i_lat":-6.276362,"station_id":"PDJ","time":8,"i_long":106.74273,"line":6,"is_transit":false},{"station_name":"Jurangmangu","i_lat":-6.288927,"distance":2179,"transit":false,"time":3,"station_id":"JMU","i_long":106.728916,"line":6,"is_transit":false},{"i_lat":-6.296963,"station_id":"SDM","is_transit":false,"line":6,"time":4,"i_long":106.712277,"transit":false,"station_name":"Sudimara","distance":1994},{"station_id":"RU","time":6,"distance":4566,"transit":false,"station_name":"Rawa Buntu","i_lat":-6.314823,"i_long":106.675475,"line":6,"is_transit":false},{"is_transit":false,"line":6,"i_lat":-6.319871,"transit":false,"time":4,"distance":2413,"station_id":"SRP","i_long":106.66566,"station_name":"Serpong"},{"line":0,"distance":1784,"time":4,"transit":false,"station_name":"Cisauk","is_transit":false,"i_lat":-6.32484,"station_id":"CSK","i_long":106.640411},{"time":4,"distance":2519,"i_long":106.617853,"transit":false,"i_lat":-6.329547,"line":0,"station_id":"CC","station_name":"Cicayur","is_transit":false},{"distance":5968,"transit":false,"is_transit":false,"station_id":"PRP","i_lat":-6.3441410000000005,"time":8,"i_long":106.568863,"line":6,"station_name":"Parung Panjang"}],[{"line":0,"distance":0,"station_id":"AC","i_long":106.84464,"station_name":"Ancol","transit":false,"is_transit":false,"time":0,"i_lat":-6.128023},{"time":4,"station_id":"KPB","transit":true,"i_lat":-6.132549,"line":0,"is_transit":true,"distance":2185,"station_name":"Kampung Bandan","i_long":106.826365},{"i_lat":-6.14505,"time":3,"distance":1444,"station_name":"Rajawali","is_transit":false,"station_id":"RJW","i_long":106.836569,"transit":false,"line":11},{"line":11,"station_id":"KMO","time":5,"transit":false,"station_name":"Kemayoran","distance":1901,"is_transit":false,"i_lat":-6.161728,"i_long":106.839204},{"time":4,"is_transit":false,"i_lat":-6.174784,"i_long":106.84368,"line":11,"distance":1436,"station_id":"PSE","station_name":"Pasar Senen","transit":false},{"station_name":"Gang Sentiong","line":11,"i_long":106.850107,"transit":false,"distance":1567,"station_id":"GST","is_transit":false,"time":8,"i_lat":-6.185975},{"is_transit":false,"station_id":"KMT","i_lat":-6.193792,"time":1,"transit":false,"station_name":"Kramat","i_long":106.855437,"distance":973,"line":11},{"distance":1829,"is_transit":false,"station_id":"POK","i_lat":-6.209188,"station_name":"Pondok Jati","i_long":106.861737,"time":2,"line":11,"transit":false},{"time":9,"is_transit":true,"station_id":"JNG","transit":true,"line":0,"i_lat":-6.215091,"i_long":106.86807400000001,"station_name":"Jatinegara","distance":1236},{"distance":1377,"i_long":106.858896,"transit":false,"line":1,"station_id":"MTR","station_name":"Matraman","time":2,"is_transit":false,"i_lat":-6.212485},{"i_long":106.84912,"station_id":"MRI","line":0,"distance":1275,"station_name":"Manggarai","time":2,"i_lat":-6.209883,"is_transit":true,"transit":false},{"line":1,"is_transit":false,"station_name":"Sudirman","time":4,"i_long":106.822649,"station_id":"SUD","distance":3186,"i_lat":-6.202263,"transit":false},{"time":1,"line":1,"distance":280,"is_transit":false,"transit":false,"station_name":"Sudirman Baru","i_lat":-6.201433,"station_id":"SUDB","i_long":106.819881},{"time":1,"line":1,"is_transit":false,"transit":false,"station_name":"Karet","i_long":106.816351,"i_lat":-6.20132,"distance":471,"station_id":"KAT"},{"station_id":"THB","station_name":"Tanah Abang","i_lat":-6.185545,"i_long":106.811091,"line":1,"time":5,"distance":2029,"is_transit":true,"transit":true},{"transit":false,"time":6,"line":6,"station_id":"PLM","is_transit":false,"i_lat":-6.207404,"station_name":"Palmerah","i_long":106.79689,"distance":3191},{"line":6,"station_name":"Kebayoran","distance":3737,"time":7,"transit":false,"is_transit":false,"i_lat":-6.237242,"i_long":106.780334,"station_id":"KBY"},{"time":8,"i_long":106.74273,"transit":false,"line":6,"is_transit":false,"i_lat":-6.276362,"distance":6218,"station_name":"Pondokranji","station_id":"PDJ"},{"i_long":106.728916,"i_lat":-6.288927,"is_transit":false,"distance":2179,"transit":false,"time":3,"line":6,"station_id":"JMU","station_name":"Jurangmangu"},{"station_id":"SDM","i_long":106.712277,"line":6,"station_name":"Sudimara","time":4,"is_transit":false,"i_lat":-6.296963,"distance":1994,"transit":false},{"distance":4566,"line":6,"time":6,"station_id":"RU","transit":false,"is_transit":false,"i_lat":-6.314823,"station_name":"Rawa Buntu","i_long":106.675475},{"station_name":"Serpong","time":4,"i_lat":-6.319871,"line":6,"i_long":106.66566,"transit":false,"is_transit":false,"station_id":"SRP","distance":2413},{"transit":false,"i_long":106.640411,"time":4,"i_lat":-6.32484,"distance":1784,"station_name":"Cisauk","is_transit":false,"station_id":"CSK","line":0},{"transit":false,"station_id":"CC","station_name":"Cicayur","i_lat":-6.329547,"is_transit":false,"distance":2519,"time":4,"i_long":106.617853,"line":0},{"line":6,"is_transit":false,"station_id":"PRP","station_name":"Parung Panjang","transit":false,"distance":5968,"i_long":106.568863,"time":8,"i_lat":-6.3441410000000005}]]}