{"data":[[{"time":0,"i_long":106.84464,"transit":false,"is_transit":false,"station_id":"AC","line":4,"i_lat":-6.128023,"station_name":"Ancol","distance":0},{"station_name":"Kampung Bandan","is_transit":true,"distance":2185,"transit":true,"station_id":"KPB","i_long":106.826365,"time":4,"line":4,"i_lat":-6.132549},{"time":9,"i_lat":-6.144674,"line":1,"distance":4102,"transit":false,"station_name":"Angke","i_long":106.79867,"station_id":"AK","is_transit":false},{"station_name":"Duri","i_long":106.800832,"time":4,"distance":1230,"i_lat":-6.155215,"line":1,"is_transit":false,"station_id":"DU","transit":false},{"station_id":"THB","is_transit":true,"transit":true,"line":1,"i_long":106.811091,"time":8,"station_name":"Tanah Abang","i_lat":-6.185545,"distance":3632},{"i_lat":-6.207404,"transit":false,"i_long":106.79689,"station_id":"PLM","is_transit":false,"line":6,"station_name":"Palmerah","distance":3191,"time":6},{"time":7,"i_long":106.780334,"transit":false,"is_transit":false,"line":6,"station_id":"KBY","station_name":"Kebayoran","distance":3737,"i_lat":-6.237242},{"station_name":"Pondokranji","i_lat":-6.276362,"line":6,"is_transit":false,"i_long":106.74273,"station_id":"PDJ","transit":false,"time":8,"distance":6218},{"distance":2179,"is_transit":false,"transit":false,"station_id":"JMU","line":6,"time":3,"i_lat":-6.288927,"i_long":106.728916,"station_name":"Jurangmangu"},{"is_transit":false,"transit":false,"i_lat":-6.296963,"station_id":"SDM","distance":1994,"line":6,"i_long":106.712277,"station_name":"Sudimara","time":4},{"station_name":"Rawa Buntu","distance":4566,"i_lat":-6.314823,"i_long":106.675475,"station_id":"RU","time":6,"transit":false,"is_transit":false,"line":6},{"distance":2413,"station_id":"SRP","i_long":106.66566,"i_lat":-6.319871,"time":4,"is_transit":false,"station_name":"Serpong","transit":false,"line":6},{"i_lat":-6.32484,"line":3,"distance":1784,"i_long":106.640411,"station_id":"CSK","is_transit":false,"time":4,"station_name":"Cisauk","transit":false},{"line":3,"station_id":"CC","station_name":"Cicayur","i_lat":-6.329547,"time":4,"transit":false,"i_long":106.617853,"is_transit":false,"distance":2519},{"station_name":"Parung Panjang","i_lat":-6.3441410000000005,"transit":false,"is_transit":false,"distance":5968,"station_id":"PRP","i_long":106.568863,"line":6,"time":8},{"is_transit":false,"distance":7025,"i_long":106.508482,"i_lat":-6.354349,"time":9,"line":3,"station_id":"CJT","station_name":"Cilejit","transit":false},{"station_name":"Daru","i_long":106.491338,"distance":2675,"is_transit":false,"transit":false,"time":6,"i_lat":-6.338021,"line":0,"station_id":"DAR"},{"line":6,"distance":3902,"i_long":106.460812,"station_name":"Tenjo","i_lat":-6.327251,"time":5,"transit":false,"station_id":"TEJ","is_transit":false},{"distance":2974,"line":6,"time":5,"station_id":"TGS","is_transit":false,"station_name":"Tigaraksa","transit":false,"i_long":106.425991,"i_lat":-6.328533},{"station_id":"CKY","i_lat":-6.33561,"distance":2651,"time":3,"line":3,"transit":false,"is_transit":false,"station_name":"Cikoya","i_long":106.411216},{"station_name":"Maja","distance":1853,"transit":false,"station_id":"MJ","time":4,"i_lat":-6.332307,"i_long":106.394373,"is_transit":false,"line":6},{"station_id":"CTR","line":3,"i_long":106.332092,"transit":false,"time":10,"is_transit":false,"distance":7293,"station_name":"Citeras","i_lat":-6.334892},{"is_transit":false,"i_lat":-6.352675,"time":13,"transit":false,"line":3,"station_id":"RK","distance":9847,"station_name":"Rangkasbitung","i_long":106.250396}],[{"i_long":106.84464,"is_transit":false,"distance":0,"time":0,"station_name":"Ancol","station_id":"AC","line":4,"transit":false,"i_lat":-6.128023},{"is_transit":true,"station_name":"Kampung Bandan","line":4,"time":4,"transit":true,"i_lat":-6.132549,"distance":2185,"station_id":"KPB","i_long":106.826365},{"distance":1364,"transit":true,"is_transit":true,"i_lat":-6.137569,"station_id":"JAKK","time":3,"i_long":106.812439,"station_name":"Jakarta Kota","line":2},{"is_transit":false,"i_lat":-6.141205,"transit":false,"station_name":"Jayakarta","station_id":"JAY","line":2,"time":4,"distance":1264,"i_long":106.820901},{"i_lat":-6.149769,"station_name":"Manggabesar","i_long":106.82482,"line":2,"station_id":"MGB","time":2,"transit":false,"is_transit":false,"distance":1080},{"is_transit":false,"station_id":"SW","transit":false,"time":2,"station_name":"Sawah Besar","i_lat":-6.160725,"distance":906,"line":2,"i_long":106.827103},{"distance":1149,"time":2,"transit":false,"i_lat":-6.166716,"line":2,"station_id":"JUA","is_transit":false,"station_name":"Juanda","i_long":106.828284},{"station_id":"GDD","distance":2015,"i_long":106.832183,"line":2,"station_name":"Gondangdia","is_transit":false,"transit":false,"i_lat":-6.186295,"time":4},{"station_name":"Cikini","i_lat":-6.198556,"is_transit":false,"distance":1750,"i_long":106.840169,"station_id":"CKI","time":3,"line":2,"transit":false},{"station_name":"Manggarai","distance":1590,"time":4,"i_long":106.84912,"i_lat":-6.209883,"is_transit":true,"transit":true,"station_id":"MRI","line":2},{"is_transit":false,"station_name":"Sudirman","line":1,"i_lat":-6.202263,"station_id":"SUD","transit":false,"i_long":106.822649,"time":4,"distance":3186},{"i_long":106.819881,"station_name":"Sudirman Baru","i_lat":-6.201433,"time":1,"distance":280,"transit":false,"station_id":"SUDB","line":1,"is_transit":false},{"time":1,"line":1,"transit":false,"distance":471,"is_transit":false,"i_long":106.816351,"i_lat":-6.20132,"station_name":"Karet","station_id":"KAT"},{"transit":true,"distance":2029,"i_lat":-6.185545,"time":5,"i_long":106.811091,"is_transit":true,"line":1,"station_id":"THB","station_name":"Tanah Abang"},{"station_name":"Palmerah","station_id":"PLM","i_lat":-6.207404,"transit":false,"i_long":106.79689,"line":6,"time":6,"is_transit":false,"distance":3191},{"station_name":"Kebayoran","time":7,"i_long":106.780334,"line":6,"station_id":"KBY","i_lat":-6.237242,"transit":false,"distance":3737,"is_transit":false},{"i_long":106.74273,"time":8,"distance":6218,"station_name":"Pondokranji","transit":false,"station_id":"PDJ","i_lat":-6.276362,"is_transit":false,"line":6},{"station_name":"Jurangmangu","i_long":106.728916,"time":3,"distance":2179,"station_id":"JMU","line":6,"transit":false,"is_transit":false,"i_lat":-6.288927},{"is_transit":false,"transit":false,"i_lat":-6.296963,"i_long":106.712277,"line":6,"station_id":"SDM","station_name":"Sudimara","distance":1994,"time":4},{"station_id":"RU","i_lat":-6.314823,"distance":4566,"time":6,"station_name":"Rawa Buntu","i_long":106.675475,"transit":false,"is_transit":false,"line":6},{"transit":false,"line":6,"distance":2413,"i_lat":-6.319871,"i_long":106.66566,"is_transit":false,"time":4,"station_name":"Serpong","station_id":"SRP"},{"distance":1784,"time":4,"transit":false,"is_transit":false,"station_name":"Cisauk","i_long":106.640411,"line":3,"station_id":"CSK","i_lat":-6.32484},{"station_id":"CC","distance":2519,"is_transit":false,"i_lat":-6.329547,"station_name":"Cicayur","transit":false,"line":3,"i_long":106.617853,"time":4},{"is_transit":false,"time":8,"transit":false,"station_id":"PRP","station_name":"Parung Panjang","i_lat":-6.3441410000000005,"i_long":106.568863,"distance":5968,"line":6},{"time":9,"i_long":106.508482,"distance":7025,"station_id":"CJT","station_name":"Cilejit","transit":false,"is_transit":false,"i_lat":-6.354349,"line":3},{"station_id":"DAR","distance":2675,"is_transit":false,"station_name":"Daru","i_lat":-6.338021,"time":6,"transit":false,"i_long":106.491338,"line":0},{"station_id":"TEJ","i_lat":-6.327251,"time":5,"is_transit":false,"distance":3902,"station_name":"Tenjo","i_long":106.460812,"line":6,"transit":false},{"distance":2974,"is_transit":false,"transit":false,"station_name":"Tigaraksa","i_lat":-6.328533,"line":6,"i_long":106.425991,"time":5,"station_id":"TGS"},{"line":3,"time":3,"i_lat":-6.33561,"station_name":"Cikoya","station_id":"CKY","is_transit":false,"i_long":106.411216,"distance":2651,"transit":false},{"transit":false,"is_transit":false,"station_name":"Maja","line":6,"i_long":106.394373,"distance":1853,"time":4,"station_id":"MJ","i_lat":-6.332307},{"is_transit":false,"station_id":"CTR","time":10,"station_name":"Citeras","i_long":106.332092,"transit":false,"distance":7293,"i_lat":-6.334892,"line":3},{"is_transit":false,"station_id":"RK","distance":9847,"station_name":"Rangkasbitung","time":13,"i_lat":-6.352675,"i_long":106.250396,"line":3,"transit":false}],[{"station_id":"AC","distance":0,"i_long":106.84464,"station_name":"Ancol","time":0,"i_lat":-6.128023,"line":4,"transit":false,"is_transit":false},{"i_lat":-6.132549,"distance":2185,"time":4,"transit":true,"i_long":106.826365,"is_transit":true,"station_name":"Kampung Bandan","station_id":"KPB","line":4},{"time":3,"station_name":"Rajawali","transit":false,"is_transit":false,"line":11,"i_long":106.836569,"distance":1444,"station_id":"RJW","i_lat":-6.14505},{"i_long":106.839204,"line":11,"station_id":"KMO","transit":false,"is_transit":false,"station_name":"Kemayoran","i_lat":-6.161728,"time":5,"distance":1901},{"is_transit":false,"time":4,"i_long":106.84368,"station_id":"PSE","distance":1436,"transit":false,"station_name":"Pasar Senen","i_lat":-6.174784,"line":11},{"is_transit":false,"distance":1567,"transit":false,"station_name":"Gang Sentiong","station_id":"GST","i_lat":-6.185975,"time":8,"i_long":106.850107,"line":11},{"distance":973,"time":1,"station_name":"Kramat","i_lat":-6.193792,"i_long":106.855437,"transit":false,"station_id":"KMT","line":11,"is_transit":false},{"line":11,"distance":1829,"time":2,"i_long":106.861737,"station_id":"POK","is_transit":false,"i_lat":-6.209188,"transit":false,"station_name":"Pondok Jati"},{"i_long":106.86807400000001,"transit":true,"is_transit":true,"station_id":"JNG","time":9,"i_lat":-6.215091,"distance":1236,"station_name":"Jatinegara","line":1},{"i_lat":-6.212485,"is_transit":false,"station_name":"Matraman","i_long":106.858896,"line":1,"station_id":"MTR","transit":false,"time":2,"distance":1377},{"time":2,"transit":false,"i_long":106.84912,"i_lat":-6.209883,"distance":1275,"station_id":"MRI","is_transit":false,"line":2,"station_name":"Manggarai"},{"i_long":106.822649,"station_name":"Sudirman","i_lat":-6.202263,"distance":3186,"station_id":"SUD","is_transit":false,"line":1,"time":4,"transit":false},{"station_name":"Sudirman Baru","transit":false,"line":1,"station_id":"SUDB","i_lat":-6.201433,"distance":280,"time":1,"is_transit":false,"i_long":106.819881},{"station_id":"KAT","i_long":106.816351,"i_lat":-6.20132,"transit":false,"line":1,"distance":471,"is_transit":false,"time":1,"station_name":"Karet"},{"i_long":106.811091,"is_transit":true,"transit":true,"station_id":"THB","line":1,"time":5,"distance":2029,"i_lat":-6.185545,"station_name":"Tanah Abang"},{"line":6,"time":6,"station_id":"PLM","is_transit":false,"station_name":"Palmerah","i_lat":-6.207404,"transit":false,"i_long":106.79689,"distance":3191},{"transit":false,"station_name":"Kebayoran","distance":3737,"station_id":"KBY","i_long":106.780334,"is_transit":false,"line":6,"i_lat":-6.237242,"time":7},{"station_id":"PDJ","transit":false,"station_name":"Pondokranji","line":6,"i_lat":-6.276362,"time":8,"distance":6218,"i_long":106.74273,"is_transit":false},{"i_long":106.728916,"time":3,"i_lat":-6.288927,"station_name":"Jurangmangu","is_transit":false,"station_id":"JMU","distance":2179,"transit":false,"line":6},{"time":4,"i_long":106.712277,"station_name":"Sudimara","transit":false,"distance":1994,"station_id":"SDM","i_lat":-6.296963,"is_transit":false,"line":6},{"line":6,"transit":false,"time":6,"station_id":"RU","i_lat":-6.314823,"distance":4566,"is_transit":false,"i_long":106.675475,"station_name":"Rawa Buntu"},{"is_transit":false,"i_lat":-6.319871,"i_long":106.66566,"time":4,"station_id":"SRP","station_name":"Serpong","line":6,"distance":2413,"transit":false},{"line":3,"time":4,"i_lat":-6.32484,"distance":1784,"station_id":"CSK","station_name":"Cisauk","i_long":106.640411,"transit":false,"is_transit":false},{"time":4,"distance":2519,"i_long":106.617853,"i_lat":-6.329547,"station_name":"Cicayur","line":3,"is_transit":false,"station_id":"CC","transit":false},{"time":8,"station_id":"PRP","i_lat":-6.3441410000000005,"line":6,"transit":false,"station_name":"Parung Panjang","distance":5968,"is_transit":false,"i_long":106.568863},{"is_transit":false,"station_name":"Cilejit","distance":7025,"line":3,"transit":false,"station_id":"CJT","i_lat":-6.354349,"i_long":106.508482,"time":9},{"i_long":106.491338,"station_id":"DAR","station_name":"Daru","line":0,"distance":2675,"i_lat":-6.338021,"is_transit":false,"time":6,"transit":false},{"station_id":"TEJ","is_transit":false,"station_name":"Tenjo","distance":3902,"transit":false,"i_lat":-6.327251,"time":5,"i_long":106.460812,"line":6},{"time":5,"i_long":106.425991,"station_name":"Tigaraksa","transit":false,"i_lat":-6.328533,"line":6,"distance":2974,"station_id":"TGS","is_transit":false},{"line":3,"time":3,"transit":false,"distance":2651,"station_id":"CKY","is_transit":false,"station_name":"Cikoya","i_lat":-6.33561,"i_long":106.411216},{"transit":false,"station_id":"MJ","distance":1853,"is_transit":false,"i_lat":-6.332307,"i_long":106.394373,"station_name":"Maja","time":4,"line":6},{"transit":false,"station_id":"CTR","distance":7293,"is_transit":false,"line":3,"i_lat":-6.334892,"i_long":106.332092,"time":10,"station_name":"Citeras"},{"line":3,"distance":9847,"station_name":"Rangkasbitung","i_lat":-6.352675,"i_long":106.250396,"time":13,"is_transit":false,"station_id":"RK","transit":false}]]}