{"data":[[{"i_long":106.84464,"line":0,"transit":false,"distance":0,"is_transit":false,"station_name":"Ancol","i_lat":-6.128023,"station_id":"AC","time":0},{"i_long":106.826365,"station_name":"Kampung Bandan","time":4,"line":0,"station_id":"KPB","is_transit":true,"i_lat":-6.132549,"transit":false,"distance":2185},{"time":9,"is_transit":false,"transit":false,"i_lat":-6.144674,"station_id":"AK","distance":4102,"i_long":106.79867,"station_name":"Angke","line":0},{"transit":true,"i_long":106.800832,"line":1,"time":4,"station_name":"Duri","distance":1230,"is_transit":true,"station_id":"DU","i_lat":-6.155215},{"is_transit":true,"time":8,"distance":3632,"transit":true,"i_lat":-6.185545,"i_long":106.811091,"line":1,"station_name":"Tanah Abang","station_id":"THB"},{"distance":3191,"i_lat":-6.207404,"is_transit":false,"line":6,"time":6,"transit":false,"i_long":106.79689,"station_id":"PLM","station_name":"Palmerah"},{"time":7,"is_transit":false,"distance":3737,"transit":false,"line":6,"station_name":"Kebayoran","i_lat":-6.237242,"i_long":106.780334,"station_id":"KBY"},{"distance":6218,"station_id":"PDJ","time":8,"station_name":"Pondokranji","line":6,"is_transit":false,"i_long":106.74273,"transit":false,"i_lat":-6.276362},{"i_lat":-6.288927,"line":6,"i_long":106.728916,"transit":false,"is_transit":false,"time":3,"station_id":"JMU","station_name":"Jurangmangu","distance":2179},{"distance":1994,"i_lat":-6.296963,"time":4,"station_id":"SDM","line":6,"is_transit":false,"i_long":106.712277,"transit":false,"station_name":"Sudimara"},{"transit":false,"station_id":"RU","distance":4566,"time":6,"i_lat":-6.314823,"line":6,"i_long":106.675475,"is_transit":false,"station_name":"Rawa Buntu"},{"station_name":"Serpong","station_id":"SRP","i_lat":-6.319871,"time":4,"is_transit":false,"transit":false,"line":6,"distance":2413,"i_long":106.66566},{"distance":1784,"station_id":"CSK","i_long":106.640411,"transit":false,"station_name":"Cisauk","i_lat":-6.32484,"is_transit":false,"time":4,"line":0},{"station_id":"CC","distance":2519,"time":4,"i_long":106.617853,"is_transit":false,"line":0,"i_lat":-6.329547,"transit":false,"station_name":"Cicayur"},{"time":8,"i_long":106.568863,"i_lat":-6.3441410000000005,"transit":false,"is_transit":false,"station_name":"Parung Panjang","line":6,"distance":5968,"station_id":"PRP"},{"is_transit":false,"time":9,"distance":7025,"i_lat":-6.354349,"i_long":106.508482,"line":0,"transit":false,"station_name":"Cilejit","station_id":"CJT"},{"line":0,"time":6,"transit":false,"distance":2675,"i_lat":-6.338021,"i_long":106.491338,"station_name":"Daru","is_transit":false,"station_id":"DAR"},{"i_long":106.460812,"transit":false,"time":5,"station_name":"Tenjo","i_lat":-6.327251,"is_transit":false,"distance":3902,"station_id":"TEJ","line":6},{"i_lat":-6.328533,"i_long":106.425991,"is_transit":false,"station_id":"TGS","time":5,"line":6,"station_name":"Tigaraksa","distance":2974,"transit":false},{"is_transit":false,"time":3,"station_id":"CKY","transit":false,"distance":2651,"i_long":106.411216,"line":0,"i_lat":-6.33561,"station_name":"Cikoya"},{"line":6,"is_transit":false,"distance":1853,"i_lat":-6.332307,"station_id":"MJ","station_name":"Maja","time":4,"transit":false,"i_long":106.394373},{"distance":7293,"i_lat":-6.334892,"is_transit":false,"line":0,"station_id":"CTR","transit":false,"i_long":106.332092,"station_name":"Citeras","time":10},{"station_name":"Rangkasbitung","is_transit":true,"i_lat":-6.352675,"i_long":106.250396,"distance":9847,"line":0,"time":13,"station_id":"RK","transit":false}],[{"i_lat":-6.128023,"station_id":"AC","transit":false,"is_transit":false,"time":0,"station_name":"Ancol","i_long":106.84464,"line":0,"distance":0},{"transit":false,"station_name":"Kampung Bandan","is_transit":true,"station_id":"KPB","distance":2185,"i_lat":-6.132549,"i_long":106.826365,"line":0,"time":4},{"distance":1364,"transit":true,"is_transit":true,"time":3,"station_id":"JAKK","line":0,"station_name":"Jakarta Kota","i_long":106.812439,"i_lat":-6.137569},{"distance":1264,"station_name":"Jayakarta","is_transit":false,"i_long":106.820901,"station_id":"JAY","transit":false,"time":4,"line":7,"i_lat":-6.141205},{"station_name":"Manggabesar","line":2,"distance":1080,"is_transit":false,"time":2,"transit":false,"i_lat":-6.149769,"i_long":106.82482,"station_id":"MGB"},{"line":2,"station_id":"SW","distance":906,"i_lat":-6.160725,"time":2,"i_long":106.827103,"station_name":"Sawah Besar","is_transit":false,"transit":false},{"station_name":"Juanda","i_lat":-6.166716,"line":2,"station_id":"JUA","is_transit":false,"i_long":106.828284,"distance":1149,"transit":false,"time":2},{"i_lat":-6.186295,"distance":2015,"time":4,"i_long":106.832183,"transit":false,"station_id":"GDD","station_name":"Gondangdia","is_transit":false,"line":2},{"station_name":"Cikini","i_lat":-6.198556,"i_long":106.840169,"station_id":"CKI","line":0,"time":3,"distance":1750,"is_transit":false,"transit":false},{"i_long":106.84912,"is_transit":true,"distance":1590,"transit":true,"line":0,"i_lat":-6.209883,"station_id":"MRI","station_name":"Manggarai","time":4},{"is_transit":false,"i_long":106.822649,"distance":3186,"station_name":"Sudirman","i_lat":-6.202263,"transit":false,"time":4,"line":1,"station_id":"SUD"},{"station_id":"SUDB","station_name":"Sudirman Baru","i_long":106.819881,"line":1,"time":1,"i_lat":-6.201433,"transit":false,"distance":280,"is_transit":false},{"line":1,"i_lat":-6.20132,"distance":471,"time":1,"station_id":"KAT","is_transit":false,"i_long":106.816351,"station_name":"Karet","transit":false},{"is_transit":true,"time":5,"i_long":106.811091,"station_id":"THB","distance":2029,"station_name":"Tanah Abang","transit":true,"i_lat":-6.185545,"line":1},{"is_transit":false,"station_name":"Palmerah","distance":3191,"transit":false,"i_long":106.79689,"i_lat":-6.207404,"station_id":"PLM","time":6,"line":6},{"i_lat":-6.237242,"transit":false,"line":6,"is_transit":false,"time":7,"i_long":106.780334,"station_name":"Kebayoran","station_id":"KBY","distance":3737},{"station_id":"PDJ","i_long":106.74273,"station_name":"Pondokranji","time":8,"i_lat":-6.276362,"transit":false,"is_transit":false,"line":6,"distance":6218},{"station_id":"JMU","time":3,"distance":2179,"station_name":"Jurangmangu","is_transit":false,"i_lat":-6.288927,"i_long":106.728916,"line":6,"transit":false},{"distance":1994,"station_name":"Sudimara","is_transit":false,"time":4,"i_lat":-6.296963,"i_long":106.712277,"line":6,"station_id":"SDM","transit":false},{"is_transit":false,"distance":4566,"station_name":"Rawa Buntu","i_lat":-6.314823,"i_long":106.675475,"line":6,"time":6,"station_id":"RU","transit":false},{"time":4,"station_name":"Serpong","is_transit":false,"i_long":106.66566,"distance":2413,"i_lat":-6.319871,"transit":false,"line":6,"station_id":"SRP"},{"station_id":"CSK","i_lat":-6.32484,"i_long":106.640411,"distance":1784,"transit":false,"is_transit":false,"station_name":"Cisauk","line":0,"time":4},{"time":4,"line":0,"station_id":"CC","is_transit":false,"distance":2519,"station_name":"Cicayur","transit":false,"i_long":106.617853,"i_lat":-6.329547},{"is_transit":false,"transit":false,"distance":5968,"line":6,"i_long":106.568863,"station_name":"Parung Panjang","station_id":"PRP","i_lat":-6.3441410000000005,"time":8},{"is_transit":false,"transit":false,"time":9,"line":0,"i_long":106.508482,"station_name":"Cilejit","i_lat":-6.354349,"distance":7025,"station_id":"CJT"},{"time":6,"i_long":106.491338,"is_transit":false,"i_lat":-6.338021,"line":0,"transit":false,"station_id":"DAR","station_name":"Daru","distance":2675},{"is_transit":false,"i_lat":-6.327251,"station_id":"TEJ","time":5,"station_name":"Tenjo","distance":3902,"line":6,"transit":false,"i_long":106.460812},{"is_transit":false,"time":5,"station_id":"TGS","i_long":106.425991,"i_lat":-6.328533,"transit":false,"line":6,"distance":2974,"station_name":"Tigaraksa"},{"distance":2651,"line":0,"station_name":"Cikoya","i_long":106.411216,"time":3,"transit":false,"is_transit":false,"i_lat":-6.33561,"station_id":"CKY"},{"distance":1853,"line":6,"station_name":"Maja","station_id":"MJ","time":4,"i_long":106.394373,"transit":false,"is_transit":false,"i_lat":-6.332307},{"i_long":106.332092,"i_lat":-6.334892,"time":10,"is_transit":false,"station_id":"CTR","distance":7293,"station_name":"Citeras","line":0,"transit":false},{"station_name":"Rangkasbitung","time":13,"distance":9847,"i_lat":-6.352675,"is_transit":true,"transit":false,"line":0,"i_long":106.250396,"station_id":"RK"}],[{"line":0,"station_name":"Ancol","distance":0,"station_id":"AC","i_lat":-6.128023,"transit":false,"time":0,"i_long":106.84464,"is_transit":false},{"time":4,"station_name":"Kampung Bandan","i_lat":-6.132549,"distance":2185,"line":0,"i_long":106.826365,"is_transit":true,"station_id":"KPB","transit":true},{"transit":false,"is_transit":false,"distance":1444,"station_name":"Rajawali","time":3,"i_lat":-6.14505,"line":11,"i_long":106.836569,"station_id":"RJW"},{"time":5,"distance":1901,"line":11,"station_name":"Kemayoran","transit":false,"i_lat":-6.161728,"i_long":106.839204,"is_transit":false,"station_id":"KMO"},{"i_lat":-6.174784,"station_name":"Pasar Senen","i_long":106.84368,"line":11,"is_transit":false,"time":4,"station_id":"PSE","distance":1436,"transit":false},{"distance":1567,"line":11,"station_name":"Gang Sentiong","transit":false,"time":8,"i_long":106.850107,"i_lat":-6.185975,"station_id":"GST","is_transit":false},{"distance":973,"i_lat":-6.193792,"is_transit":false,"line":11,"i_long":106.855437,"time":1,"transit":false,"station_name":"Kramat","station_id":"KMT"},{"transit":false,"i_lat":-6.209188,"i_long":106.861737,"station_name":"Pondok Jati","line":11,"is_transit":false,"time":2,"distance":1829,"station_id":"POK"},{"transit":true,"station_name":"Jatinegara","i_long":106.86807400000001,"line":0,"i_lat":-6.215091,"distance":1236,"station_id":"JNG","is_transit":true,"time":9},{"station_id":"MTR","time":2,"i_lat":-6.212485,"is_transit":false,"distance":1377,"station_name":"Matraman","i_long":106.858896,"line":1,"transit":false},{"transit":false,"i_lat":-6.209883,"station_id":"MRI","distance":1275,"i_long":106.84912,"station_name":"Manggarai","is_transit":true,"time":2,"line":0},{"distance":3186,"i_long":106.822649,"time":4,"station_name":"Sudirman","i_lat":-6.202263,"line":1,"transit":false,"station_id":"SUD","is_transit":false},{"distance":280,"is_transit":false,"i_long":106.819881,"time":1,"transit":false,"line":1,"station_id":"SUDB","station_name":"Sudirman Baru","i_lat":-6.201433},{"distance":471,"station_id":"KAT","station_name":"Karet","i_long":106.816351,"is_transit":false,"i_lat":-6.20132,"transit":false,"time":1,"line":1},{"i_long":106.811091,"line":1,"station_name":"Tanah Abang","is_transit":true,"transit":true,"distance":2029,"station_id":"THB","i_lat":-6.185545,"time":5},{"station_id":"PLM","line":6,"time":6,"i_long":106.79689,"is_transit":false,"distance":3191,"station_name":"Palmerah","transit":false,"i_lat":-6.207404},{"is_transit":false,"transit":false,"station_name":"Kebayoran","i_lat":-6.237242,"i_long":106.780334,"line":6,"station_id":"KBY","distance":3737,"time":7},{"station_name":"Pondokranji","is_transit":false,"distance":6218,"time":8,"i_lat":-6.276362,"station_id":"PDJ","line":6,"transit":false,"i_long":106.74273},{"station_id":"JMU","is_transit":false,"distance":2179,"time":3,"i_long":106.728916,"transit":false,"station_name":"Jurangmangu","line":6,"i_lat":-6.288927},{"station_name":"Sudimara","is_transit":false,"line":6,"i_lat":-6.296963,"station_id":"SDM","time":4,"transit":false,"i_long":106.712277,"distance":1994},{"station_name":"Rawa Buntu","transit":false,"i_lat":-6.314823,"i_long":106.675475,"time":6,"line":6,"station_id":"RU","is_transit":false,"distance":4566},{"station_name":"Serpong","time":4,"is_transit":false,"distance":2413,"i_long":106.66566,"line":6,"i_lat":-6.319871,"transit":false,"station_id":"SRP"},{"station_id":"CSK","transit":false,"station_name":"Cisauk","i_long":106.640411,"is_transit":false,"line":0,"distance":1784,"time":4,"i_lat":-6.32484},{"i_lat":-6.329547,"line":0,"distance":2519,"station_name":"Cicayur","station_id":"CC","time":4,"i_long":106.617853,"is_transit":false,"transit":false},{"station_id":"PRP","is_transit":false,"time":8,"transit":false,"station_name":"Parung Panjang","i_lat":-6.3441410000000005,"line":6,"distance":5968,"i_long":106.568863},{"transit":false,"station_name":"Cilejit","i_lat":-6.354349,"line":0,"distance":7025,"station_id":"CJT","i_long":106.508482,"time":9,"is_transit":false},{"i_long":106.491338,"is_transit":false,"i_lat":-6.338021,"station_id":"DAR","station_name":"Daru","line":0,"transit":false,"distance":2675,"time":6},{"is_transit":false,"line":6,"transit":false,"distance":3902,"i_lat":-6.327251,"station_name":"Tenjo","i_long":106.460812,"station_id":"TEJ","time":5},{"time":5,"i_long":106.425991,"station_id":"TGS","station_name":"Tigaraksa","transit":false,"distance":2974,"i_lat":-6.328533,"is_transit":false,"line":6},{"distance":2651,"station_id":"CKY","station_name":"Cikoya","i_lat":-6.33561,"transit":false,"is_transit":false,"time":3,"i_long":106.411216,"line":0},{"is_transit":false,"time":4,"distance":1853,"i_long":106.394373,"station_name":"Maja","station_id":"MJ","i_lat":-6.332307,"line":6,"transit":false},{"transit":false,"i_lat":-6.334892,"station_name":"Citeras","line":0,"i_long":106.332092,"station_id":"CTR","distance":7293,"is_transit":false,"time":10},{"time":13,"is_transit":true,"i_lat":-6.352675,"line":0,"i_long":106.250396,"station_name":"Rangkasbitung","station_id":"RK","transit":false,"distance":9847}]]}