{"data":[[{"station_name":"Ancol","is_transit":false,"distance":0,"transit":false,"i_lat":-6.128023,"time":0,"station_id":"AC","i_long":106.84464,"line":4},{"line":4,"station_id":"KPB","transit":true,"time":4,"is_transit":true,"distance":2185,"i_long":106.826365,"station_name":"Kampung Bandan","i_lat":-6.132549},{"i_long":106.836569,"is_transit":false,"transit":false,"station_id":"RJW","station_name":"Rajawali","line":11,"time":3,"i_lat":-6.14505,"distance":1444}],[{"line":4,"time":0,"station_name":"Ancol","distance":0,"transit":false,"i_lat":-6.128023,"is_transit":false,"i_long":106.84464,"station_id":"AC"},{"distance":2185,"transit":true,"i_long":106.826365,"time":4,"station_id":"KPB","line":4,"i_lat":-6.132549,"is_transit":true,"station_name":"Kampung Bandan"},{"station_id":"AK","station_name":"Angke","i_lat":-6.144674,"is_transit":false,"distance":4102,"line":1,"i_long":106.79867,"time":9,"transit":false},{"distance":1230,"transit":false,"station_name":"Duri","is_transit":false,"i_lat":-6.155215,"i_long":106.800832,"station_id":"DU","line":1,"time":4},{"transit":false,"i_long":106.811091,"distance":3632,"i_lat":-6.185545,"time":8,"line":1,"station_name":"Tanah Abang","station_id":"THB","is_transit":false},{"station_id":"KAT","time":5,"transit":false,"distance":2029,"i_long":106.816351,"line":1,"station_name":"Karet","i_lat":-6.20132,"is_transit":false},{"distance":471,"time":1,"station_name":"Sudirman Baru","line":1,"transit":false,"i_lat":-6.201433,"i_long":106.819881,"is_transit":false,"station_id":"SUDB"},{"transit":false,"distance":280,"line":1,"time":1,"i_lat":-6.202263,"station_name":"Sudirman","i_long":106.822649,"station_id":"SUD","is_transit":false},{"distance":3186,"is_transit":false,"transit":false,"station_name":"Manggarai","i_lat":-6.209883,"i_long":106.84912,"station_id":"MRI","time":4,"line":2},{"i_long":106.858896,"i_lat":-6.212485,"distance":1275,"time":2,"station_name":"Matraman","is_transit":false,"station_id":"MTR","line":1,"transit":false},{"is_transit":true,"time":8,"station_name":"Jatinegara","station_id":"JNG","i_long":106.86807400000001,"i_lat":-6.215091,"distance":1377,"transit":true,"line":1},{"transit":false,"line":11,"is_transit":false,"station_name":"Pondok Jati","time":2,"station_id":"POK","i_lat":-6.209188,"distance":1236,"i_long":106.861737},{"i_lat":-6.193792,"station_id":"KMT","transit":false,"i_long":106.855437,"station_name":"Kramat","line":11,"is_transit":false,"distance":1829,"time":2},{"distance":973,"transit":false,"line":11,"is_transit":false,"i_lat":-6.185975,"station_id":"GST","i_long":106.850107,"time":1,"station_name":"Gang Sentiong"},{"distance":1567,"i_long":106.84368,"line":11,"time":8,"station_id":"PSE","i_lat":-6.174784,"station_name":"Pasar Senen","is_transit":false,"transit":false},{"is_transit":false,"station_id":"KMO","transit":false,"line":11,"time":4,"distance":1436,"station_name":"Kemayoran","i_lat":-6.161728,"i_long":106.839204},{"time":5,"i_lat":-6.14505,"is_transit":false,"transit":false,"station_id":"RJW","distance":1901,"station_name":"Rajawali","line":11,"i_long":106.836569}],[{"i_long":106.84464,"i_lat":-6.128023,"transit":false,"distance":0,"is_transit":false,"line":4,"station_name":"Ancol","time":0,"station_id":"AC"},{"time":4,"i_long":106.826365,"station_id":"KPB","i_lat":-6.132549,"is_transit":true,"line":4,"station_name":"Kampung Bandan","transit":true,"distance":2185},{"is_transit":true,"station_name":"Jakarta Kota","time":3,"i_lat":-6.137569,"transit":true,"station_id":"JAKK","line":2,"i_long":106.812439,"distance":1364},{"is_transit":false,"distance":1264,"station_name":"Jayakarta","time":4,"station_id":"JAY","transit":false,"i_long":106.820901,"line":2,"i_lat":-6.141205},{"transit":false,"i_lat":-6.149769,"i_long":106.82482,"station_name":"Manggabesar","is_transit":false,"distance":1080,"line":2,"station_id":"MGB","time":2},{"i_lat":-6.160725,"station_id":"SW","station_name":"Sawah Besar","transit":false,"is_transit":false,"distance":906,"time":2,"i_long":106.827103,"line":2},{"time":2,"i_long":106.828284,"station_name":"Juanda","distance":1149,"is_transit":false,"transit":false,"line":2,"station_id":"JUA","i_lat":-6.166716},{"i_lat":-6.186295,"line":2,"i_long":106.832183,"station_id":"GDD","station_name":"Gondangdia","is_transit":false,"transit":false,"distance":2015,"time":4},{"is_transit":false,"distance":1750,"time":3,"line":2,"station_id":"CKI","transit":false,"station_name":"Cikini","i_long":106.840169,"i_lat":-6.198556},{"station_name":"Manggarai","time":4,"transit":true,"line":2,"i_lat":-6.209883,"i_long":106.84912,"station_id":"MRI","is_transit":true,"distance":1590},{"i_long":106.858896,"time":2,"i_lat":-6.212485,"transit":false,"line":1,"station_name":"Matraman","distance":1275,"station_id":"MTR","is_transit":false},{"time":8,"station_name":"Jatinegara","station_id":"JNG","i_long":106.86807400000001,"is_transit":true,"distance":1377,"transit":true,"i_lat":-6.215091,"line":1},{"transit":false,"line":11,"time":2,"i_long":106.861737,"i_lat":-6.209188,"is_transit":false,"station_name":"Pondok Jati","distance":1236,"station_id":"POK"},{"transit":false,"line":11,"station_name":"Kramat","i_lat":-6.193792,"distance":1829,"time":2,"i_long":106.855437,"is_transit":false,"station_id":"KMT"},{"line":11,"transit":false,"time":1,"station_id":"GST","distance":973,"i_long":106.850107,"is_transit":false,"i_lat":-6.185975,"station_name":"Gang Sentiong"},{"station_name":"Pasar Senen","is_transit":false,"transit":false,"distance":1567,"i_long":106.84368,"i_lat":-6.174784,"line":11,"time":8,"station_id":"PSE"},{"line":11,"time":4,"station_name":"Kemayoran","is_transit":false,"transit":false,"i_lat":-6.161728,"i_long":106.839204,"station_id":"KMO","distance":1436},{"station_name":"Rajawali","station_id":"RJW","distance":1901,"i_lat":-6.14505,"transit":false,"time":5,"is_transit":false,"i_long":106.836569,"line":11}]]}