{"data":[[{"station_name":"Ancol","distance":0,"is_transit":false,"i_long":106.84464,"i_lat":-6.128023,"time":0,"station_id":"AC","line":0,"transit":false},{"is_transit":true,"distance":2185,"i_lat":-6.132549,"line":0,"transit":true,"station_id":"KPB","i_long":106.826365,"time":4,"station_name":"Kampung Bandan"},{"is_transit":false,"time":3,"transit":false,"station_name":"Rajawali","i_lat":-6.14505,"i_long":106.836569,"distance":1444,"station_id":"RJW","line":11}],[{"i_lat":-6.128023,"time":0,"distance":0,"station_name":"Ancol","line":0,"is_transit":false,"transit":false,"station_id":"AC","i_long":106.84464},{"line":0,"transit":false,"is_transit":true,"station_id":"KPB","i_lat":-6.132549,"time":4,"station_name":"Kampung Bandan","distance":2185,"i_long":106.826365},{"i_lat":-6.144674,"is_transit":false,"line":0,"distance":4102,"station_name":"Angke","i_long":106.79867,"station_id":"AK","transit":false,"time":9},{"i_lat":-6.155215,"i_long":106.800832,"is_transit":true,"time":4,"station_name":"Duri","distance":1230,"station_id":"DU","line":1,"transit":true},{"transit":false,"station_name":"Tanah Abang","time":8,"station_id":"THB","line":1,"i_lat":-6.185545,"is_transit":true,"distance":3632,"i_long":106.811091},{"is_transit":false,"distance":2029,"station_id":"KAT","line":1,"time":5,"i_lat":-6.20132,"transit":false,"i_long":106.816351,"station_name":"Karet"},{"station_id":"SUDB","transit":false,"distance":471,"station_name":"Sudirman Baru","is_transit":false,"i_lat":-6.201433,"line":1,"time":1,"i_long":106.819881},{"is_transit":false,"distance":280,"station_id":"SUD","i_long":106.822649,"station_name":"Sudirman","line":1,"transit":false,"i_lat":-6.202263,"time":1},{"i_long":106.84912,"i_lat":-6.209883,"transit":false,"is_transit":true,"time":4,"distance":3186,"station_id":"MRI","station_name":"Manggarai","line":0},{"station_name":"Matraman","is_transit":false,"line":1,"time":2,"station_id":"MTR","transit":false,"i_long":106.858896,"i_lat":-6.212485,"distance":1275},{"line":0,"station_name":"Jatinegara","station_id":"JNG","distance":1377,"i_lat":-6.215091,"time":8,"is_transit":true,"transit":true,"i_long":106.86807400000001},{"distance":1236,"transit":false,"is_transit":false,"station_id":"POK","i_lat":-6.209188,"line":11,"i_long":106.861737,"time":2,"station_name":"Pondok Jati"},{"is_transit":false,"time":2,"line":11,"station_id":"KMT","transit":false,"i_lat":-6.193792,"distance":1829,"station_name":"Kramat","i_long":106.855437},{"transit":false,"time":1,"station_id":"GST","line":11,"station_name":"Gang Sentiong","is_transit":false,"i_long":106.850107,"i_lat":-6.185975,"distance":973},{"line":11,"station_id":"PSE","is_transit":false,"i_lat":-6.174784,"i_long":106.84368,"transit":false,"distance":1567,"station_name":"Pasar Senen","time":8},{"i_lat":-6.161728,"transit":false,"station_id":"KMO","is_transit":false,"time":4,"distance":1436,"i_long":106.839204,"line":11,"station_name":"Kemayoran"},{"distance":1901,"is_transit":false,"i_lat":-6.14505,"transit":false,"station_id":"RJW","line":11,"station_name":"Rajawali","i_long":106.836569,"time":5}],[{"i_lat":-6.128023,"i_long":106.84464,"transit":false,"time":0,"distance":0,"is_transit":false,"station_name":"Ancol","line":0,"station_id":"AC"},{"station_id":"KPB","is_transit":true,"i_lat":-6.132549,"distance":2185,"transit":false,"i_long":106.826365,"time":4,"line":0,"station_name":"Kampung Bandan"},{"line":0,"is_transit":true,"station_name":"Jakarta Kota","time":3,"transit":true,"distance":1364,"i_long":106.812439,"station_id":"JAKK","i_lat":-6.137569},{"distance":1264,"station_id":"JAY","transit":false,"i_lat":-6.141205,"i_long":106.820901,"time":4,"line":7,"is_transit":false,"station_name":"Jayakarta"},{"time":2,"transit":false,"i_long":106.82482,"distance":1080,"i_lat":-6.149769,"is_transit":false,"station_name":"Manggabesar","station_id":"MGB","line":2},{"station_name":"Sawah Besar","distance":906,"transit":false,"i_lat":-6.160725,"station_id":"SW","time":2,"i_long":106.827103,"line":2,"is_transit":false},{"transit":false,"distance":1149,"station_id":"JUA","time":2,"i_lat":-6.166716,"station_name":"Juanda","i_long":106.828284,"is_transit":false,"line":2},{"i_long":106.832183,"is_transit":false,"distance":2015,"station_name":"Gondangdia","i_lat":-6.186295,"line":2,"transit":false,"station_id":"GDD","time":4},{"station_id":"CKI","i_lat":-6.198556,"transit":false,"time":3,"is_transit":false,"line":0,"station_name":"Cikini","distance":1750,"i_long":106.840169},{"station_name":"Manggarai","i_lat":-6.209883,"station_id":"MRI","time":4,"i_long":106.84912,"transit":true,"line":0,"is_transit":true,"distance":1590},{"i_long":106.858896,"time":2,"distance":1275,"transit":false,"i_lat":-6.212485,"line":1,"is_transit":false,"station_id":"MTR","station_name":"Matraman"},{"time":8,"transit":true,"line":0,"is_transit":true,"i_long":106.86807400000001,"station_id":"JNG","station_name":"Jatinegara","i_lat":-6.215091,"distance":1377},{"line":11,"station_id":"POK","station_name":"Pondok Jati","time":2,"is_transit":false,"i_long":106.861737,"transit":false,"distance":1236,"i_lat":-6.209188},{"line":11,"station_name":"Kramat","transit":false,"i_lat":-6.193792,"station_id":"KMT","time":2,"i_long":106.855437,"is_transit":false,"distance":1829},{"station_id":"GST","line":11,"i_long":106.850107,"time":1,"distance":973,"i_lat":-6.185975,"station_name":"Gang Sentiong","transit":false,"is_transit":false},{"i_lat":-6.174784,"i_long":106.84368,"line":11,"transit":false,"is_transit":false,"distance":1567,"station_id":"PSE","time":8,"station_name":"Pasar Senen"},{"transit":false,"time":4,"i_lat":-6.161728,"station_id":"KMO","distance":1436,"line":11,"is_transit":false,"i_long":106.839204,"station_name":"Kemayoran"},{"time":5,"is_transit":false,"i_lat":-6.14505,"i_long":106.836569,"line":11,"distance":1901,"station_id":"RJW","station_name":"Rajawali","transit":false}]]}