{"data":[[{"station_name":"Ancol","station_id":"AC","time":0,"i_long":106.84464,"i_lat":-6.128023,"is_transit":false,"distance":0,"transit":false,"line":4},{"transit":true,"is_transit":true,"station_name":"Kampung Bandan","i_lat":-6.132549,"time":4,"line":4,"station_id":"KPB","i_long":106.826365,"distance":2185},{"i_long":106.79867,"i_lat":-6.144674,"station_name":"Angke","is_transit":false,"time":9,"station_id":"AK","distance":4102,"transit":false,"line":1},{"is_transit":false,"station_id":"DU","time":4,"transit":false,"distance":1230,"station_name":"Duri","i_lat":-6.155215,"i_long":106.800832,"line":1},{"distance":3632,"i_long":106.811091,"i_lat":-6.185545,"is_transit":true,"transit":true,"time":8,"line":1,"station_name":"Tanah Abang","station_id":"THB"},{"i_lat":-6.207404,"i_long":106.79689,"station_id":"PLM","time":6,"station_name":"Palmerah","distance":3191,"is_transit":false,"line":6,"transit":false},{"station_name":"Kebayoran","distance":3737,"i_long":106.780334,"is_transit":false,"i_lat":-6.237242,"time":7,"station_id":"KBY","transit":false,"line":6},{"transit":false,"time":8,"i_lat":-6.276362,"distance":6218,"station_name":"Pondokranji","is_transit":false,"station_id":"PDJ","line":6,"i_long":106.74273},{"transit":false,"station_name":"Jurangmangu","station_id":"JMU","time":3,"distance":2179,"is_transit":false,"i_lat":-6.288927,"i_long":106.728916,"line":6},{"i_lat":-6.296963,"i_long":106.712277,"distance":1994,"transit":false,"line":6,"station_id":"SDM","time":4,"is_transit":false,"station_name":"Sudimara"},{"i_long":106.675475,"station_id":"RU","time":6,"line":6,"station_name":"Rawa Buntu","distance":4566,"i_lat":-6.314823,"is_transit":false,"transit":false},{"is_transit":false,"distance":2413,"i_lat":-6.319871,"transit":false,"line":6,"time":4,"station_name":"Serpong","i_long":106.66566,"station_id":"SRP"},{"transit":false,"station_name":"Cisauk","line":3,"i_lat":-6.32484,"station_id":"CSK","time":4,"distance":1784,"i_long":106.640411,"is_transit":false},{"transit":false,"line":3,"is_transit":false,"i_lat":-6.329547,"station_name":"Cicayur","station_id":"CC","i_long":106.617853,"time":4,"distance":2519},{"transit":false,"line":6,"time":8,"i_lat":-6.3441410000000005,"i_long":106.568863,"is_transit":false,"distance":5968,"station_id":"PRP","station_name":"Parung Panjang"},{"time":9,"distance":7025,"transit":false,"station_name":"Cilejit","station_id":"CJT","line":3,"i_lat":-6.354349,"i_long":106.508482,"is_transit":false},{"i_long":106.491338,"distance":2675,"station_name":"Daru","i_lat":-6.338021,"station_id":"DAR","time":6,"is_transit":false,"line":0,"transit":false},{"transit":false,"i_long":106.460812,"is_transit":false,"time":5,"i_lat":-6.327251,"station_id":"TEJ","line":6,"station_name":"Tenjo","distance":3902},{"station_name":"Tigaraksa","is_transit":false,"transit":false,"line":6,"station_id":"TGS","i_long":106.425991,"i_lat":-6.328533,"time":5,"distance":2974},{"station_name":"Cikoya","time":3,"i_long":106.411216,"i_lat":-6.33561,"line":3,"transit":false,"station_id":"CKY","distance":2651,"is_transit":false},{"transit":false,"station_name":"Maja","distance":1853,"is_transit":false,"line":6,"station_id":"MJ","i_lat":-6.332307,"i_long":106.394373,"time":4},{"i_lat":-6.334892,"is_transit":false,"transit":false,"line":3,"station_name":"Citeras","station_id":"CTR","time":10,"i_long":106.332092,"distance":7293},{"station_name":"Rangkasbitung","distance":9847,"transit":false,"i_long":106.250396,"line":3,"station_id":"RK","is_transit":false,"i_lat":-6.352675,"time":13}],[{"i_long":106.84464,"station_id":"AC","line":4,"time":0,"i_lat":-6.128023,"transit":false,"is_transit":false,"station_name":"Ancol","distance":0},{"distance":2185,"i_lat":-6.132549,"station_id":"KPB","i_long":106.826365,"transit":true,"time":4,"is_transit":true,"line":4,"station_name":"Kampung Bandan"},{"station_name":"Jakarta Kota","line":2,"time":3,"distance":1364,"i_lat":-6.137569,"i_long":106.812439,"transit":true,"station_id":"JAKK","is_transit":true},{"station_id":"JAY","is_transit":false,"i_lat":-6.141205,"i_long":106.820901,"time":4,"station_name":"Jayakarta","line":2,"transit":false,"distance":1264},{"transit":false,"is_transit":false,"i_long":106.82482,"distance":1080,"station_id":"MGB","i_lat":-6.149769,"station_name":"Manggabesar","time":2,"line":2},{"transit":false,"i_lat":-6.160725,"line":2,"i_long":106.827103,"is_transit":false,"station_name":"Sawah Besar","time":2,"station_id":"SW","distance":906},{"time":2,"station_id":"JUA","i_long":106.828284,"station_name":"Juanda","distance":1149,"i_lat":-6.166716,"line":2,"transit":false,"is_transit":false},{"station_name":"Gondangdia","i_lat":-6.186295,"line":2,"is_transit":false,"station_id":"GDD","time":4,"distance":2015,"i_long":106.832183,"transit":false},{"line":2,"time":3,"station_id":"CKI","is_transit":false,"station_name":"Cikini","distance":1750,"i_lat":-6.198556,"i_long":106.840169,"transit":false},{"is_transit":true,"distance":1590,"time":4,"station_name":"Manggarai","i_lat":-6.209883,"line":2,"i_long":106.84912,"station_id":"MRI","transit":true},{"distance":3186,"transit":false,"i_lat":-6.202263,"time":4,"station_id":"SUD","is_transit":false,"i_long":106.822649,"station_name":"Sudirman","line":1},{"transit":false,"i_lat":-6.201433,"time":1,"i_long":106.819881,"line":1,"station_name":"Sudirman Baru","is_transit":false,"station_id":"SUDB","distance":280},{"station_name":"Karet","line":1,"is_transit":false,"station_id":"KAT","transit":false,"i_lat":-6.20132,"i_long":106.816351,"time":1,"distance":471},{"transit":true,"station_name":"Tanah Abang","i_long":106.811091,"is_transit":true,"i_lat":-6.185545,"station_id":"THB","line":1,"distance":2029,"time":5},{"station_name":"Palmerah","i_long":106.79689,"i_lat":-6.207404,"is_transit":false,"station_id":"PLM","distance":3191,"time":6,"transit":false,"line":6},{"i_long":106.780334,"line":6,"time":7,"is_transit":false,"distance":3737,"station_name":"Kebayoran","station_id":"KBY","transit":false,"i_lat":-6.237242},{"is_transit":false,"station_id":"PDJ","time":8,"i_long":106.74273,"line":6,"station_name":"Pondokranji","i_lat":-6.276362,"distance":6218,"transit":false},{"line":6,"transit":false,"i_long":106.728916,"is_transit":false,"station_id":"JMU","time":3,"distance":2179,"station_name":"Jurangmangu","i_lat":-6.288927},{"transit":false,"time":4,"station_name":"Sudimara","is_transit":false,"station_id":"SDM","distance":1994,"i_lat":-6.296963,"i_long":106.712277,"line":6},{"line":6,"station_name":"Rawa Buntu","station_id":"RU","i_lat":-6.314823,"transit":false,"time":6,"distance":4566,"i_long":106.675475,"is_transit":false},{"station_name":"Serpong","i_lat":-6.319871,"distance":2413,"i_long":106.66566,"is_transit":false,"time":4,"transit":false,"station_id":"SRP","line":6},{"time":4,"line":3,"is_transit":false,"transit":false,"station_id":"CSK","station_name":"Cisauk","distance":1784,"i_lat":-6.32484,"i_long":106.640411},{"time":4,"is_transit":false,"distance":2519,"transit":false,"station_id":"CC","i_lat":-6.329547,"i_long":106.617853,"line":3,"station_name":"Cicayur"},{"distance":5968,"line":6,"transit":false,"i_long":106.568863,"station_name":"Parung Panjang","is_transit":false,"station_id":"PRP","time":8,"i_lat":-6.3441410000000005},{"i_lat":-6.354349,"transit":false,"station_id":"CJT","distance":7025,"i_long":106.508482,"line":3,"time":9,"station_name":"Cilejit","is_transit":false},{"i_long":106.491338,"station_name":"Daru","line":0,"time":6,"transit":false,"station_id":"DAR","is_transit":false,"distance":2675,"i_lat":-6.338021},{"station_name":"Tenjo","distance":3902,"time":5,"i_lat":-6.327251,"transit":false,"is_transit":false,"i_long":106.460812,"station_id":"TEJ","line":6},{"i_long":106.425991,"distance":2974,"station_name":"Tigaraksa","station_id":"TGS","time":5,"line":6,"is_transit":false,"transit":false,"i_lat":-6.328533},{"transit":false,"i_long":106.411216,"line":3,"i_lat":-6.33561,"is_transit":false,"station_name":"Cikoya","time":3,"distance":2651,"station_id":"CKY"},{"distance":1853,"time":4,"transit":false,"station_name":"Maja","line":6,"is_transit":false,"station_id":"MJ","i_long":106.394373,"i_lat":-6.332307},{"i_long":106.332092,"line":3,"i_lat":-6.334892,"time":10,"station_name":"Citeras","transit":false,"distance":7293,"is_transit":false,"station_id":"CTR"},{"transit":false,"i_long":106.250396,"time":13,"station_name":"Rangkasbitung","is_transit":false,"i_lat":-6.352675,"distance":9847,"line":3,"station_id":"RK"}],[{"transit":false,"i_long":106.84464,"station_id":"AC","time":0,"station_name":"Ancol","line":4,"is_transit":false,"i_lat":-6.128023,"distance":0},{"line":4,"station_id":"KPB","station_name":"Kampung Bandan","distance":2185,"time":4,"transit":true,"i_lat":-6.132549,"is_transit":true,"i_long":106.826365},{"station_name":"Rajawali","is_transit":false,"line":11,"station_id":"RJW","transit":false,"distance":1444,"time":3,"i_long":106.836569,"i_lat":-6.14505},{"i_lat":-6.161728,"time":5,"i_long":106.839204,"station_id":"KMO","is_transit":false,"transit":false,"distance":1901,"station_name":"Kemayoran","line":11},{"i_long":106.84368,"station_id":"PSE","line":11,"i_lat":-6.174784,"transit":false,"is_transit":false,"distance":1436,"station_name":"Pasar Senen","time":4},{"i_long":106.850107,"is_transit":false,"time":8,"distance":1567,"line":11,"station_name":"Gang Sentiong","station_id":"GST","transit":false,"i_lat":-6.185975},{"i_lat":-6.193792,"is_transit":false,"station_name":"Kramat","distance":973,"station_id":"KMT","line":11,"transit":false,"i_long":106.855437,"time":1},{"i_long":106.861737,"line":11,"is_transit":false,"time":2,"transit":false,"station_name":"Pondok Jati","i_lat":-6.209188,"station_id":"POK","distance":1829},{"i_lat":-6.215091,"distance":1236,"time":9,"station_id":"JNG","station_name":"Jatinegara","is_transit":true,"transit":true,"i_long":106.86807400000001,"line":1},{"station_name":"Matraman","transit":false,"i_long":106.858896,"i_lat":-6.212485,"distance":1377,"is_transit":false,"station_id":"MTR","line":1,"time":2},{"i_lat":-6.209883,"transit":false,"station_id":"MRI","i_long":106.84912,"time":2,"line":2,"is_transit":false,"station_name":"Manggarai","distance":1275},{"station_name":"Sudirman","distance":3186,"time":4,"transit":false,"i_long":106.822649,"line":1,"station_id":"SUD","i_lat":-6.202263,"is_transit":false},{"station_id":"SUDB","time":1,"distance":280,"station_name":"Sudirman Baru","line":1,"i_lat":-6.201433,"i_long":106.819881,"is_transit":false,"transit":false},{"station_name":"Karet","distance":471,"transit":false,"line":1,"i_lat":-6.20132,"time":1,"is_transit":false,"i_long":106.816351,"station_id":"KAT"},{"is_transit":true,"time":5,"transit":true,"station_name":"Tanah Abang","station_id":"THB","i_long":106.811091,"line":1,"distance":2029,"i_lat":-6.185545},{"distance":3191,"station_id":"PLM","i_lat":-6.207404,"is_transit":false,"station_name":"Palmerah","time":6,"i_long":106.79689,"transit":false,"line":6},{"i_long":106.780334,"transit":false,"time":7,"i_lat":-6.237242,"is_transit":false,"station_name":"Kebayoran","distance":3737,"line":6,"station_id":"KBY"},{"transit":false,"distance":6218,"i_lat":-6.276362,"station_id":"PDJ","i_long":106.74273,"time":8,"line":6,"is_transit":false,"station_name":"Pondokranji"},{"time":3,"transit":false,"i_long":106.728916,"line":6,"distance":2179,"station_name":"Jurangmangu","is_transit":false,"station_id":"JMU","i_lat":-6.288927},{"line":6,"i_lat":-6.296963,"is_transit":false,"station_id":"SDM","station_name":"Sudimara","transit":false,"i_long":106.712277,"time":4,"distance":1994},{"i_lat":-6.314823,"time":6,"transit":false,"is_transit":false,"station_name":"Rawa Buntu","i_long":106.675475,"station_id":"RU","line":6,"distance":4566},{"is_transit":false,"time":4,"distance":2413,"line":6,"transit":false,"i_lat":-6.319871,"station_name":"Serpong","station_id":"SRP","i_long":106.66566},{"i_long":106.640411,"station_name":"Cisauk","station_id":"CSK","is_transit":false,"time":4,"i_lat":-6.32484,"transit":false,"line":3,"distance":1784},{"time":4,"i_long":106.617853,"line":3,"transit":false,"station_name":"Cicayur","station_id":"CC","distance":2519,"i_lat":-6.329547,"is_transit":false},{"i_long":106.568863,"line":6,"station_name":"Parung Panjang","station_id":"PRP","distance":5968,"i_lat":-6.3441410000000005,"is_transit":false,"time":8,"transit":false},{"station_id":"CJT","transit":false,"time":9,"line":3,"is_transit":false,"station_name":"Cilejit","i_lat":-6.354349,"i_long":106.508482,"distance":7025},{"transit":false,"i_long":106.491338,"station_id":"DAR","is_transit":false,"time":6,"i_lat":-6.338021,"line":0,"distance":2675,"station_name":"Daru"},{"line":6,"station_name":"Tenjo","transit":false,"time":5,"distance":3902,"i_lat":-6.327251,"is_transit":false,"station_id":"TEJ","i_long":106.460812},{"station_id":"TGS","i_lat":-6.328533,"time":5,"distance":2974,"i_long":106.425991,"is_transit":false,"transit":false,"line":6,"station_name":"Tigaraksa"},{"station_name":"Cikoya","is_transit":false,"i_lat":-6.33561,"station_id":"CKY","transit":false,"distance":2651,"time":3,"i_long":106.411216,"line":3},{"is_transit":false,"station_name":"Maja","line":6,"i_lat":-6.332307,"station_id":"MJ","i_long":106.394373,"transit":false,"time":4,"distance":1853},{"station_name":"Citeras","transit":false,"i_long":106.332092,"i_lat":-6.334892,"is_transit":false,"time":10,"distance":7293,"station_id":"CTR","line":3},{"line":3,"transit":false,"distance":9847,"is_transit":false,"station_name":"Rangkasbitung","station_id":"RK","i_long":106.250396,"time":13,"i_lat":-6.352675}]]}