{"data":[[{"i_lat":-6.128023,"distance":0,"station_id":"AC","time":0,"is_transit":false,"transit":false,"line":4,"station_name":"Ancol","i_long":106.84464},{"transit":true,"i_lat":-6.132549,"station_id":"KPB","station_name":"Kampung Bandan","distance":2185,"i_long":106.826365,"line":4,"is_transit":true,"time":4},{"line":1,"time":9,"station_id":"AK","station_name":"Angke","i_lat":-6.144674,"i_long":106.79867,"is_transit":false,"transit":false,"distance":4102},{"is_transit":false,"transit":false,"station_id":"DU","distance":1230,"station_name":"Duri","i_long":106.800832,"i_lat":-6.155215,"line":1,"time":4},{"station_id":"THB","station_name":"Tanah Abang","distance":3632,"is_transit":true,"transit":true,"i_long":106.811091,"time":8,"i_lat":-6.185545,"line":1},{"station_id":"PLM","is_transit":false,"i_lat":-6.207404,"station_name":"Palmerah","i_long":106.79689,"transit":false,"distance":3191,"time":6,"line":6},{"time":7,"i_lat":-6.237242,"station_name":"Kebayoran","is_transit":false,"station_id":"KBY","i_long":106.780334,"transit":false,"distance":3737,"line":6},{"line":6,"time":8,"is_transit":false,"station_id":"PDJ","i_lat":-6.276362,"station_name":"Pondokranji","distance":6218,"i_long":106.74273,"transit":false},{"transit":false,"station_id":"JMU","station_name":"Jurangmangu","i_lat":-6.288927,"line":6,"distance":2179,"is_transit":false,"i_long":106.728916,"time":3},{"line":6,"time":4,"station_id":"SDM","distance":1994,"transit":false,"station_name":"Sudimara","is_transit":false,"i_lat":-6.296963,"i_long":106.712277},{"time":6,"station_id":"RU","i_long":106.675475,"station_name":"Rawa Buntu","distance":4566,"transit":false,"is_transit":false,"line":6,"i_lat":-6.314823},{"station_name":"Serpong","i_long":106.66566,"distance":2413,"i_lat":-6.319871,"is_transit":false,"time":4,"station_id":"SRP","transit":false,"line":6},{"i_lat":-6.32484,"transit":false,"is_transit":false,"station_name":"Cisauk","time":4,"station_id":"CSK","line":3,"i_long":106.640411,"distance":1784},{"time":4,"station_id":"CC","line":3,"i_lat":-6.329547,"station_name":"Cicayur","distance":2519,"is_transit":false,"i_long":106.617853,"transit":false},{"i_long":106.568863,"transit":false,"time":8,"distance":5968,"line":6,"station_id":"PRP","i_lat":-6.3441410000000005,"station_name":"Parung Panjang","is_transit":false},{"station_id":"CJT","is_transit":false,"time":9,"i_lat":-6.354349,"station_name":"Cilejit","i_long":106.508482,"line":3,"distance":7025,"transit":false},{"is_transit":false,"transit":false,"station_name":"Daru","i_lat":-6.338021,"time":6,"line":0,"i_long":106.491338,"station_id":"DAR","distance":2675},{"distance":3902,"station_name":"Tenjo","is_transit":false,"i_long":106.460812,"i_lat":-6.327251,"station_id":"TEJ","line":6,"time":5,"transit":false},{"transit":false,"station_name":"Tigaraksa","distance":2974,"time":5,"i_lat":-6.328533,"i_long":106.425991,"line":6,"is_transit":false,"station_id":"TGS"},{"transit":false,"i_long":106.411216,"station_id":"CKY","time":3,"is_transit":false,"station_name":"Cikoya","i_lat":-6.33561,"line":3,"distance":2651},{"i_lat":-6.332307,"line":6,"time":4,"transit":false,"station_name":"Maja","i_long":106.394373,"station_id":"MJ","is_transit":false,"distance":1853},{"time":10,"station_id":"CTR","transit":false,"line":3,"station_name":"Citeras","i_lat":-6.334892,"distance":7293,"i_long":106.332092,"is_transit":false},{"i_lat":-6.352675,"time":13,"i_long":106.250396,"station_id":"RK","station_name":"Rangkasbitung","line":3,"transit":false,"distance":9847,"is_transit":false}],[{"station_id":"AC","i_lat":-6.128023,"line":4,"is_transit":false,"i_long":106.84464,"transit":false,"time":0,"station_name":"Ancol","distance":0},{"i_long":106.826365,"is_transit":true,"station_name":"Kampung Bandan","transit":true,"i_lat":-6.132549,"distance":2185,"line":4,"time":4,"station_id":"KPB"},{"i_long":106.812439,"line":2,"is_transit":true,"station_id":"JAKK","time":3,"transit":true,"station_name":"Jakarta Kota","i_lat":-6.137569,"distance":1364},{"station_name":"Jayakarta","time":4,"distance":1264,"transit":false,"line":2,"station_id":"JAY","i_lat":-6.141205,"i_long":106.820901,"is_transit":false},{"station_name":"Manggabesar","i_long":106.82482,"transit":false,"is_transit":false,"distance":1080,"station_id":"MGB","i_lat":-6.149769,"line":2,"time":2},{"is_transit":false,"i_lat":-6.160725,"i_long":106.827103,"time":2,"line":2,"distance":906,"transit":false,"station_name":"Sawah Besar","station_id":"SW"},{"line":2,"transit":false,"station_name":"Juanda","i_lat":-6.166716,"distance":1149,"is_transit":false,"station_id":"JUA","time":2,"i_long":106.828284},{"time":4,"i_lat":-6.186295,"transit":false,"line":2,"distance":2015,"i_long":106.832183,"is_transit":false,"station_name":"Gondangdia","station_id":"GDD"},{"time":3,"i_long":106.840169,"station_id":"CKI","is_transit":false,"line":2,"i_lat":-6.198556,"distance":1750,"transit":false,"station_name":"Cikini"},{"i_long":106.84912,"time":4,"distance":1590,"transit":true,"station_name":"Manggarai","is_transit":true,"i_lat":-6.209883,"line":2,"station_id":"MRI"},{"transit":false,"time":4,"is_transit":false,"i_lat":-6.202263,"i_long":106.822649,"line":1,"station_name":"Sudirman","station_id":"SUD","distance":3186},{"line":1,"distance":280,"station_id":"SUDB","time":1,"station_name":"Sudirman Baru","is_transit":false,"transit":false,"i_lat":-6.201433,"i_long":106.819881},{"transit":false,"time":1,"i_long":106.816351,"station_id":"KAT","line":1,"is_transit":false,"i_lat":-6.20132,"station_name":"Karet","distance":471},{"is_transit":true,"time":5,"distance":2029,"i_lat":-6.185545,"transit":true,"i_long":106.811091,"station_name":"Tanah Abang","station_id":"THB","line":1},{"is_transit":false,"i_long":106.79689,"line":6,"time":6,"i_lat":-6.207404,"transit":false,"distance":3191,"station_name":"Palmerah","station_id":"PLM"},{"transit":false,"time":7,"line":6,"distance":3737,"station_name":"Kebayoran","i_lat":-6.237242,"station_id":"KBY","is_transit":false,"i_long":106.780334},{"line":6,"i_lat":-6.276362,"station_name":"Pondokranji","is_transit":false,"i_long":106.74273,"transit":false,"station_id":"PDJ","time":8,"distance":6218},{"station_id":"JMU","i_lat":-6.288927,"line":6,"distance":2179,"i_long":106.728916,"station_name":"Jurangmangu","is_transit":false,"time":3,"transit":false},{"transit":false,"is_transit":false,"i_lat":-6.296963,"i_long":106.712277,"line":6,"station_name":"Sudimara","station_id":"SDM","time":4,"distance":1994},{"distance":4566,"station_id":"RU","transit":false,"is_transit":false,"line":6,"time":6,"i_long":106.675475,"station_name":"Rawa Buntu","i_lat":-6.314823},{"distance":2413,"transit":false,"station_name":"Serpong","is_transit":false,"i_long":106.66566,"i_lat":-6.319871,"line":6,"time":4,"station_id":"SRP"},{"station_name":"Cisauk","is_transit":false,"line":3,"station_id":"CSK","distance":1784,"i_lat":-6.32484,"transit":false,"time":4,"i_long":106.640411},{"i_lat":-6.329547,"is_transit":false,"transit":false,"time":4,"distance":2519,"station_name":"Cicayur","station_id":"CC","i_long":106.617853,"line":3},{"i_lat":-6.3441410000000005,"is_transit":false,"time":8,"transit":false,"line":6,"station_name":"Parung Panjang","i_long":106.568863,"distance":5968,"station_id":"PRP"},{"time":9,"i_lat":-6.354349,"distance":7025,"line":3,"is_transit":false,"transit":false,"station_name":"Cilejit","i_long":106.508482,"station_id":"CJT"},{"station_name":"Daru","is_transit":false,"station_id":"DAR","transit":false,"distance":2675,"i_lat":-6.338021,"time":6,"i_long":106.491338,"line":0},{"line":6,"time":5,"transit":false,"distance":3902,"station_id":"TEJ","station_name":"Tenjo","is_transit":false,"i_long":106.460812,"i_lat":-6.327251},{"time":5,"line":6,"station_id":"TGS","transit":false,"i_lat":-6.328533,"distance":2974,"is_transit":false,"i_long":106.425991,"station_name":"Tigaraksa"},{"station_name":"Cikoya","station_id":"CKY","distance":2651,"line":3,"time":3,"transit":false,"is_transit":false,"i_lat":-6.33561,"i_long":106.411216},{"line":6,"i_long":106.394373,"i_lat":-6.332307,"distance":1853,"transit":false,"station_id":"MJ","is_transit":false,"station_name":"Maja","time":4},{"is_transit":false,"line":3,"station_id":"CTR","distance":7293,"time":10,"station_name":"Citeras","transit":false,"i_lat":-6.334892,"i_long":106.332092},{"i_long":106.250396,"is_transit":false,"i_lat":-6.352675,"transit":false,"station_id":"RK","time":13,"distance":9847,"line":3,"station_name":"Rangkasbitung"}],[{"transit":false,"i_lat":-6.128023,"distance":0,"time":0,"line":4,"is_transit":false,"station_name":"Ancol","i_long":106.84464,"station_id":"AC"},{"is_transit":true,"station_id":"KPB","line":4,"i_long":106.826365,"i_lat":-6.132549,"time":4,"transit":true,"station_name":"Kampung Bandan","distance":2185},{"i_lat":-6.14505,"i_long":106.836569,"transit":false,"distance":1444,"station_name":"Rajawali","time":3,"station_id":"RJW","is_transit":false,"line":11},{"distance":1901,"i_lat":-6.161728,"is_transit":false,"i_long":106.839204,"station_id":"KMO","time":5,"transit":false,"station_name":"Kemayoran","line":11},{"transit":false,"is_transit":false,"distance":1436,"i_lat":-6.174784,"station_name":"Pasar Senen","station_id":"PSE","time":4,"i_long":106.84368,"line":11},{"distance":1567,"station_id":"GST","i_lat":-6.185975,"station_name":"Gang Sentiong","time":8,"transit":false,"i_long":106.850107,"line":11,"is_transit":false},{"line":11,"time":1,"transit":false,"distance":973,"is_transit":false,"station_id":"KMT","i_long":106.855437,"station_name":"Kramat","i_lat":-6.193792},{"distance":1829,"line":11,"time":2,"station_name":"Pondok Jati","i_long":106.861737,"is_transit":false,"i_lat":-6.209188,"station_id":"POK","transit":false},{"line":1,"is_transit":true,"station_name":"Jatinegara","i_lat":-6.215091,"distance":1236,"i_long":106.86807400000001,"time":9,"transit":true,"station_id":"JNG"},{"i_long":106.858896,"is_transit":false,"station_name":"Matraman","transit":false,"line":1,"station_id":"MTR","distance":1377,"time":2,"i_lat":-6.212485},{"transit":false,"distance":1275,"time":2,"station_name":"Manggarai","line":2,"i_lat":-6.209883,"station_id":"MRI","is_transit":false,"i_long":106.84912},{"time":4,"line":1,"i_long":106.822649,"station_id":"SUD","is_transit":false,"transit":false,"distance":3186,"station_name":"Sudirman","i_lat":-6.202263},{"is_transit":false,"distance":280,"station_name":"Sudirman Baru","i_long":106.819881,"time":1,"i_lat":-6.201433,"transit":false,"station_id":"SUDB","line":1},{"i_long":106.816351,"line":1,"time":1,"is_transit":false,"distance":471,"transit":false,"station_id":"KAT","station_name":"Karet","i_lat":-6.20132},{"station_id":"THB","time":5,"transit":true,"i_lat":-6.185545,"line":1,"is_transit":true,"i_long":106.811091,"distance":2029,"station_name":"Tanah Abang"},{"station_name":"Palmerah","station_id":"PLM","transit":false,"line":6,"is_transit":false,"i_lat":-6.207404,"distance":3191,"time":6,"i_long":106.79689},{"station_id":"KBY","station_name":"Kebayoran","i_long":106.780334,"distance":3737,"is_transit":false,"time":7,"i_lat":-6.237242,"line":6,"transit":false},{"i_long":106.74273,"transit":false,"time":8,"distance":6218,"station_name":"Pondokranji","line":6,"is_transit":false,"station_id":"PDJ","i_lat":-6.276362},{"time":3,"transit":false,"line":6,"is_transit":false,"station_name":"Jurangmangu","i_lat":-6.288927,"i_long":106.728916,"distance":2179,"station_id":"JMU"},{"i_long":106.712277,"distance":1994,"is_transit":false,"i_lat":-6.296963,"time":4,"station_name":"Sudimara","station_id":"SDM","line":6,"transit":false},{"is_transit":false,"i_long":106.675475,"transit":false,"i_lat":-6.314823,"line":6,"distance":4566,"station_name":"Rawa Buntu","station_id":"RU","time":6},{"is_transit":false,"time":4,"distance":2413,"station_name":"Serpong","transit":false,"i_lat":-6.319871,"line":6,"i_long":106.66566,"station_id":"SRP"},{"transit":false,"line":3,"time":4,"i_long":106.640411,"station_name":"Cisauk","distance":1784,"is_transit":false,"i_lat":-6.32484,"station_id":"CSK"},{"station_name":"Cicayur","line":3,"distance":2519,"station_id":"CC","transit":false,"i_long":106.617853,"is_transit":false,"time":4,"i_lat":-6.329547},{"time":8,"distance":5968,"station_name":"Parung Panjang","is_transit":false,"station_id":"PRP","i_long":106.568863,"line":6,"transit":false,"i_lat":-6.3441410000000005},{"is_transit":false,"distance":7025,"station_id":"CJT","line":3,"transit":false,"station_name":"Cilejit","time":9,"i_long":106.508482,"i_lat":-6.354349},{"distance":2675,"transit":false,"line":0,"is_transit":false,"time":6,"station_id":"DAR","i_long":106.491338,"i_lat":-6.338021,"station_name":"Daru"},{"i_lat":-6.327251,"transit":false,"i_long":106.460812,"station_id":"TEJ","line":6,"station_name":"Tenjo","distance":3902,"time":5,"is_transit":false},{"distance":2974,"i_lat":-6.328533,"i_long":106.425991,"is_transit":false,"station_id":"TGS","transit":false,"time":5,"station_name":"Tigaraksa","line":6},{"time":3,"transit":false,"station_name":"Cikoya","line":3,"distance":2651,"i_lat":-6.33561,"station_id":"CKY","is_transit":false,"i_long":106.411216},{"line":6,"station_name":"Maja","i_lat":-6.332307,"station_id":"MJ","distance":1853,"transit":false,"i_long":106.394373,"is_transit":false,"time":4},{"station_name":"Citeras","is_transit":false,"i_lat":-6.334892,"i_long":106.332092,"distance":7293,"transit":false,"line":3,"time":10,"station_id":"CTR"},{"station_id":"RK","is_transit":false,"line":3,"i_long":106.250396,"distance":9847,"transit":false,"time":13,"i_lat":-6.352675,"station_name":"Rangkasbitung"}]]}