{"data":[[{"line":4,"time":0,"station_name":"Ancol","transit":false,"i_long":106.84464,"i_lat":-6.128023,"is_transit":false,"distance":0,"station_id":"AC"},{"station_id":"KPB","line":4,"i_lat":-6.132549,"station_name":"Kampung Bandan","distance":2185,"time":4,"is_transit":true,"i_long":106.826365,"transit":true},{"time":3,"distance":1444,"station_id":"RJW","transit":false,"i_lat":-6.14505,"station_name":"Rajawali","i_long":106.836569,"is_transit":false,"line":11}],[{"line":4,"is_transit":false,"station_name":"Ancol","station_id":"AC","i_lat":-6.128023,"i_long":106.84464,"transit":false,"time":0,"distance":0},{"station_name":"Kampung Bandan","time":4,"i_long":106.826365,"station_id":"KPB","line":4,"distance":2185,"transit":true,"i_lat":-6.132549,"is_transit":true},{"station_name":"Angke","line":1,"is_transit":false,"station_id":"AK","time":9,"i_lat":-6.144674,"i_long":106.79867,"transit":false,"distance":4102},{"line":1,"station_id":"DU","transit":false,"i_long":106.800832,"i_lat":-6.155215,"station_name":"Duri","time":4,"distance":1230,"is_transit":false},{"i_long":106.811091,"is_transit":false,"station_id":"THB","transit":false,"time":8,"station_name":"Tanah Abang","distance":3632,"i_lat":-6.185545,"line":1},{"line":1,"transit":false,"i_long":106.816351,"station_id":"KAT","time":5,"is_transit":false,"distance":2029,"station_name":"Karet","i_lat":-6.20132},{"transit":false,"line":1,"station_name":"Sudirman Baru","station_id":"SUDB","time":1,"is_transit":false,"i_long":106.819881,"i_lat":-6.201433,"distance":471},{"station_name":"Sudirman","transit":false,"station_id":"SUD","i_lat":-6.202263,"line":1,"is_transit":false,"distance":280,"i_long":106.822649,"time":1},{"distance":3186,"is_transit":false,"i_long":106.84912,"line":2,"time":4,"i_lat":-6.209883,"transit":false,"station_name":"Manggarai","station_id":"MRI"},{"station_name":"Matraman","transit":false,"time":2,"i_long":106.858896,"station_id":"MTR","i_lat":-6.212485,"is_transit":false,"distance":1275,"line":1},{"station_id":"JNG","i_long":106.86807400000001,"time":8,"distance":1377,"station_name":"Jatinegara","i_lat":-6.215091,"line":1,"transit":true,"is_transit":true},{"i_lat":-6.209188,"time":2,"i_long":106.861737,"line":11,"is_transit":false,"transit":false,"station_id":"POK","distance":1236,"station_name":"Pondok Jati"},{"transit":false,"i_long":106.855437,"line":11,"is_transit":false,"station_name":"Kramat","i_lat":-6.193792,"time":2,"station_id":"KMT","distance":1829},{"station_id":"GST","transit":false,"is_transit":false,"time":1,"distance":973,"station_name":"Gang Sentiong","i_lat":-6.185975,"line":11,"i_long":106.850107},{"i_long":106.84368,"transit":false,"time":8,"line":11,"is_transit":false,"station_name":"Pasar Senen","station_id":"PSE","i_lat":-6.174784,"distance":1567},{"distance":1436,"line":11,"i_lat":-6.161728,"transit":false,"time":4,"is_transit":false,"i_long":106.839204,"station_id":"KMO","station_name":"Kemayoran"},{"time":5,"transit":false,"i_lat":-6.14505,"distance":1901,"station_id":"RJW","i_long":106.836569,"is_transit":false,"station_name":"Rajawali","line":11}],[{"i_long":106.84464,"line":4,"time":0,"station_name":"Ancol","transit":false,"i_lat":-6.128023,"is_transit":false,"station_id":"AC","distance":0},{"transit":true,"i_long":106.826365,"time":4,"is_transit":true,"distance":2185,"station_name":"Kampung Bandan","i_lat":-6.132549,"station_id":"KPB","line":4},{"is_transit":true,"station_name":"Jakarta Kota","line":2,"distance":1364,"i_lat":-6.137569,"i_long":106.812439,"transit":true,"station_id":"JAKK","time":3},{"time":4,"i_lat":-6.141205,"line":2,"station_name":"Jayakarta","distance":1264,"station_id":"JAY","transit":false,"i_long":106.820901,"is_transit":false},{"time":2,"station_id":"MGB","is_transit":false,"transit":false,"i_lat":-6.149769,"i_long":106.82482,"line":2,"station_name":"Manggabesar","distance":1080},{"station_name":"Sawah Besar","i_long":106.827103,"line":2,"time":2,"transit":false,"i_lat":-6.160725,"station_id":"SW","distance":906,"is_transit":false},{"i_long":106.828284,"time":2,"transit":false,"line":2,"station_id":"JUA","station_name":"Juanda","distance":1149,"i_lat":-6.166716,"is_transit":false},{"transit":false,"is_transit":false,"time":4,"station_name":"Gondangdia","station_id":"GDD","i_long":106.832183,"line":2,"distance":2015,"i_lat":-6.186295},{"i_long":106.840169,"time":3,"transit":false,"i_lat":-6.198556,"is_transit":false,"distance":1750,"station_name":"Cikini","station_id":"CKI","line":2},{"line":2,"i_lat":-6.209883,"station_id":"MRI","station_name":"Manggarai","time":4,"transit":true,"distance":1590,"is_transit":true,"i_long":106.84912},{"is_transit":false,"station_name":"Matraman","transit":false,"distance":1275,"i_lat":-6.212485,"i_long":106.858896,"line":1,"station_id":"MTR","time":2},{"station_name":"Jatinegara","time":8,"station_id":"JNG","i_long":106.86807400000001,"line":1,"transit":true,"i_lat":-6.215091,"distance":1377,"is_transit":true},{"is_transit":false,"time":2,"station_name":"Pondok Jati","transit":false,"line":11,"station_id":"POK","i_long":106.861737,"distance":1236,"i_lat":-6.209188},{"is_transit":false,"time":2,"station_id":"KMT","transit":false,"i_lat":-6.193792,"i_long":106.855437,"line":11,"distance":1829,"station_name":"Kramat"},{"distance":973,"i_lat":-6.185975,"transit":false,"station_id":"GST","time":1,"i_long":106.850107,"line":11,"station_name":"Gang Sentiong","is_transit":false},{"time":8,"station_id":"PSE","i_lat":-6.174784,"i_long":106.84368,"line":11,"is_transit":false,"station_name":"Pasar Senen","transit":false,"distance":1567},{"time":4,"i_lat":-6.161728,"transit":false,"i_long":106.839204,"station_id":"KMO","line":11,"is_transit":false,"distance":1436,"station_name":"Kemayoran"},{"time":5,"line":11,"is_transit":false,"transit":false,"station_id":"RJW","i_lat":-6.14505,"distance":1901,"i_long":106.836569,"station_name":"Rajawali"}]]}