{"data":[[{"distance":0,"station_id":"AC","transit":false,"i_lat":-6.128023,"line":0,"time":0,"i_long":106.84464,"station_name":"Ancol","is_transit":false},{"i_lat":-6.132549,"i_long":106.826365,"station_name":"Kampung Bandan","distance":2185,"time":4,"station_id":"KPB","transit":false,"is_transit":true,"line":0},{"station_id":"AK","time":9,"i_long":106.79867,"distance":4102,"station_name":"Angke","is_transit":false,"transit":false,"line":0,"i_lat":-6.144674},{"i_long":106.800832,"station_name":"Duri","transit":true,"is_transit":true,"line":1,"i_lat":-6.155215,"station_id":"DU","distance":1230,"time":4},{"i_lat":-6.185545,"distance":3632,"station_id":"THB","transit":false,"time":8,"line":1,"station_name":"Tanah Abang","i_long":106.811091,"is_transit":true},{"is_transit":false,"distance":2029,"line":1,"time":5,"transit":false,"i_long":106.816351,"i_lat":-6.20132,"station_name":"Karet","station_id":"KAT"},{"time":1,"distance":471,"i_lat":-6.201433,"station_name":"Sudirman Baru","station_id":"SUDB","i_long":106.819881,"is_transit":false,"line":1,"transit":false}],[{"distance":0,"i_lat":-6.128023,"is_transit":false,"time":0,"line":0,"transit":false,"station_name":"Ancol","i_long":106.84464,"station_id":"AC"},{"time":4,"distance":2185,"station_name":"Kampung Bandan","station_id":"KPB","i_lat":-6.132549,"line":0,"transit":false,"i_long":106.826365,"is_transit":true},{"i_long":106.812439,"is_transit":true,"station_name":"Jakarta Kota","transit":true,"station_id":"JAKK","time":3,"distance":1364,"i_lat":-6.137569,"line":0},{"line":7,"transit":false,"station_id":"JAY","i_lat":-6.141205,"station_name":"Jayakarta","is_transit":false,"time":4,"distance":1264,"i_long":106.820901},{"distance":1080,"line":2,"is_transit":false,"i_long":106.82482,"station_id":"MGB","station_name":"Manggabesar","transit":false,"i_lat":-6.149769,"time":2},{"i_lat":-6.160725,"station_name":"Sawah Besar","time":2,"transit":false,"i_long":106.827103,"line":2,"is_transit":false,"distance":906,"station_id":"SW"},{"i_long":106.828284,"line":2,"transit":false,"is_transit":false,"station_name":"Juanda","station_id":"JUA","distance":1149,"i_lat":-6.166716,"time":2},{"station_id":"GDD","is_transit":false,"transit":false,"i_lat":-6.186295,"distance":2015,"station_name":"Gondangdia","time":4,"i_long":106.832183,"line":2},{"is_transit":false,"distance":1750,"i_lat":-6.198556,"line":0,"station_id":"CKI","station_name":"Cikini","time":3,"transit":false,"i_long":106.840169},{"station_name":"Manggarai","line":0,"i_lat":-6.209883,"time":4,"station_id":"MRI","transit":true,"i_long":106.84912,"distance":1590,"is_transit":true},{"station_id":"SUD","time":4,"i_long":106.822649,"is_transit":false,"station_name":"Sudirman","line":1,"i_lat":-6.202263,"distance":3186,"transit":false},{"is_transit":false,"time":1,"transit":false,"station_id":"SUDB","distance":280,"station_name":"Sudirman Baru","i_lat":-6.201433,"i_long":106.819881,"line":1}],[{"station_name":"Ancol","distance":0,"station_id":"AC","i_lat":-6.128023,"line":0,"is_transit":false,"time":0,"transit":false,"i_long":106.84464},{"i_lat":-6.132549,"line":0,"station_id":"KPB","transit":true,"station_name":"Kampung Bandan","distance":2185,"time":4,"i_long":106.826365,"is_transit":true},{"station_id":"RJW","line":11,"is_transit":false,"i_long":106.836569,"distance":1444,"station_name":"Rajawali","time":3,"i_lat":-6.14505,"transit":false},{"line":11,"station_id":"KMO","time":5,"distance":1901,"transit":false,"is_transit":false,"station_name":"Kemayoran","i_long":106.839204,"i_lat":-6.161728},{"line":11,"distance":1436,"i_lat":-6.174784,"station_name":"Pasar Senen","time":4,"is_transit":false,"i_long":106.84368,"station_id":"PSE","transit":false},{"station_name":"Gang Sentiong","transit":false,"is_transit":false,"time":8,"station_id":"GST","distance":1567,"i_lat":-6.185975,"i_long":106.850107,"line":11},{"transit":false,"is_transit":false,"station_name":"Kramat","time":1,"i_lat":-6.193792,"station_id":"KMT","line":11,"i_long":106.855437,"distance":973},{"distance":1829,"transit":false,"is_transit":false,"i_long":106.861737,"time":2,"line":11,"station_id":"POK","station_name":"Pondok Jati","i_lat":-6.209188},{"station_id":"JNG","station_name":"Jatinegara","time":9,"i_lat":-6.215091,"transit":true,"i_long":106.86807400000001,"line":0,"is_transit":true,"distance":1236},{"station_name":"Matraman","is_transit":false,"transit":false,"line":1,"station_id":"MTR","i_long":106.858896,"time":2,"distance":1377,"i_lat":-6.212485},{"i_lat":-6.209883,"station_id":"MRI","station_name":"Manggarai","i_long":106.84912,"is_transit":true,"time":2,"distance":1275,"transit":false,"line":0},{"is_transit":false,"station_id":"SUD","station_name":"Sudirman","distance":3186,"i_lat":-6.202263,"line":1,"transit":false,"time":4,"i_long":106.822649},{"station_id":"SUDB","time":1,"station_name":"Sudirman Baru","is_transit":false,"distance":280,"i_lat":-6.201433,"i_long":106.819881,"line":1,"transit":false}]]}