{"data":[[{"i_long":106.84464,"transit":false,"line":4,"i_lat":-6.128023,"time":0,"station_name":"Ancol","is_transit":false,"station_id":"AC","distance":0},{"transit":true,"is_transit":true,"station_id":"KPB","i_long":106.826365,"i_lat":-6.132549,"time":4,"distance":2185,"station_name":"Kampung Bandan","line":4},{"distance":4102,"station_name":"Angke","line":1,"transit":false,"i_lat":-6.144674,"i_long":106.79867,"is_transit":false,"station_id":"AK","time":9},{"transit":false,"station_name":"Duri","distance":1230,"time":4,"line":1,"i_long":106.800832,"i_lat":-6.155215,"station_id":"DU","is_transit":false},{"i_long":106.811091,"time":8,"distance":3632,"station_id":"THB","line":1,"station_name":"Tanah Abang","i_lat":-6.185545,"is_transit":false,"transit":false},{"i_long":106.816351,"station_name":"Karet","is_transit":false,"transit":false,"time":5,"station_id":"KAT","distance":2029,"i_lat":-6.20132,"line":1},{"distance":471,"station_id":"SUDB","is_transit":false,"station_name":"Sudirman Baru","transit":false,"i_lat":-6.201433,"i_long":106.819881,"line":1,"time":1}],[{"station_name":"Ancol","line":4,"i_long":106.84464,"time":0,"i_lat":-6.128023,"transit":false,"station_id":"AC","is_transit":false,"distance":0},{"distance":2185,"is_transit":true,"line":4,"transit":true,"time":4,"i_long":106.826365,"station_name":"Kampung Bandan","i_lat":-6.132549,"station_id":"KPB"},{"is_transit":true,"distance":1364,"time":3,"transit":true,"line":2,"station_id":"JAKK","i_lat":-6.137569,"i_long":106.812439,"station_name":"Jakarta Kota"},{"station_name":"Jayakarta","is_transit":false,"station_id":"JAY","transit":false,"time":4,"line":2,"distance":1264,"i_lat":-6.141205,"i_long":106.820901},{"i_lat":-6.149769,"time":2,"distance":1080,"i_long":106.82482,"station_name":"Manggabesar","line":2,"is_transit":false,"transit":false,"station_id":"MGB"},{"distance":906,"transit":false,"station_name":"Sawah Besar","station_id":"SW","i_lat":-6.160725,"i_long":106.827103,"time":2,"line":2,"is_transit":false},{"is_transit":false,"i_lat":-6.166716,"station_id":"JUA","time":2,"distance":1149,"station_name":"Juanda","line":2,"i_long":106.828284,"transit":false},{"time":4,"station_name":"Gondangdia","distance":2015,"i_lat":-6.186295,"i_long":106.832183,"is_transit":false,"station_id":"GDD","transit":false,"line":2},{"time":3,"station_id":"CKI","distance":1750,"is_transit":false,"station_name":"Cikini","i_lat":-6.198556,"i_long":106.840169,"line":2,"transit":false},{"transit":true,"time":4,"distance":1590,"station_name":"Manggarai","i_lat":-6.209883,"line":2,"i_long":106.84912,"station_id":"MRI","is_transit":true},{"line":1,"station_id":"SUD","transit":false,"is_transit":false,"i_long":106.822649,"i_lat":-6.202263,"station_name":"Sudirman","distance":3186,"time":4},{"station_name":"Sudirman Baru","i_lat":-6.201433,"distance":280,"time":1,"line":1,"transit":false,"station_id":"SUDB","i_long":106.819881,"is_transit":false}],[{"transit":false,"station_id":"AC","station_name":"Ancol","is_transit":false,"i_long":106.84464,"line":4,"i_lat":-6.128023,"distance":0,"time":0},{"station_name":"Kampung Bandan","line":4,"time":4,"i_long":106.826365,"is_transit":true,"i_lat":-6.132549,"distance":2185,"station_id":"KPB","transit":true},{"i_lat":-6.14505,"line":11,"time":3,"i_long":106.836569,"distance":1444,"station_name":"Rajawali","station_id":"RJW","transit":false,"is_transit":false},{"distance":1901,"i_lat":-6.161728,"is_transit":false,"time":5,"line":11,"transit":false,"station_name":"Kemayoran","i_long":106.839204,"station_id":"KMO"},{"is_transit":false,"station_id":"PSE","transit":false,"time":4,"distance":1436,"station_name":"Pasar Senen","line":11,"i_lat":-6.174784,"i_long":106.84368},{"is_transit":false,"transit":false,"i_long":106.850107,"distance":1567,"line":11,"i_lat":-6.185975,"station_id":"GST","station_name":"Gang Sentiong","time":8},{"distance":973,"i_long":106.855437,"i_lat":-6.193792,"station_id":"KMT","line":11,"transit":false,"is_transit":false,"station_name":"Kramat","time":1},{"station_id":"POK","transit":false,"time":2,"distance":1829,"station_name":"Pondok Jati","is_transit":false,"i_lat":-6.209188,"i_long":106.861737,"line":11},{"distance":1236,"transit":true,"station_id":"JNG","station_name":"Jatinegara","line":1,"time":9,"i_lat":-6.215091,"i_long":106.86807400000001,"is_transit":true},{"i_lat":-6.212485,"line":1,"time":2,"station_id":"MTR","is_transit":false,"distance":1377,"transit":false,"i_long":106.858896,"station_name":"Matraman"},{"time":2,"distance":1275,"i_lat":-6.209883,"i_long":106.84912,"line":2,"is_transit":false,"transit":false,"station_name":"Manggarai","station_id":"MRI"},{"is_transit":false,"time":4,"line":1,"distance":3186,"i_lat":-6.202263,"transit":false,"i_long":106.822649,"station_id":"SUD","station_name":"Sudirman"},{"is_transit":false,"transit":false,"i_lat":-6.201433,"line":1,"station_id":"SUDB","distance":280,"i_long":106.819881,"station_name":"Sudirman Baru","time":1}]]}