{"data":[[{"is_transit":false,"line":4,"station_id":"AC","i_lat":-6.128023,"time":0,"station_name":"Ancol","distance":0,"i_long":106.84464,"transit":false},{"line":4,"station_name":"Kampung Bandan","station_id":"KPB","transit":true,"is_transit":true,"distance":2185,"i_lat":-6.132549,"i_long":106.826365,"time":4},{"i_long":106.79867,"line":1,"station_name":"Angke","transit":false,"time":9,"i_lat":-6.144674,"station_id":"AK","is_transit":false,"distance":4102},{"transit":false,"i_long":106.800832,"time":4,"is_transit":false,"distance":1230,"station_name":"Duri","i_lat":-6.155215,"station_id":"DU","line":1},{"station_name":"Tanah Abang","is_transit":false,"line":1,"distance":3632,"i_lat":-6.185545,"i_long":106.811091,"transit":false,"station_id":"THB","time":8},{"time":5,"i_lat":-6.20132,"line":1,"station_name":"Karet","station_id":"KAT","transit":false,"distance":2029,"i_long":106.816351,"is_transit":false},{"station_id":"SUDB","time":1,"is_transit":false,"transit":false,"i_lat":-6.201433,"i_long":106.819881,"line":1,"station_name":"Sudirman Baru","distance":471}],[{"station_name":"Ancol","i_long":106.84464,"line":4,"transit":false,"time":0,"i_lat":-6.128023,"station_id":"AC","distance":0,"is_transit":false},{"i_long":106.826365,"time":4,"transit":true,"line":4,"station_id":"KPB","station_name":"Kampung Bandan","distance":2185,"i_lat":-6.132549,"is_transit":true},{"transit":true,"station_name":"Jakarta Kota","time":3,"is_transit":true,"station_id":"JAKK","i_long":106.812439,"line":2,"distance":1364,"i_lat":-6.137569},{"i_long":106.820901,"time":4,"transit":false,"i_lat":-6.141205,"distance":1264,"is_transit":false,"station_name":"Jayakarta","station_id":"JAY","line":2},{"line":2,"i_lat":-6.149769,"station_id":"MGB","station_name":"Manggabesar","time":2,"transit":false,"distance":1080,"is_transit":false,"i_long":106.82482},{"is_transit":false,"station_name":"Sawah Besar","transit":false,"distance":906,"i_lat":-6.160725,"i_long":106.827103,"line":2,"station_id":"SW","time":2},{"station_name":"Juanda","time":2,"station_id":"JUA","i_long":106.828284,"line":2,"transit":false,"i_lat":-6.166716,"distance":1149,"is_transit":false},{"time":4,"transit":false,"station_name":"Gondangdia","is_transit":false,"line":2,"station_id":"GDD","i_long":106.832183,"distance":2015,"i_lat":-6.186295},{"is_transit":false,"station_id":"CKI","transit":false,"time":3,"i_lat":-6.198556,"i_long":106.840169,"line":2,"station_name":"Cikini","distance":1750},{"distance":1590,"i_lat":-6.209883,"transit":true,"station_id":"MRI","time":4,"i_long":106.84912,"line":2,"station_name":"Manggarai","is_transit":true},{"time":4,"station_id":"SUD","i_lat":-6.202263,"i_long":106.822649,"line":1,"station_name":"Sudirman","transit":false,"is_transit":false,"distance":3186},{"time":1,"i_lat":-6.201433,"transit":false,"i_long":106.819881,"station_id":"SUDB","line":1,"is_transit":false,"distance":280,"station_name":"Sudirman Baru"}],[{"line":4,"station_name":"Ancol","transit":false,"is_transit":false,"distance":0,"time":0,"i_lat":-6.128023,"i_long":106.84464,"station_id":"AC"},{"station_id":"KPB","is_transit":true,"i_lat":-6.132549,"i_long":106.826365,"line":4,"station_name":"Kampung Bandan","time":4,"transit":true,"distance":2185},{"station_name":"Rajawali","i_long":106.836569,"i_lat":-6.14505,"station_id":"RJW","is_transit":false,"distance":1444,"line":11,"time":3,"transit":false},{"station_name":"Kemayoran","station_id":"KMO","time":5,"transit":false,"is_transit":false,"i_long":106.839204,"line":11,"i_lat":-6.161728,"distance":1901},{"is_transit":false,"transit":false,"distance":1436,"line":11,"time":4,"i_long":106.84368,"station_name":"Pasar Senen","station_id":"PSE","i_lat":-6.174784},{"station_id":"GST","line":11,"distance":1567,"i_lat":-6.185975,"station_name":"Gang Sentiong","is_transit":false,"transit":false,"time":8,"i_long":106.850107},{"transit":false,"is_transit":false,"line":11,"i_long":106.855437,"time":1,"i_lat":-6.193792,"station_name":"Kramat","distance":973,"station_id":"KMT"},{"i_long":106.861737,"time":2,"is_transit":false,"station_name":"Pondok Jati","transit":false,"distance":1829,"station_id":"POK","i_lat":-6.209188,"line":11},{"line":1,"distance":1236,"i_long":106.86807400000001,"time":9,"is_transit":true,"i_lat":-6.215091,"station_id":"JNG","station_name":"Jatinegara","transit":true},{"i_lat":-6.212485,"line":1,"time":2,"station_id":"MTR","station_name":"Matraman","distance":1377,"transit":false,"is_transit":false,"i_long":106.858896},{"is_transit":false,"i_long":106.84912,"station_name":"Manggarai","line":2,"station_id":"MRI","time":2,"transit":false,"distance":1275,"i_lat":-6.209883},{"station_name":"Sudirman","station_id":"SUD","i_long":106.822649,"i_lat":-6.202263,"time":4,"transit":false,"line":1,"is_transit":false,"distance":3186},{"time":1,"station_id":"SUDB","distance":280,"i_lat":-6.201433,"station_name":"Sudirman Baru","is_transit":false,"i_long":106.819881,"line":1,"transit":false}]]}