{"data":[[{"station_id":"AC","time":0,"line":4,"is_transit":false,"transit":false,"station_name":"Ancol","distance":0,"i_lat":-6.128023,"i_long":106.84464},{"transit":true,"station_name":"Kampung Bandan","line":4,"is_transit":true,"i_lat":-6.132549,"i_long":106.826365,"station_id":"KPB","time":4,"distance":2185},{"distance":4102,"i_long":106.79867,"line":1,"transit":false,"i_lat":-6.144674,"is_transit":false,"time":9,"station_id":"AK","station_name":"Angke"},{"distance":1230,"time":4,"station_name":"Duri","i_long":106.800832,"is_transit":false,"transit":false,"i_lat":-6.155215,"line":1,"station_id":"DU"},{"line":1,"time":8,"is_transit":false,"station_name":"Tanah Abang","i_long":106.811091,"station_id":"THB","transit":false,"distance":3632,"i_lat":-6.185545},{"distance":2029,"station_name":"Karet","time":5,"station_id":"KAT","transit":false,"i_lat":-6.20132,"line":1,"i_long":106.816351,"is_transit":false},{"is_transit":false,"station_id":"SUDB","time":1,"i_long":106.819881,"line":1,"station_name":"Sudirman Baru","distance":471,"transit":false,"i_lat":-6.201433}],[{"station_name":"Ancol","distance":0,"is_transit":false,"line":4,"i_lat":-6.128023,"station_id":"AC","i_long":106.84464,"time":0,"transit":false},{"station_id":"KPB","is_transit":true,"time":4,"station_name":"Kampung Bandan","transit":true,"i_lat":-6.132549,"distance":2185,"i_long":106.826365,"line":4},{"distance":1364,"station_id":"JAKK","i_lat":-6.137569,"i_long":106.812439,"transit":true,"is_transit":true,"station_name":"Jakarta Kota","line":2,"time":3},{"station_name":"Jayakarta","time":4,"i_lat":-6.141205,"distance":1264,"station_id":"JAY","is_transit":false,"transit":false,"i_long":106.820901,"line":2},{"transit":false,"station_name":"Manggabesar","is_transit":false,"i_lat":-6.149769,"line":2,"distance":1080,"time":2,"station_id":"MGB","i_long":106.82482},{"is_transit":false,"station_id":"SW","transit":false,"line":2,"i_long":106.827103,"time":2,"distance":906,"station_name":"Sawah Besar","i_lat":-6.160725},{"station_id":"JUA","station_name":"Juanda","is_transit":false,"transit":false,"line":2,"distance":1149,"time":2,"i_lat":-6.166716,"i_long":106.828284},{"is_transit":false,"transit":false,"station_id":"GDD","line":2,"station_name":"Gondangdia","i_lat":-6.186295,"distance":2015,"time":4,"i_long":106.832183},{"station_name":"Cikini","line":2,"time":3,"distance":1750,"i_lat":-6.198556,"station_id":"CKI","i_long":106.840169,"is_transit":false,"transit":false},{"i_long":106.84912,"line":2,"station_id":"MRI","distance":1590,"time":4,"is_transit":true,"station_name":"Manggarai","transit":true,"i_lat":-6.209883},{"station_id":"SUD","line":1,"transit":false,"distance":3186,"i_long":106.822649,"is_transit":false,"time":4,"i_lat":-6.202263,"station_name":"Sudirman"},{"station_name":"Sudirman Baru","station_id":"SUDB","i_long":106.819881,"line":1,"is_transit":false,"transit":false,"i_lat":-6.201433,"time":1,"distance":280}],[{"i_lat":-6.128023,"is_transit":false,"transit":false,"line":4,"time":0,"station_id":"AC","station_name":"Ancol","i_long":106.84464,"distance":0},{"i_long":106.826365,"line":4,"is_transit":true,"station_name":"Kampung Bandan","transit":true,"i_lat":-6.132549,"station_id":"KPB","distance":2185,"time":4},{"time":3,"distance":1444,"is_transit":false,"station_id":"RJW","transit":false,"station_name":"Rajawali","i_lat":-6.14505,"line":11,"i_long":106.836569},{"time":5,"distance":1901,"line":11,"transit":false,"station_id":"KMO","station_name":"Kemayoran","i_long":106.839204,"is_transit":false,"i_lat":-6.161728},{"transit":false,"distance":1436,"is_transit":false,"station_id":"PSE","i_long":106.84368,"time":4,"station_name":"Pasar Senen","i_lat":-6.174784,"line":11},{"station_name":"Gang Sentiong","distance":1567,"i_long":106.850107,"line":11,"time":8,"station_id":"GST","i_lat":-6.185975,"is_transit":false,"transit":false},{"station_name":"Kramat","i_lat":-6.193792,"i_long":106.855437,"time":1,"line":11,"transit":false,"is_transit":false,"distance":973,"station_id":"KMT"},{"i_long":106.861737,"is_transit":false,"distance":1829,"line":11,"time":2,"station_id":"POK","i_lat":-6.209188,"transit":false,"station_name":"Pondok Jati"},{"time":9,"station_id":"JNG","line":1,"i_lat":-6.215091,"is_transit":true,"station_name":"Jatinegara","distance":1236,"transit":true,"i_long":106.86807400000001},{"distance":1377,"station_name":"Matraman","is_transit":false,"time":2,"i_lat":-6.212485,"i_long":106.858896,"transit":false,"line":1,"station_id":"MTR"},{"transit":false,"line":2,"is_transit":false,"i_lat":-6.209883,"station_id":"MRI","i_long":106.84912,"distance":1275,"station_name":"Manggarai","time":2},{"line":1,"time":4,"i_lat":-6.202263,"i_long":106.822649,"station_name":"Sudirman","is_transit":false,"station_id":"SUD","distance":3186,"transit":false},{"i_long":106.819881,"line":1,"station_name":"Sudirman Baru","i_lat":-6.201433,"transit":false,"is_transit":false,"distance":280,"station_id":"SUDB","time":1}]]}