{"data":[[{"i_long":106.84464,"line":4,"i_lat":-6.128023,"is_transit":false,"station_name":"Ancol","distance":0,"station_id":"AC","time":0,"transit":false},{"transit":true,"station_id":"KPB","time":4,"line":4,"distance":2185,"station_name":"Kampung Bandan","is_transit":true,"i_lat":-6.132549,"i_long":106.826365},{"is_transit":false,"i_long":106.79867,"i_lat":-6.144674,"line":1,"time":9,"station_name":"Angke","transit":false,"distance":4102,"station_id":"AK"},{"is_transit":false,"time":4,"i_long":106.800832,"i_lat":-6.155215,"station_name":"Duri","distance":1230,"station_id":"DU","transit":false,"line":1},{"station_name":"Tanah Abang","i_long":106.811091,"transit":false,"station_id":"THB","i_lat":-6.185545,"time":8,"distance":3632,"line":1,"is_transit":false},{"line":1,"distance":2029,"i_long":106.816351,"station_name":"Karet","transit":false,"is_transit":false,"i_lat":-6.20132,"station_id":"KAT","time":5},{"line":1,"transit":false,"station_name":"Sudirman Baru","time":1,"distance":471,"i_lat":-6.201433,"is_transit":false,"station_id":"SUDB","i_long":106.819881},{"transit":false,"station_name":"Sudirman","i_lat":-6.202263,"i_long":106.822649,"line":1,"is_transit":false,"station_id":"SUD","time":1,"distance":280},{"i_long":106.84912,"line":2,"time":4,"transit":true,"is_transit":true,"distance":3186,"station_id":"MRI","station_name":"Manggarai","i_lat":-6.209883},{"time":4,"station_name":"Tebet","is_transit":false,"line":2,"i_lat":-6.226659,"station_id":"TEB","distance":2610,"i_long":106.857948,"transit":false},{"transit":false,"is_transit":false,"station_name":"Cawang","time":2,"line":2,"i_long":106.856607,"i_lat":-6.242512,"distance":1230,"station_id":"CW"},{"time":3,"line":2,"i_lat":-6.255332,"i_long":106.85449,"transit":false,"is_transit":false,"distance":1546,"station_name":"Duren Kalibata","station_id":"DRN"},{"station_name":"Pasar Minggu Baru","station_id":"PSMB","transit":false,"time":2,"i_lat":-6.263214,"distance":824,"is_transit":false,"i_long":106.851577,"line":2},{"i_lat":-6.2842400000000005,"transit":false,"time":2,"i_long":106.843999,"line":2,"station_name":"Pasar Minggu","station_id":"PSM","distance":2380,"is_transit":false},{"is_transit":false,"transit":false,"line":2,"distance":2820,"time":4,"station_name":"Tanjung Barat","i_long":106.838896,"station_id":"TNT","i_lat":-6.3080680000000005},{"is_transit":false,"station_name":"Lenteng Agung","distance":2671,"i_lat":-6.330363,"transit":false,"time":3,"station_id":"LNA","i_long":106.832616,"line":2},{"station_name":"Univ. Pancasila","is_transit":false,"transit":false,"line":2,"time":2,"i_lat":-6.339291,"i_long":106.834175,"distance":1029,"station_id":"UP"},{"time":3,"distance":2264,"i_lat":-6.360749,"i_long":106.831474,"is_transit":false,"station_name":"Univ. Indonesia","line":2,"transit":false,"station_id":"UI"}],[{"i_lat":-6.128023,"station_name":"Ancol","is_transit":false,"station_id":"AC","distance":0,"i_long":106.84464,"time":0,"transit":false,"line":4},{"is_transit":true,"i_lat":-6.132549,"line":4,"transit":true,"station_name":"Kampung Bandan","station_id":"KPB","i_long":106.826365,"distance":2185,"time":4},{"station_name":"Jakarta Kota","time":3,"transit":true,"distance":1364,"i_long":106.812439,"station_id":"JAKK","i_lat":-6.137569,"is_transit":true,"line":2},{"time":4,"station_name":"Jayakarta","distance":1264,"transit":false,"is_transit":false,"i_lat":-6.141205,"line":2,"station_id":"JAY","i_long":106.820901},{"distance":1080,"i_lat":-6.149769,"time":2,"is_transit":false,"station_id":"MGB","line":2,"i_long":106.82482,"transit":false,"station_name":"Manggabesar"},{"station_name":"Sawah Besar","station_id":"SW","i_lat":-6.160725,"is_transit":false,"time":2,"i_long":106.827103,"distance":906,"transit":false,"line":2},{"i_lat":-6.166716,"time":2,"i_long":106.828284,"line":2,"transit":false,"station_id":"JUA","station_name":"Juanda","is_transit":false,"distance":1149},{"line":2,"station_id":"GDD","is_transit":false,"i_lat":-6.186295,"i_long":106.832183,"time":4,"transit":false,"station_name":"Gondangdia","distance":2015},{"transit":false,"station_id":"CKI","i_lat":-6.198556,"station_name":"Cikini","is_transit":false,"time":3,"distance":1750,"i_long":106.840169,"line":2},{"transit":false,"station_id":"MRI","distance":1590,"station_name":"Manggarai","i_long":106.84912,"is_transit":false,"time":4,"i_lat":-6.209883,"line":2},{"transit":false,"is_transit":false,"station_name":"Tebet","station_id":"TEB","i_lat":-6.226659,"distance":2610,"i_long":106.857948,"line":2,"time":4},{"is_transit":false,"line":2,"i_lat":-6.242512,"station_name":"Cawang","station_id":"CW","time":2,"distance":1230,"transit":false,"i_long":106.856607},{"transit":false,"distance":1546,"station_name":"Duren Kalibata","line":2,"time":3,"station_id":"DRN","i_long":106.85449,"i_lat":-6.255332,"is_transit":false},{"is_transit":false,"time":2,"line":2,"station_name":"Pasar Minggu Baru","distance":824,"transit":false,"station_id":"PSMB","i_long":106.851577,"i_lat":-6.263214},{"station_id":"PSM","station_name":"Pasar Minggu","transit":false,"i_long":106.843999,"time":2,"distance":2380,"line":2,"is_transit":false,"i_lat":-6.2842400000000005},{"transit":false,"station_id":"TNT","i_long":106.838896,"line":2,"station_name":"Tanjung Barat","is_transit":false,"time":4,"distance":2820,"i_lat":-6.3080680000000005},{"station_name":"Lenteng Agung","distance":2671,"transit":false,"i_lat":-6.330363,"line":2,"time":3,"station_id":"LNA","i_long":106.832616,"is_transit":false},{"distance":1029,"i_long":106.834175,"is_transit":false,"transit":false,"station_id":"UP","line":2,"i_lat":-6.339291,"time":2,"station_name":"Univ. Pancasila"},{"i_long":106.831474,"distance":2264,"station_name":"Univ. Indonesia","i_lat":-6.360749,"station_id":"UI","transit":false,"time":3,"line":2,"is_transit":false}],[{"i_lat":-6.128023,"station_id":"AC","is_transit":false,"time":0,"distance":0,"station_name":"Ancol","transit":false,"i_long":106.84464,"line":4},{"station_id":"KPB","station_name":"Kampung Bandan","distance":2185,"is_transit":true,"time":4,"line":4,"transit":true,"i_lat":-6.132549,"i_long":106.826365},{"transit":false,"is_transit":false,"time":3,"line":11,"station_name":"Rajawali","i_long":106.836569,"i_lat":-6.14505,"station_id":"RJW","distance":1444},{"transit":false,"is_transit":false,"station_id":"KMO","time":5,"station_name":"Kemayoran","distance":1901,"i_long":106.839204,"line":11,"i_lat":-6.161728},{"i_long":106.84368,"station_name":"Pasar Senen","transit":false,"i_lat":-6.174784,"is_transit":false,"time":4,"station_id":"PSE","distance":1436,"line":11},{"line":11,"time":8,"is_transit":false,"i_long":106.850107,"transit":false,"i_lat":-6.185975,"station_name":"Gang Sentiong","station_id":"GST","distance":1567},{"transit":false,"is_transit":false,"station_name":"Kramat","line":11,"i_lat":-6.193792,"time":1,"station_id":"KMT","distance":973,"i_long":106.855437},{"distance":1829,"transit":false,"station_id":"POK","i_lat":-6.209188,"line":11,"time":2,"station_name":"Pondok Jati","i_long":106.861737,"is_transit":false},{"station_name":"Jatinegara","line":1,"distance":1236,"i_lat":-6.215091,"station_id":"JNG","transit":true,"is_transit":true,"time":9,"i_long":106.86807400000001},{"time":2,"line":1,"transit":false,"station_name":"Matraman","distance":1377,"i_lat":-6.212485,"is_transit":false,"i_long":106.858896,"station_id":"MTR"},{"i_long":106.84912,"distance":1275,"line":2,"is_transit":true,"transit":true,"time":2,"station_name":"Manggarai","i_lat":-6.209883,"station_id":"MRI"},{"i_lat":-6.226659,"station_name":"Tebet","is_transit":false,"station_id":"TEB","i_long":106.857948,"time":4,"distance":2610,"line":2,"transit":false},{"transit":false,"station_name":"Cawang","time":2,"i_long":106.856607,"is_transit":false,"i_lat":-6.242512,"line":2,"distance":1230,"station_id":"CW"},{"time":3,"is_transit":false,"distance":1546,"i_long":106.85449,"station_name":"Duren Kalibata","line":2,"transit":false,"station_id":"DRN","i_lat":-6.255332},{"transit":false,"is_transit":false,"station_name":"Pasar Minggu Baru","time":2,"distance":824,"line":2,"i_lat":-6.263214,"station_id":"PSMB","i_long":106.851577},{"i_long":106.843999,"transit":false,"distance":2380,"time":2,"i_lat":-6.2842400000000005,"line":2,"station_id":"PSM","station_name":"Pasar Minggu","is_transit":false},{"station_name":"Tanjung Barat","station_id":"TNT","i_lat":-6.3080680000000005,"time":4,"line":2,"i_long":106.838896,"distance":2820,"transit":false,"is_transit":false},{"station_name":"Lenteng Agung","station_id":"LNA","distance":2671,"i_long":106.832616,"is_transit":false,"time":3,"transit":false,"i_lat":-6.330363,"line":2},{"is_transit":false,"transit":false,"time":2,"i_lat":-6.339291,"i_long":106.834175,"distance":1029,"line":2,"station_name":"Univ. Pancasila","station_id":"UP"},{"station_id":"UI","transit":false,"station_name":"Univ. Indonesia","distance":2264,"i_long":106.831474,"i_lat":-6.360749,"time":3,"line":2,"is_transit":false}]]}