{"data":[[{"i_long":106.84464,"is_transit":false,"time":0,"distance":0,"station_name":"Ancol","i_lat":-6.128023,"transit":false,"line":4,"station_id":"AC"},{"time":4,"station_name":"Kampung Bandan","line":4,"station_id":"KPB","transit":true,"is_transit":true,"i_long":106.826365,"distance":2185,"i_lat":-6.132549},{"station_id":"AK","is_transit":false,"i_long":106.79867,"station_name":"Angke","transit":false,"i_lat":-6.144674,"line":1,"time":9,"distance":4102},{"line":1,"time":4,"transit":false,"is_transit":false,"station_id":"DU","i_lat":-6.155215,"i_long":106.800832,"distance":1230,"station_name":"Duri"},{"is_transit":false,"time":8,"i_long":106.811091,"distance":3632,"station_name":"Tanah Abang","i_lat":-6.185545,"line":1,"station_id":"THB","transit":false},{"line":1,"is_transit":false,"time":5,"station_name":"Karet","distance":2029,"i_lat":-6.20132,"station_id":"KAT","i_long":106.816351,"transit":false},{"distance":471,"is_transit":false,"i_lat":-6.201433,"station_id":"SUDB","transit":false,"station_name":"Sudirman Baru","i_long":106.819881,"line":1,"time":1},{"i_long":106.822649,"is_transit":false,"distance":280,"time":1,"station_id":"SUD","transit":false,"i_lat":-6.202263,"line":1,"station_name":"Sudirman"},{"line":2,"station_name":"Manggarai","station_id":"MRI","is_transit":true,"distance":3186,"transit":true,"i_lat":-6.209883,"i_long":106.84912,"time":4},{"i_long":106.857948,"transit":false,"time":4,"distance":2610,"is_transit":false,"i_lat":-6.226659,"station_name":"Tebet","line":2,"station_id":"TEB"},{"i_long":106.856607,"distance":1230,"i_lat":-6.242512,"time":2,"line":2,"is_transit":false,"station_id":"CW","station_name":"Cawang","transit":false},{"time":3,"station_id":"DRN","line":2,"i_long":106.85449,"transit":false,"is_transit":false,"distance":1546,"station_name":"Duren Kalibata","i_lat":-6.255332},{"i_lat":-6.263214,"line":2,"is_transit":false,"station_id":"PSMB","time":2,"i_long":106.851577,"station_name":"Pasar Minggu Baru","distance":824,"transit":false},{"station_name":"Pasar Minggu","i_long":106.843999,"time":2,"station_id":"PSM","transit":false,"i_lat":-6.2842400000000005,"is_transit":false,"line":2,"distance":2380},{"transit":false,"i_long":106.838896,"station_id":"TNT","is_transit":false,"distance":2820,"line":2,"i_lat":-6.3080680000000005,"station_name":"Tanjung Barat","time":4},{"i_long":106.832616,"i_lat":-6.330363,"is_transit":false,"station_id":"LNA","distance":2671,"station_name":"Lenteng Agung","line":2,"time":3,"transit":false},{"time":2,"transit":false,"is_transit":false,"distance":1029,"i_lat":-6.339291,"line":2,"i_long":106.834175,"station_id":"UP","station_name":"Univ. Pancasila"},{"is_transit":false,"i_long":106.831474,"transit":false,"station_id":"UI","distance":2264,"i_lat":-6.360749,"line":2,"time":3,"station_name":"Univ. Indonesia"}],[{"is_transit":false,"station_name":"Ancol","i_lat":-6.128023,"station_id":"AC","distance":0,"i_long":106.84464,"line":4,"time":0,"transit":false},{"station_name":"Kampung Bandan","station_id":"KPB","is_transit":true,"i_lat":-6.132549,"i_long":106.826365,"line":4,"transit":true,"time":4,"distance":2185},{"station_name":"Jakarta Kota","distance":1364,"is_transit":true,"line":2,"transit":true,"i_long":106.812439,"time":3,"station_id":"JAKK","i_lat":-6.137569},{"distance":1264,"i_lat":-6.141205,"time":4,"i_long":106.820901,"station_name":"Jayakarta","is_transit":false,"line":2,"station_id":"JAY","transit":false},{"i_lat":-6.149769,"station_id":"MGB","distance":1080,"transit":false,"time":2,"line":2,"i_long":106.82482,"is_transit":false,"station_name":"Manggabesar"},{"is_transit":false,"distance":906,"i_lat":-6.160725,"i_long":106.827103,"station_name":"Sawah Besar","transit":false,"station_id":"SW","time":2,"line":2},{"transit":false,"is_transit":false,"i_lat":-6.166716,"i_long":106.828284,"station_name":"Juanda","line":2,"station_id":"JUA","distance":1149,"time":2},{"transit":false,"line":2,"distance":2015,"is_transit":false,"station_id":"GDD","time":4,"station_name":"Gondangdia","i_long":106.832183,"i_lat":-6.186295},{"i_lat":-6.198556,"line":2,"station_name":"Cikini","station_id":"CKI","transit":false,"is_transit":false,"i_long":106.840169,"time":3,"distance":1750},{"time":4,"distance":1590,"transit":false,"station_id":"MRI","is_transit":false,"i_lat":-6.209883,"i_long":106.84912,"line":2,"station_name":"Manggarai"},{"time":4,"station_id":"TEB","transit":false,"distance":2610,"i_long":106.857948,"is_transit":false,"station_name":"Tebet","i_lat":-6.226659,"line":2},{"station_id":"CW","i_lat":-6.242512,"transit":false,"line":2,"i_long":106.856607,"is_transit":false,"distance":1230,"station_name":"Cawang","time":2},{"station_name":"Duren Kalibata","transit":false,"i_lat":-6.255332,"i_long":106.85449,"line":2,"time":3,"distance":1546,"is_transit":false,"station_id":"DRN"},{"station_name":"Pasar Minggu Baru","time":2,"i_long":106.851577,"transit":false,"distance":824,"station_id":"PSMB","i_lat":-6.263214,"is_transit":false,"line":2},{"transit":false,"station_id":"PSM","station_name":"Pasar Minggu","distance":2380,"line":2,"time":2,"is_transit":false,"i_long":106.843999,"i_lat":-6.2842400000000005},{"line":2,"i_long":106.838896,"station_name":"Tanjung Barat","station_id":"TNT","is_transit":false,"time":4,"transit":false,"i_lat":-6.3080680000000005,"distance":2820},{"is_transit":false,"i_long":106.832616,"i_lat":-6.330363,"station_name":"Lenteng Agung","time":3,"line":2,"station_id":"LNA","transit":false,"distance":2671},{"i_lat":-6.339291,"i_long":106.834175,"line":2,"time":2,"distance":1029,"is_transit":false,"station_name":"Univ. Pancasila","station_id":"UP","transit":false},{"transit":false,"station_id":"UI","time":3,"line":2,"i_lat":-6.360749,"distance":2264,"is_transit":false,"station_name":"Univ. Indonesia","i_long":106.831474}],[{"i_lat":-6.128023,"station_id":"AC","is_transit":false,"station_name":"Ancol","line":4,"transit":false,"distance":0,"i_long":106.84464,"time":0},{"station_id":"KPB","i_long":106.826365,"is_transit":true,"line":4,"transit":true,"station_name":"Kampung Bandan","i_lat":-6.132549,"distance":2185,"time":4},{"distance":1444,"i_lat":-6.14505,"station_id":"RJW","time":3,"transit":false,"i_long":106.836569,"is_transit":false,"line":11,"station_name":"Rajawali"},{"transit":false,"distance":1901,"station_name":"Kemayoran","station_id":"KMO","is_transit":false,"time":5,"i_lat":-6.161728,"i_long":106.839204,"line":11},{"is_transit":false,"distance":1436,"time":4,"i_long":106.84368,"station_name":"Pasar Senen","station_id":"PSE","i_lat":-6.174784,"line":11,"transit":false},{"station_id":"GST","is_transit":false,"distance":1567,"station_name":"Gang Sentiong","line":11,"i_lat":-6.185975,"time":8,"transit":false,"i_long":106.850107},{"station_name":"Kramat","transit":false,"time":1,"station_id":"KMT","i_long":106.855437,"line":11,"i_lat":-6.193792,"distance":973,"is_transit":false},{"line":11,"is_transit":false,"station_id":"POK","i_lat":-6.209188,"time":2,"station_name":"Pondok Jati","transit":false,"distance":1829,"i_long":106.861737},{"i_long":106.86807400000001,"i_lat":-6.215091,"line":1,"time":9,"station_id":"JNG","is_transit":true,"distance":1236,"station_name":"Jatinegara","transit":true},{"transit":false,"time":2,"is_transit":false,"station_id":"MTR","line":1,"distance":1377,"station_name":"Matraman","i_lat":-6.212485,"i_long":106.858896},{"time":2,"transit":true,"line":2,"i_lat":-6.209883,"is_transit":true,"i_long":106.84912,"station_id":"MRI","station_name":"Manggarai","distance":1275},{"i_lat":-6.226659,"transit":false,"distance":2610,"i_long":106.857948,"line":2,"is_transit":false,"time":4,"station_id":"TEB","station_name":"Tebet"},{"distance":1230,"i_long":106.856607,"station_name":"Cawang","line":2,"transit":false,"is_transit":false,"station_id":"CW","i_lat":-6.242512,"time":2},{"time":3,"is_transit":false,"station_name":"Duren Kalibata","transit":false,"station_id":"DRN","distance":1546,"i_lat":-6.255332,"i_long":106.85449,"line":2},{"station_name":"Pasar Minggu Baru","is_transit":false,"station_id":"PSMB","transit":false,"time":2,"i_long":106.851577,"line":2,"distance":824,"i_lat":-6.263214},{"is_transit":false,"station_name":"Pasar Minggu","time":2,"station_id":"PSM","transit":false,"distance":2380,"i_lat":-6.2842400000000005,"i_long":106.843999,"line":2},{"i_lat":-6.3080680000000005,"station_name":"Tanjung Barat","is_transit":false,"line":2,"transit":false,"distance":2820,"time":4,"i_long":106.838896,"station_id":"TNT"},{"station_id":"LNA","transit":false,"is_transit":false,"distance":2671,"i_long":106.832616,"line":2,"station_name":"Lenteng Agung","time":3,"i_lat":-6.330363},{"station_name":"Univ. Pancasila","station_id":"UP","line":2,"i_lat":-6.339291,"time":2,"distance":1029,"i_long":106.834175,"is_transit":false,"transit":false},{"station_name":"Univ. Indonesia","i_lat":-6.360749,"transit":false,"station_id":"UI","time":3,"is_transit":false,"distance":2264,"line":2,"i_long":106.831474}]]}