{"data":[[{"i_lat":-6.128023,"line":4,"is_transit":false,"distance":0,"station_name":"Ancol","transit":false,"station_id":"AC","i_long":106.84464,"time":0},{"i_long":106.826365,"i_lat":-6.132549,"distance":2185,"station_id":"KPB","time":4,"transit":true,"line":4,"station_name":"Kampung Bandan","is_transit":true},{"i_lat":-6.144674,"station_id":"AK","is_transit":false,"transit":false,"station_name":"Angke","i_long":106.79867,"line":1,"distance":4102,"time":9},{"time":4,"i_long":106.800832,"line":1,"transit":false,"station_name":"Duri","distance":1230,"station_id":"DU","is_transit":false,"i_lat":-6.155215},{"is_transit":false,"transit":false,"station_id":"THB","i_long":106.811091,"line":1,"station_name":"Tanah Abang","time":8,"i_lat":-6.185545,"distance":3632},{"is_transit":false,"transit":false,"i_long":106.816351,"station_name":"Karet","line":1,"distance":2029,"i_lat":-6.20132,"time":5,"station_id":"KAT"},{"is_transit":false,"i_long":106.819881,"transit":false,"station_name":"Sudirman Baru","time":1,"i_lat":-6.201433,"station_id":"SUDB","distance":471,"line":1},{"time":1,"station_name":"Sudirman","station_id":"SUD","i_lat":-6.202263,"transit":false,"distance":280,"i_long":106.822649,"line":1,"is_transit":false},{"transit":true,"distance":3186,"i_lat":-6.209883,"i_long":106.84912,"line":2,"station_id":"MRI","station_name":"Manggarai","is_transit":true,"time":4},{"i_long":106.857948,"distance":2610,"time":4,"line":2,"station_id":"TEB","station_name":"Tebet","i_lat":-6.226659,"transit":false,"is_transit":false},{"i_long":106.856607,"line":2,"i_lat":-6.242512,"time":2,"is_transit":false,"distance":1230,"station_id":"CW","station_name":"Cawang","transit":false},{"station_name":"Duren Kalibata","transit":false,"distance":1546,"is_transit":false,"time":3,"i_lat":-6.255332,"line":2,"station_id":"DRN","i_long":106.85449},{"i_lat":-6.263214,"line":2,"time":2,"is_transit":false,"distance":824,"station_id":"PSMB","station_name":"Pasar Minggu Baru","i_long":106.851577,"transit":false},{"line":2,"station_name":"Pasar Minggu","is_transit":false,"distance":2380,"time":2,"station_id":"PSM","transit":false,"i_lat":-6.2842400000000005,"i_long":106.843999},{"i_lat":-6.3080680000000005,"i_long":106.838896,"line":2,"time":4,"station_id":"TNT","distance":2820,"station_name":"Tanjung Barat","is_transit":false,"transit":false},{"station_id":"LNA","is_transit":false,"time":3,"i_long":106.832616,"transit":false,"i_lat":-6.330363,"station_name":"Lenteng Agung","distance":2671,"line":2},{"station_name":"Univ. Pancasila","distance":1029,"station_id":"UP","i_lat":-6.339291,"line":2,"time":2,"transit":false,"is_transit":false,"i_long":106.834175},{"i_lat":-6.360749,"line":2,"is_transit":false,"distance":2264,"time":3,"i_long":106.831474,"station_name":"Univ. Indonesia","station_id":"UI","transit":false}],[{"i_long":106.84464,"i_lat":-6.128023,"station_name":"Ancol","transit":false,"is_transit":false,"line":4,"distance":0,"time":0,"station_id":"AC"},{"i_long":106.826365,"i_lat":-6.132549,"station_name":"Kampung Bandan","line":4,"distance":2185,"time":4,"is_transit":true,"station_id":"KPB","transit":true},{"line":2,"is_transit":true,"transit":true,"station_id":"JAKK","distance":1364,"i_lat":-6.137569,"station_name":"Jakarta Kota","time":3,"i_long":106.812439},{"distance":1264,"transit":false,"line":2,"i_lat":-6.141205,"station_name":"Jayakarta","is_transit":false,"station_id":"JAY","i_long":106.820901,"time":4},{"i_long":106.82482,"time":2,"line":2,"transit":false,"is_transit":false,"station_id":"MGB","station_name":"Manggabesar","i_lat":-6.149769,"distance":1080},{"time":2,"line":2,"is_transit":false,"i_long":106.827103,"station_name":"Sawah Besar","station_id":"SW","i_lat":-6.160725,"distance":906,"transit":false},{"transit":false,"time":2,"i_long":106.828284,"line":2,"is_transit":false,"station_name":"Juanda","station_id":"JUA","i_lat":-6.166716,"distance":1149},{"transit":false,"time":4,"line":2,"is_transit":false,"station_id":"GDD","distance":2015,"i_lat":-6.186295,"i_long":106.832183,"station_name":"Gondangdia"},{"i_long":106.840169,"station_name":"Cikini","transit":false,"distance":1750,"is_transit":false,"station_id":"CKI","time":3,"i_lat":-6.198556,"line":2},{"line":2,"time":4,"transit":false,"distance":1590,"i_long":106.84912,"is_transit":false,"station_name":"Manggarai","station_id":"MRI","i_lat":-6.209883},{"distance":2610,"i_long":106.857948,"line":2,"station_name":"Tebet","time":4,"station_id":"TEB","i_lat":-6.226659,"is_transit":false,"transit":false},{"is_transit":false,"station_id":"CW","line":2,"distance":1230,"i_lat":-6.242512,"time":2,"i_long":106.856607,"station_name":"Cawang","transit":false},{"is_transit":false,"i_lat":-6.255332,"distance":1546,"line":2,"time":3,"station_id":"DRN","station_name":"Duren Kalibata","i_long":106.85449,"transit":false},{"station_name":"Pasar Minggu Baru","distance":824,"station_id":"PSMB","time":2,"i_lat":-6.263214,"transit":false,"i_long":106.851577,"line":2,"is_transit":false},{"distance":2380,"i_long":106.843999,"transit":false,"station_name":"Pasar Minggu","time":2,"i_lat":-6.2842400000000005,"is_transit":false,"line":2,"station_id":"PSM"},{"time":4,"line":2,"is_transit":false,"i_lat":-6.3080680000000005,"station_name":"Tanjung Barat","transit":false,"i_long":106.838896,"station_id":"TNT","distance":2820},{"is_transit":false,"distance":2671,"line":2,"station_name":"Lenteng Agung","transit":false,"i_lat":-6.330363,"time":3,"i_long":106.832616,"station_id":"LNA"},{"line":2,"time":2,"i_lat":-6.339291,"i_long":106.834175,"station_name":"Univ. Pancasila","is_transit":false,"station_id":"UP","distance":1029,"transit":false},{"i_long":106.831474,"line":2,"station_name":"Univ. Indonesia","i_lat":-6.360749,"transit":false,"is_transit":false,"distance":2264,"station_id":"UI","time":3}],[{"i_long":106.84464,"station_id":"AC","transit":false,"is_transit":false,"time":0,"line":4,"station_name":"Ancol","i_lat":-6.128023,"distance":0},{"line":4,"station_name":"Kampung Bandan","i_long":106.826365,"distance":2185,"time":4,"transit":true,"i_lat":-6.132549,"station_id":"KPB","is_transit":true},{"i_lat":-6.14505,"time":3,"i_long":106.836569,"is_transit":false,"station_name":"Rajawali","transit":false,"distance":1444,"line":11,"station_id":"RJW"},{"transit":false,"distance":1901,"time":5,"i_long":106.839204,"station_id":"KMO","is_transit":false,"i_lat":-6.161728,"station_name":"Kemayoran","line":11},{"station_name":"Pasar Senen","station_id":"PSE","transit":false,"is_transit":false,"i_lat":-6.174784,"i_long":106.84368,"time":4,"line":11,"distance":1436},{"time":8,"i_lat":-6.185975,"is_transit":false,"i_long":106.850107,"distance":1567,"line":11,"station_id":"GST","transit":false,"station_name":"Gang Sentiong"},{"station_name":"Kramat","time":1,"station_id":"KMT","line":11,"i_long":106.855437,"is_transit":false,"i_lat":-6.193792,"distance":973,"transit":false},{"time":2,"i_long":106.861737,"i_lat":-6.209188,"station_id":"POK","line":11,"is_transit":false,"distance":1829,"station_name":"Pondok Jati","transit":false},{"is_transit":true,"time":9,"i_lat":-6.215091,"distance":1236,"i_long":106.86807400000001,"station_id":"JNG","station_name":"Jatinegara","transit":true,"line":1},{"station_id":"MTR","i_long":106.858896,"i_lat":-6.212485,"distance":1377,"station_name":"Matraman","line":1,"transit":false,"time":2,"is_transit":false},{"transit":true,"station_name":"Manggarai","time":2,"line":2,"station_id":"MRI","distance":1275,"i_long":106.84912,"is_transit":true,"i_lat":-6.209883},{"station_id":"TEB","i_lat":-6.226659,"transit":false,"is_transit":false,"line":2,"i_long":106.857948,"distance":2610,"time":4,"station_name":"Tebet"},{"station_id":"CW","i_lat":-6.242512,"i_long":106.856607,"transit":false,"is_transit":false,"line":2,"station_name":"Cawang","distance":1230,"time":2},{"i_long":106.85449,"line":2,"time":3,"transit":false,"is_transit":false,"station_name":"Duren Kalibata","distance":1546,"station_id":"DRN","i_lat":-6.255332},{"station_id":"PSMB","i_lat":-6.263214,"line":2,"distance":824,"i_long":106.851577,"station_name":"Pasar Minggu Baru","is_transit":false,"time":2,"transit":false},{"distance":2380,"i_lat":-6.2842400000000005,"time":2,"station_name":"Pasar Minggu","transit":false,"station_id":"PSM","is_transit":false,"line":2,"i_long":106.843999},{"distance":2820,"station_name":"Tanjung Barat","time":4,"i_lat":-6.3080680000000005,"i_long":106.838896,"line":2,"transit":false,"is_transit":false,"station_id":"TNT"},{"station_id":"LNA","time":3,"is_transit":false,"i_long":106.832616,"distance":2671,"station_name":"Lenteng Agung","i_lat":-6.330363,"line":2,"transit":false},{"time":2,"is_transit":false,"station_name":"Univ. Pancasila","line":2,"i_long":106.834175,"station_id":"UP","distance":1029,"transit":false,"i_lat":-6.339291},{"line":2,"time":3,"i_lat":-6.360749,"station_id":"UI","station_name":"Univ. Indonesia","i_long":106.831474,"is_transit":false,"distance":2264,"transit":false}]]}