{"data":[[{"transit":false,"distance":0,"i_long":106.84464,"is_transit":false,"time":0,"station_name":"Ancol","station_id":"AC","i_lat":-6.128023,"line":0},{"distance":2185,"is_transit":true,"station_id":"KPB","transit":false,"i_lat":-6.132549,"time":4,"i_long":106.826365,"station_name":"Kampung Bandan","line":0},{"i_lat":-6.144674,"i_long":106.79867,"time":9,"is_transit":false,"distance":4102,"line":0,"station_id":"AK","station_name":"Angke","transit":false},{"transit":true,"i_long":106.800832,"distance":1230,"is_transit":true,"i_lat":-6.155215,"line":1,"time":4,"station_id":"DU","station_name":"Duri"},{"is_transit":true,"station_id":"THB","time":8,"i_lat":-6.185545,"station_name":"Tanah Abang","line":1,"distance":3632,"transit":false,"i_long":106.811091},{"station_id":"KAT","distance":2029,"i_long":106.816351,"is_transit":false,"i_lat":-6.20132,"station_name":"Karet","line":1,"time":5,"transit":false},{"is_transit":false,"time":1,"transit":false,"station_id":"SUDB","station_name":"Sudirman Baru","i_lat":-6.201433,"i_long":106.819881,"line":1,"distance":471},{"i_lat":-6.202263,"station_id":"SUD","is_transit":false,"station_name":"Sudirman","i_long":106.822649,"transit":false,"line":1,"time":1,"distance":280},{"transit":true,"i_long":106.84912,"line":0,"is_transit":true,"time":4,"station_name":"Manggarai","station_id":"MRI","i_lat":-6.209883,"distance":3186},{"station_id":"TEB","is_transit":false,"i_lat":-6.226659,"i_long":106.857948,"line":2,"station_name":"Tebet","transit":false,"distance":2610,"time":4},{"is_transit":false,"station_id":"CW","i_lat":-6.242512,"distance":1230,"station_name":"Cawang","i_long":106.856607,"time":2,"transit":false,"line":0},{"station_name":"Duren Kalibata","time":3,"line":0,"station_id":"DRN","i_long":106.85449,"is_transit":false,"transit":false,"distance":1546,"i_lat":-6.255332},{"station_name":"Pasar Minggu Baru","time":2,"is_transit":false,"station_id":"PSMB","transit":false,"i_lat":-6.263214,"i_long":106.851577,"distance":824,"line":2},{"i_lat":-6.2842400000000005,"station_id":"PSM","i_long":106.843999,"station_name":"Pasar Minggu","transit":false,"is_transit":false,"time":2,"line":2,"distance":2380},{"station_id":"TNT","i_lat":-6.3080680000000005,"transit":false,"distance":2820,"is_transit":false,"station_name":"Tanjung Barat","i_long":106.838896,"time":4,"line":2},{"transit":false,"distance":2671,"line":2,"station_name":"Lenteng Agung","time":3,"is_transit":false,"i_long":106.832616,"i_lat":-6.330363,"station_id":"LNA"},{"station_id":"UP","i_lat":-6.339291,"i_long":106.834175,"is_transit":false,"station_name":"Univ. Pancasila","time":2,"distance":1029,"transit":false,"line":2},{"i_long":106.831474,"station_id":"UI","distance":2264,"time":3,"station_name":"Univ. Indonesia","i_lat":-6.360749,"line":2,"is_transit":false,"transit":false}],[{"time":0,"line":0,"distance":0,"transit":false,"i_lat":-6.128023,"i_long":106.84464,"station_id":"AC","is_transit":false,"station_name":"Ancol"},{"line":0,"station_name":"Kampung Bandan","i_long":106.826365,"time":4,"i_lat":-6.132549,"station_id":"KPB","distance":2185,"transit":false,"is_transit":true},{"station_id":"JAKK","is_transit":true,"station_name":"Jakarta Kota","time":3,"transit":true,"line":0,"i_lat":-6.137569,"distance":1364,"i_long":106.812439},{"i_lat":-6.141205,"station_name":"Jayakarta","is_transit":false,"transit":false,"station_id":"JAY","line":7,"distance":1264,"i_long":106.820901,"time":4},{"station_name":"Manggabesar","station_id":"MGB","i_long":106.82482,"transit":false,"time":2,"distance":1080,"i_lat":-6.149769,"is_transit":false,"line":2},{"station_id":"SW","station_name":"Sawah Besar","transit":false,"is_transit":false,"time":2,"line":2,"i_lat":-6.160725,"distance":906,"i_long":106.827103},{"station_name":"Juanda","is_transit":false,"time":2,"transit":false,"line":2,"station_id":"JUA","distance":1149,"i_lat":-6.166716,"i_long":106.828284},{"station_name":"Gondangdia","station_id":"GDD","i_lat":-6.186295,"distance":2015,"i_long":106.832183,"line":2,"transit":false,"time":4,"is_transit":false},{"station_name":"Cikini","transit":false,"i_long":106.840169,"time":3,"is_transit":false,"distance":1750,"i_lat":-6.198556,"line":0,"station_id":"CKI"},{"line":0,"time":4,"is_transit":true,"station_name":"Manggarai","i_lat":-6.209883,"station_id":"MRI","transit":true,"i_long":106.84912,"distance":1590},{"distance":2610,"station_id":"TEB","time":4,"station_name":"Tebet","is_transit":false,"transit":false,"line":2,"i_lat":-6.226659,"i_long":106.857948},{"i_lat":-6.242512,"line":0,"i_long":106.856607,"transit":false,"station_name":"Cawang","station_id":"CW","distance":1230,"is_transit":false,"time":2},{"distance":1546,"station_name":"Duren Kalibata","time":3,"i_long":106.85449,"line":0,"transit":false,"is_transit":false,"i_lat":-6.255332,"station_id":"DRN"},{"station_id":"PSMB","time":2,"is_transit":false,"station_name":"Pasar Minggu Baru","transit":false,"line":2,"distance":824,"i_lat":-6.263214,"i_long":106.851577},{"i_lat":-6.2842400000000005,"i_long":106.843999,"distance":2380,"station_id":"PSM","line":2,"is_transit":false,"station_name":"Pasar Minggu","time":2,"transit":false},{"distance":2820,"line":2,"time":4,"is_transit":false,"station_name":"Tanjung Barat","i_lat":-6.3080680000000005,"transit":false,"station_id":"TNT","i_long":106.838896},{"i_lat":-6.330363,"distance":2671,"transit":false,"line":2,"is_transit":false,"time":3,"i_long":106.832616,"station_id":"LNA","station_name":"Lenteng Agung"},{"i_long":106.834175,"distance":1029,"i_lat":-6.339291,"transit":false,"line":2,"station_id":"UP","time":2,"station_name":"Univ. Pancasila","is_transit":false},{"is_transit":false,"station_id":"UI","distance":2264,"time":3,"station_name":"Univ. Indonesia","transit":false,"i_long":106.831474,"i_lat":-6.360749,"line":2}],[{"station_name":"Ancol","station_id":"AC","i_lat":-6.128023,"time":0,"distance":0,"transit":false,"is_transit":false,"i_long":106.84464,"line":0},{"station_id":"KPB","station_name":"Kampung Bandan","transit":true,"time":4,"distance":2185,"i_long":106.826365,"is_transit":true,"line":0,"i_lat":-6.132549},{"i_lat":-6.14505,"station_name":"Rajawali","transit":false,"i_long":106.836569,"is_transit":false,"line":11,"distance":1444,"time":3,"station_id":"RJW"},{"i_lat":-6.161728,"distance":1901,"is_transit":false,"station_id":"KMO","time":5,"line":11,"i_long":106.839204,"transit":false,"station_name":"Kemayoran"},{"transit":false,"station_id":"PSE","distance":1436,"time":4,"station_name":"Pasar Senen","i_lat":-6.174784,"is_transit":false,"i_long":106.84368,"line":11},{"transit":false,"i_long":106.850107,"line":11,"station_name":"Gang Sentiong","distance":1567,"time":8,"is_transit":false,"station_id":"GST","i_lat":-6.185975},{"station_id":"KMT","transit":false,"i_long":106.855437,"is_transit":false,"line":11,"i_lat":-6.193792,"distance":973,"station_name":"Kramat","time":1},{"station_name":"Pondok Jati","time":2,"is_transit":false,"station_id":"POK","transit":false,"i_long":106.861737,"line":11,"distance":1829,"i_lat":-6.209188},{"line":0,"i_lat":-6.215091,"i_long":106.86807400000001,"distance":1236,"station_name":"Jatinegara","is_transit":true,"time":9,"transit":true,"station_id":"JNG"},{"line":1,"is_transit":false,"time":2,"i_long":106.858896,"station_name":"Matraman","transit":false,"i_lat":-6.212485,"distance":1377,"station_id":"MTR"},{"i_lat":-6.209883,"i_long":106.84912,"transit":true,"station_id":"MRI","is_transit":true,"distance":1275,"time":2,"station_name":"Manggarai","line":0},{"is_transit":false,"transit":false,"line":2,"station_id":"TEB","i_lat":-6.226659,"station_name":"Tebet","distance":2610,"time":4,"i_long":106.857948},{"i_long":106.856607,"i_lat":-6.242512,"line":0,"time":2,"station_id":"CW","distance":1230,"station_name":"Cawang","is_transit":false,"transit":false},{"line":0,"is_transit":false,"distance":1546,"time":3,"station_name":"Duren Kalibata","i_lat":-6.255332,"transit":false,"station_id":"DRN","i_long":106.85449},{"i_long":106.851577,"station_name":"Pasar Minggu Baru","station_id":"PSMB","transit":false,"is_transit":false,"i_lat":-6.263214,"distance":824,"time":2,"line":2},{"i_long":106.843999,"line":2,"i_lat":-6.2842400000000005,"is_transit":false,"distance":2380,"station_name":"Pasar Minggu","station_id":"PSM","time":2,"transit":false},{"station_id":"TNT","station_name":"Tanjung Barat","transit":false,"i_long":106.838896,"line":2,"distance":2820,"is_transit":false,"i_lat":-6.3080680000000005,"time":4},{"station_id":"LNA","line":2,"i_lat":-6.330363,"i_long":106.832616,"station_name":"Lenteng Agung","is_transit":false,"time":3,"distance":2671,"transit":false},{"station_id":"UP","distance":1029,"station_name":"Univ. Pancasila","is_transit":false,"time":2,"transit":false,"i_long":106.834175,"i_lat":-6.339291,"line":2},{"i_lat":-6.360749,"i_long":106.831474,"line":2,"distance":2264,"is_transit":false,"time":3,"station_name":"Univ. Indonesia","transit":false,"station_id":"UI"}]]}