{"data":[[{"transit":false,"time":0,"distance":0,"station_name":"Angke","i_lat":-6.144674,"i_long":106.79867,"line":0,"station_id":"AK","is_transit":false},{"station_name":"Duri","time":4,"distance":1230,"is_transit":true,"line":1,"i_lat":-6.155215,"i_long":106.800832,"transit":true,"station_id":"DU"},{"line":5,"i_lat":-6.162021,"is_transit":false,"station_id":"GGL","transit":false,"station_name":"Grogol","i_long":106.788277,"time":3,"distance":1700},{"station_id":"PSG","distance":2036,"line":5,"transit":false,"time":2,"i_lat":-6.161433,"station_name":"Pesing","i_long":106.771379,"is_transit":false},{"station_id":"TKO","line":5,"transit":false,"station_name":"Taman Kota","i_lat":-6.1587309999999995,"time":2,"i_long":106.756522,"is_transit":false,"distance":1614},{"i_long":106.737035,"transit":false,"station_name":"Bojongindah","station_id":"BOI","line":0,"time":2,"i_lat":-6.159876,"distance":2334,"is_transit":false},{"distance":1152,"i_lat":-6.162758,"station_id":"RW","line":5,"i_long":106.723064,"is_transit":false,"time":4,"transit":false,"station_name":"Rawa Buaya"},{"station_id":"KDS","transit":false,"station_name":"Kalideres","is_transit":false,"distance":2504,"i_lat":-6.166068,"time":3,"i_long":106.701612,"line":5},{"i_long":106.679458,"time":3,"distance":2548,"i_lat":-6.169933,"station_name":"Poris","line":5,"transit":false,"station_id":"PI","is_transit":false},{"transit":false,"i_lat":-6.171811,"line":0,"is_transit":false,"distance":1834,"station_name":"Batuceper","time":3,"i_long":106.665036,"station_id":"BPR"}],[{"is_transit":false,"station_name":"Angke","transit":false,"station_id":"AK","i_lat":-6.144674,"time":0,"i_long":106.79867,"line":0,"distance":0},{"i_long":106.826365,"station_name":"Kampung Bandan","is_transit":true,"time":9,"station_id":"KPB","transit":false,"line":0,"i_lat":-6.132549,"distance":4102},{"transit":true,"time":3,"station_id":"JAKK","is_transit":true,"i_lat":-6.137569,"line":0,"station_name":"Jakarta Kota","distance":1364,"i_long":106.812439},{"i_long":106.820901,"line":7,"time":4,"station_name":"Jayakarta","i_lat":-6.141205,"is_transit":false,"transit":false,"station_id":"JAY","distance":1264},{"i_long":106.82482,"transit":false,"distance":1080,"line":2,"station_id":"MGB","is_transit":false,"time":2,"station_name":"Manggabesar","i_lat":-6.149769},{"transit":false,"is_transit":false,"line":2,"station_name":"Sawah Besar","i_lat":-6.160725,"time":2,"distance":906,"i_long":106.827103,"station_id":"SW"},{"distance":1149,"i_lat":-6.166716,"line":2,"transit":false,"i_long":106.828284,"station_name":"Juanda","time":2,"station_id":"JUA","is_transit":false},{"line":2,"station_name":"Gondangdia","time":4,"is_transit":false,"distance":2015,"station_id":"GDD","transit":false,"i_long":106.832183,"i_lat":-6.186295},{"station_id":"CKI","transit":false,"time":3,"distance":1750,"station_name":"Cikini","i_lat":-6.198556,"i_long":106.840169,"line":0,"is_transit":false},{"i_lat":-6.209883,"time":4,"station_id":"MRI","is_transit":true,"distance":1590,"station_name":"Manggarai","line":0,"transit":true,"i_long":106.84912},{"line":1,"station_name":"Sudirman","distance":3186,"time":4,"transit":false,"is_transit":false,"i_lat":-6.202263,"station_id":"SUD","i_long":106.822649},{"is_transit":false,"distance":280,"transit":false,"i_long":106.819881,"time":1,"station_name":"Sudirman Baru","i_lat":-6.201433,"station_id":"SUDB","line":1},{"station_name":"Karet","time":1,"station_id":"KAT","line":1,"i_long":106.816351,"is_transit":false,"transit":false,"distance":471,"i_lat":-6.20132},{"i_lat":-6.185545,"i_long":106.811091,"is_transit":true,"time":5,"station_name":"Tanah Abang","line":1,"distance":2029,"transit":false,"station_id":"THB"},{"i_long":106.800832,"station_name":"Duri","time":8,"i_lat":-6.155215,"station_id":"DU","line":1,"is_transit":true,"transit":true,"distance":3632},{"distance":1700,"i_lat":-6.162021,"station_name":"Grogol","time":3,"i_long":106.788277,"station_id":"GGL","is_transit":false,"transit":false,"line":5},{"i_long":106.771379,"line":5,"transit":false,"station_name":"Pesing","is_transit":false,"i_lat":-6.161433,"time":2,"station_id":"PSG","distance":2036},{"distance":1614,"i_lat":-6.1587309999999995,"i_long":106.756522,"station_id":"TKO","line":5,"station_name":"Taman Kota","time":2,"transit":false,"is_transit":false},{"is_transit":false,"i_lat":-6.159876,"transit":false,"station_name":"Bojongindah","time":2,"i_long":106.737035,"distance":2334,"station_id":"BOI","line":0},{"station_id":"RW","transit":false,"distance":1152,"i_lat":-6.162758,"time":4,"i_long":106.723064,"line":5,"station_name":"Rawa Buaya","is_transit":false},{"transit":false,"time":3,"is_transit":false,"station_name":"Kalideres","distance":2504,"station_id":"KDS","i_lat":-6.166068,"i_long":106.701612,"line":5},{"time":3,"station_id":"PI","transit":false,"i_lat":-6.169933,"distance":2548,"i_long":106.679458,"station_name":"Poris","line":5,"is_transit":false},{"line":0,"i_long":106.665036,"time":3,"transit":false,"station_name":"Batuceper","station_id":"BPR","is_transit":false,"distance":1834,"i_lat":-6.171811}],[{"is_transit":false,"i_lat":-6.144674,"i_long":106.79867,"line":0,"station_id":"AK","transit":false,"distance":0,"station_name":"Angke","time":0},{"i_long":106.826365,"line":0,"i_lat":-6.132549,"is_transit":true,"time":9,"transit":true,"station_name":"Kampung Bandan","station_id":"KPB","distance":4102},{"time":3,"distance":1444,"i_long":106.836569,"line":11,"is_transit":false,"transit":false,"station_name":"Rajawali","i_lat":-6.14505,"station_id":"RJW"},{"i_lat":-6.161728,"station_id":"KMO","station_name":"Kemayoran","distance":1901,"i_long":106.839204,"time":5,"line":11,"is_transit":false,"transit":false},{"distance":1436,"time":4,"i_long":106.84368,"station_name":"Pasar Senen","station_id":"PSE","transit":false,"line":11,"is_transit":false,"i_lat":-6.174784},{"line":11,"is_transit":false,"distance":1567,"time":8,"transit":false,"i_long":106.850107,"station_name":"Gang Sentiong","station_id":"GST","i_lat":-6.185975},{"station_name":"Kramat","is_transit":false,"transit":false,"i_long":106.855437,"i_lat":-6.193792,"distance":973,"station_id":"KMT","line":11,"time":1},{"time":2,"is_transit":false,"station_id":"POK","station_name":"Pondok Jati","distance":1829,"transit":false,"i_long":106.861737,"line":11,"i_lat":-6.209188},{"i_long":106.86807400000001,"i_lat":-6.215091,"line":0,"time":9,"is_transit":true,"transit":true,"distance":1236,"station_name":"Jatinegara","station_id":"JNG"},{"transit":false,"is_transit":false,"station_name":"Matraman","distance":1377,"i_long":106.858896,"station_id":"MTR","i_lat":-6.212485,"line":1,"time":2},{"i_lat":-6.209883,"station_id":"MRI","is_transit":true,"transit":false,"station_name":"Manggarai","distance":1275,"line":0,"i_long":106.84912,"time":2},{"is_transit":false,"i_lat":-6.202263,"i_long":106.822649,"station_id":"SUD","line":1,"time":4,"distance":3186,"transit":false,"station_name":"Sudirman"},{"station_id":"SUDB","transit":false,"line":1,"i_lat":-6.201433,"distance":280,"station_name":"Sudirman Baru","i_long":106.819881,"is_transit":false,"time":1},{"distance":471,"i_lat":-6.20132,"transit":false,"line":1,"time":1,"is_transit":false,"station_id":"KAT","station_name":"Karet","i_long":106.816351},{"transit":false,"line":1,"station_id":"THB","i_long":106.811091,"is_transit":true,"time":5,"i_lat":-6.185545,"station_name":"Tanah Abang","distance":2029},{"i_long":106.800832,"is_transit":true,"transit":true,"station_name":"Duri","distance":3632,"line":1,"time":8,"station_id":"DU","i_lat":-6.155215},{"line":5,"station_name":"Grogol","distance":1700,"station_id":"GGL","transit":false,"time":3,"i_long":106.788277,"is_transit":false,"i_lat":-6.162021},{"transit":false,"distance":2036,"station_id":"PSG","station_name":"Pesing","i_long":106.771379,"line":5,"i_lat":-6.161433,"is_transit":false,"time":2},{"station_name":"Taman Kota","station_id":"TKO","i_lat":-6.1587309999999995,"line":5,"distance":1614,"i_long":106.756522,"is_transit":false,"time":2,"transit":false},{"i_long":106.737035,"station_name":"Bojongindah","i_lat":-6.159876,"station_id":"BOI","time":2,"is_transit":false,"transit":false,"distance":2334,"line":0},{"transit":false,"i_lat":-6.162758,"station_id":"RW","distance":1152,"time":4,"line":5,"station_name":"Rawa Buaya","is_transit":false,"i_long":106.723064},{"transit":false,"time":3,"line":5,"is_transit":false,"distance":2504,"station_id":"KDS","i_long":106.701612,"i_lat":-6.166068,"station_name":"Kalideres"},{"distance":2548,"transit":false,"line":5,"station_name":"Poris","station_id":"PI","i_lat":-6.169933,"i_long":106.679458,"time":3,"is_transit":false},{"transit":false,"time":3,"is_transit":false,"i_long":106.665036,"station_id":"BPR","i_lat":-6.171811,"station_name":"Batuceper","distance":1834,"line":0}]]}