{"data":[[{"time":0,"i_lat":-6.144674,"i_long":106.79867,"station_id":"AK","transit":false,"distance":0,"station_name":"Angke","is_transit":false,"line":1},{"is_transit":true,"transit":true,"station_name":"Kampung Bandan","station_id":"KPB","i_long":106.826365,"line":4,"distance":4102,"time":9,"i_lat":-6.132549},{"i_long":106.836569,"line":11,"station_name":"Rajawali","station_id":"RJW","is_transit":false,"transit":false,"distance":1444,"i_lat":-6.14505,"time":3},{"i_lat":-6.161728,"station_id":"KMO","i_long":106.839204,"transit":false,"time":5,"station_name":"Kemayoran","distance":1901,"line":11,"is_transit":false},{"station_name":"Pasar Senen","station_id":"PSE","is_transit":false,"i_long":106.84368,"distance":1436,"i_lat":-6.174784,"time":4,"line":11,"transit":false},{"station_id":"GST","i_long":106.850107,"is_transit":false,"i_lat":-6.185975,"time":8,"station_name":"Gang Sentiong","transit":false,"line":11,"distance":1567},{"station_name":"Kramat","station_id":"KMT","line":11,"i_long":106.855437,"i_lat":-6.193792,"time":1,"transit":false,"is_transit":false,"distance":973},{"station_name":"Pondok Jati","line":11,"distance":1829,"transit":false,"station_id":"POK","is_transit":false,"i_long":106.861737,"time":2,"i_lat":-6.209188},{"distance":1236,"i_lat":-6.215091,"time":9,"station_name":"Jatinegara","i_long":106.86807400000001,"line":1,"transit":true,"station_id":"JNG","is_transit":true},{"station_name":"Klender","is_transit":false,"i_long":106.899548,"time":3,"station_id":"KLD","i_lat":-6.2135,"distance":3395,"line":1,"transit":false},{"transit":false,"station_id":"BUA","distance":3100,"station_name":"Buaran","is_transit":false,"i_lat":-6.215568,"time":2,"i_long":106.922662,"line":1},{"distance":1305,"station_id":"KLDB","line":1,"transit":false,"time":1,"is_transit":false,"i_long":106.939679,"station_name":"Klenderbaru","i_lat":-6.217455},{"line":1,"i_lat":-6.219053,"is_transit":false,"time":8,"distance":1385,"i_long":106.951283,"station_name":"Cakung","transit":false,"station_id":"CUK"},{"is_transit":false,"line":1,"i_lat":-6.224515,"station_id":"KRI","station_name":"Kranji","i_long":106.977657,"time":3,"distance":3097,"transit":false},{"is_transit":false,"distance":2520,"i_lat":-6.236616,"i_long":106.997013,"time":4,"line":1,"transit":false,"station_name":"Bekasi","station_id":"BKS"},{"station_name":"Bekasi Timur","distance":2368,"station_id":"BKST","time":2,"is_transit":false,"i_long":107.016735,"line":1,"transit":false,"i_lat":-6.248029}],[{"station_id":"AK","transit":false,"time":0,"distance":0,"i_lat":-6.144674,"station_name":"Angke","is_transit":false,"line":1,"i_long":106.79867},{"is_transit":false,"station_name":"Duri","i_lat":-6.155215,"transit":false,"station_id":"DU","time":4,"line":1,"distance":1230,"i_long":106.800832},{"i_lat":-6.185545,"station_name":"Tanah Abang","line":1,"is_transit":false,"station_id":"THB","distance":3632,"i_long":106.811091,"transit":false,"time":8},{"time":5,"station_id":"KAT","i_long":106.816351,"is_transit":false,"line":1,"station_name":"Karet","transit":false,"i_lat":-6.20132,"distance":2029},{"station_name":"Sudirman Baru","i_long":106.819881,"transit":false,"is_transit":false,"line":1,"time":1,"i_lat":-6.201433,"distance":471,"station_id":"SUDB"},{"i_lat":-6.202263,"is_transit":false,"station_id":"SUD","transit":false,"station_name":"Sudirman","time":1,"line":1,"distance":280,"i_long":106.822649},{"distance":3186,"i_long":106.84912,"is_transit":false,"i_lat":-6.209883,"station_id":"MRI","time":4,"transit":false,"station_name":"Manggarai","line":2},{"distance":1275,"i_lat":-6.212485,"line":1,"transit":false,"station_name":"Matraman","is_transit":false,"i_long":106.858896,"station_id":"MTR","time":2},{"time":8,"station_id":"JNG","i_long":106.86807400000001,"transit":false,"is_transit":false,"distance":1377,"i_lat":-6.215091,"station_name":"Jatinegara","line":1},{"station_id":"KLD","line":1,"station_name":"Klender","distance":3395,"i_lat":-6.2135,"time":3,"is_transit":false,"transit":false,"i_long":106.899548},{"distance":3100,"i_long":106.922662,"is_transit":false,"station_name":"Buaran","i_lat":-6.215568,"line":1,"transit":false,"station_id":"BUA","time":2},{"station_name":"Klenderbaru","i_lat":-6.217455,"distance":1305,"transit":false,"station_id":"KLDB","i_long":106.939679,"is_transit":false,"time":1,"line":1},{"i_long":106.951283,"station_name":"Cakung","time":8,"i_lat":-6.219053,"line":1,"is_transit":false,"distance":1385,"station_id":"CUK","transit":false},{"station_name":"Kranji","line":1,"i_lat":-6.224515,"distance":3097,"station_id":"KRI","transit":false,"time":3,"is_transit":false,"i_long":106.977657},{"time":4,"is_transit":false,"transit":false,"distance":2520,"line":1,"station_id":"BKS","station_name":"Bekasi","i_long":106.997013,"i_lat":-6.236616},{"i_long":107.016735,"is_transit":false,"time":2,"station_name":"Bekasi Timur","station_id":"BKST","transit":false,"distance":2368,"i_lat":-6.248029,"line":1}],[{"time":0,"station_id":"AK","is_transit":false,"distance":0,"i_long":106.79867,"station_name":"Angke","i_lat":-6.144674,"transit":false,"line":1},{"station_name":"Kampung Bandan","transit":true,"station_id":"KPB","is_transit":true,"time":9,"distance":4102,"i_lat":-6.132549,"i_long":106.826365,"line":4},{"station_id":"JAKK","is_transit":true,"transit":true,"distance":1364,"line":2,"time":3,"i_lat":-6.137569,"i_long":106.812439,"station_name":"Jakarta Kota"},{"i_long":106.820901,"distance":1264,"is_transit":false,"i_lat":-6.141205,"line":2,"station_id":"JAY","transit":false,"time":4,"station_name":"Jayakarta"},{"is_transit":false,"time":2,"distance":1080,"i_long":106.82482,"transit":false,"line":2,"station_id":"MGB","i_lat":-6.149769,"station_name":"Manggabesar"},{"i_lat":-6.160725,"is_transit":false,"station_name":"Sawah Besar","distance":906,"transit":false,"time":2,"line":2,"station_id":"SW","i_long":106.827103},{"station_name":"Juanda","time":2,"i_long":106.828284,"line":2,"is_transit":false,"station_id":"JUA","distance":1149,"transit":false,"i_lat":-6.166716},{"i_lat":-6.186295,"is_transit":false,"line":2,"distance":2015,"i_long":106.832183,"transit":false,"station_id":"GDD","station_name":"Gondangdia","time":4},{"is_transit":false,"i_long":106.840169,"station_name":"Cikini","station_id":"CKI","transit":false,"i_lat":-6.198556,"time":3,"distance":1750,"line":2},{"is_transit":true,"distance":1590,"i_long":106.84912,"i_lat":-6.209883,"time":4,"station_id":"MRI","station_name":"Manggarai","line":2,"transit":true},{"line":1,"distance":1275,"time":2,"i_lat":-6.212485,"transit":false,"station_name":"Matraman","station_id":"MTR","is_transit":false,"i_long":106.858896},{"i_long":106.86807400000001,"transit":false,"is_transit":false,"station_name":"Jatinegara","time":8,"line":1,"i_lat":-6.215091,"distance":1377,"station_id":"JNG"},{"line":1,"transit":false,"i_lat":-6.2135,"i_long":106.899548,"station_id":"KLD","station_name":"Klender","distance":3395,"is_transit":false,"time":3},{"transit":false,"i_lat":-6.215568,"station_name":"Buaran","is_transit":false,"station_id":"BUA","distance":3100,"time":2,"line":1,"i_long":106.922662},{"i_lat":-6.217455,"is_transit":false,"line":1,"station_id":"KLDB","time":1,"distance":1305,"transit":false,"station_name":"Klenderbaru","i_long":106.939679},{"i_lat":-6.219053,"station_id":"CUK","time":8,"distance":1385,"i_long":106.951283,"line":1,"transit":false,"is_transit":false,"station_name":"Cakung"},{"line":1,"station_name":"Kranji","distance":3097,"transit":false,"time":3,"i_lat":-6.224515,"is_transit":false,"station_id":"KRI","i_long":106.977657},{"station_name":"Bekasi","station_id":"BKS","time":4,"distance":2520,"transit":false,"i_lat":-6.236616,"i_long":106.997013,"is_transit":false,"line":1},{"i_lat":-6.248029,"station_id":"BKST","is_transit":false,"distance":2368,"line":1,"station_name":"Bekasi Timur","transit":false,"time":2,"i_long":107.016735}],[{"transit":false,"station_name":"Angke","i_lat":-6.144674,"i_long":106.79867,"is_transit":false,"time":0,"distance":0,"station_id":"AK","line":1},{"is_transit":false,"distance":1230,"transit":false,"i_long":106.800832,"station_id":"DU","station_name":"Duri","i_lat":-6.155215,"line":1,"time":4},{"i_lat":-6.185545,"line":1,"distance":3632,"transit":false,"time":8,"i_long":106.811091,"station_name":"Tanah Abang","is_transit":false,"station_id":"THB"},{"time":5,"i_lat":-6.20132,"line":1,"i_long":106.816351,"transit":false,"station_id":"KAT","is_transit":false,"station_name":"Karet","distance":2029},{"line":1,"transit":false,"i_long":106.819881,"station_name":"Sudirman Baru","distance":471,"i_lat":-6.201433,"is_transit":false,"time":1,"station_id":"SUDB"},{"station_id":"SUD","station_name":"Sudirman","distance":280,"time":1,"i_lat":-6.202263,"i_long":106.822649,"is_transit":false,"line":1,"transit":false},{"transit":true,"station_id":"MRI","i_lat":-6.209883,"i_long":106.84912,"line":2,"time":4,"station_name":"Manggarai","distance":3186,"is_transit":true},{"station_name":"Cikini","i_lat":-6.198556,"station_id":"CKI","time":4,"i_long":106.840169,"distance":1590,"transit":false,"is_transit":false,"line":2},{"station_name":"Gondangdia","distance":1750,"i_long":106.832183,"line":2,"transit":false,"time":3,"station_id":"GDD","is_transit":false,"i_lat":-6.186295},{"time":4,"i_lat":-6.166716,"station_id":"JUA","transit":false,"is_transit":false,"distance":2015,"line":2,"station_name":"Juanda","i_long":106.828284},{"station_id":"SW","is_transit":false,"time":2,"distance":1149,"i_lat":-6.160725,"i_long":106.827103,"line":2,"station_name":"Sawah Besar","transit":false},{"station_id":"MGB","transit":false,"station_name":"Manggabesar","is_transit":false,"distance":906,"i_lat":-6.149769,"line":2,"time":2,"i_long":106.82482},{"time":2,"transit":false,"distance":1080,"i_lat":-6.141205,"i_long":106.820901,"station_name":"Jayakarta","line":2,"station_id":"JAY","is_transit":false},{"station_id":"JAKK","is_transit":true,"i_lat":-6.137569,"i_long":106.812439,"line":2,"station_name":"Jakarta Kota","time":4,"transit":true,"distance":1264},{"transit":true,"distance":1364,"station_name":"Kampung Bandan","time":3,"is_transit":true,"station_id":"KPB","i_long":106.826365,"i_lat":-6.132549,"line":4},{"line":11,"station_id":"RJW","i_lat":-6.14505,"station_name":"Rajawali","time":3,"i_long":106.836569,"transit":false,"distance":1444,"is_transit":false},{"line":11,"distance":1901,"is_transit":false,"station_name":"Kemayoran","time":5,"i_long":106.839204,"station_id":"KMO","i_lat":-6.161728,"transit":false},{"i_long":106.84368,"station_name":"Pasar Senen","line":11,"is_transit":false,"time":4,"distance":1436,"transit":false,"station_id":"PSE","i_lat":-6.174784},{"station_id":"GST","i_lat":-6.185975,"line":11,"i_long":106.850107,"station_name":"Gang Sentiong","is_transit":false,"time":8,"transit":false,"distance":1567},{"i_long":106.855437,"station_name":"Kramat","line":11,"station_id":"KMT","is_transit":false,"distance":973,"transit":false,"time":1,"i_lat":-6.193792},{"station_name":"Pondok Jati","time":2,"i_lat":-6.209188,"line":11,"is_transit":false,"distance":1829,"i_long":106.861737,"station_id":"POK","transit":false},{"station_name":"Jatinegara","transit":true,"is_transit":true,"distance":1236,"i_long":106.86807400000001,"station_id":"JNG","time":9,"i_lat":-6.215091,"line":1},{"line":1,"station_id":"KLD","station_name":"Klender","time":3,"distance":3395,"i_long":106.899548,"transit":false,"is_transit":false,"i_lat":-6.2135},{"time":2,"line":1,"distance":3100,"station_id":"BUA","station_name":"Buaran","i_lat":-6.215568,"transit":false,"i_long":106.922662,"is_transit":false},{"distance":1305,"station_id":"KLDB","line":1,"station_name":"Klenderbaru","is_transit":false,"transit":false,"i_long":106.939679,"time":1,"i_lat":-6.217455},{"station_id":"CUK","time":8,"i_long":106.951283,"station_name":"Cakung","i_lat":-6.219053,"line":1,"transit":false,"is_transit":false,"distance":1385},{"distance":3097,"line":1,"i_lat":-6.224515,"time":3,"i_long":106.977657,"station_id":"KRI","station_name":"Kranji","transit":false,"is_transit":false},{"is_transit":false,"i_lat":-6.236616,"station_id":"BKS","i_long":106.997013,"line":1,"time":4,"distance":2520,"transit":false,"station_name":"Bekasi"},{"station_name":"Bekasi Timur","distance":2368,"line":1,"station_id":"BKST","i_long":107.016735,"is_transit":false,"time":2,"i_lat":-6.248029,"transit":false}]]}