{"data":[[{"is_transit":false,"i_long":106.79867,"station_name":"Angke","time":0,"i_lat":-6.144674,"line":1,"station_id":"AK","transit":false,"distance":0},{"transit":false,"is_transit":false,"time":4,"line":1,"station_id":"DU","distance":1230,"station_name":"Duri","i_lat":-6.155215,"i_long":106.800832},{"i_long":106.811091,"station_name":"Tanah Abang","line":1,"distance":3632,"station_id":"THB","transit":false,"time":8,"is_transit":false,"i_lat":-6.185545},{"station_id":"KAT","i_lat":-6.20132,"is_transit":false,"station_name":"Karet","transit":false,"i_long":106.816351,"distance":2029,"line":1,"time":5},{"i_long":106.819881,"line":1,"distance":471,"time":1,"transit":false,"station_name":"Sudirman Baru","station_id":"SUDB","i_lat":-6.201433,"is_transit":false},{"distance":280,"i_lat":-6.202263,"transit":false,"line":1,"station_id":"SUD","i_long":106.822649,"is_transit":false,"station_name":"Sudirman","time":1},{"station_id":"MRI","distance":3186,"station_name":"Manggarai","i_lat":-6.209883,"transit":true,"i_long":106.84912,"time":4,"is_transit":true,"line":2},{"station_id":"TEB","station_name":"Tebet","i_long":106.857948,"is_transit":false,"distance":2610,"i_lat":-6.226659,"time":4,"transit":false,"line":2},{"is_transit":false,"station_id":"CW","transit":false,"station_name":"Cawang","i_lat":-6.242512,"i_long":106.856607,"distance":1230,"line":2,"time":2},{"station_name":"Duren Kalibata","time":3,"is_transit":false,"distance":1546,"station_id":"DRN","transit":false,"i_lat":-6.255332,"i_long":106.85449,"line":2},{"is_transit":false,"distance":824,"i_lat":-6.263214,"line":2,"time":2,"i_long":106.851577,"transit":false,"station_name":"Pasar Minggu Baru","station_id":"PSMB"},{"station_id":"PSM","station_name":"Pasar Minggu","i_lat":-6.2842400000000005,"line":2,"i_long":106.843999,"time":2,"transit":false,"distance":2380,"is_transit":false},{"station_id":"TNT","i_long":106.838896,"transit":false,"distance":2820,"i_lat":-6.3080680000000005,"is_transit":false,"time":4,"station_name":"Tanjung Barat","line":2},{"station_name":"Lenteng Agung","time":3,"i_lat":-6.330363,"station_id":"LNA","i_long":106.832616,"transit":false,"line":2,"distance":2671,"is_transit":false},{"distance":1029,"i_lat":-6.339291,"station_name":"Univ. Pancasila","time":2,"transit":false,"line":2,"station_id":"UP","i_long":106.834175,"is_transit":false},{"distance":2264,"i_lat":-6.360749,"time":3,"line":2,"i_long":106.831474,"station_id":"UI","is_transit":false,"station_name":"Univ. Indonesia","transit":false},{"transit":false,"i_lat":-6.369073,"station_id":"POC","time":2,"i_long":106.831114,"is_transit":false,"station_name":"Pondok Cina","line":2,"distance":1109},{"i_long":106.819451,"station_name":"Depokbaru","distance":2727,"line":2,"time":4,"is_transit":false,"transit":false,"station_id":"DPB","i_lat":-6.391065},{"i_lat":-6.405256,"station_id":"DP","transit":false,"line":2,"station_name":"Depok","distance":1584,"time":3,"is_transit":false,"i_long":106.816926},{"i_long":106.800298,"is_transit":false,"distance":5084,"station_name":"Citayam","i_lat":-6.448811,"transit":false,"station_id":"CTA","line":2,"time":6},{"transit":false,"distance":5197,"is_transit":false,"station_name":"Bojonggede","time":5,"line":2,"station_id":"BJD","i_lat":-6.493243,"i_long":106.792719}],[{"station_id":"AK","station_name":"Angke","line":1,"time":0,"is_transit":false,"i_lat":-6.144674,"i_long":106.79867,"distance":0,"transit":false},{"distance":4102,"i_lat":-6.132549,"time":9,"i_long":106.826365,"station_id":"KPB","station_name":"Kampung Bandan","line":4,"is_transit":true,"transit":true},{"distance":1364,"i_long":106.812439,"time":3,"transit":true,"station_name":"Jakarta Kota","i_lat":-6.137569,"is_transit":true,"line":2,"station_id":"JAKK"},{"is_transit":false,"distance":1264,"station_id":"JAY","station_name":"Jayakarta","time":4,"i_long":106.820901,"transit":false,"line":2,"i_lat":-6.141205},{"i_long":106.82482,"distance":1080,"station_id":"MGB","station_name":"Manggabesar","line":2,"time":2,"i_lat":-6.149769,"transit":false,"is_transit":false},{"is_transit":false,"time":2,"distance":906,"i_lat":-6.160725,"station_id":"SW","transit":false,"station_name":"Sawah Besar","i_long":106.827103,"line":2},{"time":2,"is_transit":false,"distance":1149,"station_name":"Juanda","line":2,"i_lat":-6.166716,"i_long":106.828284,"station_id":"JUA","transit":false},{"time":4,"i_long":106.832183,"transit":false,"station_id":"GDD","line":2,"is_transit":false,"i_lat":-6.186295,"distance":2015,"station_name":"Gondangdia"},{"station_id":"CKI","station_name":"Cikini","i_lat":-6.198556,"is_transit":false,"distance":1750,"time":3,"i_long":106.840169,"transit":false,"line":2},{"distance":1590,"is_transit":false,"station_id":"MRI","transit":false,"line":2,"i_long":106.84912,"time":4,"i_lat":-6.209883,"station_name":"Manggarai"},{"station_name":"Tebet","distance":2610,"time":4,"transit":false,"line":2,"i_long":106.857948,"is_transit":false,"station_id":"TEB","i_lat":-6.226659},{"station_id":"CW","i_long":106.856607,"i_lat":-6.242512,"station_name":"Cawang","line":2,"transit":false,"is_transit":false,"time":2,"distance":1230},{"transit":false,"station_id":"DRN","distance":1546,"line":2,"station_name":"Duren Kalibata","i_long":106.85449,"i_lat":-6.255332,"time":3,"is_transit":false},{"i_lat":-6.263214,"transit":false,"station_name":"Pasar Minggu Baru","time":2,"i_long":106.851577,"is_transit":false,"distance":824,"station_id":"PSMB","line":2},{"is_transit":false,"line":2,"i_lat":-6.2842400000000005,"time":2,"station_id":"PSM","transit":false,"i_long":106.843999,"distance":2380,"station_name":"Pasar Minggu"},{"transit":false,"station_id":"TNT","distance":2820,"i_long":106.838896,"line":2,"is_transit":false,"station_name":"Tanjung Barat","i_lat":-6.3080680000000005,"time":4},{"is_transit":false,"line":2,"time":3,"station_name":"Lenteng Agung","station_id":"LNA","distance":2671,"transit":false,"i_long":106.832616,"i_lat":-6.330363},{"station_id":"UP","distance":1029,"is_transit":false,"time":2,"transit":false,"i_long":106.834175,"line":2,"i_lat":-6.339291,"station_name":"Univ. Pancasila"},{"is_transit":false,"station_name":"Univ. Indonesia","time":3,"transit":false,"distance":2264,"i_lat":-6.360749,"station_id":"UI","line":2,"i_long":106.831474},{"line":2,"station_name":"Pondok Cina","station_id":"POC","time":2,"transit":false,"i_long":106.831114,"is_transit":false,"i_lat":-6.369073,"distance":1109},{"is_transit":false,"distance":2727,"line":2,"time":4,"i_lat":-6.391065,"station_id":"DPB","transit":false,"i_long":106.819451,"station_name":"Depokbaru"},{"transit":false,"station_name":"Depok","time":3,"i_lat":-6.405256,"distance":1584,"station_id":"DP","i_long":106.816926,"line":2,"is_transit":false},{"i_long":106.800298,"distance":5084,"station_name":"Citayam","is_transit":false,"transit":false,"i_lat":-6.448811,"line":2,"time":6,"station_id":"CTA"},{"is_transit":false,"time":5,"station_id":"BJD","transit":false,"i_lat":-6.493243,"i_long":106.792719,"distance":5197,"station_name":"Bojonggede","line":2}],[{"transit":false,"time":0,"i_long":106.79867,"i_lat":-6.144674,"distance":0,"station_id":"AK","line":1,"station_name":"Angke","is_transit":false},{"transit":true,"i_long":106.826365,"station_id":"KPB","station_name":"Kampung Bandan","is_transit":true,"distance":4102,"time":9,"i_lat":-6.132549,"line":4},{"station_id":"RJW","is_transit":false,"transit":false,"station_name":"Rajawali","time":3,"i_lat":-6.14505,"distance":1444,"line":11,"i_long":106.836569},{"station_name":"Kemayoran","distance":1901,"station_id":"KMO","is_transit":false,"line":11,"i_long":106.839204,"i_lat":-6.161728,"time":5,"transit":false},{"i_lat":-6.174784,"i_long":106.84368,"line":11,"is_transit":false,"station_id":"PSE","station_name":"Pasar Senen","distance":1436,"time":4,"transit":false},{"station_name":"Gang Sentiong","time":8,"station_id":"GST","distance":1567,"transit":false,"i_long":106.850107,"is_transit":false,"i_lat":-6.185975,"line":11},{"is_transit":false,"station_name":"Kramat","time":1,"transit":false,"line":11,"i_long":106.855437,"station_id":"KMT","i_lat":-6.193792,"distance":973},{"i_long":106.861737,"time":2,"line":11,"distance":1829,"station_name":"Pondok Jati","i_lat":-6.209188,"is_transit":false,"station_id":"POK","transit":false},{"station_id":"JNG","distance":1236,"transit":true,"i_lat":-6.215091,"line":1,"i_long":106.86807400000001,"time":9,"is_transit":true,"station_name":"Jatinegara"},{"i_lat":-6.212485,"is_transit":false,"line":1,"distance":1377,"i_long":106.858896,"station_id":"MTR","time":2,"station_name":"Matraman","transit":false},{"transit":true,"is_transit":true,"line":2,"station_name":"Manggarai","station_id":"MRI","i_long":106.84912,"i_lat":-6.209883,"time":2,"distance":1275},{"i_long":106.857948,"distance":2610,"station_name":"Tebet","i_lat":-6.226659,"line":2,"time":4,"station_id":"TEB","transit":false,"is_transit":false},{"station_id":"CW","is_transit":false,"line":2,"station_name":"Cawang","distance":1230,"i_long":106.856607,"transit":false,"time":2,"i_lat":-6.242512},{"transit":false,"i_long":106.85449,"line":2,"station_id":"DRN","distance":1546,"time":3,"is_transit":false,"station_name":"Duren Kalibata","i_lat":-6.255332},{"transit":false,"i_lat":-6.263214,"time":2,"station_id":"PSMB","station_name":"Pasar Minggu Baru","i_long":106.851577,"is_transit":false,"line":2,"distance":824},{"i_long":106.843999,"transit":false,"is_transit":false,"station_id":"PSM","time":2,"line":2,"i_lat":-6.2842400000000005,"distance":2380,"station_name":"Pasar Minggu"},{"station_id":"TNT","station_name":"Tanjung Barat","time":4,"distance":2820,"transit":false,"line":2,"i_long":106.838896,"is_transit":false,"i_lat":-6.3080680000000005},{"station_name":"Lenteng Agung","station_id":"LNA","distance":2671,"time":3,"i_long":106.832616,"line":2,"i_lat":-6.330363,"is_transit":false,"transit":false},{"station_id":"UP","i_lat":-6.339291,"line":2,"station_name":"Univ. Pancasila","time":2,"distance":1029,"is_transit":false,"transit":false,"i_long":106.834175},{"transit":false,"distance":2264,"station_id":"UI","is_transit":false,"time":3,"i_lat":-6.360749,"i_long":106.831474,"station_name":"Univ. Indonesia","line":2},{"line":2,"i_lat":-6.369073,"time":2,"is_transit":false,"distance":1109,"station_id":"POC","transit":false,"i_long":106.831114,"station_name":"Pondok Cina"},{"time":4,"is_transit":false,"station_id":"DPB","i_long":106.819451,"station_name":"Depokbaru","distance":2727,"transit":false,"i_lat":-6.391065,"line":2},{"station_id":"DP","is_transit":false,"station_name":"Depok","distance":1584,"time":3,"transit":false,"i_lat":-6.405256,"i_long":106.816926,"line":2},{"station_id":"CTA","station_name":"Citayam","time":6,"is_transit":false,"transit":false,"i_long":106.800298,"line":2,"i_lat":-6.448811,"distance":5084},{"i_long":106.792719,"time":5,"transit":false,"station_name":"Bojonggede","distance":5197,"is_transit":false,"station_id":"BJD","i_lat":-6.493243,"line":2}]]}