{"data":[[{"i_long":106.79867,"line":0,"is_transit":false,"transit":false,"distance":0,"station_name":"Angke","time":0,"station_id":"AK","i_lat":-6.144674},{"line":0,"time":9,"is_transit":true,"i_lat":-6.132549,"station_id":"KPB","transit":true,"station_name":"Kampung Bandan","distance":4102,"i_long":106.826365},{"transit":false,"station_id":"RJW","time":3,"is_transit":false,"i_long":106.836569,"distance":1444,"i_lat":-6.14505,"station_name":"Rajawali","line":11},{"i_lat":-6.161728,"is_transit":false,"i_long":106.839204,"transit":false,"station_id":"KMO","line":11,"time":5,"station_name":"Kemayoran","distance":1901},{"i_lat":-6.174784,"time":4,"transit":false,"distance":1436,"i_long":106.84368,"station_name":"Pasar Senen","line":11,"station_id":"PSE","is_transit":false},{"i_long":106.850107,"time":8,"distance":1567,"is_transit":false,"i_lat":-6.185975,"line":11,"station_id":"GST","transit":false,"station_name":"Gang Sentiong"},{"i_long":106.855437,"distance":973,"i_lat":-6.193792,"transit":false,"is_transit":false,"station_name":"Kramat","line":11,"time":1,"station_id":"KMT"},{"distance":1829,"time":2,"station_id":"POK","i_long":106.861737,"i_lat":-6.209188,"is_transit":false,"line":11,"transit":false,"station_name":"Pondok Jati"},{"i_lat":-6.215091,"i_long":106.86807400000001,"time":9,"transit":true,"line":0,"distance":1236,"is_transit":true,"station_name":"Jatinegara","station_id":"JNG"},{"station_id":"KLD","i_long":106.899548,"is_transit":false,"time":3,"station_name":"Klender","line":1,"transit":false,"i_lat":-6.2135,"distance":3395},{"station_name":"Buaran","station_id":"BUA","i_lat":-6.215568,"is_transit":false,"transit":false,"distance":3100,"line":0,"time":2,"i_long":106.922662}],[{"line":0,"is_transit":false,"i_lat":-6.144674,"transit":false,"station_id":"AK","time":0,"distance":0,"station_name":"Angke","i_long":106.79867},{"transit":true,"distance":1230,"is_transit":true,"station_name":"Duri","i_lat":-6.155215,"i_long":106.800832,"line":1,"time":4,"station_id":"DU"},{"station_name":"Tanah Abang","station_id":"THB","i_long":106.811091,"distance":3632,"time":8,"i_lat":-6.185545,"transit":false,"is_transit":true,"line":1},{"station_id":"KAT","station_name":"Karet","distance":2029,"time":5,"is_transit":false,"i_long":106.816351,"line":1,"i_lat":-6.20132,"transit":false},{"line":1,"station_name":"Sudirman Baru","i_lat":-6.201433,"transit":false,"time":1,"station_id":"SUDB","distance":471,"is_transit":false,"i_long":106.819881},{"station_name":"Sudirman","distance":280,"time":1,"transit":false,"station_id":"SUD","is_transit":false,"i_lat":-6.202263,"i_long":106.822649,"line":1},{"time":4,"station_id":"MRI","is_transit":true,"line":0,"transit":false,"distance":3186,"i_long":106.84912,"station_name":"Manggarai","i_lat":-6.209883},{"distance":1275,"time":2,"station_name":"Matraman","transit":false,"station_id":"MTR","is_transit":false,"i_lat":-6.212485,"i_long":106.858896,"line":1},{"i_lat":-6.215091,"line":0,"is_transit":true,"station_id":"JNG","station_name":"Jatinegara","transit":false,"time":8,"i_long":106.86807400000001,"distance":1377},{"is_transit":false,"transit":false,"i_lat":-6.2135,"station_name":"Klender","time":3,"i_long":106.899548,"line":1,"station_id":"KLD","distance":3395},{"station_id":"BUA","time":2,"transit":false,"distance":3100,"i_lat":-6.215568,"i_long":106.922662,"line":0,"is_transit":false,"station_name":"Buaran"}],[{"is_transit":false,"i_lat":-6.144674,"distance":0,"station_name":"Angke","line":0,"transit":false,"station_id":"AK","i_long":106.79867,"time":0},{"station_id":"KPB","i_long":106.826365,"line":0,"is_transit":true,"time":9,"station_name":"Kampung Bandan","transit":false,"distance":4102,"i_lat":-6.132549},{"time":3,"station_name":"Jakarta Kota","line":0,"is_transit":true,"distance":1364,"station_id":"JAKK","i_long":106.812439,"i_lat":-6.137569,"transit":true},{"transit":false,"time":4,"i_lat":-6.141205,"is_transit":false,"distance":1264,"station_name":"Jayakarta","i_long":106.820901,"station_id":"JAY","line":7},{"transit":false,"is_transit":false,"station_name":"Manggabesar","i_lat":-6.149769,"time":2,"i_long":106.82482,"station_id":"MGB","distance":1080,"line":2},{"station_name":"Sawah Besar","station_id":"SW","time":2,"i_long":106.827103,"line":2,"is_transit":false,"distance":906,"i_lat":-6.160725,"transit":false},{"is_transit":false,"transit":false,"i_long":106.828284,"station_name":"Juanda","line":2,"i_lat":-6.166716,"time":2,"station_id":"JUA","distance":1149},{"station_id":"GDD","line":2,"i_lat":-6.186295,"i_long":106.832183,"station_name":"Gondangdia","distance":2015,"transit":false,"time":4,"is_transit":false},{"i_lat":-6.198556,"line":0,"distance":1750,"station_id":"CKI","is_transit":false,"station_name":"Cikini","time":3,"transit":false,"i_long":106.840169},{"line":0,"is_transit":true,"time":4,"distance":1590,"station_name":"Manggarai","i_lat":-6.209883,"station_id":"MRI","transit":true,"i_long":106.84912},{"i_long":106.858896,"line":1,"station_id":"MTR","transit":false,"time":2,"distance":1275,"is_transit":false,"station_name":"Matraman","i_lat":-6.212485},{"time":8,"is_transit":true,"station_name":"Jatinegara","distance":1377,"i_lat":-6.215091,"station_id":"JNG","transit":false,"i_long":106.86807400000001,"line":0},{"time":3,"distance":3395,"station_name":"Klender","line":1,"i_lat":-6.2135,"i_long":106.899548,"transit":false,"is_transit":false,"station_id":"KLD"},{"station_id":"BUA","transit":false,"time":2,"i_lat":-6.215568,"distance":3100,"i_long":106.922662,"line":0,"is_transit":false,"station_name":"Buaran"}],[{"line":0,"transit":false,"is_transit":false,"distance":0,"station_name":"Angke","time":0,"station_id":"AK","i_lat":-6.144674,"i_long":106.79867},{"is_transit":true,"distance":1230,"time":4,"station_id":"DU","i_long":106.800832,"i_lat":-6.155215,"transit":true,"station_name":"Duri","line":1},{"i_lat":-6.185545,"station_name":"Tanah Abang","is_transit":true,"i_long":106.811091,"station_id":"THB","time":8,"distance":3632,"line":1,"transit":false},{"station_name":"Karet","time":5,"transit":false,"is_transit":false,"distance":2029,"i_lat":-6.20132,"station_id":"KAT","i_long":106.816351,"line":1},{"station_id":"SUDB","station_name":"Sudirman Baru","i_lat":-6.201433,"i_long":106.819881,"distance":471,"time":1,"transit":false,"is_transit":false,"line":1},{"station_name":"Sudirman","is_transit":false,"transit":false,"time":1,"i_lat":-6.202263,"i_long":106.822649,"line":1,"distance":280,"station_id":"SUD"},{"is_transit":true,"transit":true,"i_long":106.84912,"line":0,"i_lat":-6.209883,"distance":3186,"station_id":"MRI","time":4,"station_name":"Manggarai"},{"station_name":"Cikini","is_transit":false,"i_long":106.840169,"transit":false,"time":4,"station_id":"CKI","i_lat":-6.198556,"distance":1590,"line":0},{"line":2,"is_transit":false,"distance":1750,"time":3,"transit":false,"i_lat":-6.186295,"i_long":106.832183,"station_id":"GDD","station_name":"Gondangdia"},{"distance":2015,"line":2,"transit":false,"time":4,"station_name":"Juanda","i_lat":-6.166716,"station_id":"JUA","is_transit":false,"i_long":106.828284},{"i_long":106.827103,"station_id":"SW","is_transit":false,"line":2,"distance":1149,"transit":false,"i_lat":-6.160725,"time":2,"station_name":"Sawah Besar"},{"station_id":"MGB","distance":906,"transit":false,"i_lat":-6.149769,"i_long":106.82482,"station_name":"Manggabesar","is_transit":false,"line":2,"time":2},{"distance":1080,"station_name":"Jayakarta","time":2,"i_lat":-6.141205,"transit":false,"line":7,"is_transit":false,"i_long":106.820901,"station_id":"JAY"},{"i_lat":-6.137569,"i_long":106.812439,"time":4,"line":0,"station_name":"Jakarta Kota","station_id":"JAKK","is_transit":true,"distance":1264,"transit":true},{"time":3,"is_transit":true,"station_name":"Kampung Bandan","distance":1364,"i_lat":-6.132549,"transit":true,"i_long":106.826365,"line":0,"station_id":"KPB"},{"station_id":"RJW","is_transit":false,"time":3,"distance":1444,"transit":false,"i_lat":-6.14505,"line":11,"station_name":"Rajawali","i_long":106.836569},{"time":5,"is_transit":false,"distance":1901,"station_name":"Kemayoran","station_id":"KMO","transit":false,"i_lat":-6.161728,"line":11,"i_long":106.839204},{"transit":false,"line":11,"i_lat":-6.174784,"distance":1436,"station_name":"Pasar Senen","is_transit":false,"time":4,"i_long":106.84368,"station_id":"PSE"},{"transit":false,"time":8,"i_long":106.850107,"station_id":"GST","i_lat":-6.185975,"is_transit":false,"station_name":"Gang Sentiong","distance":1567,"line":11},{"i_lat":-6.193792,"station_name":"Kramat","is_transit":false,"time":1,"distance":973,"transit":false,"station_id":"KMT","i_long":106.855437,"line":11},{"i_lat":-6.209188,"i_long":106.861737,"is_transit":false,"time":2,"transit":false,"line":11,"station_id":"POK","station_name":"Pondok Jati","distance":1829},{"i_long":106.86807400000001,"station_name":"Jatinegara","time":9,"transit":true,"distance":1236,"is_transit":true,"i_lat":-6.215091,"station_id":"JNG","line":0},{"transit":false,"station_id":"KLD","is_transit":false,"time":3,"i_long":106.899548,"station_name":"Klender","line":1,"distance":3395,"i_lat":-6.2135},{"station_id":"BUA","i_lat":-6.215568,"transit":false,"i_long":106.922662,"line":0,"distance":3100,"station_name":"Buaran","time":2,"is_transit":false}]]}