{"data":[[{"station_id":"AK","time":0,"station_name":"Angke","i_lat":-6.144674,"distance":0,"is_transit":false,"line":1,"i_long":106.79867,"transit":false},{"transit":true,"line":4,"station_name":"Kampung Bandan","i_lat":-6.132549,"time":9,"i_long":106.826365,"station_id":"KPB","distance":4102,"is_transit":true},{"i_long":106.836569,"station_id":"RJW","line":11,"time":3,"i_lat":-6.14505,"station_name":"Rajawali","is_transit":false,"transit":false,"distance":1444},{"i_long":106.839204,"transit":false,"is_transit":false,"distance":1901,"line":11,"i_lat":-6.161728,"time":5,"station_name":"Kemayoran","station_id":"KMO"},{"transit":false,"time":4,"station_name":"Pasar Senen","i_long":106.84368,"i_lat":-6.174784,"station_id":"PSE","distance":1436,"is_transit":false,"line":11},{"station_name":"Gang Sentiong","station_id":"GST","time":8,"is_transit":false,"transit":false,"i_lat":-6.185975,"line":11,"i_long":106.850107,"distance":1567},{"i_long":106.855437,"station_name":"Kramat","station_id":"KMT","distance":973,"transit":false,"is_transit":false,"time":1,"i_lat":-6.193792,"line":11},{"distance":1829,"station_name":"Pondok Jati","line":11,"station_id":"POK","i_lat":-6.209188,"is_transit":false,"time":2,"transit":false,"i_long":106.861737},{"time":9,"i_lat":-6.215091,"distance":1236,"i_long":106.86807400000001,"station_id":"JNG","is_transit":true,"station_name":"Jatinegara","transit":true,"line":1},{"is_transit":false,"distance":3395,"transit":false,"station_name":"Klender","line":1,"station_id":"KLD","time":3,"i_lat":-6.2135,"i_long":106.899548},{"i_lat":-6.215568,"is_transit":false,"distance":3100,"transit":false,"i_long":106.922662,"station_id":"BUA","time":2,"station_name":"Buaran","line":1}],[{"i_lat":-6.144674,"distance":0,"i_long":106.79867,"transit":false,"time":0,"station_name":"Angke","station_id":"AK","line":1,"is_transit":false},{"station_id":"DU","line":1,"transit":false,"distance":1230,"station_name":"Duri","time":4,"is_transit":false,"i_long":106.800832,"i_lat":-6.155215},{"is_transit":false,"distance":3632,"station_name":"Tanah Abang","line":1,"i_lat":-6.185545,"transit":false,"station_id":"THB","time":8,"i_long":106.811091},{"transit":false,"station_id":"KAT","time":5,"distance":2029,"station_name":"Karet","i_lat":-6.20132,"is_transit":false,"i_long":106.816351,"line":1},{"distance":471,"i_long":106.819881,"time":1,"station_name":"Sudirman Baru","is_transit":false,"transit":false,"i_lat":-6.201433,"line":1,"station_id":"SUDB"},{"line":1,"i_lat":-6.202263,"time":1,"distance":280,"station_name":"Sudirman","i_long":106.822649,"station_id":"SUD","is_transit":false,"transit":false},{"i_long":106.84912,"station_id":"MRI","station_name":"Manggarai","line":2,"distance":3186,"time":4,"is_transit":false,"transit":false,"i_lat":-6.209883},{"time":2,"is_transit":false,"transit":false,"station_id":"MTR","station_name":"Matraman","i_lat":-6.212485,"line":1,"distance":1275,"i_long":106.858896},{"is_transit":false,"i_lat":-6.215091,"distance":1377,"station_id":"JNG","transit":false,"i_long":106.86807400000001,"line":1,"time":8,"station_name":"Jatinegara"},{"station_name":"Klender","i_long":106.899548,"time":3,"line":1,"transit":false,"station_id":"KLD","distance":3395,"is_transit":false,"i_lat":-6.2135},{"time":2,"transit":false,"station_name":"Buaran","distance":3100,"i_long":106.922662,"station_id":"BUA","line":1,"is_transit":false,"i_lat":-6.215568}],[{"i_lat":-6.144674,"is_transit":false,"station_name":"Angke","time":0,"distance":0,"transit":false,"line":1,"i_long":106.79867,"station_id":"AK"},{"i_lat":-6.132549,"time":9,"i_long":106.826365,"station_name":"Kampung Bandan","station_id":"KPB","distance":4102,"is_transit":true,"transit":true,"line":4},{"station_name":"Jakarta Kota","station_id":"JAKK","time":3,"i_long":106.812439,"distance":1364,"line":2,"transit":true,"is_transit":true,"i_lat":-6.137569},{"station_name":"Jayakarta","transit":false,"i_long":106.820901,"time":4,"station_id":"JAY","i_lat":-6.141205,"is_transit":false,"line":2,"distance":1264},{"is_transit":false,"transit":false,"station_name":"Manggabesar","time":2,"station_id":"MGB","distance":1080,"line":2,"i_lat":-6.149769,"i_long":106.82482},{"transit":false,"station_name":"Sawah Besar","is_transit":false,"i_lat":-6.160725,"distance":906,"line":2,"time":2,"i_long":106.827103,"station_id":"SW"},{"station_id":"JUA","i_lat":-6.166716,"station_name":"Juanda","transit":false,"distance":1149,"is_transit":false,"i_long":106.828284,"time":2,"line":2},{"station_name":"Gondangdia","distance":2015,"station_id":"GDD","i_long":106.832183,"transit":false,"i_lat":-6.186295,"is_transit":false,"line":2,"time":4},{"station_name":"Cikini","distance":1750,"i_lat":-6.198556,"time":3,"transit":false,"i_long":106.840169,"line":2,"is_transit":false,"station_id":"CKI"},{"time":4,"transit":true,"is_transit":true,"station_id":"MRI","i_long":106.84912,"line":2,"distance":1590,"i_lat":-6.209883,"station_name":"Manggarai"},{"line":1,"station_id":"MTR","is_transit":false,"distance":1275,"transit":false,"station_name":"Matraman","i_lat":-6.212485,"time":2,"i_long":106.858896},{"is_transit":false,"transit":false,"distance":1377,"station_name":"Jatinegara","i_lat":-6.215091,"line":1,"i_long":106.86807400000001,"station_id":"JNG","time":8},{"i_long":106.899548,"is_transit":false,"distance":3395,"station_id":"KLD","station_name":"Klender","i_lat":-6.2135,"line":1,"transit":false,"time":3},{"distance":3100,"transit":false,"station_name":"Buaran","i_lat":-6.215568,"station_id":"BUA","is_transit":false,"time":2,"line":1,"i_long":106.922662}],[{"station_id":"AK","distance":0,"i_lat":-6.144674,"i_long":106.79867,"station_name":"Angke","is_transit":false,"transit":false,"line":1,"time":0},{"is_transit":false,"station_id":"DU","i_long":106.800832,"station_name":"Duri","transit":false,"i_lat":-6.155215,"line":1,"time":4,"distance":1230},{"i_lat":-6.185545,"time":8,"station_id":"THB","distance":3632,"is_transit":false,"transit":false,"station_name":"Tanah Abang","line":1,"i_long":106.811091},{"transit":false,"distance":2029,"station_id":"KAT","is_transit":false,"time":5,"station_name":"Karet","i_long":106.816351,"i_lat":-6.20132,"line":1},{"distance":471,"station_id":"SUDB","is_transit":false,"line":1,"i_long":106.819881,"time":1,"transit":false,"station_name":"Sudirman Baru","i_lat":-6.201433},{"time":1,"station_name":"Sudirman","transit":false,"i_lat":-6.202263,"line":1,"is_transit":false,"i_long":106.822649,"station_id":"SUD","distance":280},{"line":2,"is_transit":true,"i_long":106.84912,"station_name":"Manggarai","time":4,"transit":true,"station_id":"MRI","distance":3186,"i_lat":-6.209883},{"is_transit":false,"distance":1590,"station_name":"Cikini","time":4,"transit":false,"i_lat":-6.198556,"station_id":"CKI","i_long":106.840169,"line":2},{"transit":false,"is_transit":false,"i_lat":-6.186295,"distance":1750,"station_id":"GDD","i_long":106.832183,"station_name":"Gondangdia","time":3,"line":2},{"is_transit":false,"station_id":"JUA","i_lat":-6.166716,"i_long":106.828284,"line":2,"distance":2015,"transit":false,"station_name":"Juanda","time":4},{"i_lat":-6.160725,"distance":1149,"station_name":"Sawah Besar","i_long":106.827103,"transit":false,"is_transit":false,"time":2,"line":2,"station_id":"SW"},{"line":2,"transit":false,"distance":906,"i_lat":-6.149769,"station_id":"MGB","is_transit":false,"i_long":106.82482,"time":2,"station_name":"Manggabesar"},{"i_long":106.820901,"line":2,"station_name":"Jayakarta","station_id":"JAY","transit":false,"distance":1080,"time":2,"is_transit":false,"i_lat":-6.141205},{"i_lat":-6.137569,"time":4,"line":2,"station_id":"JAKK","distance":1264,"transit":true,"station_name":"Jakarta Kota","i_long":106.812439,"is_transit":true},{"line":4,"i_lat":-6.132549,"station_id":"KPB","i_long":106.826365,"distance":1364,"time":3,"is_transit":true,"transit":true,"station_name":"Kampung Bandan"},{"distance":1444,"transit":false,"time":3,"is_transit":false,"station_id":"RJW","i_long":106.836569,"i_lat":-6.14505,"station_name":"Rajawali","line":11},{"i_lat":-6.161728,"time":5,"distance":1901,"station_name":"Kemayoran","station_id":"KMO","i_long":106.839204,"line":11,"is_transit":false,"transit":false},{"station_id":"PSE","station_name":"Pasar Senen","transit":false,"i_lat":-6.174784,"line":11,"time":4,"distance":1436,"is_transit":false,"i_long":106.84368},{"station_name":"Gang Sentiong","i_lat":-6.185975,"distance":1567,"line":11,"time":8,"station_id":"GST","i_long":106.850107,"transit":false,"is_transit":false},{"transit":false,"i_lat":-6.193792,"is_transit":false,"station_name":"Kramat","time":1,"i_long":106.855437,"station_id":"KMT","line":11,"distance":973},{"station_name":"Pondok Jati","station_id":"POK","time":2,"is_transit":false,"i_lat":-6.209188,"i_long":106.861737,"distance":1829,"transit":false,"line":11},{"station_name":"Jatinegara","i_long":106.86807400000001,"line":1,"time":9,"station_id":"JNG","transit":true,"distance":1236,"i_lat":-6.215091,"is_transit":true},{"i_lat":-6.2135,"line":1,"distance":3395,"transit":false,"is_transit":false,"station_id":"KLD","station_name":"Klender","i_long":106.899548,"time":3},{"i_lat":-6.215568,"distance":3100,"station_name":"Buaran","line":1,"i_long":106.922662,"transit":false,"is_transit":false,"station_id":"BUA","time":2}]]}