{"data":[[{"distance":0,"station_id":"AK","i_lat":-6.144674,"is_transit":false,"line":1,"transit":false,"time":0,"station_name":"Angke","i_long":106.79867},{"station_name":"Duri","transit":true,"station_id":"DU","line":1,"i_lat":-6.155215,"i_long":106.800832,"distance":1230,"is_transit":true,"time":4},{"i_long":106.788277,"i_lat":-6.162021,"is_transit":false,"station_name":"Grogol","line":5,"station_id":"GGL","time":3,"distance":1700,"transit":false},{"distance":2036,"line":5,"station_id":"PSG","station_name":"Pesing","is_transit":false,"time":2,"transit":false,"i_lat":-6.161433,"i_long":106.771379},{"i_long":106.756522,"distance":1614,"i_lat":-6.1587309999999995,"line":5,"station_name":"Taman Kota","is_transit":false,"station_id":"TKO","transit":false,"time":2},{"station_id":"BOI","is_transit":false,"distance":2334,"time":2,"i_lat":-6.159876,"i_long":106.737035,"station_name":"Bojongindah","line":5,"transit":false},{"i_lat":-6.162758,"station_name":"Rawa Buaya","distance":1152,"time":4,"is_transit":false,"i_long":106.723064,"transit":false,"line":5,"station_id":"RW"},{"line":5,"time":3,"transit":false,"i_long":106.701612,"i_lat":-6.166068,"is_transit":false,"distance":2504,"station_name":"Kalideres","station_id":"KDS"},{"time":3,"distance":2548,"is_transit":false,"i_lat":-6.169933,"station_name":"Poris","line":5,"transit":false,"i_long":106.679458,"station_id":"PI"},{"distance":1834,"i_long":106.665036,"i_lat":-6.171811,"station_id":"BPR","is_transit":false,"time":3,"line":5,"station_name":"Batuceper","transit":false}],[{"station_id":"AK","station_name":"Angke","line":1,"distance":0,"is_transit":false,"time":0,"transit":false,"i_lat":-6.144674,"i_long":106.79867},{"i_long":106.826365,"i_lat":-6.132549,"time":9,"distance":4102,"transit":true,"line":4,"station_name":"Kampung Bandan","is_transit":true,"station_id":"KPB"},{"distance":1364,"i_long":106.812439,"station_id":"JAKK","line":2,"station_name":"Jakarta Kota","transit":true,"i_lat":-6.137569,"is_transit":true,"time":3},{"line":2,"station_name":"Jayakarta","i_lat":-6.141205,"i_long":106.820901,"distance":1264,"is_transit":false,"time":4,"station_id":"JAY","transit":false},{"i_lat":-6.149769,"transit":false,"line":2,"station_name":"Manggabesar","is_transit":false,"i_long":106.82482,"distance":1080,"time":2,"station_id":"MGB"},{"station_name":"Sawah Besar","is_transit":false,"station_id":"SW","i_lat":-6.160725,"transit":false,"distance":906,"i_long":106.827103,"line":2,"time":2},{"station_name":"Juanda","distance":1149,"station_id":"JUA","is_transit":false,"i_long":106.828284,"line":2,"i_lat":-6.166716,"time":2,"transit":false},{"time":4,"transit":false,"station_id":"GDD","is_transit":false,"i_lat":-6.186295,"station_name":"Gondangdia","distance":2015,"i_long":106.832183,"line":2},{"distance":1750,"transit":false,"line":2,"is_transit":false,"station_name":"Cikini","time":3,"i_long":106.840169,"i_lat":-6.198556,"station_id":"CKI"},{"station_id":"MRI","is_transit":true,"i_lat":-6.209883,"distance":1590,"transit":true,"station_name":"Manggarai","line":2,"time":4,"i_long":106.84912},{"line":1,"station_name":"Sudirman","transit":false,"i_long":106.822649,"is_transit":false,"time":4,"station_id":"SUD","distance":3186,"i_lat":-6.202263},{"i_lat":-6.201433,"transit":false,"i_long":106.819881,"line":1,"station_name":"Sudirman Baru","time":1,"station_id":"SUDB","is_transit":false,"distance":280},{"time":1,"line":1,"station_name":"Karet","is_transit":false,"station_id":"KAT","i_long":106.816351,"distance":471,"transit":false,"i_lat":-6.20132},{"station_id":"THB","i_lat":-6.185545,"i_long":106.811091,"distance":2029,"line":1,"station_name":"Tanah Abang","is_transit":false,"transit":false,"time":5},{"transit":true,"distance":3632,"line":1,"is_transit":true,"i_long":106.800832,"station_name":"Duri","station_id":"DU","time":8,"i_lat":-6.155215},{"station_id":"GGL","transit":false,"distance":1700,"is_transit":false,"station_name":"Grogol","i_long":106.788277,"line":5,"time":3,"i_lat":-6.162021},{"distance":2036,"is_transit":false,"i_lat":-6.161433,"station_id":"PSG","line":5,"time":2,"i_long":106.771379,"transit":false,"station_name":"Pesing"},{"is_transit":false,"time":2,"station_id":"TKO","line":5,"transit":false,"station_name":"Taman Kota","i_lat":-6.1587309999999995,"distance":1614,"i_long":106.756522},{"station_name":"Bojongindah","distance":2334,"time":2,"station_id":"BOI","i_long":106.737035,"is_transit":false,"i_lat":-6.159876,"line":5,"transit":false},{"i_long":106.723064,"line":5,"station_id":"RW","transit":false,"is_transit":false,"time":4,"station_name":"Rawa Buaya","i_lat":-6.162758,"distance":1152},{"station_id":"KDS","time":3,"i_long":106.701612,"distance":2504,"station_name":"Kalideres","line":5,"is_transit":false,"transit":false,"i_lat":-6.166068},{"station_id":"PI","i_lat":-6.169933,"is_transit":false,"distance":2548,"time":3,"line":5,"i_long":106.679458,"station_name":"Poris","transit":false},{"time":3,"is_transit":false,"station_id":"BPR","i_long":106.665036,"i_lat":-6.171811,"line":5,"station_name":"Batuceper","transit":false,"distance":1834}],[{"station_name":"Angke","i_long":106.79867,"time":0,"distance":0,"station_id":"AK","transit":false,"is_transit":false,"line":1,"i_lat":-6.144674},{"i_long":106.826365,"line":4,"is_transit":true,"time":9,"distance":4102,"station_id":"KPB","transit":true,"station_name":"Kampung Bandan","i_lat":-6.132549},{"transit":false,"distance":1444,"is_transit":false,"line":11,"station_id":"RJW","station_name":"Rajawali","i_long":106.836569,"time":3,"i_lat":-6.14505},{"station_name":"Kemayoran","i_lat":-6.161728,"station_id":"KMO","time":5,"i_long":106.839204,"line":11,"is_transit":false,"transit":false,"distance":1901},{"station_id":"PSE","transit":false,"line":11,"i_lat":-6.174784,"is_transit":false,"station_name":"Pasar Senen","time":4,"distance":1436,"i_long":106.84368},{"i_long":106.850107,"is_transit":false,"station_name":"Gang Sentiong","distance":1567,"station_id":"GST","i_lat":-6.185975,"transit":false,"time":8,"line":11},{"is_transit":false,"distance":973,"i_lat":-6.193792,"i_long":106.855437,"station_name":"Kramat","station_id":"KMT","time":1,"line":11,"transit":false},{"time":2,"i_lat":-6.209188,"station_id":"POK","i_long":106.861737,"transit":false,"distance":1829,"line":11,"station_name":"Pondok Jati","is_transit":false},{"distance":1236,"is_transit":true,"i_lat":-6.215091,"time":9,"transit":true,"station_id":"JNG","i_long":106.86807400000001,"station_name":"Jatinegara","line":1},{"is_transit":false,"station_id":"MTR","line":1,"transit":false,"time":2,"station_name":"Matraman","i_lat":-6.212485,"i_long":106.858896,"distance":1377},{"transit":false,"line":2,"i_lat":-6.209883,"i_long":106.84912,"time":2,"station_id":"MRI","station_name":"Manggarai","is_transit":false,"distance":1275},{"transit":false,"station_id":"SUD","i_lat":-6.202263,"i_long":106.822649,"is_transit":false,"line":1,"time":4,"station_name":"Sudirman","distance":3186},{"station_id":"SUDB","transit":false,"is_transit":false,"i_lat":-6.201433,"line":1,"distance":280,"time":1,"station_name":"Sudirman Baru","i_long":106.819881},{"i_long":106.816351,"transit":false,"distance":471,"is_transit":false,"line":1,"time":1,"station_name":"Karet","i_lat":-6.20132,"station_id":"KAT"},{"is_transit":false,"station_name":"Tanah Abang","i_lat":-6.185545,"station_id":"THB","distance":2029,"transit":false,"i_long":106.811091,"time":5,"line":1},{"station_id":"DU","station_name":"Duri","i_lat":-6.155215,"distance":3632,"time":8,"is_transit":true,"transit":true,"i_long":106.800832,"line":1},{"station_id":"GGL","i_lat":-6.162021,"i_long":106.788277,"line":5,"station_name":"Grogol","time":3,"transit":false,"is_transit":false,"distance":1700},{"station_name":"Pesing","i_lat":-6.161433,"time":2,"line":5,"i_long":106.771379,"station_id":"PSG","is_transit":false,"distance":2036,"transit":false},{"i_lat":-6.1587309999999995,"distance":1614,"transit":false,"i_long":106.756522,"station_name":"Taman Kota","time":2,"station_id":"TKO","line":5,"is_transit":false},{"station_name":"Bojongindah","i_lat":-6.159876,"i_long":106.737035,"is_transit":false,"station_id":"BOI","transit":false,"distance":2334,"line":5,"time":2},{"station_name":"Rawa Buaya","station_id":"RW","i_long":106.723064,"line":5,"transit":false,"i_lat":-6.162758,"time":4,"distance":1152,"is_transit":false},{"is_transit":false,"station_name":"Kalideres","distance":2504,"line":5,"i_lat":-6.166068,"time":3,"station_id":"KDS","transit":false,"i_long":106.701612},{"station_name":"Poris","line":5,"station_id":"PI","transit":false,"time":3,"distance":2548,"i_lat":-6.169933,"is_transit":false,"i_long":106.679458},{"i_lat":-6.171811,"i_long":106.665036,"line":5,"transit":false,"is_transit":false,"station_id":"BPR","time":3,"distance":1834,"station_name":"Batuceper"}]]}