{"data":[[{"is_transit":false,"station_id":"AK","station_name":"Angke","i_lat":-6.144674,"i_long":106.79867,"distance":0,"transit":false,"line":1,"time":0},{"line":4,"station_name":"Kampung Bandan","i_lat":-6.132549,"i_long":106.826365,"distance":4102,"is_transit":true,"transit":true,"time":9,"station_id":"KPB"},{"transit":false,"line":11,"station_name":"Rajawali","i_long":106.836569,"i_lat":-6.14505,"time":3,"distance":1444,"is_transit":false,"station_id":"RJW"},{"station_id":"KMO","station_name":"Kemayoran","distance":1901,"i_lat":-6.161728,"is_transit":false,"time":5,"i_long":106.839204,"line":11,"transit":false},{"station_id":"PSE","i_long":106.84368,"is_transit":false,"distance":1436,"line":11,"i_lat":-6.174784,"transit":false,"station_name":"Pasar Senen","time":4},{"station_id":"GST","station_name":"Gang Sentiong","line":11,"is_transit":false,"i_lat":-6.185975,"distance":1567,"time":8,"transit":false,"i_long":106.850107},{"i_long":106.855437,"time":1,"station_name":"Kramat","line":11,"i_lat":-6.193792,"is_transit":false,"transit":false,"distance":973,"station_id":"KMT"},{"station_name":"Pondok Jati","line":11,"distance":1829,"transit":false,"time":2,"i_lat":-6.209188,"station_id":"POK","i_long":106.861737,"is_transit":false},{"station_name":"Jatinegara","time":9,"transit":true,"distance":1236,"i_long":106.86807400000001,"station_id":"JNG","i_lat":-6.215091,"is_transit":true,"line":1},{"time":3,"is_transit":false,"i_lat":-6.2135,"station_id":"KLD","line":1,"transit":false,"distance":3395,"i_long":106.899548,"station_name":"Klender"},{"is_transit":false,"time":2,"station_name":"Buaran","line":1,"i_lat":-6.215568,"i_long":106.922662,"distance":3100,"station_id":"BUA","transit":false}],[{"station_id":"AK","time":0,"is_transit":false,"distance":0,"i_long":106.79867,"i_lat":-6.144674,"transit":false,"station_name":"Angke","line":1},{"i_long":106.800832,"distance":1230,"station_id":"DU","transit":false,"i_lat":-6.155215,"line":1,"time":4,"station_name":"Duri","is_transit":false},{"i_long":106.811091,"is_transit":false,"station_id":"THB","distance":3632,"line":1,"i_lat":-6.185545,"station_name":"Tanah Abang","transit":false,"time":8},{"time":5,"i_long":106.816351,"station_id":"KAT","transit":false,"line":1,"station_name":"Karet","distance":2029,"is_transit":false,"i_lat":-6.20132},{"is_transit":false,"distance":471,"i_long":106.819881,"transit":false,"i_lat":-6.201433,"line":1,"station_id":"SUDB","station_name":"Sudirman Baru","time":1},{"time":1,"distance":280,"station_name":"Sudirman","station_id":"SUD","i_lat":-6.202263,"i_long":106.822649,"transit":false,"line":1,"is_transit":false},{"i_long":106.84912,"time":4,"distance":3186,"line":2,"is_transit":false,"i_lat":-6.209883,"station_id":"MRI","transit":false,"station_name":"Manggarai"},{"station_name":"Matraman","i_lat":-6.212485,"distance":1275,"time":2,"station_id":"MTR","transit":false,"i_long":106.858896,"line":1,"is_transit":false},{"station_id":"JNG","line":1,"transit":false,"time":8,"station_name":"Jatinegara","distance":1377,"is_transit":false,"i_lat":-6.215091,"i_long":106.86807400000001},{"line":1,"is_transit":false,"transit":false,"i_long":106.899548,"i_lat":-6.2135,"time":3,"distance":3395,"station_name":"Klender","station_id":"KLD"},{"is_transit":false,"station_name":"Buaran","distance":3100,"line":1,"time":2,"transit":false,"station_id":"BUA","i_long":106.922662,"i_lat":-6.215568}],[{"distance":0,"line":1,"is_transit":false,"time":0,"station_name":"Angke","station_id":"AK","transit":false,"i_lat":-6.144674,"i_long":106.79867},{"line":4,"station_id":"KPB","station_name":"Kampung Bandan","i_long":106.826365,"transit":true,"time":9,"is_transit":true,"i_lat":-6.132549,"distance":4102},{"transit":true,"line":2,"station_id":"JAKK","i_lat":-6.137569,"distance":1364,"i_long":106.812439,"time":3,"station_name":"Jakarta Kota","is_transit":true},{"distance":1264,"line":2,"i_long":106.820901,"is_transit":false,"i_lat":-6.141205,"transit":false,"station_name":"Jayakarta","station_id":"JAY","time":4},{"station_name":"Manggabesar","line":2,"i_lat":-6.149769,"distance":1080,"is_transit":false,"station_id":"MGB","transit":false,"i_long":106.82482,"time":2},{"i_long":106.827103,"station_name":"Sawah Besar","i_lat":-6.160725,"time":2,"station_id":"SW","distance":906,"line":2,"transit":false,"is_transit":false},{"distance":1149,"i_lat":-6.166716,"is_transit":false,"time":2,"station_name":"Juanda","transit":false,"station_id":"JUA","i_long":106.828284,"line":2},{"is_transit":false,"transit":false,"distance":2015,"i_long":106.832183,"i_lat":-6.186295,"line":2,"station_name":"Gondangdia","time":4,"station_id":"GDD"},{"is_transit":false,"transit":false,"i_lat":-6.198556,"i_long":106.840169,"line":2,"distance":1750,"station_id":"CKI","time":3,"station_name":"Cikini"},{"time":4,"station_id":"MRI","line":2,"i_long":106.84912,"station_name":"Manggarai","distance":1590,"transit":true,"i_lat":-6.209883,"is_transit":true},{"line":1,"time":2,"is_transit":false,"i_lat":-6.212485,"i_long":106.858896,"station_id":"MTR","transit":false,"distance":1275,"station_name":"Matraman"},{"i_long":106.86807400000001,"line":1,"distance":1377,"station_name":"Jatinegara","transit":false,"is_transit":false,"i_lat":-6.215091,"time":8,"station_id":"JNG"},{"distance":3395,"time":3,"station_id":"KLD","is_transit":false,"station_name":"Klender","transit":false,"i_lat":-6.2135,"i_long":106.899548,"line":1},{"station_id":"BUA","is_transit":false,"transit":false,"time":2,"i_lat":-6.215568,"distance":3100,"i_long":106.922662,"line":1,"station_name":"Buaran"}],[{"i_lat":-6.144674,"is_transit":false,"transit":false,"time":0,"i_long":106.79867,"line":1,"station_name":"Angke","distance":0,"station_id":"AK"},{"station_name":"Duri","i_long":106.800832,"is_transit":false,"time":4,"line":1,"distance":1230,"station_id":"DU","i_lat":-6.155215,"transit":false},{"is_transit":false,"i_long":106.811091,"line":1,"i_lat":-6.185545,"station_name":"Tanah Abang","time":8,"transit":false,"distance":3632,"station_id":"THB"},{"station_name":"Karet","i_lat":-6.20132,"i_long":106.816351,"transit":false,"distance":2029,"line":1,"is_transit":false,"time":5,"station_id":"KAT"},{"distance":471,"i_lat":-6.201433,"i_long":106.819881,"line":1,"time":1,"station_name":"Sudirman Baru","is_transit":false,"station_id":"SUDB","transit":false},{"line":1,"station_id":"SUD","i_lat":-6.202263,"i_long":106.822649,"time":1,"distance":280,"station_name":"Sudirman","is_transit":false,"transit":false},{"is_transit":true,"station_id":"MRI","station_name":"Manggarai","transit":true,"line":2,"time":4,"i_lat":-6.209883,"i_long":106.84912,"distance":3186},{"station_id":"CKI","transit":false,"i_long":106.840169,"distance":1590,"line":2,"i_lat":-6.198556,"time":4,"station_name":"Cikini","is_transit":false},{"distance":1750,"time":3,"line":2,"station_id":"GDD","is_transit":false,"transit":false,"i_long":106.832183,"station_name":"Gondangdia","i_lat":-6.186295},{"line":2,"station_id":"JUA","station_name":"Juanda","transit":false,"distance":2015,"i_lat":-6.166716,"time":4,"is_transit":false,"i_long":106.828284},{"line":2,"transit":false,"i_long":106.827103,"station_id":"SW","is_transit":false,"i_lat":-6.160725,"time":2,"distance":1149,"station_name":"Sawah Besar"},{"distance":906,"line":2,"i_long":106.82482,"station_name":"Manggabesar","time":2,"station_id":"MGB","is_transit":false,"transit":false,"i_lat":-6.149769},{"station_id":"JAY","line":2,"distance":1080,"is_transit":false,"station_name":"Jayakarta","i_lat":-6.141205,"i_long":106.820901,"time":2,"transit":false},{"distance":1264,"is_transit":true,"transit":true,"station_name":"Jakarta Kota","i_lat":-6.137569,"station_id":"JAKK","line":2,"time":4,"i_long":106.812439},{"i_long":106.826365,"station_name":"Kampung Bandan","time":3,"station_id":"KPB","is_transit":true,"line":4,"i_lat":-6.132549,"distance":1364,"transit":true},{"station_name":"Rajawali","distance":1444,"station_id":"RJW","i_lat":-6.14505,"i_long":106.836569,"line":11,"time":3,"transit":false,"is_transit":false},{"station_name":"Kemayoran","transit":false,"time":5,"i_long":106.839204,"is_transit":false,"i_lat":-6.161728,"line":11,"distance":1901,"station_id":"KMO"},{"line":11,"station_name":"Pasar Senen","is_transit":false,"transit":false,"i_lat":-6.174784,"distance":1436,"i_long":106.84368,"time":4,"station_id":"PSE"},{"distance":1567,"i_long":106.850107,"transit":false,"line":11,"station_name":"Gang Sentiong","i_lat":-6.185975,"is_transit":false,"time":8,"station_id":"GST"},{"station_name":"Kramat","station_id":"KMT","transit":false,"i_long":106.855437,"distance":973,"is_transit":false,"time":1,"line":11,"i_lat":-6.193792},{"station_name":"Pondok Jati","distance":1829,"i_lat":-6.209188,"i_long":106.861737,"time":2,"is_transit":false,"station_id":"POK","transit":false,"line":11},{"i_long":106.86807400000001,"station_id":"JNG","is_transit":true,"station_name":"Jatinegara","i_lat":-6.215091,"line":1,"distance":1236,"time":9,"transit":true},{"time":3,"line":1,"is_transit":false,"i_lat":-6.2135,"station_name":"Klender","i_long":106.899548,"station_id":"KLD","transit":false,"distance":3395},{"station_id":"BUA","station_name":"Buaran","i_lat":-6.215568,"i_long":106.922662,"is_transit":false,"transit":false,"distance":3100,"time":2,"line":1}]]}