{"data":[[{"station_id":"AK","station_name":"Angke","is_transit":false,"time":0,"distance":0,"transit":false,"i_lat":-6.144674,"i_long":106.79867,"line":0},{"is_transit":true,"distance":4102,"transit":true,"time":9,"station_name":"Kampung Bandan","i_long":106.826365,"station_id":"KPB","i_lat":-6.132549,"line":0},{"i_long":106.836569,"station_name":"Rajawali","station_id":"RJW","distance":1444,"transit":false,"line":11,"time":3,"is_transit":false,"i_lat":-6.14505},{"station_id":"KMO","i_long":106.839204,"i_lat":-6.161728,"distance":1901,"time":5,"station_name":"Kemayoran","is_transit":false,"line":11,"transit":false},{"distance":1436,"station_id":"PSE","station_name":"Pasar Senen","is_transit":false,"transit":false,"line":11,"i_long":106.84368,"time":4,"i_lat":-6.174784},{"distance":1567,"transit":false,"station_name":"Gang Sentiong","time":8,"is_transit":false,"i_long":106.850107,"station_id":"GST","i_lat":-6.185975,"line":11},{"transit":false,"time":1,"station_id":"KMT","i_lat":-6.193792,"station_name":"Kramat","i_long":106.855437,"is_transit":false,"line":11,"distance":973},{"i_lat":-6.209188,"i_long":106.861737,"is_transit":false,"station_name":"Pondok Jati","station_id":"POK","transit":false,"line":11,"time":2,"distance":1829},{"transit":true,"distance":1236,"i_long":106.86807400000001,"station_id":"JNG","station_name":"Jatinegara","is_transit":true,"i_lat":-6.215091,"time":9,"line":0},{"i_long":106.899548,"i_lat":-6.2135,"station_id":"KLD","line":1,"is_transit":false,"distance":3395,"station_name":"Klender","time":3,"transit":false},{"station_name":"Buaran","transit":false,"distance":3100,"time":2,"is_transit":false,"i_lat":-6.215568,"station_id":"BUA","i_long":106.922662,"line":0},{"station_name":"Klenderbaru","station_id":"KLDB","is_transit":false,"time":1,"i_lat":-6.217455,"distance":1305,"line":1,"i_long":106.939679,"transit":false},{"transit":false,"time":8,"distance":1385,"station_name":"Cakung","i_lat":-6.219053,"i_long":106.951283,"line":0,"station_id":"CUK","is_transit":false},{"station_name":"Kranji","time":3,"distance":3097,"is_transit":false,"line":1,"i_lat":-6.224515,"i_long":106.977657,"transit":false,"station_id":"KRI"},{"line":0,"i_lat":-6.236616,"is_transit":false,"station_id":"BKS","transit":false,"station_name":"Bekasi","i_long":106.997013,"time":4,"distance":2520},{"station_id":"BKST","distance":2368,"line":0,"transit":false,"time":2,"i_lat":-6.248029,"station_name":"Bekasi Timur","i_long":107.016735,"is_transit":false}],[{"station_id":"AK","line":0,"transit":false,"station_name":"Angke","i_lat":-6.144674,"time":0,"i_long":106.79867,"is_transit":false,"distance":0},{"i_long":106.800832,"transit":true,"station_name":"Duri","station_id":"DU","line":1,"time":4,"i_lat":-6.155215,"distance":1230,"is_transit":true},{"distance":3632,"i_lat":-6.185545,"station_id":"THB","line":1,"i_long":106.811091,"is_transit":true,"time":8,"transit":false,"station_name":"Tanah Abang"},{"station_id":"KAT","transit":false,"station_name":"Karet","is_transit":false,"distance":2029,"i_lat":-6.20132,"time":5,"i_long":106.816351,"line":1},{"i_long":106.819881,"time":1,"distance":471,"i_lat":-6.201433,"station_name":"Sudirman Baru","line":1,"transit":false,"station_id":"SUDB","is_transit":false},{"transit":false,"i_lat":-6.202263,"line":1,"is_transit":false,"distance":280,"station_name":"Sudirman","time":1,"i_long":106.822649,"station_id":"SUD"},{"is_transit":true,"station_name":"Manggarai","transit":false,"station_id":"MRI","i_lat":-6.209883,"time":4,"i_long":106.84912,"line":0,"distance":3186},{"i_long":106.858896,"station_name":"Matraman","is_transit":false,"time":2,"station_id":"MTR","transit":false,"line":1,"i_lat":-6.212485,"distance":1275},{"transit":false,"time":8,"station_id":"JNG","is_transit":true,"i_lat":-6.215091,"line":0,"station_name":"Jatinegara","distance":1377,"i_long":106.86807400000001},{"i_long":106.899548,"line":1,"time":3,"station_name":"Klender","i_lat":-6.2135,"is_transit":false,"transit":false,"station_id":"KLD","distance":3395},{"i_long":106.922662,"transit":false,"distance":3100,"line":0,"station_id":"BUA","is_transit":false,"time":2,"station_name":"Buaran","i_lat":-6.215568},{"transit":false,"is_transit":false,"line":1,"station_name":"Klenderbaru","i_lat":-6.217455,"time":1,"distance":1305,"i_long":106.939679,"station_id":"KLDB"},{"distance":1385,"i_lat":-6.219053,"line":0,"transit":false,"i_long":106.951283,"station_name":"Cakung","time":8,"station_id":"CUK","is_transit":false},{"line":1,"station_name":"Kranji","time":3,"is_transit":false,"distance":3097,"station_id":"KRI","transit":false,"i_long":106.977657,"i_lat":-6.224515},{"station_id":"BKS","transit":false,"time":4,"distance":2520,"station_name":"Bekasi","i_lat":-6.236616,"i_long":106.997013,"line":0,"is_transit":false},{"i_lat":-6.248029,"time":2,"station_id":"BKST","is_transit":false,"distance":2368,"station_name":"Bekasi Timur","line":0,"transit":false,"i_long":107.016735}],[{"line":0,"station_name":"Angke","distance":0,"time":0,"transit":false,"is_transit":false,"i_lat":-6.144674,"station_id":"AK","i_long":106.79867},{"is_transit":true,"distance":4102,"transit":false,"i_long":106.826365,"time":9,"station_name":"Kampung Bandan","i_lat":-6.132549,"station_id":"KPB","line":0},{"station_name":"Jakarta Kota","time":3,"station_id":"JAKK","line":0,"i_long":106.812439,"is_transit":true,"transit":true,"distance":1364,"i_lat":-6.137569},{"i_lat":-6.141205,"i_long":106.820901,"is_transit":false,"time":4,"station_name":"Jayakarta","line":7,"distance":1264,"transit":false,"station_id":"JAY"},{"i_long":106.82482,"station_name":"Manggabesar","time":2,"i_lat":-6.149769,"station_id":"MGB","line":2,"is_transit":false,"transit":false,"distance":1080},{"distance":906,"i_lat":-6.160725,"station_name":"Sawah Besar","time":2,"i_long":106.827103,"station_id":"SW","is_transit":false,"transit":false,"line":2},{"i_long":106.828284,"line":2,"transit":false,"station_name":"Juanda","is_transit":false,"i_lat":-6.166716,"time":2,"station_id":"JUA","distance":1149},{"station_name":"Gondangdia","transit":false,"line":2,"i_lat":-6.186295,"i_long":106.832183,"distance":2015,"is_transit":false,"station_id":"GDD","time":4},{"time":3,"station_name":"Cikini","station_id":"CKI","is_transit":false,"line":0,"i_lat":-6.198556,"i_long":106.840169,"transit":false,"distance":1750},{"i_lat":-6.209883,"station_id":"MRI","line":0,"transit":true,"distance":1590,"is_transit":true,"time":4,"i_long":106.84912,"station_name":"Manggarai"},{"time":2,"distance":1275,"line":1,"station_id":"MTR","i_lat":-6.212485,"station_name":"Matraman","transit":false,"is_transit":false,"i_long":106.858896},{"station_name":"Jatinegara","is_transit":true,"station_id":"JNG","distance":1377,"transit":false,"i_lat":-6.215091,"line":0,"i_long":106.86807400000001,"time":8},{"i_lat":-6.2135,"station_id":"KLD","distance":3395,"line":1,"is_transit":false,"transit":false,"i_long":106.899548,"time":3,"station_name":"Klender"},{"is_transit":false,"transit":false,"i_long":106.922662,"station_name":"Buaran","station_id":"BUA","time":2,"i_lat":-6.215568,"line":0,"distance":3100},{"distance":1305,"transit":false,"time":1,"line":1,"station_name":"Klenderbaru","is_transit":false,"station_id":"KLDB","i_lat":-6.217455,"i_long":106.939679},{"is_transit":false,"i_lat":-6.219053,"station_id":"CUK","station_name":"Cakung","line":0,"transit":false,"distance":1385,"time":8,"i_long":106.951283},{"i_lat":-6.224515,"line":1,"transit":false,"is_transit":false,"time":3,"distance":3097,"station_id":"KRI","i_long":106.977657,"station_name":"Kranji"},{"distance":2520,"time":4,"i_long":106.997013,"station_name":"Bekasi","station_id":"BKS","transit":false,"line":0,"is_transit":false,"i_lat":-6.236616},{"line":0,"is_transit":false,"distance":2368,"time":2,"transit":false,"i_long":107.016735,"station_name":"Bekasi Timur","station_id":"BKST","i_lat":-6.248029}],[{"station_name":"Angke","is_transit":false,"transit":false,"i_long":106.79867,"i_lat":-6.144674,"distance":0,"station_id":"AK","line":0,"time":0},{"time":4,"is_transit":true,"station_id":"DU","station_name":"Duri","distance":1230,"transit":true,"i_long":106.800832,"line":1,"i_lat":-6.155215},{"i_long":106.811091,"i_lat":-6.185545,"line":1,"time":8,"is_transit":true,"transit":false,"distance":3632,"station_name":"Tanah Abang","station_id":"THB"},{"transit":false,"is_transit":false,"station_name":"Karet","distance":2029,"i_long":106.816351,"station_id":"KAT","i_lat":-6.20132,"line":1,"time":5},{"i_lat":-6.201433,"station_id":"SUDB","is_transit":false,"transit":false,"station_name":"Sudirman Baru","distance":471,"line":1,"i_long":106.819881,"time":1},{"is_transit":false,"i_lat":-6.202263,"i_long":106.822649,"station_id":"SUD","line":1,"time":1,"distance":280,"transit":false,"station_name":"Sudirman"},{"station_id":"MRI","transit":true,"line":0,"i_lat":-6.209883,"distance":3186,"station_name":"Manggarai","i_long":106.84912,"is_transit":true,"time":4},{"distance":1590,"i_lat":-6.198556,"transit":false,"line":0,"time":4,"is_transit":false,"station_id":"CKI","station_name":"Cikini","i_long":106.840169},{"transit":false,"line":2,"station_id":"GDD","i_long":106.832183,"is_transit":false,"time":3,"i_lat":-6.186295,"station_name":"Gondangdia","distance":1750},{"i_long":106.828284,"is_transit":false,"transit":false,"station_name":"Juanda","distance":2015,"line":2,"time":4,"station_id":"JUA","i_lat":-6.166716},{"line":2,"station_name":"Sawah Besar","distance":1149,"station_id":"SW","transit":false,"time":2,"i_long":106.827103,"is_transit":false,"i_lat":-6.160725},{"time":2,"i_long":106.82482,"is_transit":false,"transit":false,"station_name":"Manggabesar","distance":906,"line":2,"station_id":"MGB","i_lat":-6.149769},{"i_lat":-6.141205,"line":7,"distance":1080,"station_name":"Jayakarta","transit":false,"is_transit":false,"time":2,"i_long":106.820901,"station_id":"JAY"},{"station_name":"Jakarta Kota","time":4,"distance":1264,"is_transit":true,"i_lat":-6.137569,"transit":true,"station_id":"JAKK","i_long":106.812439,"line":0},{"i_lat":-6.132549,"i_long":106.826365,"time":3,"line":0,"station_id":"KPB","distance":1364,"transit":true,"is_transit":true,"station_name":"Kampung Bandan"},{"line":11,"i_lat":-6.14505,"station_id":"RJW","transit":false,"i_long":106.836569,"is_transit":false,"station_name":"Rajawali","time":3,"distance":1444},{"distance":1901,"line":11,"i_long":106.839204,"transit":false,"station_name":"Kemayoran","is_transit":false,"station_id":"KMO","time":5,"i_lat":-6.161728},{"transit":false,"station_name":"Pasar Senen","line":11,"i_long":106.84368,"station_id":"PSE","is_transit":false,"time":4,"distance":1436,"i_lat":-6.174784},{"station_name":"Gang Sentiong","i_lat":-6.185975,"is_transit":false,"station_id":"GST","i_long":106.850107,"transit":false,"distance":1567,"line":11,"time":8},{"i_lat":-6.193792,"line":11,"station_id":"KMT","i_long":106.855437,"time":1,"is_transit":false,"station_name":"Kramat","distance":973,"transit":false},{"transit":false,"station_id":"POK","i_lat":-6.209188,"distance":1829,"line":11,"station_name":"Pondok Jati","is_transit":false,"i_long":106.861737,"time":2},{"line":0,"is_transit":true,"station_name":"Jatinegara","time":9,"station_id":"JNG","i_long":106.86807400000001,"distance":1236,"transit":true,"i_lat":-6.215091},{"station_id":"KLD","is_transit":false,"time":3,"i_lat":-6.2135,"line":1,"i_long":106.899548,"station_name":"Klender","distance":3395,"transit":false},{"i_long":106.922662,"i_lat":-6.215568,"distance":3100,"transit":false,"station_id":"BUA","time":2,"line":0,"station_name":"Buaran","is_transit":false},{"transit":false,"distance":1305,"station_name":"Klenderbaru","line":1,"i_long":106.939679,"is_transit":false,"i_lat":-6.217455,"time":1,"station_id":"KLDB"},{"distance":1385,"station_name":"Cakung","i_lat":-6.219053,"transit":false,"time":8,"station_id":"CUK","line":0,"i_long":106.951283,"is_transit":false},{"line":1,"station_name":"Kranji","transit":false,"i_long":106.977657,"is_transit":false,"i_lat":-6.224515,"time":3,"station_id":"KRI","distance":3097},{"time":4,"i_lat":-6.236616,"i_long":106.997013,"station_id":"BKS","station_name":"Bekasi","is_transit":false,"transit":false,"line":0,"distance":2520},{"station_id":"BKST","transit":false,"distance":2368,"line":0,"is_transit":false,"station_name":"Bekasi Timur","i_lat":-6.248029,"i_long":107.016735,"time":2}]]}