{"data":[[{"distance":0,"station_id":"AK","station_name":"Angke","is_transit":false,"time":0,"transit":false,"line":1,"i_lat":-6.144674,"i_long":106.79867},{"time":4,"distance":1230,"i_lat":-6.155215,"station_id":"DU","i_long":106.800832,"station_name":"Duri","is_transit":true,"line":1,"transit":true},{"distance":1700,"transit":false,"line":5,"time":3,"station_name":"Grogol","station_id":"GGL","is_transit":false,"i_lat":-6.162021,"i_long":106.788277},{"station_id":"PSG","transit":false,"i_lat":-6.161433,"distance":2036,"line":5,"i_long":106.771379,"station_name":"Pesing","is_transit":false,"time":2},{"time":2,"station_name":"Taman Kota","i_lat":-6.1587309999999995,"distance":1614,"line":5,"transit":false,"station_id":"TKO","i_long":106.756522,"is_transit":false},{"i_long":106.737035,"station_name":"Bojongindah","line":5,"transit":false,"is_transit":false,"distance":2334,"station_id":"BOI","i_lat":-6.159876,"time":2},{"is_transit":false,"station_name":"Rawa Buaya","distance":1152,"i_long":106.723064,"i_lat":-6.162758,"transit":false,"line":5,"station_id":"RW","time":4},{"time":3,"i_long":106.701612,"station_id":"KDS","line":5,"distance":2504,"is_transit":false,"i_lat":-6.166068,"transit":false,"station_name":"Kalideres"},{"is_transit":false,"station_id":"PI","i_long":106.679458,"i_lat":-6.169933,"line":5,"transit":false,"station_name":"Poris","distance":2548,"time":3},{"line":5,"i_long":106.665036,"is_transit":false,"i_lat":-6.171811,"station_name":"Batuceper","time":3,"distance":1834,"transit":false,"station_id":"BPR"}],[{"i_long":106.79867,"is_transit":false,"line":1,"time":0,"station_id":"AK","transit":false,"i_lat":-6.144674,"station_name":"Angke","distance":0},{"time":9,"i_lat":-6.132549,"i_long":106.826365,"transit":true,"line":4,"station_name":"Kampung Bandan","station_id":"KPB","distance":4102,"is_transit":true},{"is_transit":true,"i_lat":-6.137569,"i_long":106.812439,"transit":true,"station_id":"JAKK","time":3,"distance":1364,"line":2,"station_name":"Jakarta Kota"},{"line":2,"transit":false,"station_name":"Jayakarta","time":4,"i_lat":-6.141205,"is_transit":false,"distance":1264,"i_long":106.820901,"station_id":"JAY"},{"i_long":106.82482,"transit":false,"distance":1080,"line":2,"i_lat":-6.149769,"station_name":"Manggabesar","is_transit":false,"time":2,"station_id":"MGB"},{"station_id":"SW","i_long":106.827103,"station_name":"Sawah Besar","transit":false,"time":2,"is_transit":false,"distance":906,"i_lat":-6.160725,"line":2},{"distance":1149,"transit":false,"time":2,"station_id":"JUA","station_name":"Juanda","i_long":106.828284,"is_transit":false,"i_lat":-6.166716,"line":2},{"i_long":106.832183,"is_transit":false,"i_lat":-6.186295,"line":2,"station_name":"Gondangdia","time":4,"distance":2015,"transit":false,"station_id":"GDD"},{"station_name":"Cikini","time":3,"i_long":106.840169,"station_id":"CKI","is_transit":false,"i_lat":-6.198556,"transit":false,"distance":1750,"line":2},{"time":4,"distance":1590,"line":2,"i_long":106.84912,"is_transit":true,"i_lat":-6.209883,"station_name":"Manggarai","transit":true,"station_id":"MRI"},{"is_transit":false,"station_id":"SUD","station_name":"Sudirman","distance":3186,"transit":false,"time":4,"i_long":106.822649,"line":1,"i_lat":-6.202263},{"station_id":"SUDB","line":1,"station_name":"Sudirman Baru","is_transit":false,"i_lat":-6.201433,"i_long":106.819881,"distance":280,"time":1,"transit":false},{"distance":471,"is_transit":false,"i_long":106.816351,"line":1,"time":1,"i_lat":-6.20132,"transit":false,"station_name":"Karet","station_id":"KAT"},{"line":1,"transit":false,"time":5,"station_id":"THB","station_name":"Tanah Abang","i_lat":-6.185545,"distance":2029,"i_long":106.811091,"is_transit":false},{"distance":3632,"line":1,"transit":true,"station_name":"Duri","time":8,"station_id":"DU","is_transit":true,"i_lat":-6.155215,"i_long":106.800832},{"time":3,"i_lat":-6.162021,"station_name":"Grogol","station_id":"GGL","is_transit":false,"transit":false,"distance":1700,"i_long":106.788277,"line":5},{"i_lat":-6.161433,"distance":2036,"i_long":106.771379,"station_name":"Pesing","is_transit":false,"line":5,"transit":false,"station_id":"PSG","time":2},{"i_lat":-6.1587309999999995,"line":5,"time":2,"distance":1614,"i_long":106.756522,"station_id":"TKO","transit":false,"station_name":"Taman Kota","is_transit":false},{"transit":false,"station_name":"Bojongindah","distance":2334,"line":5,"is_transit":false,"station_id":"BOI","time":2,"i_lat":-6.159876,"i_long":106.737035},{"station_name":"Rawa Buaya","distance":1152,"is_transit":false,"time":4,"line":5,"transit":false,"station_id":"RW","i_long":106.723064,"i_lat":-6.162758},{"is_transit":false,"time":3,"i_lat":-6.166068,"station_name":"Kalideres","line":5,"station_id":"KDS","distance":2504,"i_long":106.701612,"transit":false},{"line":5,"transit":false,"station_id":"PI","station_name":"Poris","distance":2548,"time":3,"i_long":106.679458,"is_transit":false,"i_lat":-6.169933},{"station_id":"BPR","station_name":"Batuceper","is_transit":false,"line":5,"transit":false,"time":3,"i_lat":-6.171811,"distance":1834,"i_long":106.665036}],[{"line":1,"transit":false,"station_id":"AK","time":0,"distance":0,"station_name":"Angke","i_long":106.79867,"i_lat":-6.144674,"is_transit":false},{"station_id":"KPB","time":9,"i_lat":-6.132549,"distance":4102,"i_long":106.826365,"is_transit":true,"station_name":"Kampung Bandan","line":4,"transit":true},{"station_name":"Rajawali","time":3,"is_transit":false,"transit":false,"station_id":"RJW","distance":1444,"i_lat":-6.14505,"i_long":106.836569,"line":11},{"i_long":106.839204,"line":11,"station_id":"KMO","is_transit":false,"time":5,"station_name":"Kemayoran","transit":false,"distance":1901,"i_lat":-6.161728},{"station_name":"Pasar Senen","i_lat":-6.174784,"i_long":106.84368,"time":4,"transit":false,"line":11,"station_id":"PSE","distance":1436,"is_transit":false},{"time":8,"station_name":"Gang Sentiong","line":11,"distance":1567,"station_id":"GST","is_transit":false,"i_long":106.850107,"transit":false,"i_lat":-6.185975},{"i_lat":-6.193792,"time":1,"station_name":"Kramat","distance":973,"i_long":106.855437,"station_id":"KMT","line":11,"is_transit":false,"transit":false},{"distance":1829,"i_lat":-6.209188,"station_id":"POK","station_name":"Pondok Jati","is_transit":false,"line":11,"time":2,"i_long":106.861737,"transit":false},{"is_transit":true,"i_long":106.86807400000001,"line":1,"i_lat":-6.215091,"time":9,"transit":true,"station_name":"Jatinegara","distance":1236,"station_id":"JNG"},{"i_lat":-6.212485,"transit":false,"station_name":"Matraman","distance":1377,"is_transit":false,"time":2,"i_long":106.858896,"station_id":"MTR","line":1},{"i_long":106.84912,"i_lat":-6.209883,"station_id":"MRI","distance":1275,"transit":false,"station_name":"Manggarai","is_transit":false,"time":2,"line":2},{"transit":false,"station_name":"Sudirman","station_id":"SUD","time":4,"i_lat":-6.202263,"line":1,"is_transit":false,"distance":3186,"i_long":106.822649},{"i_lat":-6.201433,"station_name":"Sudirman Baru","i_long":106.819881,"line":1,"time":1,"is_transit":false,"transit":false,"station_id":"SUDB","distance":280},{"distance":471,"i_lat":-6.20132,"line":1,"i_long":106.816351,"station_id":"KAT","station_name":"Karet","time":1,"transit":false,"is_transit":false},{"transit":false,"is_transit":false,"i_lat":-6.185545,"i_long":106.811091,"line":1,"station_id":"THB","station_name":"Tanah Abang","distance":2029,"time":5},{"distance":3632,"station_id":"DU","time":8,"transit":true,"i_lat":-6.155215,"i_long":106.800832,"station_name":"Duri","is_transit":true,"line":1},{"i_lat":-6.162021,"line":5,"is_transit":false,"transit":false,"station_name":"Grogol","station_id":"GGL","distance":1700,"i_long":106.788277,"time":3},{"line":5,"is_transit":false,"transit":false,"station_id":"PSG","station_name":"Pesing","time":2,"distance":2036,"i_lat":-6.161433,"i_long":106.771379},{"is_transit":false,"i_lat":-6.1587309999999995,"transit":false,"distance":1614,"station_name":"Taman Kota","line":5,"station_id":"TKO","time":2,"i_long":106.756522},{"station_id":"BOI","i_long":106.737035,"time":2,"line":5,"distance":2334,"is_transit":false,"station_name":"Bojongindah","transit":false,"i_lat":-6.159876},{"transit":false,"station_id":"RW","distance":1152,"line":5,"is_transit":false,"i_lat":-6.162758,"i_long":106.723064,"station_name":"Rawa Buaya","time":4},{"time":3,"i_lat":-6.166068,"i_long":106.701612,"line":5,"station_id":"KDS","distance":2504,"is_transit":false,"transit":false,"station_name":"Kalideres"},{"transit":false,"distance":2548,"i_long":106.679458,"line":5,"station_id":"PI","time":3,"i_lat":-6.169933,"station_name":"Poris","is_transit":false},{"transit":false,"distance":1834,"line":5,"station_name":"Batuceper","i_lat":-6.171811,"is_transit":false,"station_id":"BPR","time":3,"i_long":106.665036}]]}