{"data":[[{"time":0,"station_name":"Angke","is_transit":false,"i_lat":-6.144674,"i_long":106.79867,"station_id":"AK","distance":0,"transit":false,"line":0},{"distance":1230,"i_lat":-6.155215,"station_name":"Duri","i_long":106.800832,"time":4,"transit":true,"line":1,"is_transit":true,"station_id":"DU"},{"transit":false,"station_name":"Tanah Abang","line":1,"is_transit":true,"distance":3632,"station_id":"THB","i_lat":-6.185545,"i_long":106.811091,"time":8},{"is_transit":false,"transit":false,"i_lat":-6.20132,"station_id":"KAT","time":5,"distance":2029,"station_name":"Karet","line":1,"i_long":106.816351},{"i_lat":-6.201433,"station_name":"Sudirman Baru","line":1,"distance":471,"i_long":106.819881,"time":1,"station_id":"SUDB","is_transit":false,"transit":false},{"line":1,"station_id":"SUD","is_transit":false,"i_lat":-6.202263,"station_name":"Sudirman","time":1,"i_long":106.822649,"distance":280,"transit":false},{"distance":3186,"line":0,"is_transit":true,"i_lat":-6.209883,"station_id":"MRI","i_long":106.84912,"transit":true,"station_name":"Manggarai","time":4},{"station_id":"TEB","station_name":"Tebet","line":2,"is_transit":false,"i_long":106.857948,"transit":false,"i_lat":-6.226659,"time":4,"distance":2610},{"station_name":"Cawang","i_lat":-6.242512,"i_long":106.856607,"line":0,"distance":1230,"time":2,"transit":false,"station_id":"CW","is_transit":false},{"transit":false,"time":3,"distance":1546,"station_id":"DRN","station_name":"Duren Kalibata","line":0,"i_long":106.85449,"is_transit":false,"i_lat":-6.255332},{"line":2,"distance":824,"station_name":"Pasar Minggu Baru","transit":false,"i_lat":-6.263214,"i_long":106.851577,"is_transit":false,"station_id":"PSMB","time":2},{"station_id":"PSM","station_name":"Pasar Minggu","transit":false,"time":2,"is_transit":false,"i_long":106.843999,"distance":2380,"line":2,"i_lat":-6.2842400000000005},{"distance":2820,"is_transit":false,"line":2,"i_lat":-6.3080680000000005,"time":4,"station_id":"TNT","i_long":106.838896,"station_name":"Tanjung Barat","transit":false},{"i_long":106.832616,"distance":2671,"station_name":"Lenteng Agung","time":3,"line":2,"is_transit":false,"transit":false,"i_lat":-6.330363,"station_id":"LNA"},{"distance":1029,"i_long":106.834175,"station_name":"Univ. Pancasila","transit":false,"i_lat":-6.339291,"line":2,"station_id":"UP","is_transit":false,"time":2},{"time":3,"station_name":"Univ. Indonesia","transit":false,"station_id":"UI","line":2,"distance":2264,"is_transit":false,"i_long":106.831474,"i_lat":-6.360749},{"station_name":"Pondok Cina","i_long":106.831114,"line":2,"station_id":"POC","is_transit":false,"time":2,"distance":1109,"i_lat":-6.369073,"transit":false},{"station_id":"DPB","time":4,"distance":2727,"line":0,"station_name":"Depokbaru","transit":false,"i_lat":-6.391065,"is_transit":false,"i_long":106.819451},{"distance":1584,"i_lat":-6.405256,"i_long":106.816926,"station_name":"Depok","station_id":"DP","is_transit":false,"line":0,"time":3,"transit":false},{"station_name":"Citayam","is_transit":true,"line":1,"distance":5084,"time":6,"transit":false,"station_id":"CTA","i_long":106.800298,"i_lat":-6.448811},{"station_name":"Bojonggede","i_long":106.792719,"station_id":"BJD","distance":5197,"i_lat":-6.493243,"line":0,"is_transit":false,"time":5,"transit":false}],[{"i_lat":-6.144674,"line":0,"station_name":"Angke","time":0,"distance":0,"transit":false,"is_transit":false,"i_long":106.79867,"station_id":"AK"},{"time":9,"transit":false,"station_id":"KPB","distance":4102,"station_name":"Kampung Bandan","is_transit":true,"line":0,"i_lat":-6.132549,"i_long":106.826365},{"i_long":106.812439,"station_name":"Jakarta Kota","is_transit":true,"distance":1364,"transit":true,"time":3,"line":0,"station_id":"JAKK","i_lat":-6.137569},{"transit":false,"i_lat":-6.141205,"line":7,"station_id":"JAY","is_transit":false,"station_name":"Jayakarta","time":4,"distance":1264,"i_long":106.820901},{"i_lat":-6.149769,"station_name":"Manggabesar","i_long":106.82482,"transit":false,"station_id":"MGB","distance":1080,"line":2,"time":2,"is_transit":false},{"distance":906,"is_transit":false,"transit":false,"i_lat":-6.160725,"line":2,"time":2,"station_id":"SW","i_long":106.827103,"station_name":"Sawah Besar"},{"i_long":106.828284,"transit":false,"line":2,"distance":1149,"time":2,"station_id":"JUA","i_lat":-6.166716,"is_transit":false,"station_name":"Juanda"},{"transit":false,"i_lat":-6.186295,"is_transit":false,"i_long":106.832183,"line":2,"station_name":"Gondangdia","station_id":"GDD","time":4,"distance":2015},{"transit":false,"i_lat":-6.198556,"line":0,"i_long":106.840169,"distance":1750,"time":3,"is_transit":false,"station_id":"CKI","station_name":"Cikini"},{"time":4,"i_lat":-6.209883,"i_long":106.84912,"line":0,"station_id":"MRI","distance":1590,"transit":true,"is_transit":true,"station_name":"Manggarai"},{"station_name":"Tebet","i_lat":-6.226659,"line":2,"station_id":"TEB","time":4,"is_transit":false,"distance":2610,"transit":false,"i_long":106.857948},{"station_id":"CW","line":0,"distance":1230,"transit":false,"time":2,"i_lat":-6.242512,"is_transit":false,"station_name":"Cawang","i_long":106.856607},{"is_transit":false,"i_lat":-6.255332,"transit":false,"station_id":"DRN","i_long":106.85449,"distance":1546,"time":3,"line":0,"station_name":"Duren Kalibata"},{"line":2,"station_id":"PSMB","station_name":"Pasar Minggu Baru","transit":false,"is_transit":false,"time":2,"distance":824,"i_long":106.851577,"i_lat":-6.263214},{"i_lat":-6.2842400000000005,"station_id":"PSM","station_name":"Pasar Minggu","time":2,"distance":2380,"is_transit":false,"i_long":106.843999,"line":2,"transit":false},{"station_name":"Tanjung Barat","time":4,"i_lat":-6.3080680000000005,"i_long":106.838896,"line":2,"distance":2820,"is_transit":false,"transit":false,"station_id":"TNT"},{"is_transit":false,"station_id":"LNA","transit":false,"line":2,"distance":2671,"i_long":106.832616,"time":3,"i_lat":-6.330363,"station_name":"Lenteng Agung"},{"distance":1029,"station_name":"Univ. Pancasila","i_long":106.834175,"line":2,"station_id":"UP","i_lat":-6.339291,"is_transit":false,"transit":false,"time":2},{"station_id":"UI","line":2,"station_name":"Univ. Indonesia","is_transit":false,"i_long":106.831474,"time":3,"distance":2264,"transit":false,"i_lat":-6.360749},{"is_transit":false,"i_lat":-6.369073,"station_id":"POC","line":2,"time":2,"station_name":"Pondok Cina","distance":1109,"transit":false,"i_long":106.831114},{"i_lat":-6.391065,"time":4,"station_name":"Depokbaru","line":0,"distance":2727,"is_transit":false,"transit":false,"station_id":"DPB","i_long":106.819451},{"i_long":106.816926,"time":3,"transit":false,"line":0,"station_name":"Depok","station_id":"DP","i_lat":-6.405256,"is_transit":false,"distance":1584},{"is_transit":true,"distance":5084,"station_id":"CTA","time":6,"transit":false,"station_name":"Citayam","i_lat":-6.448811,"line":1,"i_long":106.800298},{"station_name":"Bojonggede","i_lat":-6.493243,"station_id":"BJD","transit":false,"is_transit":false,"i_long":106.792719,"line":0,"distance":5197,"time":5}],[{"station_name":"Angke","transit":false,"time":0,"is_transit":false,"i_lat":-6.144674,"line":0,"station_id":"AK","i_long":106.79867,"distance":0},{"is_transit":true,"i_lat":-6.132549,"station_name":"Kampung Bandan","time":9,"line":0,"station_id":"KPB","distance":4102,"i_long":106.826365,"transit":true},{"station_id":"RJW","station_name":"Rajawali","is_transit":false,"time":3,"i_lat":-6.14505,"i_long":106.836569,"transit":false,"distance":1444,"line":11},{"station_id":"KMO","distance":1901,"station_name":"Kemayoran","is_transit":false,"time":5,"transit":false,"i_lat":-6.161728,"i_long":106.839204,"line":11},{"station_name":"Pasar Senen","i_long":106.84368,"transit":false,"line":11,"i_lat":-6.174784,"station_id":"PSE","is_transit":false,"distance":1436,"time":4},{"distance":1567,"is_transit":false,"i_lat":-6.185975,"i_long":106.850107,"line":11,"station_name":"Gang Sentiong","station_id":"GST","time":8,"transit":false},{"station_id":"KMT","time":1,"transit":false,"station_name":"Kramat","is_transit":false,"i_lat":-6.193792,"line":11,"i_long":106.855437,"distance":973},{"i_long":106.861737,"line":11,"station_id":"POK","is_transit":false,"distance":1829,"station_name":"Pondok Jati","time":2,"transit":false,"i_lat":-6.209188},{"i_lat":-6.215091,"station_id":"JNG","time":9,"distance":1236,"i_long":106.86807400000001,"station_name":"Jatinegara","is_transit":true,"line":0,"transit":true},{"distance":1377,"transit":false,"time":2,"i_lat":-6.212485,"i_long":106.858896,"is_transit":false,"station_id":"MTR","station_name":"Matraman","line":1},{"station_id":"MRI","station_name":"Manggarai","time":2,"distance":1275,"i_lat":-6.209883,"i_long":106.84912,"line":0,"is_transit":true,"transit":true},{"station_id":"TEB","station_name":"Tebet","distance":2610,"transit":false,"i_long":106.857948,"line":2,"i_lat":-6.226659,"is_transit":false,"time":4},{"i_long":106.856607,"station_name":"Cawang","distance":1230,"station_id":"CW","is_transit":false,"line":0,"transit":false,"i_lat":-6.242512,"time":2},{"distance":1546,"is_transit":false,"station_id":"DRN","station_name":"Duren Kalibata","time":3,"i_long":106.85449,"line":0,"i_lat":-6.255332,"transit":false},{"station_name":"Pasar Minggu Baru","is_transit":false,"i_lat":-6.263214,"i_long":106.851577,"time":2,"line":2,"distance":824,"transit":false,"station_id":"PSMB"},{"transit":false,"i_lat":-6.2842400000000005,"i_long":106.843999,"station_id":"PSM","time":2,"distance":2380,"is_transit":false,"station_name":"Pasar Minggu","line":2},{"distance":2820,"station_name":"Tanjung Barat","station_id":"TNT","i_lat":-6.3080680000000005,"is_transit":false,"transit":false,"i_long":106.838896,"line":2,"time":4},{"i_long":106.832616,"line":2,"is_transit":false,"station_id":"LNA","station_name":"Lenteng Agung","time":3,"distance":2671,"transit":false,"i_lat":-6.330363},{"time":2,"station_id":"UP","i_long":106.834175,"is_transit":false,"transit":false,"line":2,"station_name":"Univ. Pancasila","i_lat":-6.339291,"distance":1029},{"line":2,"is_transit":false,"distance":2264,"i_long":106.831474,"transit":false,"i_lat":-6.360749,"station_name":"Univ. Indonesia","station_id":"UI","time":3},{"station_id":"POC","station_name":"Pondok Cina","i_long":106.831114,"line":2,"is_transit":false,"time":2,"transit":false,"i_lat":-6.369073,"distance":1109},{"station_id":"DPB","i_lat":-6.391065,"is_transit":false,"time":4,"line":0,"station_name":"Depokbaru","distance":2727,"i_long":106.819451,"transit":false},{"is_transit":false,"transit":false,"line":0,"station_id":"DP","station_name":"Depok","i_long":106.816926,"distance":1584,"time":3,"i_lat":-6.405256},{"is_transit":true,"distance":5084,"i_long":106.800298,"time":6,"transit":false,"station_name":"Citayam","station_id":"CTA","i_lat":-6.448811,"line":1},{"i_lat":-6.493243,"line":0,"station_id":"BJD","is_transit":false,"time":5,"transit":false,"i_long":106.792719,"distance":5197,"station_name":"Bojonggede"}]]}