{"data":[[{"i_long":106.79867,"line":1,"is_transit":false,"time":0,"station_id":"AK","station_name":"Angke","i_lat":-6.144674,"distance":0,"transit":false},{"station_id":"DU","station_name":"Duri","is_transit":true,"line":1,"transit":true,"i_lat":-6.155215,"time":4,"distance":1230,"i_long":106.800832},{"station_id":"GRG","station_name":"Grogol","transit":false,"i_lat":-6.162021,"is_transit":false,"line":5,"time":3,"distance":1700,"i_long":106.788277},{"distance":2036,"station_id":"PSG","time":2,"station_name":"Pesing","is_transit":false,"transit":false,"i_lat":-6.161433,"i_long":106.771379,"line":5},{"time":2,"station_id":"TKO","station_name":"Taman Kota","is_transit":false,"transit":false,"i_long":106.756522,"distance":1614,"line":5,"i_lat":-6.1587309999999995},{"station_id":"BOI","i_lat":-6.159876,"station_name":"Bojongindah","time":2,"distance":2334,"transit":false,"line":5,"is_transit":false,"i_long":106.737035},{"is_transit":false,"line":5,"time":4,"station_id":"RW","i_lat":-6.162758,"distance":1152,"transit":false,"i_long":106.723064,"station_name":"Rawa Buaya"},{"distance":2504,"transit":false,"i_lat":-6.166068,"is_transit":false,"station_name":"Kalideres","station_id":"KDS","i_long":106.701612,"time":3,"line":5},{"time":3,"station_id":"PI","i_lat":-6.169933,"i_long":106.679458,"distance":2548,"station_name":"Poris","line":5,"transit":false,"is_transit":false},{"station_id":"BPR","transit":false,"i_long":106.665036,"distance":1834,"line":5,"time":3,"i_lat":-6.171811,"station_name":"Batuceper","is_transit":false}],[{"i_lat":-6.144674,"line":1,"station_id":"AK","i_long":106.79867,"transit":false,"time":0,"is_transit":false,"station_name":"Angke","distance":0},{"i_lat":-6.132549,"station_name":"Kampung Bandan","distance":4102,"is_transit":true,"i_long":106.826365,"line":4,"station_id":"KPB","transit":true,"time":9},{"is_transit":true,"line":2,"i_long":106.812439,"distance":1364,"transit":true,"station_name":"Jakarta Kota","i_lat":-6.137569,"time":3,"station_id":"JAKK"},{"station_name":"Jayakarta","is_transit":false,"station_id":"JAY","transit":false,"line":2,"i_lat":-6.141205,"distance":1264,"i_long":106.820901,"time":4},{"time":2,"distance":1080,"i_lat":-6.149769,"transit":false,"station_id":"MGB","i_long":106.82482,"station_name":"Manggabesar","line":2,"is_transit":false},{"line":2,"station_name":"Sawah Besar","is_transit":false,"distance":906,"transit":false,"station_id":"SW","time":2,"i_lat":-6.160725,"i_long":106.827103},{"line":2,"is_transit":false,"i_lat":-6.166716,"distance":1149,"transit":false,"station_id":"JUA","i_long":106.828284,"time":2,"station_name":"Juanda"},{"i_long":106.832183,"time":4,"station_name":"Gondangdia","station_id":"GDD","transit":false,"is_transit":false,"i_lat":-6.186295,"distance":2015,"line":2},{"i_long":106.840169,"transit":false,"distance":1750,"station_name":"Cikini","time":3,"station_id":"CKI","i_lat":-6.198556,"is_transit":false,"line":2},{"is_transit":true,"distance":1590,"i_lat":-6.209883,"time":4,"station_id":"MRI","station_name":"Manggarai","line":2,"transit":true,"i_long":106.84912},{"line":1,"time":4,"station_id":"SUD","station_name":"Sudirman","distance":3186,"is_transit":false,"transit":false,"i_lat":-6.202263,"i_long":106.822649},{"station_name":"Sudirman Baru","distance":280,"transit":false,"is_transit":false,"line":1,"station_id":"SUDB","i_long":106.819881,"i_lat":-6.201433,"time":1},{"station_id":"KAT","transit":false,"distance":471,"i_lat":-6.20132,"i_long":106.816351,"time":1,"station_name":"Karet","line":1,"is_transit":false},{"station_id":"THB","is_transit":false,"distance":2029,"time":5,"transit":false,"station_name":"Tanah Abang","i_long":106.811091,"line":1,"i_lat":-6.185545},{"station_name":"Duri","station_id":"DU","i_long":106.800832,"distance":3632,"line":1,"transit":true,"is_transit":true,"i_lat":-6.155215,"time":8},{"line":5,"i_lat":-6.162021,"station_name":"Grogol","i_long":106.788277,"transit":false,"station_id":"GRG","distance":1700,"is_transit":false,"time":3},{"transit":false,"i_long":106.771379,"time":2,"line":5,"distance":2036,"is_transit":false,"station_id":"PSG","i_lat":-6.161433,"station_name":"Pesing"},{"is_transit":false,"time":2,"i_lat":-6.1587309999999995,"distance":1614,"i_long":106.756522,"station_id":"TKO","station_name":"Taman Kota","transit":false,"line":5},{"is_transit":false,"i_long":106.737035,"i_lat":-6.159876,"distance":2334,"station_name":"Bojongindah","line":5,"transit":false,"time":2,"station_id":"BOI"},{"time":4,"station_name":"Rawa Buaya","transit":false,"line":5,"station_id":"RW","distance":1152,"i_long":106.723064,"is_transit":false,"i_lat":-6.162758},{"station_name":"Kalideres","i_lat":-6.166068,"transit":false,"is_transit":false,"line":5,"i_long":106.701612,"station_id":"KDS","distance":2504,"time":3},{"station_name":"Poris","i_lat":-6.169933,"i_long":106.679458,"is_transit":false,"transit":false,"line":5,"station_id":"PI","distance":2548,"time":3},{"i_long":106.665036,"line":5,"time":3,"is_transit":false,"transit":false,"station_id":"BPR","distance":1834,"station_name":"Batuceper","i_lat":-6.171811}],[{"transit":false,"i_lat":-6.144674,"line":1,"distance":0,"i_long":106.79867,"station_name":"Angke","is_transit":false,"time":0,"station_id":"AK"},{"distance":4102,"i_lat":-6.132549,"time":9,"station_name":"Kampung Bandan","transit":true,"station_id":"KPB","is_transit":true,"line":4,"i_long":106.826365},{"distance":1444,"time":3,"station_name":"Rajawali","i_lat":-6.14505,"i_long":106.836569,"line":11,"transit":false,"is_transit":false,"station_id":"RJW"},{"station_name":"Kemayoran","is_transit":false,"station_id":"KMO","i_lat":-6.161728,"line":11,"time":5,"i_long":106.839204,"distance":1901,"transit":false},{"station_id":"PSE","station_name":"Pasar Senen","transit":false,"distance":1436,"i_lat":-6.174784,"time":4,"i_long":106.84368,"line":11,"is_transit":false},{"i_long":106.850107,"distance":1567,"time":8,"is_transit":false,"station_id":"GST","transit":false,"i_lat":-6.185975,"station_name":"Gang Sentiong","line":11},{"line":11,"station_id":"KMT","is_transit":false,"station_name":"Kramat","time":1,"transit":false,"distance":973,"i_lat":-6.193792,"i_long":106.855437},{"transit":false,"line":11,"station_id":"POK","is_transit":false,"distance":1829,"time":2,"i_long":106.861737,"station_name":"Pondok Jati","i_lat":-6.209188},{"i_long":106.86807400000001,"distance":1236,"is_transit":true,"station_id":"JNG","transit":true,"line":1,"i_lat":-6.215091,"time":9,"station_name":"Jatinegara"},{"distance":1377,"transit":false,"i_lat":-6.212485,"station_name":"Matraman","is_transit":false,"line":1,"time":2,"i_long":106.858896,"station_id":"MTR"},{"station_name":"Manggarai","transit":false,"i_lat":-6.209883,"i_long":106.84912,"station_id":"MRI","distance":1275,"is_transit":false,"line":2,"time":2},{"time":4,"station_name":"Sudirman","i_lat":-6.202263,"distance":3186,"is_transit":false,"station_id":"SUD","transit":false,"i_long":106.822649,"line":1},{"is_transit":false,"station_name":"Sudirman Baru","transit":false,"distance":280,"i_long":106.819881,"station_id":"SUDB","time":1,"i_lat":-6.201433,"line":1},{"i_long":106.816351,"is_transit":false,"line":1,"transit":false,"distance":471,"time":1,"station_name":"Karet","station_id":"KAT","i_lat":-6.20132},{"distance":2029,"time":5,"station_name":"Tanah Abang","is_transit":false,"i_long":106.811091,"station_id":"THB","transit":false,"i_lat":-6.185545,"line":1},{"station_id":"DU","line":1,"i_lat":-6.155215,"time":8,"distance":3632,"transit":true,"station_name":"Duri","i_long":106.800832,"is_transit":true},{"is_transit":false,"transit":false,"distance":1700,"time":3,"line":5,"station_name":"Grogol","i_lat":-6.162021,"station_id":"GRG","i_long":106.788277},{"i_lat":-6.161433,"distance":2036,"transit":false,"is_transit":false,"time":2,"station_name":"Pesing","i_long":106.771379,"line":5,"station_id":"PSG"},{"time":2,"transit":false,"i_long":106.756522,"station_name":"Taman Kota","i_lat":-6.1587309999999995,"line":5,"is_transit":false,"distance":1614,"station_id":"TKO"},{"i_long":106.737035,"line":5,"time":2,"distance":2334,"i_lat":-6.159876,"station_id":"BOI","is_transit":false,"transit":false,"station_name":"Bojongindah"},{"station_id":"RW","time":4,"i_long":106.723064,"line":5,"distance":1152,"is_transit":false,"station_name":"Rawa Buaya","transit":false,"i_lat":-6.162758},{"time":3,"station_id":"KDS","i_lat":-6.166068,"distance":2504,"is_transit":false,"station_name":"Kalideres","transit":false,"i_long":106.701612,"line":5},{"time":3,"i_long":106.679458,"station_name":"Poris","line":5,"i_lat":-6.169933,"transit":false,"station_id":"PI","distance":2548,"is_transit":false},{"distance":1834,"i_lat":-6.171811,"transit":false,"station_id":"BPR","is_transit":false,"time":3,"station_name":"Batuceper","line":5,"i_long":106.665036}]]}