{"data":[[{"transit":false,"station_id":"AK","station_name":"Angke","is_transit":false,"i_lat":-6.144674,"time":0,"distance":0,"i_long":106.79867,"line":1},{"line":4,"station_name":"Kampung Bandan","station_id":"KPB","time":9,"is_transit":true,"i_lat":-6.132549,"i_long":106.826365,"distance":4102,"transit":true},{"transit":false,"station_name":"Rajawali","is_transit":false,"i_lat":-6.14505,"time":3,"i_long":106.836569,"distance":1444,"station_id":"RJW","line":11},{"transit":false,"distance":1901,"station_name":"Kemayoran","station_id":"KMO","i_long":106.839204,"time":5,"line":11,"is_transit":false,"i_lat":-6.161728},{"i_long":106.84368,"line":11,"i_lat":-6.174784,"time":4,"station_id":"PSE","transit":false,"is_transit":false,"distance":1436,"station_name":"Pasar Senen"},{"i_long":106.850107,"station_id":"GST","i_lat":-6.185975,"is_transit":false,"line":11,"transit":false,"distance":1567,"station_name":"Gang Sentiong","time":8},{"i_lat":-6.193792,"is_transit":false,"time":1,"station_id":"KMT","distance":973,"i_long":106.855437,"station_name":"Kramat","line":11,"transit":false},{"is_transit":false,"station_name":"Pondok Jati","time":2,"line":11,"station_id":"POK","i_lat":-6.209188,"transit":false,"distance":1829,"i_long":106.861737},{"transit":true,"station_name":"Jatinegara","time":9,"station_id":"JNG","is_transit":true,"i_long":106.86807400000001,"line":1,"distance":1236,"i_lat":-6.215091},{"i_long":106.899548,"line":1,"station_id":"KLD","i_lat":-6.2135,"transit":false,"time":3,"distance":3395,"station_name":"Klender","is_transit":false},{"i_lat":-6.215568,"station_name":"Buaran","station_id":"BUA","time":2,"distance":3100,"i_long":106.922662,"is_transit":false,"transit":false,"line":1}],[{"i_long":106.79867,"station_name":"Angke","time":0,"station_id":"AK","i_lat":-6.144674,"is_transit":false,"transit":false,"distance":0,"line":1},{"transit":false,"time":4,"line":1,"station_id":"DU","is_transit":false,"i_long":106.800832,"i_lat":-6.155215,"distance":1230,"station_name":"Duri"},{"i_long":106.811091,"station_name":"Tanah Abang","line":1,"distance":3632,"station_id":"THB","i_lat":-6.185545,"transit":false,"is_transit":false,"time":8},{"i_lat":-6.20132,"time":5,"i_long":106.816351,"line":1,"transit":false,"is_transit":false,"station_name":"Karet","distance":2029,"station_id":"KAT"},{"i_lat":-6.201433,"transit":false,"distance":471,"is_transit":false,"line":1,"time":1,"station_name":"Sudirman Baru","station_id":"SUDB","i_long":106.819881},{"transit":false,"line":1,"station_name":"Sudirman","i_long":106.822649,"station_id":"SUD","is_transit":false,"distance":280,"time":1,"i_lat":-6.202263},{"station_id":"MRI","time":4,"is_transit":false,"transit":false,"distance":3186,"i_lat":-6.209883,"station_name":"Manggarai","i_long":106.84912,"line":2},{"station_id":"MTR","station_name":"Matraman","is_transit":false,"time":2,"line":1,"i_lat":-6.212485,"distance":1275,"transit":false,"i_long":106.858896},{"i_lat":-6.215091,"distance":1377,"transit":false,"line":1,"station_id":"JNG","i_long":106.86807400000001,"is_transit":false,"time":8,"station_name":"Jatinegara"},{"station_id":"KLD","i_long":106.899548,"line":1,"transit":false,"distance":3395,"station_name":"Klender","is_transit":false,"i_lat":-6.2135,"time":3},{"is_transit":false,"distance":3100,"i_long":106.922662,"transit":false,"station_id":"BUA","time":2,"i_lat":-6.215568,"line":1,"station_name":"Buaran"}],[{"station_name":"Angke","time":0,"transit":false,"line":1,"i_long":106.79867,"distance":0,"i_lat":-6.144674,"is_transit":false,"station_id":"AK"},{"i_long":106.826365,"time":9,"line":4,"i_lat":-6.132549,"station_name":"Kampung Bandan","transit":true,"is_transit":true,"station_id":"KPB","distance":4102},{"i_lat":-6.137569,"line":2,"station_id":"JAKK","transit":true,"i_long":106.812439,"distance":1364,"station_name":"Jakarta Kota","is_transit":true,"time":3},{"line":2,"i_long":106.820901,"station_name":"Jayakarta","station_id":"JAY","i_lat":-6.141205,"time":4,"transit":false,"is_transit":false,"distance":1264},{"time":2,"is_transit":false,"station_id":"MGB","i_long":106.82482,"i_lat":-6.149769,"line":2,"transit":false,"distance":1080,"station_name":"Manggabesar"},{"is_transit":false,"distance":906,"i_lat":-6.160725,"line":2,"transit":false,"time":2,"station_name":"Sawah Besar","station_id":"SW","i_long":106.827103},{"i_long":106.828284,"line":2,"time":2,"transit":false,"station_id":"JUA","distance":1149,"station_name":"Juanda","is_transit":false,"i_lat":-6.166716},{"distance":2015,"i_long":106.832183,"is_transit":false,"transit":false,"station_id":"GDD","time":4,"station_name":"Gondangdia","line":2,"i_lat":-6.186295},{"station_id":"CKI","line":2,"is_transit":false,"distance":1750,"i_lat":-6.198556,"i_long":106.840169,"transit":false,"station_name":"Cikini","time":3},{"station_id":"MRI","is_transit":true,"i_lat":-6.209883,"station_name":"Manggarai","time":4,"distance":1590,"i_long":106.84912,"line":2,"transit":true},{"distance":1275,"station_name":"Matraman","i_lat":-6.212485,"i_long":106.858896,"transit":false,"is_transit":false,"time":2,"station_id":"MTR","line":1},{"station_id":"JNG","time":8,"transit":false,"station_name":"Jatinegara","i_lat":-6.215091,"distance":1377,"i_long":106.86807400000001,"is_transit":false,"line":1},{"i_lat":-6.2135,"station_id":"KLD","transit":false,"station_name":"Klender","is_transit":false,"time":3,"distance":3395,"i_long":106.899548,"line":1},{"distance":3100,"station_id":"BUA","i_long":106.922662,"line":1,"transit":false,"time":2,"is_transit":false,"i_lat":-6.215568,"station_name":"Buaran"}],[{"time":0,"distance":0,"transit":false,"i_long":106.79867,"line":1,"station_id":"AK","i_lat":-6.144674,"station_name":"Angke","is_transit":false},{"distance":1230,"line":1,"station_name":"Duri","is_transit":false,"time":4,"station_id":"DU","transit":false,"i_long":106.800832,"i_lat":-6.155215},{"station_id":"THB","time":8,"is_transit":false,"distance":3632,"i_lat":-6.185545,"transit":false,"line":1,"i_long":106.811091,"station_name":"Tanah Abang"},{"distance":2029,"line":1,"is_transit":false,"station_id":"KAT","station_name":"Karet","i_lat":-6.20132,"i_long":106.816351,"transit":false,"time":5},{"i_long":106.819881,"line":1,"time":1,"station_id":"SUDB","station_name":"Sudirman Baru","transit":false,"i_lat":-6.201433,"is_transit":false,"distance":471},{"line":1,"time":1,"is_transit":false,"i_lat":-6.202263,"station_id":"SUD","i_long":106.822649,"transit":false,"station_name":"Sudirman","distance":280},{"i_long":106.84912,"transit":true,"distance":3186,"is_transit":true,"time":4,"station_id":"MRI","station_name":"Manggarai","line":2,"i_lat":-6.209883},{"is_transit":false,"transit":false,"station_name":"Cikini","i_long":106.840169,"i_lat":-6.198556,"time":4,"station_id":"CKI","line":2,"distance":1590},{"is_transit":false,"distance":1750,"i_long":106.832183,"line":2,"station_id":"GDD","station_name":"Gondangdia","i_lat":-6.186295,"time":3,"transit":false},{"transit":false,"i_long":106.828284,"distance":2015,"i_lat":-6.166716,"station_name":"Juanda","station_id":"JUA","is_transit":false,"time":4,"line":2},{"station_name":"Sawah Besar","station_id":"SW","distance":1149,"line":2,"time":2,"i_long":106.827103,"transit":false,"is_transit":false,"i_lat":-6.160725},{"distance":906,"is_transit":false,"transit":false,"station_name":"Manggabesar","station_id":"MGB","i_long":106.82482,"i_lat":-6.149769,"line":2,"time":2},{"station_id":"JAY","distance":1080,"station_name":"Jayakarta","i_lat":-6.141205,"transit":false,"i_long":106.820901,"is_transit":false,"time":2,"line":2},{"station_id":"JAKK","line":2,"transit":true,"i_lat":-6.137569,"time":4,"i_long":106.812439,"station_name":"Jakarta Kota","is_transit":true,"distance":1264},{"station_id":"KPB","station_name":"Kampung Bandan","time":3,"distance":1364,"i_long":106.826365,"line":4,"transit":true,"is_transit":true,"i_lat":-6.132549},{"station_id":"RJW","time":3,"i_long":106.836569,"transit":false,"station_name":"Rajawali","i_lat":-6.14505,"distance":1444,"is_transit":false,"line":11},{"time":5,"distance":1901,"is_transit":false,"station_name":"Kemayoran","line":11,"transit":false,"station_id":"KMO","i_long":106.839204,"i_lat":-6.161728},{"i_long":106.84368,"transit":false,"distance":1436,"station_name":"Pasar Senen","is_transit":false,"time":4,"station_id":"PSE","i_lat":-6.174784,"line":11},{"is_transit":false,"distance":1567,"i_long":106.850107,"time":8,"i_lat":-6.185975,"line":11,"station_id":"GST","transit":false,"station_name":"Gang Sentiong"},{"transit":false,"distance":973,"station_id":"KMT","time":1,"i_long":106.855437,"line":11,"is_transit":false,"i_lat":-6.193792,"station_name":"Kramat"},{"distance":1829,"station_id":"POK","is_transit":false,"i_long":106.861737,"transit":false,"line":11,"time":2,"i_lat":-6.209188,"station_name":"Pondok Jati"},{"station_name":"Jatinegara","station_id":"JNG","i_long":106.86807400000001,"is_transit":true,"time":9,"distance":1236,"transit":true,"line":1,"i_lat":-6.215091},{"station_id":"KLD","distance":3395,"i_long":106.899548,"transit":false,"station_name":"Klender","time":3,"is_transit":false,"i_lat":-6.2135,"line":1},{"distance":3100,"time":2,"i_long":106.922662,"is_transit":false,"line":1,"transit":false,"station_name":"Buaran","station_id":"BUA","i_lat":-6.215568}]]}