{"data":[[{"distance":0,"i_lat":-6.144674,"i_long":106.79867,"station_name":"Angke","time":0,"transit":false,"station_id":"AK","line":1,"is_transit":false},{"transit":true,"station_id":"KPB","station_name":"Kampung Bandan","is_transit":true,"i_long":106.826365,"line":4,"i_lat":-6.132549,"time":9,"distance":4102},{"i_long":106.836569,"line":11,"station_name":"Rajawali","transit":false,"is_transit":false,"station_id":"RJW","time":3,"i_lat":-6.14505,"distance":1444},{"i_long":106.839204,"time":5,"i_lat":-6.161728,"station_name":"Kemayoran","is_transit":false,"transit":false,"line":11,"station_id":"KMO","distance":1901},{"line":11,"station_id":"PSE","is_transit":false,"station_name":"Pasar Senen","i_long":106.84368,"time":4,"transit":false,"i_lat":-6.174784,"distance":1436},{"distance":1567,"station_name":"Gang Sentiong","time":8,"is_transit":false,"transit":false,"i_long":106.850107,"station_id":"GST","i_lat":-6.185975,"line":11},{"is_transit":false,"line":11,"i_lat":-6.193792,"time":1,"station_id":"KMT","i_long":106.855437,"station_name":"Kramat","transit":false,"distance":973},{"station_name":"Pondok Jati","distance":1829,"i_lat":-6.209188,"station_id":"POK","is_transit":false,"i_long":106.861737,"transit":false,"time":2,"line":11},{"distance":1236,"is_transit":true,"station_name":"Jatinegara","transit":true,"i_lat":-6.215091,"i_long":106.86807400000001,"line":1,"time":9,"station_id":"JNG"},{"is_transit":false,"station_id":"KLD","i_long":106.899548,"i_lat":-6.2135,"time":3,"line":1,"distance":3395,"station_name":"Klender","transit":false},{"time":2,"distance":3100,"station_name":"Buaran","i_long":106.922662,"line":1,"transit":false,"is_transit":false,"station_id":"BUA","i_lat":-6.215568},{"transit":false,"station_id":"KLDB","time":1,"is_transit":false,"i_lat":-6.217455,"i_long":106.939679,"distance":1305,"station_name":"Klenderbaru","line":1},{"transit":false,"distance":1385,"line":1,"station_name":"Cakung","station_id":"CUK","i_lat":-6.219053,"time":8,"i_long":106.951283,"is_transit":false},{"distance":3097,"station_id":"KRI","is_transit":false,"time":3,"station_name":"Kranji","transit":false,"i_long":106.977657,"line":1,"i_lat":-6.224515},{"i_lat":-6.236616,"time":4,"is_transit":false,"transit":false,"i_long":106.997013,"distance":2520,"station_name":"Bekasi","line":1,"station_id":"BKS"},{"distance":2368,"transit":false,"i_lat":-6.248029,"i_long":107.016735,"line":1,"time":2,"station_name":"Bekasi Timur","station_id":"BKST","is_transit":false}],[{"transit":false,"distance":0,"i_long":106.79867,"station_id":"AK","i_lat":-6.144674,"is_transit":false,"time":0,"line":1,"station_name":"Angke"},{"i_lat":-6.155215,"time":4,"is_transit":false,"station_name":"Duri","transit":false,"station_id":"DU","line":1,"i_long":106.800832,"distance":1230},{"is_transit":false,"transit":false,"i_lat":-6.185545,"time":8,"station_id":"THB","distance":3632,"station_name":"Tanah Abang","i_long":106.811091,"line":1},{"time":5,"transit":false,"station_name":"Karet","line":1,"station_id":"KAT","is_transit":false,"i_long":106.816351,"distance":2029,"i_lat":-6.20132},{"line":1,"time":1,"station_name":"Sudirman Baru","i_long":106.819881,"is_transit":false,"i_lat":-6.201433,"station_id":"SUDB","distance":471,"transit":false},{"distance":280,"station_id":"SUD","is_transit":false,"station_name":"Sudirman","line":1,"time":1,"i_long":106.822649,"transit":false,"i_lat":-6.202263},{"i_lat":-6.209883,"line":2,"time":4,"transit":false,"station_id":"MRI","is_transit":false,"i_long":106.84912,"station_name":"Manggarai","distance":3186},{"line":1,"i_lat":-6.212485,"station_id":"MTR","station_name":"Matraman","time":2,"distance":1275,"is_transit":false,"transit":false,"i_long":106.858896},{"line":1,"distance":1377,"time":8,"station_id":"JNG","i_lat":-6.215091,"station_name":"Jatinegara","is_transit":false,"transit":false,"i_long":106.86807400000001},{"line":1,"i_long":106.899548,"distance":3395,"station_name":"Klender","station_id":"KLD","time":3,"is_transit":false,"transit":false,"i_lat":-6.2135},{"line":1,"is_transit":false,"i_long":106.922662,"station_name":"Buaran","station_id":"BUA","i_lat":-6.215568,"transit":false,"time":2,"distance":3100},{"line":1,"station_name":"Klenderbaru","is_transit":false,"time":1,"i_long":106.939679,"transit":false,"station_id":"KLDB","i_lat":-6.217455,"distance":1305},{"line":1,"transit":false,"distance":1385,"station_name":"Cakung","time":8,"i_lat":-6.219053,"station_id":"CUK","i_long":106.951283,"is_transit":false},{"time":3,"i_lat":-6.224515,"is_transit":false,"distance":3097,"station_id":"KRI","station_name":"Kranji","i_long":106.977657,"transit":false,"line":1},{"i_lat":-6.236616,"transit":false,"station_id":"BKS","i_long":106.997013,"distance":2520,"time":4,"is_transit":false,"line":1,"station_name":"Bekasi"},{"time":2,"distance":2368,"station_id":"BKST","i_long":107.016735,"line":1,"is_transit":false,"i_lat":-6.248029,"station_name":"Bekasi Timur","transit":false}],[{"i_long":106.79867,"line":1,"distance":0,"transit":false,"time":0,"station_name":"Angke","station_id":"AK","is_transit":false,"i_lat":-6.144674},{"i_long":106.826365,"station_name":"Kampung Bandan","station_id":"KPB","time":9,"distance":4102,"transit":true,"i_lat":-6.132549,"line":4,"is_transit":true},{"line":2,"transit":true,"station_name":"Jakarta Kota","i_long":106.812439,"time":3,"distance":1364,"is_transit":true,"i_lat":-6.137569,"station_id":"JAKK"},{"i_lat":-6.141205,"distance":1264,"time":4,"station_name":"Jayakarta","line":2,"station_id":"JAY","is_transit":false,"i_long":106.820901,"transit":false},{"distance":1080,"i_long":106.82482,"line":2,"time":2,"i_lat":-6.149769,"transit":false,"station_name":"Manggabesar","station_id":"MGB","is_transit":false},{"i_lat":-6.160725,"time":2,"transit":false,"distance":906,"station_id":"SW","station_name":"Sawah Besar","i_long":106.827103,"is_transit":false,"line":2},{"distance":1149,"transit":false,"is_transit":false,"line":2,"time":2,"i_lat":-6.166716,"station_name":"Juanda","station_id":"JUA","i_long":106.828284},{"transit":false,"line":2,"time":4,"is_transit":false,"station_id":"GDD","i_lat":-6.186295,"distance":2015,"station_name":"Gondangdia","i_long":106.832183},{"station_name":"Cikini","distance":1750,"is_transit":false,"line":2,"i_long":106.840169,"time":3,"station_id":"CKI","transit":false,"i_lat":-6.198556},{"is_transit":true,"time":4,"station_id":"MRI","station_name":"Manggarai","i_long":106.84912,"i_lat":-6.209883,"line":2,"transit":true,"distance":1590},{"i_long":106.858896,"i_lat":-6.212485,"line":1,"distance":1275,"station_id":"MTR","station_name":"Matraman","is_transit":false,"time":2,"transit":false},{"time":8,"i_lat":-6.215091,"station_id":"JNG","station_name":"Jatinegara","transit":false,"distance":1377,"i_long":106.86807400000001,"line":1,"is_transit":false},{"line":1,"distance":3395,"station_id":"KLD","transit":false,"time":3,"station_name":"Klender","is_transit":false,"i_long":106.899548,"i_lat":-6.2135},{"distance":3100,"transit":false,"time":2,"i_long":106.922662,"is_transit":false,"station_id":"BUA","station_name":"Buaran","i_lat":-6.215568,"line":1},{"time":1,"station_name":"Klenderbaru","transit":false,"is_transit":false,"i_lat":-6.217455,"station_id":"KLDB","line":1,"distance":1305,"i_long":106.939679},{"station_name":"Cakung","is_transit":false,"distance":1385,"transit":false,"line":1,"i_lat":-6.219053,"i_long":106.951283,"station_id":"CUK","time":8},{"station_name":"Kranji","time":3,"distance":3097,"station_id":"KRI","transit":false,"is_transit":false,"i_lat":-6.224515,"i_long":106.977657,"line":1},{"station_id":"BKS","i_long":106.997013,"station_name":"Bekasi","is_transit":false,"line":1,"distance":2520,"time":4,"i_lat":-6.236616,"transit":false},{"station_id":"BKST","distance":2368,"line":1,"transit":false,"time":2,"i_lat":-6.248029,"i_long":107.016735,"station_name":"Bekasi Timur","is_transit":false}],[{"time":0,"line":1,"i_long":106.79867,"station_id":"AK","transit":false,"station_name":"Angke","distance":0,"i_lat":-6.144674,"is_transit":false},{"time":4,"line":1,"i_lat":-6.155215,"station_id":"DU","distance":1230,"is_transit":false,"station_name":"Duri","i_long":106.800832,"transit":false},{"station_name":"Tanah Abang","time":8,"line":1,"is_transit":false,"station_id":"THB","i_lat":-6.185545,"distance":3632,"transit":false,"i_long":106.811091},{"transit":false,"station_id":"KAT","i_lat":-6.20132,"line":1,"i_long":106.816351,"station_name":"Karet","is_transit":false,"distance":2029,"time":5},{"transit":false,"time":1,"line":1,"station_name":"Sudirman Baru","is_transit":false,"distance":471,"station_id":"SUDB","i_long":106.819881,"i_lat":-6.201433},{"i_long":106.822649,"line":1,"station_name":"Sudirman","distance":280,"is_transit":false,"station_id":"SUD","time":1,"i_lat":-6.202263,"transit":false},{"transit":true,"station_name":"Manggarai","time":4,"station_id":"MRI","i_long":106.84912,"i_lat":-6.209883,"distance":3186,"line":2,"is_transit":true},{"station_name":"Cikini","time":4,"line":2,"i_lat":-6.198556,"distance":1590,"station_id":"CKI","is_transit":false,"transit":false,"i_long":106.840169},{"station_id":"GDD","i_lat":-6.186295,"station_name":"Gondangdia","line":2,"transit":false,"time":3,"distance":1750,"i_long":106.832183,"is_transit":false},{"station_id":"JUA","station_name":"Juanda","distance":2015,"i_lat":-6.166716,"transit":false,"line":2,"is_transit":false,"time":4,"i_long":106.828284},{"is_transit":false,"time":2,"i_lat":-6.160725,"distance":1149,"i_long":106.827103,"line":2,"transit":false,"station_name":"Sawah Besar","station_id":"SW"},{"station_id":"MGB","i_lat":-6.149769,"line":2,"is_transit":false,"distance":906,"transit":false,"station_name":"Manggabesar","time":2,"i_long":106.82482},{"line":2,"is_transit":false,"time":2,"station_name":"Jayakarta","station_id":"JAY","distance":1080,"i_lat":-6.141205,"i_long":106.820901,"transit":false},{"i_long":106.812439,"transit":true,"distance":1264,"time":4,"line":2,"is_transit":true,"i_lat":-6.137569,"station_name":"Jakarta Kota","station_id":"JAKK"},{"station_id":"KPB","station_name":"Kampung Bandan","is_transit":true,"time":3,"line":4,"i_lat":-6.132549,"distance":1364,"i_long":106.826365,"transit":true},{"i_long":106.836569,"distance":1444,"transit":false,"station_id":"RJW","i_lat":-6.14505,"time":3,"station_name":"Rajawali","is_transit":false,"line":11},{"time":5,"line":11,"station_id":"KMO","is_transit":false,"distance":1901,"i_lat":-6.161728,"station_name":"Kemayoran","transit":false,"i_long":106.839204},{"transit":false,"station_id":"PSE","i_long":106.84368,"distance":1436,"line":11,"time":4,"station_name":"Pasar Senen","i_lat":-6.174784,"is_transit":false},{"line":11,"i_long":106.850107,"is_transit":false,"station_name":"Gang Sentiong","distance":1567,"transit":false,"station_id":"GST","time":8,"i_lat":-6.185975},{"transit":false,"time":1,"is_transit":false,"distance":973,"i_lat":-6.193792,"i_long":106.855437,"station_id":"KMT","station_name":"Kramat","line":11},{"i_lat":-6.209188,"distance":1829,"station_id":"POK","is_transit":false,"transit":false,"line":11,"station_name":"Pondok Jati","time":2,"i_long":106.861737},{"transit":true,"line":1,"station_name":"Jatinegara","distance":1236,"time":9,"i_lat":-6.215091,"i_long":106.86807400000001,"is_transit":true,"station_id":"JNG"},{"station_name":"Klender","transit":false,"i_lat":-6.2135,"line":1,"i_long":106.899548,"is_transit":false,"time":3,"station_id":"KLD","distance":3395},{"is_transit":false,"transit":false,"time":2,"station_name":"Buaran","station_id":"BUA","i_lat":-6.215568,"line":1,"distance":3100,"i_long":106.922662},{"line":1,"distance":1305,"station_name":"Klenderbaru","station_id":"KLDB","time":1,"i_lat":-6.217455,"i_long":106.939679,"transit":false,"is_transit":false},{"time":8,"station_id":"CUK","line":1,"i_lat":-6.219053,"station_name":"Cakung","is_transit":false,"i_long":106.951283,"distance":1385,"transit":false},{"i_lat":-6.224515,"line":1,"time":3,"i_long":106.977657,"distance":3097,"transit":false,"is_transit":false,"station_id":"KRI","station_name":"Kranji"},{"line":1,"transit":false,"i_long":106.997013,"station_id":"BKS","time":4,"i_lat":-6.236616,"distance":2520,"station_name":"Bekasi","is_transit":false},{"station_name":"Bekasi Timur","transit":false,"is_transit":false,"line":1,"station_id":"BKST","distance":2368,"i_long":107.016735,"i_lat":-6.248029,"time":2}]]}