{"data":[[{"time":0,"distance":0,"i_lat":-6.144674,"i_long":106.79867,"station_id":"AK","station_name":"Angke","line":1,"transit":false,"is_transit":false},{"i_long":106.800832,"station_id":"DU","station_name":"Duri","time":4,"distance":1230,"line":1,"i_lat":-6.155215,"transit":false,"is_transit":false},{"i_lat":-6.185545,"transit":false,"is_transit":false,"i_long":106.811091,"time":8,"station_id":"THB","distance":3632,"line":1,"station_name":"Tanah Abang"},{"transit":false,"station_name":"Karet","is_transit":false,"station_id":"KAT","i_lat":-6.20132,"distance":2029,"i_long":106.816351,"line":1,"time":5},{"station_id":"SUDB","is_transit":false,"distance":471,"i_lat":-6.201433,"line":1,"transit":false,"station_name":"Sudirman Baru","time":1,"i_long":106.819881},{"station_id":"SUD","i_lat":-6.202263,"distance":280,"is_transit":false,"time":1,"i_long":106.822649,"station_name":"Sudirman","line":1,"transit":false},{"i_lat":-6.209883,"is_transit":true,"i_long":106.84912,"line":2,"transit":true,"station_name":"Manggarai","time":4,"distance":3186,"station_id":"MRI"},{"transit":false,"distance":2610,"station_id":"TEB","station_name":"Tebet","is_transit":false,"time":4,"i_long":106.857948,"i_lat":-6.226659,"line":2},{"station_name":"Cawang","i_long":106.856607,"transit":false,"distance":1230,"line":2,"time":2,"i_lat":-6.242512,"station_id":"CW","is_transit":false},{"station_id":"DRN","is_transit":false,"distance":1546,"transit":false,"station_name":"Duren Kalibata","time":3,"line":2,"i_long":106.85449,"i_lat":-6.255332},{"i_lat":-6.263214,"transit":false,"distance":824,"station_id":"PSMB","i_long":106.851577,"time":2,"is_transit":false,"station_name":"Pasar Minggu Baru","line":2},{"i_long":106.843999,"station_id":"PSM","transit":false,"is_transit":false,"i_lat":-6.2842400000000005,"distance":2380,"line":2,"station_name":"Pasar Minggu","time":2},{"station_name":"Tanjung Barat","time":4,"i_long":106.838896,"is_transit":false,"station_id":"TNT","distance":2820,"transit":false,"i_lat":-6.3080680000000005,"line":2},{"distance":2671,"time":3,"i_long":106.832616,"is_transit":false,"station_id":"LNA","transit":false,"i_lat":-6.330363,"line":2,"station_name":"Lenteng Agung"},{"station_id":"UP","distance":1029,"is_transit":false,"transit":false,"time":2,"station_name":"Univ. Pancasila","i_long":106.834175,"line":2,"i_lat":-6.339291},{"station_id":"UI","is_transit":false,"time":3,"line":2,"i_lat":-6.360749,"i_long":106.831474,"transit":false,"distance":2264,"station_name":"Univ. Indonesia"},{"station_id":"POC","distance":1109,"i_long":106.831114,"time":2,"i_lat":-6.369073,"transit":false,"station_name":"Pondok Cina","is_transit":false,"line":2},{"station_name":"Depokbaru","station_id":"DPB","i_lat":-6.391065,"time":4,"is_transit":false,"transit":false,"i_long":106.819451,"line":2,"distance":2727},{"i_lat":-6.405256,"i_long":106.816926,"time":3,"station_id":"DP","line":2,"transit":false,"station_name":"Depok","distance":1584,"is_transit":false},{"i_long":106.800298,"time":6,"distance":5084,"line":2,"station_name":"Citayam","i_lat":-6.448811,"station_id":"CTA","is_transit":false,"transit":false},{"distance":5197,"i_long":106.792719,"station_id":"BJD","transit":false,"is_transit":false,"time":5,"i_lat":-6.493243,"station_name":"Bojonggede","line":2}],[{"station_name":"Angke","time":0,"station_id":"AK","distance":0,"i_lat":-6.144674,"i_long":106.79867,"is_transit":false,"transit":false,"line":1},{"i_lat":-6.132549,"station_id":"KPB","i_long":106.826365,"time":9,"distance":4102,"line":4,"transit":true,"station_name":"Kampung Bandan","is_transit":true},{"transit":true,"is_transit":true,"station_name":"Jakarta Kota","station_id":"JAKK","i_long":106.812439,"i_lat":-6.137569,"time":3,"distance":1364,"line":2},{"station_name":"Jayakarta","is_transit":false,"distance":1264,"line":2,"i_long":106.820901,"station_id":"JAY","i_lat":-6.141205,"time":4,"transit":false},{"line":2,"station_name":"Manggabesar","station_id":"MGB","time":2,"is_transit":false,"i_long":106.82482,"distance":1080,"transit":false,"i_lat":-6.149769},{"i_long":106.827103,"is_transit":false,"transit":false,"station_name":"Sawah Besar","station_id":"SW","distance":906,"line":2,"i_lat":-6.160725,"time":2},{"distance":1149,"line":2,"is_transit":false,"time":2,"station_id":"JUA","i_lat":-6.166716,"i_long":106.828284,"station_name":"Juanda","transit":false},{"distance":2015,"station_name":"Gondangdia","time":4,"line":2,"i_long":106.832183,"station_id":"GDD","is_transit":false,"i_lat":-6.186295,"transit":false},{"time":3,"line":2,"station_name":"Cikini","i_lat":-6.198556,"distance":1750,"i_long":106.840169,"is_transit":false,"transit":false,"station_id":"CKI"},{"i_long":106.84912,"line":2,"transit":false,"station_name":"Manggarai","is_transit":false,"i_lat":-6.209883,"time":4,"station_id":"MRI","distance":1590},{"i_long":106.857948,"time":4,"station_id":"TEB","is_transit":false,"station_name":"Tebet","transit":false,"i_lat":-6.226659,"line":2,"distance":2610},{"transit":false,"station_name":"Cawang","station_id":"CW","is_transit":false,"line":2,"i_long":106.856607,"i_lat":-6.242512,"distance":1230,"time":2},{"line":2,"time":3,"i_lat":-6.255332,"station_id":"DRN","distance":1546,"station_name":"Duren Kalibata","i_long":106.85449,"is_transit":false,"transit":false},{"i_long":106.851577,"i_lat":-6.263214,"transit":false,"station_id":"PSMB","station_name":"Pasar Minggu Baru","time":2,"line":2,"distance":824,"is_transit":false},{"time":2,"station_name":"Pasar Minggu","i_long":106.843999,"distance":2380,"is_transit":false,"i_lat":-6.2842400000000005,"transit":false,"line":2,"station_id":"PSM"},{"station_id":"TNT","i_lat":-6.3080680000000005,"line":2,"station_name":"Tanjung Barat","is_transit":false,"time":4,"transit":false,"distance":2820,"i_long":106.838896},{"is_transit":false,"time":3,"station_id":"LNA","i_long":106.832616,"station_name":"Lenteng Agung","i_lat":-6.330363,"line":2,"distance":2671,"transit":false},{"i_long":106.834175,"distance":1029,"station_id":"UP","is_transit":false,"time":2,"transit":false,"i_lat":-6.339291,"line":2,"station_name":"Univ. Pancasila"},{"distance":2264,"time":3,"line":2,"station_id":"UI","i_lat":-6.360749,"transit":false,"station_name":"Univ. Indonesia","is_transit":false,"i_long":106.831474},{"distance":1109,"station_id":"POC","transit":false,"station_name":"Pondok Cina","is_transit":false,"line":2,"i_long":106.831114,"i_lat":-6.369073,"time":2},{"i_lat":-6.391065,"time":4,"station_name":"Depokbaru","is_transit":false,"distance":2727,"line":2,"i_long":106.819451,"station_id":"DPB","transit":false},{"i_lat":-6.405256,"line":2,"i_long":106.816926,"distance":1584,"station_name":"Depok","transit":false,"is_transit":false,"time":3,"station_id":"DP"},{"station_name":"Citayam","transit":false,"i_lat":-6.448811,"line":2,"station_id":"CTA","distance":5084,"time":6,"i_long":106.800298,"is_transit":false},{"distance":5197,"time":5,"station_id":"BJD","i_lat":-6.493243,"transit":false,"station_name":"Bojonggede","i_long":106.792719,"line":2,"is_transit":false}],[{"station_id":"AK","distance":0,"station_name":"Angke","time":0,"i_lat":-6.144674,"transit":false,"line":1,"is_transit":false,"i_long":106.79867},{"station_name":"Kampung Bandan","i_long":106.826365,"time":9,"station_id":"KPB","is_transit":true,"line":4,"transit":true,"distance":4102,"i_lat":-6.132549},{"line":11,"i_long":106.836569,"station_id":"RJW","station_name":"Rajawali","is_transit":false,"transit":false,"distance":1444,"time":3,"i_lat":-6.14505},{"distance":1901,"line":11,"station_id":"KMO","transit":false,"station_name":"Kemayoran","i_long":106.839204,"i_lat":-6.161728,"is_transit":false,"time":5},{"i_long":106.84368,"station_name":"Pasar Senen","distance":1436,"i_lat":-6.174784,"line":11,"station_id":"PSE","transit":false,"is_transit":false,"time":4},{"distance":1567,"i_lat":-6.185975,"time":8,"station_name":"Gang Sentiong","line":11,"i_long":106.850107,"station_id":"GST","transit":false,"is_transit":false},{"i_lat":-6.193792,"i_long":106.855437,"transit":false,"station_name":"Kramat","station_id":"KMT","line":11,"is_transit":false,"time":1,"distance":973},{"station_id":"POK","station_name":"Pondok Jati","i_lat":-6.209188,"i_long":106.861737,"time":2,"transit":false,"distance":1829,"line":11,"is_transit":false},{"is_transit":true,"i_lat":-6.215091,"line":1,"station_id":"JNG","i_long":106.86807400000001,"transit":true,"time":9,"distance":1236,"station_name":"Jatinegara"},{"i_long":106.858896,"line":1,"is_transit":false,"i_lat":-6.212485,"station_name":"Matraman","station_id":"MTR","time":2,"transit":false,"distance":1377},{"transit":true,"is_transit":true,"station_id":"MRI","station_name":"Manggarai","distance":1275,"time":2,"i_lat":-6.209883,"i_long":106.84912,"line":2},{"i_lat":-6.226659,"transit":false,"distance":2610,"station_id":"TEB","time":4,"i_long":106.857948,"is_transit":false,"station_name":"Tebet","line":2},{"i_long":106.856607,"i_lat":-6.242512,"line":2,"distance":1230,"is_transit":false,"station_name":"Cawang","station_id":"CW","transit":false,"time":2},{"distance":1546,"station_id":"DRN","transit":false,"line":2,"i_lat":-6.255332,"station_name":"Duren Kalibata","time":3,"i_long":106.85449,"is_transit":false},{"transit":false,"time":2,"station_name":"Pasar Minggu Baru","is_transit":false,"i_lat":-6.263214,"distance":824,"line":2,"i_long":106.851577,"station_id":"PSMB"},{"station_name":"Pasar Minggu","station_id":"PSM","is_transit":false,"i_lat":-6.2842400000000005,"distance":2380,"line":2,"time":2,"i_long":106.843999,"transit":false},{"i_lat":-6.3080680000000005,"is_transit":false,"transit":false,"station_name":"Tanjung Barat","station_id":"TNT","line":2,"distance":2820,"i_long":106.838896,"time":4},{"station_name":"Lenteng Agung","line":2,"distance":2671,"transit":false,"station_id":"LNA","i_lat":-6.330363,"i_long":106.832616,"is_transit":false,"time":3},{"station_name":"Univ. Pancasila","station_id":"UP","i_lat":-6.339291,"transit":false,"time":2,"i_long":106.834175,"line":2,"distance":1029,"is_transit":false},{"line":2,"station_id":"UI","i_lat":-6.360749,"time":3,"transit":false,"is_transit":false,"distance":2264,"station_name":"Univ. Indonesia","i_long":106.831474},{"line":2,"is_transit":false,"station_name":"Pondok Cina","i_lat":-6.369073,"station_id":"POC","time":2,"transit":false,"distance":1109,"i_long":106.831114},{"distance":2727,"line":2,"station_id":"DPB","time":4,"transit":false,"station_name":"Depokbaru","i_lat":-6.391065,"is_transit":false,"i_long":106.819451},{"i_long":106.816926,"line":2,"i_lat":-6.405256,"transit":false,"time":3,"station_name":"Depok","station_id":"DP","is_transit":false,"distance":1584},{"distance":5084,"line":2,"transit":false,"station_id":"CTA","time":6,"station_name":"Citayam","i_lat":-6.448811,"i_long":106.800298,"is_transit":false},{"distance":5197,"is_transit":false,"i_lat":-6.493243,"i_long":106.792719,"line":2,"transit":false,"time":5,"station_name":"Bojonggede","station_id":"BJD"}]]}