{"data":[[{"station_name":"Angke","distance":0,"time":0,"i_long":106.79867,"i_lat":-6.144674,"is_transit":false,"transit":false,"station_id":"AK","line":1},{"station_name":"Duri","is_transit":false,"line":1,"i_lat":-6.155215,"station_id":"DU","transit":false,"i_long":106.800832,"time":4,"distance":1230},{"i_long":106.811091,"station_name":"Tanah Abang","i_lat":-6.185545,"time":8,"distance":3632,"transit":false,"station_id":"THB","line":1,"is_transit":false},{"time":5,"line":1,"transit":false,"distance":2029,"is_transit":false,"i_long":106.816351,"i_lat":-6.20132,"station_name":"Karet","station_id":"KAT"},{"transit":false,"distance":471,"i_lat":-6.201433,"time":1,"i_long":106.819881,"is_transit":false,"line":1,"station_id":"SUDB","station_name":"Sudirman Baru"},{"station_name":"Sudirman","station_id":"SUD","i_lat":-6.202263,"transit":false,"i_long":106.822649,"line":1,"time":1,"is_transit":false,"distance":280},{"station_name":"Manggarai","time":4,"i_long":106.84912,"line":2,"station_id":"MRI","i_lat":-6.209883,"transit":true,"distance":3186,"is_transit":true},{"i_long":106.857948,"time":4,"distance":2610,"station_name":"Tebet","station_id":"TEB","transit":false,"i_lat":-6.226659,"is_transit":false,"line":2},{"i_long":106.856607,"time":2,"station_name":"Cawang","is_transit":false,"transit":false,"distance":1230,"i_lat":-6.242512,"line":2,"station_id":"CW"},{"time":3,"i_lat":-6.255332,"distance":1546,"i_long":106.85449,"line":2,"station_name":"Duren Kalibata","station_id":"DRN","transit":false,"is_transit":false},{"i_long":106.851577,"distance":824,"line":2,"station_id":"PSMB","transit":false,"is_transit":false,"i_lat":-6.263214,"time":2,"station_name":"Pasar Minggu Baru"},{"is_transit":false,"station_id":"PSM","i_lat":-6.2842400000000005,"transit":false,"i_long":106.843999,"distance":2380,"line":2,"station_name":"Pasar Minggu","time":2},{"distance":2820,"i_long":106.838896,"line":2,"i_lat":-6.3080680000000005,"station_name":"Tanjung Barat","time":4,"is_transit":false,"transit":false,"station_id":"TNT"},{"i_long":106.832616,"is_transit":false,"station_name":"Lenteng Agung","time":3,"transit":false,"distance":2671,"station_id":"LNA","i_lat":-6.330363,"line":2},{"transit":false,"station_name":"Univ. Pancasila","i_lat":-6.339291,"distance":1029,"is_transit":false,"time":2,"line":2,"station_id":"UP","i_long":106.834175},{"station_id":"UI","i_long":106.831474,"line":2,"time":3,"distance":2264,"is_transit":false,"transit":false,"station_name":"Univ. Indonesia","i_lat":-6.360749},{"i_long":106.831114,"line":2,"station_name":"Pondok Cina","station_id":"POC","i_lat":-6.369073,"time":2,"distance":1109,"transit":false,"is_transit":false},{"is_transit":false,"time":4,"i_long":106.819451,"distance":2727,"i_lat":-6.391065,"transit":false,"line":2,"station_id":"DPB","station_name":"Depokbaru"},{"i_lat":-6.405256,"line":2,"station_id":"DP","transit":false,"distance":1584,"time":3,"station_name":"Depok","i_long":106.816926,"is_transit":false},{"time":6,"i_long":106.800298,"transit":false,"station_name":"Citayam","station_id":"CTA","distance":5084,"i_lat":-6.448811,"line":2,"is_transit":false},{"distance":5197,"station_name":"Bojonggede","transit":false,"i_lat":-6.493243,"i_long":106.792719,"station_id":"BJD","is_transit":false,"time":5,"line":2}],[{"transit":false,"station_id":"AK","is_transit":false,"i_long":106.79867,"time":0,"i_lat":-6.144674,"line":1,"distance":0,"station_name":"Angke"},{"line":4,"transit":true,"is_transit":true,"station_name":"Kampung Bandan","time":9,"distance":4102,"i_long":106.826365,"station_id":"KPB","i_lat":-6.132549},{"station_name":"Jakarta Kota","transit":true,"time":3,"distance":1364,"is_transit":true,"station_id":"JAKK","i_lat":-6.137569,"i_long":106.812439,"line":2},{"transit":false,"station_name":"Jayakarta","time":4,"line":2,"i_lat":-6.141205,"station_id":"JAY","distance":1264,"i_long":106.820901,"is_transit":false},{"station_id":"MGB","time":2,"transit":false,"i_lat":-6.149769,"distance":1080,"line":2,"is_transit":false,"station_name":"Manggabesar","i_long":106.82482},{"transit":false,"time":2,"station_id":"SW","is_transit":false,"distance":906,"i_long":106.827103,"line":2,"i_lat":-6.160725,"station_name":"Sawah Besar"},{"station_id":"JUA","line":2,"station_name":"Juanda","time":2,"i_lat":-6.166716,"transit":false,"is_transit":false,"i_long":106.828284,"distance":1149},{"transit":false,"i_long":106.832183,"station_id":"GDD","line":2,"i_lat":-6.186295,"station_name":"Gondangdia","is_transit":false,"time":4,"distance":2015},{"distance":1750,"i_long":106.840169,"station_name":"Cikini","line":2,"transit":false,"station_id":"CKI","is_transit":false,"i_lat":-6.198556,"time":3},{"station_name":"Manggarai","i_lat":-6.209883,"distance":1590,"transit":false,"line":2,"i_long":106.84912,"time":4,"is_transit":false,"station_id":"MRI"},{"station_name":"Tebet","is_transit":false,"i_long":106.857948,"line":2,"station_id":"TEB","time":4,"distance":2610,"i_lat":-6.226659,"transit":false},{"i_long":106.856607,"transit":false,"distance":1230,"station_id":"CW","time":2,"line":2,"i_lat":-6.242512,"is_transit":false,"station_name":"Cawang"},{"is_transit":false,"station_name":"Duren Kalibata","distance":1546,"line":2,"i_lat":-6.255332,"transit":false,"station_id":"DRN","time":3,"i_long":106.85449},{"line":2,"transit":false,"i_long":106.851577,"station_id":"PSMB","time":2,"station_name":"Pasar Minggu Baru","is_transit":false,"distance":824,"i_lat":-6.263214},{"transit":false,"distance":2380,"line":2,"station_id":"PSM","is_transit":false,"station_name":"Pasar Minggu","i_lat":-6.2842400000000005,"i_long":106.843999,"time":2},{"line":2,"distance":2820,"is_transit":false,"time":4,"transit":false,"station_name":"Tanjung Barat","station_id":"TNT","i_lat":-6.3080680000000005,"i_long":106.838896},{"i_long":106.832616,"transit":false,"line":2,"distance":2671,"station_name":"Lenteng Agung","station_id":"LNA","is_transit":false,"i_lat":-6.330363,"time":3},{"is_transit":false,"time":2,"i_lat":-6.339291,"line":2,"distance":1029,"station_id":"UP","i_long":106.834175,"transit":false,"station_name":"Univ. Pancasila"},{"station_name":"Univ. Indonesia","i_lat":-6.360749,"transit":false,"time":3,"i_long":106.831474,"distance":2264,"line":2,"is_transit":false,"station_id":"UI"},{"is_transit":false,"transit":false,"distance":1109,"i_lat":-6.369073,"station_name":"Pondok Cina","line":2,"time":2,"i_long":106.831114,"station_id":"POC"},{"station_name":"Depokbaru","is_transit":false,"transit":false,"i_lat":-6.391065,"i_long":106.819451,"time":4,"station_id":"DPB","distance":2727,"line":2},{"transit":false,"station_id":"DP","time":3,"is_transit":false,"distance":1584,"i_lat":-6.405256,"station_name":"Depok","i_long":106.816926,"line":2},{"line":2,"station_id":"CTA","i_lat":-6.448811,"transit":false,"is_transit":false,"station_name":"Citayam","distance":5084,"i_long":106.800298,"time":6},{"i_long":106.792719,"station_id":"BJD","time":5,"station_name":"Bojonggede","transit":false,"distance":5197,"line":2,"is_transit":false,"i_lat":-6.493243}],[{"line":1,"is_transit":false,"station_name":"Angke","i_long":106.79867,"station_id":"AK","transit":false,"distance":0,"time":0,"i_lat":-6.144674},{"station_id":"KPB","transit":true,"distance":4102,"i_lat":-6.132549,"line":4,"is_transit":true,"station_name":"Kampung Bandan","i_long":106.826365,"time":9},{"time":3,"i_lat":-6.14505,"station_name":"Rajawali","station_id":"RJW","is_transit":false,"transit":false,"distance":1444,"i_long":106.836569,"line":11},{"station_name":"Kemayoran","i_long":106.839204,"line":11,"distance":1901,"i_lat":-6.161728,"station_id":"KMO","transit":false,"is_transit":false,"time":5},{"i_long":106.84368,"line":11,"station_name":"Pasar Senen","is_transit":false,"transit":false,"distance":1436,"time":4,"station_id":"PSE","i_lat":-6.174784},{"station_id":"GST","line":11,"time":8,"transit":false,"i_lat":-6.185975,"station_name":"Gang Sentiong","distance":1567,"is_transit":false,"i_long":106.850107},{"station_name":"Kramat","i_lat":-6.193792,"transit":false,"is_transit":false,"distance":973,"i_long":106.855437,"line":11,"time":1,"station_id":"KMT"},{"station_name":"Pondok Jati","i_long":106.861737,"line":11,"is_transit":false,"transit":false,"i_lat":-6.209188,"station_id":"POK","time":2,"distance":1829},{"transit":true,"line":1,"distance":1236,"station_id":"JNG","is_transit":true,"station_name":"Jatinegara","time":9,"i_lat":-6.215091,"i_long":106.86807400000001},{"i_long":106.858896,"line":1,"time":2,"i_lat":-6.212485,"transit":false,"distance":1377,"station_id":"MTR","is_transit":false,"station_name":"Matraman"},{"is_transit":true,"station_name":"Manggarai","time":2,"distance":1275,"i_lat":-6.209883,"i_long":106.84912,"line":2,"transit":true,"station_id":"MRI"},{"station_name":"Tebet","is_transit":false,"distance":2610,"station_id":"TEB","line":2,"i_lat":-6.226659,"time":4,"transit":false,"i_long":106.857948},{"transit":false,"time":2,"i_long":106.856607,"line":2,"distance":1230,"station_id":"CW","is_transit":false,"station_name":"Cawang","i_lat":-6.242512},{"station_name":"Duren Kalibata","i_long":106.85449,"line":2,"i_lat":-6.255332,"transit":false,"is_transit":false,"time":3,"distance":1546,"station_id":"DRN"},{"distance":824,"is_transit":false,"time":2,"station_name":"Pasar Minggu Baru","i_lat":-6.263214,"line":2,"station_id":"PSMB","transit":false,"i_long":106.851577},{"distance":2380,"station_id":"PSM","is_transit":false,"time":2,"i_lat":-6.2842400000000005,"station_name":"Pasar Minggu","i_long":106.843999,"line":2,"transit":false},{"station_id":"TNT","transit":false,"line":2,"is_transit":false,"station_name":"Tanjung Barat","distance":2820,"i_lat":-6.3080680000000005,"time":4,"i_long":106.838896},{"line":2,"station_id":"LNA","is_transit":false,"transit":false,"i_lat":-6.330363,"distance":2671,"station_name":"Lenteng Agung","i_long":106.832616,"time":3},{"time":2,"transit":false,"i_long":106.834175,"station_name":"Univ. Pancasila","station_id":"UP","distance":1029,"i_lat":-6.339291,"line":2,"is_transit":false},{"time":3,"distance":2264,"station_name":"Univ. Indonesia","i_lat":-6.360749,"line":2,"station_id":"UI","is_transit":false,"i_long":106.831474,"transit":false},{"distance":1109,"time":2,"line":2,"station_id":"POC","station_name":"Pondok Cina","is_transit":false,"i_long":106.831114,"i_lat":-6.369073,"transit":false},{"station_name":"Depokbaru","station_id":"DPB","is_transit":false,"transit":false,"distance":2727,"i_long":106.819451,"line":2,"time":4,"i_lat":-6.391065},{"station_name":"Depok","transit":false,"is_transit":false,"distance":1584,"i_long":106.816926,"station_id":"DP","time":3,"i_lat":-6.405256,"line":2},{"time":6,"distance":5084,"station_name":"Citayam","station_id":"CTA","transit":false,"is_transit":false,"i_long":106.800298,"line":2,"i_lat":-6.448811},{"station_name":"Bojonggede","time":5,"i_lat":-6.493243,"distance":5197,"i_long":106.792719,"transit":false,"is_transit":false,"line":2,"station_id":"BJD"}]]}