{"data":[[{"station_name":"Angke","time":0,"line":1,"is_transit":false,"station_id":"AK","distance":0,"transit":false,"i_lat":-6.144674,"i_long":106.79867},{"transit":true,"is_transit":true,"line":4,"time":9,"station_name":"Kampung Bandan","distance":4102,"station_id":"KPB","i_long":106.826365,"i_lat":-6.132549},{"i_lat":-6.14505,"station_name":"Rajawali","station_id":"RJW","distance":1444,"line":11,"time":3,"i_long":106.836569,"is_transit":false,"transit":false},{"transit":false,"line":11,"station_id":"KMO","i_lat":-6.161728,"station_name":"Kemayoran","distance":1901,"time":5,"is_transit":false,"i_long":106.839204},{"is_transit":false,"i_long":106.84368,"station_name":"Pasar Senen","transit":false,"line":11,"station_id":"PSE","i_lat":-6.174784,"time":4,"distance":1436},{"time":8,"i_long":106.850107,"distance":1567,"i_lat":-6.185975,"transit":false,"line":11,"station_name":"Gang Sentiong","station_id":"GST","is_transit":false},{"station_name":"Kramat","i_long":106.855437,"i_lat":-6.193792,"distance":973,"is_transit":false,"time":1,"line":11,"station_id":"KMT","transit":false},{"i_long":106.861737,"time":2,"i_lat":-6.209188,"transit":false,"station_id":"POK","distance":1829,"is_transit":false,"line":11,"station_name":"Pondok Jati"},{"station_id":"JNG","transit":true,"i_lat":-6.215091,"is_transit":true,"i_long":106.86807400000001,"line":1,"time":9,"distance":1236,"station_name":"Jatinegara"},{"is_transit":false,"line":1,"transit":false,"time":3,"station_id":"KLD","i_lat":-6.2135,"distance":3395,"i_long":106.899548,"station_name":"Klender"},{"station_id":"BUA","transit":false,"distance":3100,"i_long":106.922662,"station_name":"Buaran","i_lat":-6.215568,"time":2,"line":1,"is_transit":false},{"is_transit":false,"i_long":106.939679,"time":1,"transit":false,"station_id":"KLDB","station_name":"Klenderbaru","distance":1305,"i_lat":-6.217455,"line":1},{"i_long":106.951283,"station_name":"Cakung","transit":false,"time":8,"station_id":"CUK","is_transit":false,"distance":1385,"i_lat":-6.219053,"line":1},{"station_id":"KRI","i_lat":-6.224515,"time":3,"line":1,"station_name":"Kranji","distance":3097,"i_long":106.977657,"transit":false,"is_transit":false},{"line":1,"station_id":"BKS","time":4,"transit":false,"distance":2520,"station_name":"Bekasi","is_transit":false,"i_lat":-6.236616,"i_long":106.997013},{"is_transit":false,"i_lat":-6.248029,"station_id":"BKST","time":2,"distance":2368,"i_long":107.016735,"line":1,"station_name":"Bekasi Timur","transit":false}],[{"distance":0,"time":0,"station_name":"Angke","line":1,"is_transit":false,"i_long":106.79867,"i_lat":-6.144674,"station_id":"AK","transit":false},{"i_long":106.800832,"distance":1230,"time":4,"station_name":"Duri","i_lat":-6.155215,"line":1,"is_transit":false,"station_id":"DU","transit":false},{"transit":false,"line":1,"station_name":"Tanah Abang","is_transit":false,"time":8,"station_id":"THB","distance":3632,"i_lat":-6.185545,"i_long":106.811091},{"i_lat":-6.20132,"i_long":106.816351,"distance":2029,"is_transit":false,"station_id":"KAT","station_name":"Karet","line":1,"time":5,"transit":false},{"distance":471,"i_lat":-6.201433,"station_id":"SUDB","time":1,"is_transit":false,"i_long":106.819881,"station_name":"Sudirman Baru","line":1,"transit":false},{"is_transit":false,"transit":false,"station_name":"Sudirman","i_lat":-6.202263,"station_id":"SUD","i_long":106.822649,"line":1,"time":1,"distance":280},{"station_name":"Manggarai","distance":3186,"i_long":106.84912,"line":2,"i_lat":-6.209883,"station_id":"MRI","is_transit":false,"transit":false,"time":4},{"station_id":"MTR","time":2,"is_transit":false,"i_lat":-6.212485,"i_long":106.858896,"station_name":"Matraman","line":1,"transit":false,"distance":1275},{"transit":false,"station_name":"Jatinegara","distance":1377,"time":8,"station_id":"JNG","i_lat":-6.215091,"line":1,"is_transit":false,"i_long":106.86807400000001},{"station_id":"KLD","transit":false,"time":3,"station_name":"Klender","is_transit":false,"i_long":106.899548,"line":1,"distance":3395,"i_lat":-6.2135},{"station_name":"Buaran","time":2,"transit":false,"i_lat":-6.215568,"line":1,"distance":3100,"is_transit":false,"i_long":106.922662,"station_id":"BUA"},{"station_name":"Klenderbaru","transit":false,"time":1,"i_lat":-6.217455,"station_id":"KLDB","distance":1305,"i_long":106.939679,"is_transit":false,"line":1},{"i_long":106.951283,"time":8,"i_lat":-6.219053,"line":1,"transit":false,"distance":1385,"is_transit":false,"station_id":"CUK","station_name":"Cakung"},{"time":3,"transit":false,"station_id":"KRI","distance":3097,"i_long":106.977657,"station_name":"Kranji","is_transit":false,"i_lat":-6.224515,"line":1},{"distance":2520,"is_transit":false,"i_long":106.997013,"line":1,"i_lat":-6.236616,"station_id":"BKS","time":4,"station_name":"Bekasi","transit":false},{"distance":2368,"station_name":"Bekasi Timur","line":1,"i_lat":-6.248029,"is_transit":false,"time":2,"i_long":107.016735,"transit":false,"station_id":"BKST"}],[{"is_transit":false,"line":1,"distance":0,"i_long":106.79867,"i_lat":-6.144674,"station_id":"AK","transit":false,"station_name":"Angke","time":0},{"is_transit":true,"station_name":"Kampung Bandan","station_id":"KPB","transit":true,"line":4,"distance":4102,"time":9,"i_lat":-6.132549,"i_long":106.826365},{"station_id":"JAKK","distance":1364,"transit":true,"i_lat":-6.137569,"time":3,"station_name":"Jakarta Kota","is_transit":true,"line":2,"i_long":106.812439},{"distance":1264,"station_id":"JAY","i_lat":-6.141205,"line":2,"station_name":"Jayakarta","time":4,"is_transit":false,"i_long":106.820901,"transit":false},{"station_id":"MGB","i_long":106.82482,"is_transit":false,"time":2,"station_name":"Manggabesar","transit":false,"line":2,"distance":1080,"i_lat":-6.149769},{"transit":false,"is_transit":false,"i_long":106.827103,"station_name":"Sawah Besar","station_id":"SW","distance":906,"line":2,"time":2,"i_lat":-6.160725},{"i_long":106.828284,"station_name":"Juanda","station_id":"JUA","transit":false,"is_transit":false,"line":2,"time":2,"i_lat":-6.166716,"distance":1149},{"line":2,"transit":false,"time":4,"i_lat":-6.186295,"distance":2015,"is_transit":false,"i_long":106.832183,"station_id":"GDD","station_name":"Gondangdia"},{"i_long":106.840169,"i_lat":-6.198556,"is_transit":false,"transit":false,"station_name":"Cikini","distance":1750,"station_id":"CKI","time":3,"line":2},{"is_transit":true,"line":2,"i_lat":-6.209883,"distance":1590,"i_long":106.84912,"station_name":"Manggarai","time":4,"station_id":"MRI","transit":true},{"distance":1275,"station_name":"Matraman","is_transit":false,"transit":false,"time":2,"line":1,"station_id":"MTR","i_lat":-6.212485,"i_long":106.858896},{"is_transit":false,"i_lat":-6.215091,"distance":1377,"station_id":"JNG","time":8,"station_name":"Jatinegara","i_long":106.86807400000001,"transit":false,"line":1},{"station_name":"Klender","transit":false,"i_lat":-6.2135,"is_transit":false,"station_id":"KLD","line":1,"distance":3395,"i_long":106.899548,"time":3},{"line":1,"station_name":"Buaran","station_id":"BUA","is_transit":false,"i_lat":-6.215568,"time":2,"transit":false,"i_long":106.922662,"distance":3100},{"time":1,"station_name":"Klenderbaru","transit":false,"line":1,"i_lat":-6.217455,"distance":1305,"is_transit":false,"station_id":"KLDB","i_long":106.939679},{"station_id":"CUK","station_name":"Cakung","distance":1385,"i_lat":-6.219053,"time":8,"i_long":106.951283,"line":1,"transit":false,"is_transit":false},{"station_id":"KRI","time":3,"transit":false,"i_long":106.977657,"line":1,"is_transit":false,"distance":3097,"i_lat":-6.224515,"station_name":"Kranji"},{"station_id":"BKS","i_lat":-6.236616,"i_long":106.997013,"time":4,"transit":false,"line":1,"distance":2520,"station_name":"Bekasi","is_transit":false},{"time":2,"distance":2368,"is_transit":false,"transit":false,"station_name":"Bekasi Timur","i_lat":-6.248029,"i_long":107.016735,"line":1,"station_id":"BKST"}],[{"station_name":"Angke","time":0,"distance":0,"transit":false,"is_transit":false,"i_lat":-6.144674,"line":1,"station_id":"AK","i_long":106.79867},{"station_name":"Duri","transit":false,"time":4,"i_long":106.800832,"line":1,"distance":1230,"station_id":"DU","is_transit":false,"i_lat":-6.155215},{"station_id":"THB","transit":false,"i_lat":-6.185545,"line":1,"i_long":106.811091,"time":8,"distance":3632,"station_name":"Tanah Abang","is_transit":false},{"time":5,"distance":2029,"station_id":"KAT","is_transit":false,"i_lat":-6.20132,"station_name":"Karet","line":1,"transit":false,"i_long":106.816351},{"station_id":"SUDB","distance":471,"i_long":106.819881,"is_transit":false,"line":1,"time":1,"i_lat":-6.201433,"station_name":"Sudirman Baru","transit":false},{"i_long":106.822649,"is_transit":false,"distance":280,"time":1,"i_lat":-6.202263,"station_id":"SUD","line":1,"station_name":"Sudirman","transit":false},{"station_id":"MRI","time":4,"is_transit":true,"i_lat":-6.209883,"i_long":106.84912,"line":2,"transit":true,"distance":3186,"station_name":"Manggarai"},{"station_id":"CKI","transit":false,"distance":1590,"time":4,"is_transit":false,"i_lat":-6.198556,"station_name":"Cikini","i_long":106.840169,"line":2},{"line":2,"distance":1750,"transit":false,"is_transit":false,"i_long":106.832183,"i_lat":-6.186295,"station_id":"GDD","time":3,"station_name":"Gondangdia"},{"station_name":"Juanda","line":2,"time":4,"distance":2015,"station_id":"JUA","i_lat":-6.166716,"transit":false,"i_long":106.828284,"is_transit":false},{"i_lat":-6.160725,"is_transit":false,"station_id":"SW","i_long":106.827103,"line":2,"station_name":"Sawah Besar","time":2,"distance":1149,"transit":false},{"i_lat":-6.149769,"is_transit":false,"i_long":106.82482,"line":2,"time":2,"station_name":"Manggabesar","distance":906,"transit":false,"station_id":"MGB"},{"i_lat":-6.141205,"station_name":"Jayakarta","transit":false,"i_long":106.820901,"line":2,"station_id":"JAY","distance":1080,"time":2,"is_transit":false},{"station_id":"JAKK","station_name":"Jakarta Kota","is_transit":true,"line":2,"i_lat":-6.137569,"i_long":106.812439,"transit":true,"time":4,"distance":1264},{"i_long":106.826365,"station_id":"KPB","distance":1364,"transit":true,"i_lat":-6.132549,"is_transit":true,"station_name":"Kampung Bandan","line":4,"time":3},{"i_lat":-6.14505,"station_id":"RJW","is_transit":false,"station_name":"Rajawali","transit":false,"line":11,"time":3,"distance":1444,"i_long":106.836569},{"station_id":"KMO","i_long":106.839204,"line":11,"time":5,"transit":false,"is_transit":false,"i_lat":-6.161728,"distance":1901,"station_name":"Kemayoran"},{"distance":1436,"is_transit":false,"time":4,"transit":false,"i_lat":-6.174784,"line":11,"station_name":"Pasar Senen","i_long":106.84368,"station_id":"PSE"},{"station_id":"GST","distance":1567,"transit":false,"station_name":"Gang Sentiong","time":8,"i_lat":-6.185975,"is_transit":false,"i_long":106.850107,"line":11},{"time":1,"distance":973,"station_name":"Kramat","is_transit":false,"i_lat":-6.193792,"transit":false,"i_long":106.855437,"line":11,"station_id":"KMT"},{"transit":false,"is_transit":false,"line":11,"time":2,"i_long":106.861737,"i_lat":-6.209188,"station_name":"Pondok Jati","distance":1829,"station_id":"POK"},{"station_id":"JNG","distance":1236,"station_name":"Jatinegara","line":1,"time":9,"is_transit":true,"transit":true,"i_lat":-6.215091,"i_long":106.86807400000001},{"distance":3395,"transit":false,"i_lat":-6.2135,"line":1,"is_transit":false,"i_long":106.899548,"time":3,"station_name":"Klender","station_id":"KLD"},{"i_lat":-6.215568,"station_id":"BUA","station_name":"Buaran","transit":false,"i_long":106.922662,"line":1,"time":2,"distance":3100,"is_transit":false},{"line":1,"is_transit":false,"i_lat":-6.217455,"i_long":106.939679,"station_name":"Klenderbaru","station_id":"KLDB","distance":1305,"time":1,"transit":false},{"i_lat":-6.219053,"station_id":"CUK","transit":false,"is_transit":false,"line":1,"i_long":106.951283,"distance":1385,"time":8,"station_name":"Cakung"},{"line":1,"distance":3097,"station_name":"Kranji","time":3,"transit":false,"i_lat":-6.224515,"station_id":"KRI","i_long":106.977657,"is_transit":false},{"distance":2520,"i_long":106.997013,"i_lat":-6.236616,"station_id":"BKS","line":1,"station_name":"Bekasi","time":4,"is_transit":false,"transit":false},{"i_lat":-6.248029,"time":2,"transit":false,"i_long":107.016735,"is_transit":false,"station_id":"BKST","distance":2368,"line":1,"station_name":"Bekasi Timur"}]]}