{"data":[[{"transit":false,"time":0,"distance":0,"station_name":"Angke","i_lat":-6.144674,"i_long":106.79867,"line":0,"station_id":"AK","is_transit":false},{"station_name":"Duri","time":4,"distance":1230,"is_transit":true,"line":1,"i_lat":-6.155215,"i_long":106.800832,"transit":true,"station_id":"DU"},{"line":1,"i_lat":-6.185545,"is_transit":true,"station_id":"THB","transit":false,"station_name":"Tanah Abang","i_long":106.811091,"time":8,"distance":3632},{"station_id":"KAT","distance":2029,"line":1,"transit":false,"time":5,"i_lat":-6.20132,"station_name":"Karet","i_long":106.816351,"is_transit":false},{"station_id":"SUDB","line":1,"transit":false,"station_name":"Sudirman Baru","i_lat":-6.201433,"time":1,"i_long":106.819881,"is_transit":false,"distance":471},{"i_long":106.822649,"transit":false,"station_name":"Sudirman","station_id":"SUD","line":1,"time":1,"i_lat":-6.202263,"distance":280,"is_transit":false},{"distance":3186,"i_lat":-6.209883,"station_id":"MRI","line":0,"i_long":106.84912,"is_transit":true,"time":4,"transit":true,"station_name":"Manggarai"},{"station_id":"TEB","transit":false,"station_name":"Tebet","is_transit":false,"distance":2610,"i_lat":-6.226659,"time":4,"i_long":106.857948,"line":2},{"i_long":106.856607,"time":2,"distance":1230,"i_lat":-6.242512,"station_name":"Cawang","line":0,"transit":false,"station_id":"CW","is_transit":false},{"transit":false,"i_lat":-6.255332,"line":0,"is_transit":false,"distance":1546,"station_name":"Duren Kalibata","time":3,"i_long":106.85449,"station_id":"DRN"},{"is_transit":false,"station_name":"Pasar Minggu Baru","transit":false,"station_id":"PSMB","i_lat":-6.263214,"time":2,"i_long":106.851577,"line":2,"distance":824},{"i_long":106.843999,"station_name":"Pasar Minggu","is_transit":false,"time":2,"station_id":"PSM","transit":false,"line":2,"i_lat":-6.2842400000000005,"distance":2380},{"transit":false,"time":4,"station_id":"TNT","is_transit":false,"i_lat":-6.3080680000000005,"line":2,"station_name":"Tanjung Barat","distance":2820,"i_long":106.838896},{"i_long":106.832616,"line":2,"time":3,"station_name":"Lenteng Agung","i_lat":-6.330363,"is_transit":false,"transit":false,"station_id":"LNA","distance":2671},{"i_long":106.834175,"transit":false,"distance":1029,"line":2,"station_id":"UP","is_transit":false,"time":2,"station_name":"Univ. Pancasila","i_lat":-6.339291},{"transit":false,"is_transit":false,"line":2,"station_name":"Univ. Indonesia","i_lat":-6.360749,"time":3,"distance":2264,"i_long":106.831474,"station_id":"UI"},{"distance":1109,"i_lat":-6.369073,"line":2,"transit":false,"i_long":106.831114,"station_name":"Pondok Cina","time":2,"station_id":"POC","is_transit":false},{"i_long":106.819451,"transit":false,"time":4,"i_lat":-6.391065,"station_name":"Depokbaru","station_id":"DPB","line":0,"distance":2727,"is_transit":false},{"time":3,"station_name":"Depok","distance":1584,"line":0,"transit":false,"is_transit":false,"station_id":"DP","i_lat":-6.405256,"i_long":106.816926},{"station_id":"CTA","station_name":"Citayam","distance":5084,"transit":false,"line":1,"i_lat":-6.448811,"i_long":106.800298,"is_transit":true,"time":6},{"time":10,"station_name":"Cibinong","is_transit":false,"distance":6740,"i_lat":-6.46424,"station_id":"CBN","line":0,"transit":false,"i_long":106.851978}],[{"line":0,"station_name":"Angke","station_id":"AK","transit":false,"i_lat":-6.144674,"time":0,"i_long":106.79867,"is_transit":false,"distance":0},{"time":9,"i_lat":-6.132549,"station_id":"KPB","line":0,"transit":false,"distance":4102,"i_long":106.826365,"is_transit":true,"station_name":"Kampung Bandan"},{"line":0,"station_id":"JAKK","time":3,"transit":true,"station_name":"Jakarta Kota","distance":1364,"i_lat":-6.137569,"i_long":106.812439,"is_transit":true},{"line":7,"distance":1264,"station_name":"Jayakarta","i_long":106.820901,"i_lat":-6.141205,"transit":false,"is_transit":false,"time":4,"station_id":"JAY"},{"distance":1080,"i_lat":-6.149769,"is_transit":false,"time":2,"station_id":"MGB","i_long":106.82482,"transit":false,"station_name":"Manggabesar","line":2},{"is_transit":false,"transit":false,"station_name":"Sawah Besar","distance":906,"i_long":106.827103,"i_lat":-6.160725,"station_id":"SW","line":2,"time":2},{"distance":1149,"i_lat":-6.166716,"i_long":106.828284,"station_id":"JUA","line":2,"station_name":"Juanda","time":2,"transit":false,"is_transit":false},{"is_transit":false,"i_lat":-6.186295,"transit":false,"station_name":"Gondangdia","time":4,"i_long":106.832183,"distance":2015,"station_id":"GDD","line":2},{"station_id":"CKI","transit":false,"distance":1750,"i_lat":-6.198556,"time":3,"i_long":106.840169,"line":0,"station_name":"Cikini","is_transit":false},{"transit":true,"time":4,"is_transit":true,"station_name":"Manggarai","distance":1590,"station_id":"MRI","i_lat":-6.209883,"i_long":106.84912,"line":0},{"time":4,"station_id":"TEB","transit":false,"i_lat":-6.226659,"distance":2610,"i_long":106.857948,"station_name":"Tebet","line":2,"is_transit":false},{"line":0,"i_long":106.856607,"time":2,"transit":false,"station_name":"Cawang","station_id":"CW","is_transit":false,"distance":1230,"i_lat":-6.242512},{"is_transit":false,"i_lat":-6.255332,"i_long":106.85449,"line":0,"station_id":"DRN","transit":false,"distance":1546,"station_name":"Duren Kalibata","time":3},{"i_long":106.851577,"line":2,"i_lat":-6.263214,"is_transit":false,"time":2,"transit":false,"station_name":"Pasar Minggu Baru","station_id":"PSMB","distance":824},{"time":2,"distance":2380,"i_long":106.843999,"line":2,"is_transit":false,"transit":false,"station_name":"Pasar Minggu","i_lat":-6.2842400000000005,"station_id":"PSM"},{"i_lat":-6.3080680000000005,"station_id":"TNT","station_name":"Tanjung Barat","distance":2820,"i_long":106.838896,"time":4,"line":2,"is_transit":false,"transit":false},{"distance":2671,"time":3,"i_long":106.832616,"station_name":"Lenteng Agung","station_id":"LNA","transit":false,"line":2,"is_transit":false,"i_lat":-6.330363},{"transit":false,"i_long":106.834175,"time":2,"distance":1029,"station_name":"Univ. Pancasila","station_id":"UP","is_transit":false,"line":2,"i_lat":-6.339291},{"i_lat":-6.360749,"time":3,"distance":2264,"station_id":"UI","transit":false,"station_name":"Univ. Indonesia","line":2,"i_long":106.831474,"is_transit":false},{"station_id":"POC","distance":1109,"i_lat":-6.369073,"is_transit":false,"i_long":106.831114,"line":2,"transit":false,"time":2,"station_name":"Pondok Cina"},{"time":4,"station_name":"Depokbaru","i_long":106.819451,"line":0,"is_transit":false,"transit":false,"distance":2727,"station_id":"DPB","i_lat":-6.391065},{"time":3,"i_long":106.816926,"is_transit":false,"distance":1584,"station_id":"DP","station_name":"Depok","transit":false,"line":0,"i_lat":-6.405256},{"distance":5084,"station_id":"CTA","line":1,"i_long":106.800298,"transit":false,"is_transit":true,"station_name":"Citayam","time":6,"i_lat":-6.448811},{"transit":false,"station_name":"Cibinong","i_long":106.851978,"station_id":"CBN","line":0,"time":10,"i_lat":-6.46424,"distance":6740,"is_transit":false}],[{"distance":0,"i_long":106.79867,"station_id":"AK","is_transit":false,"line":0,"time":0,"i_lat":-6.144674,"station_name":"Angke","transit":false},{"transit":true,"time":9,"is_transit":true,"station_name":"Kampung Bandan","distance":4102,"i_long":106.826365,"line":0,"i_lat":-6.132549,"station_id":"KPB"},{"i_lat":-6.14505,"transit":false,"station_name":"Rajawali","time":3,"is_transit":false,"i_long":106.836569,"station_id":"RJW","line":11,"distance":1444},{"distance":1901,"station_id":"KMO","i_lat":-6.161728,"is_transit":false,"time":5,"station_name":"Kemayoran","i_long":106.839204,"transit":false,"line":11},{"time":4,"i_long":106.84368,"station_id":"PSE","line":11,"transit":false,"distance":1436,"i_lat":-6.174784,"is_transit":false,"station_name":"Pasar Senen"},{"transit":false,"distance":1567,"station_id":"GST","station_name":"Gang Sentiong","i_long":106.850107,"line":11,"i_lat":-6.185975,"is_transit":false,"time":8},{"station_name":"Kramat","station_id":"KMT","i_lat":-6.193792,"line":11,"distance":973,"i_long":106.855437,"is_transit":false,"time":1,"transit":false},{"i_long":106.861737,"station_name":"Pondok Jati","i_lat":-6.209188,"station_id":"POK","time":2,"is_transit":false,"transit":false,"distance":1829,"line":11},{"station_name":"Jatinegara","distance":1236,"line":0,"station_id":"JNG","i_long":106.86807400000001,"is_transit":true,"time":9,"transit":true,"i_lat":-6.215091},{"i_long":106.858896,"station_id":"MTR","i_lat":-6.212485,"distance":1377,"station_name":"Matraman","time":2,"is_transit":false,"transit":false,"line":1},{"station_name":"Manggarai","i_lat":-6.209883,"line":0,"station_id":"MRI","distance":1275,"i_long":106.84912,"is_transit":true,"time":2,"transit":true},{"transit":false,"station_name":"Tebet","line":2,"i_long":106.857948,"station_id":"TEB","is_transit":false,"time":4,"distance":2610,"i_lat":-6.226659},{"station_name":"Cawang","i_lat":-6.242512,"is_transit":false,"station_id":"CW","i_long":106.856607,"transit":false,"distance":1230,"line":0,"time":2},{"i_lat":-6.255332,"line":0,"station_id":"DRN","i_long":106.85449,"time":3,"is_transit":false,"station_name":"Duren Kalibata","distance":1546,"transit":false},{"transit":false,"station_id":"PSMB","i_lat":-6.263214,"distance":824,"line":2,"station_name":"Pasar Minggu Baru","is_transit":false,"i_long":106.851577,"time":2},{"line":2,"is_transit":false,"station_name":"Pasar Minggu","time":2,"station_id":"PSM","i_long":106.843999,"distance":2380,"transit":false,"i_lat":-6.2842400000000005},{"station_id":"TNT","is_transit":false,"time":4,"i_lat":-6.3080680000000005,"line":2,"i_long":106.838896,"station_name":"Tanjung Barat","distance":2820,"transit":false},{"transit":false,"i_lat":-6.330363,"i_long":106.832616,"distance":2671,"line":2,"time":3,"is_transit":false,"station_name":"Lenteng Agung","station_id":"LNA"},{"line":2,"time":2,"i_lat":-6.339291,"station_id":"UP","is_transit":false,"i_long":106.834175,"station_name":"Univ. Pancasila","transit":false,"distance":1029},{"station_name":"Univ. Indonesia","transit":false,"distance":2264,"is_transit":false,"time":3,"i_long":106.831474,"line":2,"i_lat":-6.360749,"station_id":"UI"},{"i_long":106.831114,"line":2,"distance":1109,"station_id":"POC","transit":false,"station_name":"Pondok Cina","i_lat":-6.369073,"is_transit":false,"time":2},{"transit":false,"station_id":"DPB","i_long":106.819451,"time":4,"station_name":"Depokbaru","i_lat":-6.391065,"line":0,"distance":2727,"is_transit":false},{"station_id":"DP","station_name":"Depok","distance":1584,"transit":false,"i_long":106.816926,"is_transit":false,"time":3,"line":0,"i_lat":-6.405256},{"i_long":106.800298,"station_id":"CTA","i_lat":-6.448811,"time":6,"distance":5084,"transit":false,"line":1,"is_transit":true,"station_name":"Citayam"},{"transit":false,"station_id":"CBN","i_long":106.851978,"station_name":"Cibinong","line":0,"is_transit":false,"distance":6740,"i_lat":-6.46424,"time":10}]]}