{"data":[[{"i_lat":-6.144674,"station_id":"AK","distance":0,"transit":false,"is_transit":false,"time":0,"station_name":"Angke","i_long":106.79867,"line":0},{"distance":1230,"transit":true,"is_transit":true,"time":4,"i_long":106.800832,"line":1,"i_lat":-6.155215,"station_id":"DU","station_name":"Duri"},{"station_name":"Tanah Abang","line":1,"time":8,"i_long":106.811091,"distance":3632,"transit":true,"is_transit":true,"station_id":"THB","i_lat":-6.185545},{"transit":false,"is_transit":false,"time":6,"station_name":"Palmerah","distance":3191,"station_id":"PLM","line":6,"i_lat":-6.207404,"i_long":106.79689},{"i_long":106.780334,"is_transit":false,"line":6,"transit":false,"station_id":"KBY","station_name":"Kebayoran","time":7,"distance":3737,"i_lat":-6.237242},{"transit":false,"distance":6218,"time":8,"line":6,"i_long":106.74273,"station_id":"PDJ","station_name":"Pondokranji","is_transit":false,"i_lat":-6.276362},{"station_id":"JMU","line":6,"i_lat":-6.288927,"time":3,"distance":2179,"transit":false,"station_name":"Jurangmangu","is_transit":false,"i_long":106.728916},{"i_lat":-6.296963,"station_name":"Sudimara","distance":1994,"transit":false,"is_transit":false,"time":4,"station_id":"SDM","line":6,"i_long":106.712277},{"station_id":"RU","is_transit":false,"line":6,"transit":false,"distance":4566,"time":6,"station_name":"Rawa Buntu","i_long":106.675475,"i_lat":-6.314823},{"time":4,"transit":false,"distance":2413,"is_transit":false,"i_long":106.66566,"station_id":"SRP","line":6,"i_lat":-6.319871,"station_name":"Serpong"},{"distance":1784,"i_long":106.640411,"station_id":"CSK","line":0,"station_name":"Cisauk","transit":false,"time":4,"is_transit":false,"i_lat":-6.32484},{"time":4,"station_name":"Cicayur","distance":2519,"station_id":"CC","i_lat":-6.329547,"transit":false,"is_transit":false,"i_long":106.617853,"line":0},{"is_transit":false,"distance":5968,"station_id":"PRP","i_lat":-6.3441410000000005,"transit":false,"station_name":"Parung Panjang","i_long":106.568863,"line":6,"time":8},{"is_transit":false,"i_lat":-6.354349,"i_long":106.508482,"station_name":"Cilejit","distance":7025,"transit":false,"line":0,"station_id":"CJT","time":9},{"time":6,"transit":false,"is_transit":false,"i_lat":-6.338021,"station_id":"DAR","line":0,"i_long":106.491338,"station_name":"Daru","distance":2675},{"station_name":"Tenjo","time":5,"line":6,"i_long":106.460812,"i_lat":-6.327251,"distance":3902,"transit":false,"is_transit":false,"station_id":"TEJ"},{"distance":2974,"time":5,"transit":false,"station_name":"Tigaraksa","station_id":"TGS","is_transit":false,"i_lat":-6.328533,"i_long":106.425991,"line":6},{"i_lat":-6.33561,"station_id":"CKY","distance":2651,"station_name":"Cikoya","transit":false,"time":3,"i_long":106.411216,"line":0,"is_transit":false}],[{"line":0,"transit":false,"i_lat":-6.144674,"station_name":"Angke","is_transit":false,"i_long":106.79867,"distance":0,"station_id":"AK","time":0},{"distance":4102,"station_id":"KPB","transit":false,"time":9,"i_lat":-6.132549,"line":0,"i_long":106.826365,"station_name":"Kampung Bandan","is_transit":true},{"is_transit":true,"transit":true,"distance":1364,"time":3,"station_name":"Jakarta Kota","i_long":106.812439,"station_id":"JAKK","i_lat":-6.137569,"line":0},{"distance":1264,"station_id":"JAY","station_name":"Jayakarta","time":4,"is_transit":false,"transit":false,"i_long":106.820901,"i_lat":-6.141205,"line":7},{"i_lat":-6.149769,"transit":false,"station_name":"Manggabesar","distance":1080,"is_transit":false,"line":2,"i_long":106.82482,"station_id":"MGB","time":2},{"transit":false,"i_lat":-6.160725,"time":2,"distance":906,"station_id":"SW","i_long":106.827103,"line":2,"station_name":"Sawah Besar","is_transit":false},{"station_name":"Juanda","distance":1149,"is_transit":false,"station_id":"JUA","i_lat":-6.166716,"i_long":106.828284,"time":2,"transit":false,"line":2},{"station_id":"GDD","time":4,"station_name":"Gondangdia","is_transit":false,"i_long":106.832183,"distance":2015,"transit":false,"line":2,"i_lat":-6.186295},{"i_long":106.840169,"station_id":"CKI","line":0,"station_name":"Cikini","is_transit":false,"distance":1750,"i_lat":-6.198556,"time":3,"transit":false},{"i_long":106.84912,"line":0,"station_name":"Manggarai","station_id":"MRI","time":4,"is_transit":true,"i_lat":-6.209883,"transit":true,"distance":1590},{"transit":false,"i_long":106.822649,"distance":3186,"station_id":"SUD","i_lat":-6.202263,"is_transit":false,"line":1,"time":4,"station_name":"Sudirman"},{"station_name":"Sudirman Baru","distance":280,"i_long":106.819881,"station_id":"SUDB","line":1,"is_transit":false,"i_lat":-6.201433,"transit":false,"time":1},{"line":1,"is_transit":false,"station_id":"KAT","time":1,"i_lat":-6.20132,"i_long":106.816351,"distance":471,"transit":false,"station_name":"Karet"},{"line":1,"transit":true,"station_name":"Tanah Abang","time":5,"i_lat":-6.185545,"i_long":106.811091,"station_id":"THB","distance":2029,"is_transit":true},{"i_lat":-6.207404,"i_long":106.79689,"station_name":"Palmerah","distance":3191,"station_id":"PLM","is_transit":false,"line":6,"time":6,"transit":false},{"station_name":"Kebayoran","transit":false,"i_long":106.780334,"is_transit":false,"distance":3737,"station_id":"KBY","time":7,"line":6,"i_lat":-6.237242},{"line":6,"distance":6218,"i_lat":-6.276362,"is_transit":false,"time":8,"station_id":"PDJ","transit":false,"i_long":106.74273,"station_name":"Pondokranji"},{"transit":false,"station_name":"Jurangmangu","distance":2179,"time":3,"i_long":106.728916,"is_transit":false,"line":6,"station_id":"JMU","i_lat":-6.288927},{"distance":1994,"station_id":"SDM","i_lat":-6.296963,"i_long":106.712277,"transit":false,"line":6,"station_name":"Sudimara","time":4,"is_transit":false},{"i_lat":-6.314823,"station_id":"RU","time":6,"transit":false,"is_transit":false,"i_long":106.675475,"line":6,"distance":4566,"station_name":"Rawa Buntu"},{"station_name":"Serpong","distance":2413,"is_transit":false,"i_long":106.66566,"line":6,"i_lat":-6.319871,"transit":false,"station_id":"SRP","time":4},{"station_id":"CSK","transit":false,"is_transit":false,"distance":1784,"time":4,"i_long":106.640411,"line":0,"i_lat":-6.32484,"station_name":"Cisauk"},{"is_transit":false,"i_lat":-6.329547,"i_long":106.617853,"line":0,"transit":false,"time":4,"distance":2519,"station_id":"CC","station_name":"Cicayur"},{"i_long":106.568863,"line":6,"station_id":"PRP","distance":5968,"time":8,"i_lat":-6.3441410000000005,"is_transit":false,"station_name":"Parung Panjang","transit":false},{"i_lat":-6.354349,"i_long":106.508482,"time":9,"station_name":"Cilejit","distance":7025,"station_id":"CJT","transit":false,"is_transit":false,"line":0},{"station_name":"Daru","i_long":106.491338,"time":6,"is_transit":false,"line":0,"distance":2675,"station_id":"DAR","transit":false,"i_lat":-6.338021},{"i_lat":-6.327251,"transit":false,"time":5,"station_name":"Tenjo","distance":3902,"station_id":"TEJ","is_transit":false,"line":6,"i_long":106.460812},{"time":5,"i_lat":-6.328533,"transit":false,"i_long":106.425991,"line":6,"is_transit":false,"station_name":"Tigaraksa","distance":2974,"station_id":"TGS"},{"is_transit":false,"distance":2651,"line":0,"time":3,"station_id":"CKY","transit":false,"i_lat":-6.33561,"i_long":106.411216,"station_name":"Cikoya"}],[{"time":0,"distance":0,"is_transit":false,"transit":false,"i_lat":-6.144674,"station_name":"Angke","i_long":106.79867,"station_id":"AK","line":0},{"station_name":"Kampung Bandan","station_id":"KPB","transit":true,"i_lat":-6.132549,"line":0,"is_transit":true,"i_long":106.826365,"distance":4102,"time":9},{"line":11,"station_name":"Rajawali","distance":1444,"transit":false,"time":3,"i_long":106.836569,"is_transit":false,"station_id":"RJW","i_lat":-6.14505},{"line":11,"transit":false,"time":5,"i_lat":-6.161728,"station_id":"KMO","is_transit":false,"distance":1901,"station_name":"Kemayoran","i_long":106.839204},{"station_id":"PSE","line":11,"i_long":106.84368,"time":4,"transit":false,"distance":1436,"is_transit":false,"i_lat":-6.174784,"station_name":"Pasar Senen"},{"i_long":106.850107,"time":8,"station_id":"GST","i_lat":-6.185975,"station_name":"Gang Sentiong","distance":1567,"transit":false,"line":11,"is_transit":false},{"station_name":"Kramat","line":11,"station_id":"KMT","transit":false,"is_transit":false,"i_long":106.855437,"time":1,"i_lat":-6.193792,"distance":973},{"i_lat":-6.209188,"i_long":106.861737,"line":11,"distance":1829,"station_id":"POK","is_transit":false,"transit":false,"station_name":"Pondok Jati","time":2},{"station_name":"Jatinegara","i_lat":-6.215091,"i_long":106.86807400000001,"line":0,"transit":true,"distance":1236,"is_transit":true,"station_id":"JNG","time":9},{"distance":1377,"transit":false,"time":2,"station_id":"MTR","is_transit":false,"i_lat":-6.212485,"i_long":106.858896,"station_name":"Matraman","line":1},{"station_id":"MRI","i_long":106.84912,"line":0,"transit":false,"distance":1275,"i_lat":-6.209883,"station_name":"Manggarai","is_transit":true,"time":2},{"i_long":106.822649,"i_lat":-6.202263,"line":1,"is_transit":false,"time":4,"distance":3186,"station_name":"Sudirman","transit":false,"station_id":"SUD"},{"station_id":"SUDB","i_long":106.819881,"station_name":"Sudirman Baru","time":1,"line":1,"distance":280,"transit":false,"is_transit":false,"i_lat":-6.201433},{"i_long":106.816351,"station_id":"KAT","is_transit":false,"station_name":"Karet","distance":471,"i_lat":-6.20132,"time":1,"transit":false,"line":1},{"line":1,"station_name":"Tanah Abang","i_long":106.811091,"station_id":"THB","time":5,"distance":2029,"transit":true,"is_transit":true,"i_lat":-6.185545},{"is_transit":false,"time":6,"line":6,"station_id":"PLM","i_long":106.79689,"distance":3191,"station_name":"Palmerah","transit":false,"i_lat":-6.207404},{"station_id":"KBY","line":6,"i_long":106.780334,"time":7,"is_transit":false,"i_lat":-6.237242,"distance":3737,"transit":false,"station_name":"Kebayoran"},{"station_name":"Pondokranji","station_id":"PDJ","line":6,"transit":false,"distance":6218,"time":8,"i_lat":-6.276362,"is_transit":false,"i_long":106.74273},{"station_id":"JMU","time":3,"is_transit":false,"station_name":"Jurangmangu","line":6,"transit":false,"i_lat":-6.288927,"distance":2179,"i_long":106.728916},{"is_transit":false,"distance":1994,"time":4,"line":6,"i_lat":-6.296963,"station_id":"SDM","i_long":106.712277,"transit":false,"station_name":"Sudimara"},{"i_lat":-6.314823,"distance":4566,"i_long":106.675475,"line":6,"transit":false,"station_name":"Rawa Buntu","station_id":"RU","time":6,"is_transit":false},{"transit":false,"is_transit":false,"i_lat":-6.319871,"i_long":106.66566,"station_id":"SRP","distance":2413,"line":6,"time":4,"station_name":"Serpong"},{"time":4,"i_lat":-6.32484,"station_name":"Cisauk","distance":1784,"is_transit":false,"line":0,"i_long":106.640411,"transit":false,"station_id":"CSK"},{"time":4,"transit":false,"distance":2519,"is_transit":false,"station_name":"Cicayur","line":0,"station_id":"CC","i_long":106.617853,"i_lat":-6.329547},{"station_id":"PRP","distance":5968,"station_name":"Parung Panjang","time":8,"is_transit":false,"i_lat":-6.3441410000000005,"line":6,"i_long":106.568863,"transit":false},{"time":9,"station_name":"Cilejit","station_id":"CJT","transit":false,"line":0,"i_lat":-6.354349,"is_transit":false,"distance":7025,"i_long":106.508482},{"station_id":"DAR","i_long":106.491338,"line":0,"station_name":"Daru","is_transit":false,"i_lat":-6.338021,"time":6,"distance":2675,"transit":false},{"time":5,"distance":3902,"i_long":106.460812,"is_transit":false,"i_lat":-6.327251,"station_name":"Tenjo","transit":false,"station_id":"TEJ","line":6},{"i_lat":-6.328533,"station_name":"Tigaraksa","transit":false,"distance":2974,"i_long":106.425991,"station_id":"TGS","line":6,"is_transit":false,"time":5},{"is_transit":false,"i_lat":-6.33561,"transit":false,"distance":2651,"station_id":"CKY","station_name":"Cikoya","line":0,"time":3,"i_long":106.411216}]]}