{"data":[[{"distance":0,"time":0,"i_lat":-6.144674,"i_long":106.79867,"line":1,"station_id":"AK","transit":false,"station_name":"Angke","is_transit":false},{"time":9,"line":4,"distance":4102,"station_name":"Kampung Bandan","i_long":106.826365,"is_transit":true,"station_id":"KPB","transit":true,"i_lat":-6.132549},{"transit":false,"station_id":"RJW","is_transit":false,"line":11,"i_lat":-6.14505,"distance":1444,"time":3,"i_long":106.836569,"station_name":"Rajawali"},{"time":5,"i_lat":-6.161728,"i_long":106.839204,"transit":false,"is_transit":false,"station_id":"KMO","station_name":"Kemayoran","distance":1901,"line":11},{"station_name":"Pasar Senen","time":4,"line":11,"station_id":"PSE","transit":false,"i_long":106.84368,"is_transit":false,"distance":1436,"i_lat":-6.174784},{"i_long":106.850107,"time":8,"station_id":"GST","station_name":"Gang Sentiong","line":11,"i_lat":-6.185975,"is_transit":false,"distance":1567,"transit":false},{"station_name":"Kramat","distance":973,"i_lat":-6.193792,"is_transit":false,"i_long":106.855437,"transit":false,"time":1,"line":11,"station_id":"KMT"},{"distance":1829,"line":11,"i_lat":-6.209188,"station_id":"POK","station_name":"Pondok Jati","time":2,"i_long":106.861737,"is_transit":false,"transit":false},{"time":9,"i_long":106.86807400000001,"station_name":"Jatinegara","line":1,"is_transit":true,"i_lat":-6.215091,"station_id":"JNG","transit":true,"distance":1236},{"time":3,"line":1,"distance":3395,"station_id":"KLD","i_long":106.899548,"transit":false,"is_transit":false,"station_name":"Klender","i_lat":-6.2135},{"station_name":"Buaran","transit":false,"distance":3100,"station_id":"BUA","i_long":106.922662,"is_transit":false,"i_lat":-6.215568,"time":2,"line":1},{"time":1,"is_transit":false,"station_name":"Klenderbaru","line":1,"transit":false,"i_lat":-6.217455,"i_long":106.939679,"station_id":"KLDB","distance":1305},{"i_long":106.951283,"station_id":"CUK","station_name":"Cakung","is_transit":false,"transit":false,"line":1,"i_lat":-6.219053,"time":8,"distance":1385},{"station_name":"Kranji","is_transit":false,"time":3,"transit":false,"i_lat":-6.224515,"distance":3097,"line":1,"i_long":106.977657,"station_id":"KRI"},{"i_long":106.997013,"is_transit":false,"distance":2520,"line":1,"transit":false,"i_lat":-6.236616,"station_name":"Bekasi","time":4,"station_id":"BKS"},{"distance":2368,"station_id":"BKST","time":2,"is_transit":false,"station_name":"Bekasi Timur","i_lat":-6.248029,"i_long":107.016735,"line":1,"transit":false},{"station_name":"Tambun","distance":4460,"transit":false,"time":7,"station_id":"TB","is_transit":false,"i_lat":-6.258864,"i_long":107.055722,"line":1},{"station_id":"CIT","time":3,"is_transit":false,"i_lat":-6.261877,"i_long":107.083084,"station_name":"Cibitung","line":1,"transit":false,"distance":3420},{"transit":false,"station_name":"Metland Telaga Murni","distance":2800,"time":2,"station_id":"TLM","i_lat":-6.262938,"line":1,"is_transit":false,"i_long":107.093313},{"station_id":"CKR","transit":false,"time":4,"station_name":"Cikarang","is_transit":false,"i_long":107.144613,"line":1,"distance":3689,"i_lat":-6.2553149999999995}],[{"station_name":"Angke","time":0,"transit":false,"i_lat":-6.144674,"line":1,"distance":0,"is_transit":false,"i_long":106.79867,"station_id":"AK"},{"station_name":"Duri","transit":false,"time":4,"i_lat":-6.155215,"station_id":"DU","distance":1230,"i_long":106.800832,"is_transit":false,"line":1},{"i_long":106.811091,"time":8,"i_lat":-6.185545,"line":1,"transit":false,"is_transit":false,"distance":3632,"station_id":"THB","station_name":"Tanah Abang"},{"transit":false,"time":5,"station_id":"KAT","distance":2029,"i_long":106.816351,"is_transit":false,"station_name":"Karet","i_lat":-6.20132,"line":1},{"distance":471,"is_transit":false,"i_long":106.819881,"line":1,"i_lat":-6.201433,"station_id":"SUDB","time":1,"station_name":"Sudirman Baru","transit":false},{"distance":280,"station_name":"Sudirman","line":1,"i_lat":-6.202263,"is_transit":false,"time":1,"i_long":106.822649,"transit":false,"station_id":"SUD"},{"is_transit":false,"line":2,"distance":3186,"i_long":106.84912,"i_lat":-6.209883,"station_id":"MRI","transit":false,"station_name":"Manggarai","time":4},{"is_transit":false,"station_name":"Matraman","station_id":"MTR","transit":false,"line":1,"distance":1275,"time":2,"i_lat":-6.212485,"i_long":106.858896},{"station_id":"JNG","distance":1377,"transit":false,"i_lat":-6.215091,"time":8,"station_name":"Jatinegara","is_transit":false,"line":1,"i_long":106.86807400000001},{"distance":3395,"station_id":"KLD","i_lat":-6.2135,"line":1,"station_name":"Klender","time":3,"is_transit":false,"i_long":106.899548,"transit":false},{"station_id":"BUA","i_long":106.922662,"is_transit":false,"time":2,"station_name":"Buaran","transit":false,"line":1,"distance":3100,"i_lat":-6.215568},{"is_transit":false,"transit":false,"i_long":106.939679,"station_id":"KLDB","station_name":"Klenderbaru","distance":1305,"line":1,"time":1,"i_lat":-6.217455},{"i_long":106.951283,"station_id":"CUK","station_name":"Cakung","is_transit":false,"transit":false,"line":1,"time":8,"i_lat":-6.219053,"distance":1385},{"line":1,"transit":false,"time":3,"i_lat":-6.224515,"distance":3097,"is_transit":false,"i_long":106.977657,"station_id":"KRI","station_name":"Kranji"},{"i_long":106.997013,"i_lat":-6.236616,"is_transit":false,"transit":false,"station_name":"Bekasi","distance":2520,"station_id":"BKS","time":4,"line":1},{"transit":false,"line":1,"i_lat":-6.248029,"distance":2368,"i_long":107.016735,"station_name":"Bekasi Timur","time":2,"station_id":"BKST","is_transit":false},{"distance":4460,"station_name":"Tambun","is_transit":false,"transit":false,"time":7,"line":1,"station_id":"TB","i_lat":-6.258864,"i_long":107.055722},{"time":3,"station_id":"CIT","distance":3420,"i_long":107.083084,"line":1,"transit":false,"station_name":"Cibitung","i_lat":-6.261877,"is_transit":false},{"transit":false,"time":2,"i_long":107.093313,"line":1,"is_transit":false,"station_name":"Metland Telaga Murni","i_lat":-6.262938,"distance":2800,"station_id":"TLM"},{"station_id":"CKR","i_long":107.144613,"line":1,"transit":false,"is_transit":false,"station_name":"Cikarang","distance":3689,"time":4,"i_lat":-6.2553149999999995}],[{"i_lat":-6.144674,"station_id":"AK","distance":0,"time":0,"i_long":106.79867,"is_transit":false,"line":1,"transit":false,"station_name":"Angke"},{"distance":4102,"line":4,"i_lat":-6.132549,"station_id":"KPB","i_long":106.826365,"is_transit":true,"station_name":"Kampung Bandan","transit":true,"time":9},{"transit":true,"station_id":"JAKK","is_transit":true,"i_lat":-6.137569,"i_long":106.812439,"line":2,"distance":1364,"time":3,"station_name":"Jakarta Kota"},{"station_id":"JAY","i_lat":-6.141205,"i_long":106.820901,"time":4,"transit":false,"line":2,"distance":1264,"station_name":"Jayakarta","is_transit":false},{"time":2,"distance":1080,"is_transit":false,"transit":false,"station_name":"Manggabesar","i_lat":-6.149769,"i_long":106.82482,"line":2,"station_id":"MGB"},{"station_name":"Sawah Besar","distance":906,"transit":false,"is_transit":false,"time":2,"i_lat":-6.160725,"line":2,"station_id":"SW","i_long":106.827103},{"station_name":"Juanda","transit":false,"time":2,"i_long":106.828284,"line":2,"distance":1149,"station_id":"JUA","is_transit":false,"i_lat":-6.166716},{"station_id":"GDD","transit":false,"i_lat":-6.186295,"line":2,"i_long":106.832183,"is_transit":false,"distance":2015,"station_name":"Gondangdia","time":4},{"time":3,"distance":1750,"station_id":"CKI","is_transit":false,"i_lat":-6.198556,"station_name":"Cikini","line":2,"transit":false,"i_long":106.840169},{"station_id":"MRI","distance":1590,"i_long":106.84912,"is_transit":true,"line":2,"time":4,"i_lat":-6.209883,"station_name":"Manggarai","transit":true},{"i_long":106.858896,"is_transit":false,"distance":1275,"time":2,"i_lat":-6.212485,"station_id":"MTR","line":1,"station_name":"Matraman","transit":false},{"is_transit":false,"station_name":"Jatinegara","time":8,"i_lat":-6.215091,"i_long":106.86807400000001,"line":1,"transit":false,"distance":1377,"station_id":"JNG"},{"station_id":"KLD","transit":false,"distance":3395,"time":3,"is_transit":false,"i_lat":-6.2135,"station_name":"Klender","i_long":106.899548,"line":1},{"line":1,"distance":3100,"is_transit":false,"transit":false,"i_long":106.922662,"i_lat":-6.215568,"station_id":"BUA","time":2,"station_name":"Buaran"},{"station_name":"Klenderbaru","line":1,"distance":1305,"time":1,"station_id":"KLDB","i_lat":-6.217455,"transit":false,"i_long":106.939679,"is_transit":false},{"i_lat":-6.219053,"is_transit":false,"station_id":"CUK","i_long":106.951283,"line":1,"station_name":"Cakung","time":8,"distance":1385,"transit":false},{"i_lat":-6.224515,"is_transit":false,"i_long":106.977657,"line":1,"time":3,"station_name":"Kranji","distance":3097,"transit":false,"station_id":"KRI"},{"line":1,"station_name":"Bekasi","is_transit":false,"distance":2520,"time":4,"transit":false,"i_long":106.997013,"station_id":"BKS","i_lat":-6.236616},{"station_name":"Bekasi Timur","is_transit":false,"distance":2368,"line":1,"time":2,"i_lat":-6.248029,"i_long":107.016735,"transit":false,"station_id":"BKST"},{"station_name":"Tambun","time":7,"i_long":107.055722,"station_id":"TB","transit":false,"line":1,"is_transit":false,"distance":4460,"i_lat":-6.258864},{"i_long":107.083084,"is_transit":false,"station_id":"CIT","station_name":"Cibitung","transit":false,"i_lat":-6.261877,"line":1,"distance":3420,"time":3},{"distance":2800,"line":1,"i_lat":-6.262938,"station_id":"TLM","transit":false,"time":2,"is_transit":false,"station_name":"Metland Telaga Murni","i_long":107.093313},{"distance":3689,"is_transit":false,"time":4,"transit":false,"i_lat":-6.2553149999999995,"line":1,"station_name":"Cikarang","i_long":107.144613,"station_id":"CKR"}],[{"station_id":"AK","distance":0,"transit":false,"station_name":"Angke","time":0,"i_lat":-6.144674,"is_transit":false,"i_long":106.79867,"line":1},{"time":4,"distance":1230,"station_name":"Duri","is_transit":false,"i_lat":-6.155215,"transit":false,"i_long":106.800832,"line":1,"station_id":"DU"},{"is_transit":false,"transit":false,"line":1,"time":8,"i_long":106.811091,"i_lat":-6.185545,"station_name":"Tanah Abang","distance":3632,"station_id":"THB"},{"station_id":"KAT","distance":2029,"station_name":"Karet","line":1,"time":5,"is_transit":false,"transit":false,"i_lat":-6.20132,"i_long":106.816351},{"distance":471,"transit":false,"i_lat":-6.201433,"line":1,"is_transit":false,"i_long":106.819881,"time":1,"station_id":"SUDB","station_name":"Sudirman Baru"},{"i_lat":-6.202263,"station_id":"SUD","station_name":"Sudirman","transit":false,"i_long":106.822649,"line":1,"time":1,"is_transit":false,"distance":280},{"line":2,"is_transit":true,"i_lat":-6.209883,"i_long":106.84912,"station_id":"MRI","station_name":"Manggarai","distance":3186,"transit":true,"time":4},{"is_transit":false,"station_name":"Cikini","transit":false,"station_id":"CKI","distance":1590,"time":4,"i_long":106.840169,"line":2,"i_lat":-6.198556},{"is_transit":false,"i_long":106.832183,"time":3,"line":2,"distance":1750,"station_name":"Gondangdia","station_id":"GDD","transit":false,"i_lat":-6.186295},{"station_name":"Juanda","transit":false,"line":2,"distance":2015,"time":4,"i_lat":-6.166716,"station_id":"JUA","is_transit":false,"i_long":106.828284},{"distance":1149,"station_id":"SW","is_transit":false,"transit":false,"station_name":"Sawah Besar","time":2,"i_long":106.827103,"line":2,"i_lat":-6.160725},{"is_transit":false,"i_long":106.82482,"transit":false,"station_id":"MGB","station_name":"Manggabesar","distance":906,"time":2,"line":2,"i_lat":-6.149769},{"distance":1080,"is_transit":false,"time":2,"station_name":"Jayakarta","i_long":106.820901,"transit":false,"station_id":"JAY","line":2,"i_lat":-6.141205},{"station_name":"Jakarta Kota","distance":1264,"line":2,"station_id":"JAKK","time":4,"i_lat":-6.137569,"is_transit":true,"i_long":106.812439,"transit":true},{"transit":true,"time":3,"distance":1364,"station_name":"Kampung Bandan","i_long":106.826365,"station_id":"KPB","i_lat":-6.132549,"is_transit":true,"line":4},{"is_transit":false,"distance":1444,"i_lat":-6.14505,"time":3,"i_long":106.836569,"line":11,"station_name":"Rajawali","station_id":"RJW","transit":false},{"time":5,"line":11,"i_long":106.839204,"distance":1901,"i_lat":-6.161728,"transit":false,"station_id":"KMO","is_transit":false,"station_name":"Kemayoran"},{"is_transit":false,"line":11,"transit":false,"station_id":"PSE","time":4,"i_lat":-6.174784,"distance":1436,"i_long":106.84368,"station_name":"Pasar Senen"},{"time":8,"i_long":106.850107,"line":11,"station_id":"GST","i_lat":-6.185975,"transit":false,"is_transit":false,"station_name":"Gang Sentiong","distance":1567},{"transit":false,"i_lat":-6.193792,"station_name":"Kramat","distance":973,"line":11,"is_transit":false,"i_long":106.855437,"station_id":"KMT","time":1},{"distance":1829,"line":11,"station_id":"POK","i_long":106.861737,"is_transit":false,"station_name":"Pondok Jati","i_lat":-6.209188,"transit":false,"time":2},{"i_lat":-6.215091,"transit":true,"i_long":106.86807400000001,"is_transit":true,"line":1,"station_id":"JNG","station_name":"Jatinegara","time":9,"distance":1236},{"i_long":106.899548,"time":3,"transit":false,"is_transit":false,"i_lat":-6.2135,"line":1,"station_id":"KLD","station_name":"Klender","distance":3395},{"station_name":"Buaran","is_transit":false,"distance":3100,"station_id":"BUA","line":1,"i_lat":-6.215568,"transit":false,"i_long":106.922662,"time":2},{"is_transit":false,"i_long":106.939679,"line":1,"transit":false,"station_id":"KLDB","time":1,"i_lat":-6.217455,"distance":1305,"station_name":"Klenderbaru"},{"station_name":"Cakung","transit":false,"time":8,"i_lat":-6.219053,"i_long":106.951283,"line":1,"distance":1385,"station_id":"CUK","is_transit":false},{"i_lat":-6.224515,"line":1,"is_transit":false,"transit":false,"i_long":106.977657,"distance":3097,"station_name":"Kranji","time":3,"station_id":"KRI"},{"transit":false,"station_id":"BKS","station_name":"Bekasi","i_lat":-6.236616,"line":1,"is_transit":false,"time":4,"distance":2520,"i_long":106.997013},{"station_id":"BKST","line":1,"transit":false,"i_long":107.016735,"time":2,"is_transit":false,"station_name":"Bekasi Timur","distance":2368,"i_lat":-6.248029},{"i_long":107.055722,"distance":4460,"time":7,"transit":false,"station_name":"Tambun","station_id":"TB","is_transit":false,"i_lat":-6.258864,"line":1},{"distance":3420,"i_lat":-6.261877,"line":1,"is_transit":false,"i_long":107.083084,"transit":false,"time":3,"station_name":"Cibitung","station_id":"CIT"},{"i_long":107.093313,"transit":false,"is_transit":false,"station_id":"TLM","time":2,"station_name":"Metland Telaga Murni","line":1,"distance":2800,"i_lat":-6.262938},{"is_transit":false,"distance":3689,"line":1,"time":4,"station_name":"Cikarang","transit":false,"i_long":107.144613,"i_lat":-6.2553149999999995,"station_id":"CKR"}]]}