{"data":[[{"i_long":106.79867,"line":1,"station_name":"Angke","is_transit":false,"distance":0,"transit":false,"station_id":"AK","i_lat":-6.144674,"time":0},{"station_name":"Duri","is_transit":false,"distance":1230,"transit":false,"i_long":106.800832,"line":1,"i_lat":-6.155215,"station_id":"DU","time":4},{"distance":3632,"i_long":106.811091,"line":1,"station_id":"THB","time":8,"transit":false,"station_name":"Tanah Abang","i_lat":-6.185545,"is_transit":false},{"station_name":"Karet","is_transit":false,"distance":2029,"line":1,"station_id":"KAT","i_lat":-6.20132,"transit":false,"i_long":106.816351,"time":5},{"line":1,"station_id":"SUDB","time":1,"distance":471,"station_name":"Sudirman Baru","is_transit":false,"transit":false,"i_lat":-6.201433,"i_long":106.819881},{"transit":false,"i_lat":-6.202263,"time":1,"distance":280,"station_name":"Sudirman","line":1,"i_long":106.822649,"station_id":"SUD","is_transit":false},{"distance":3186,"line":2,"station_id":"MRI","i_lat":-6.209883,"transit":true,"station_name":"Manggarai","time":4,"is_transit":true,"i_long":106.84912},{"i_long":106.857948,"time":4,"is_transit":false,"i_lat":-6.226659,"line":2,"transit":false,"distance":2610,"station_name":"Tebet","station_id":"TEB"},{"time":2,"i_long":106.856607,"station_id":"CW","distance":1230,"line":2,"i_lat":-6.242512,"station_name":"Cawang","transit":false,"is_transit":false},{"i_long":106.85449,"distance":1546,"time":3,"i_lat":-6.255332,"is_transit":false,"station_name":"Duren Kalibata","station_id":"DRN","line":2,"transit":false},{"station_id":"PSMB","distance":824,"line":2,"i_long":106.851577,"station_name":"Pasar Minggu Baru","transit":false,"time":2,"is_transit":false,"i_lat":-6.263214},{"line":2,"time":2,"station_id":"PSM","is_transit":false,"distance":2380,"transit":false,"i_lat":-6.2842400000000005,"i_long":106.843999,"station_name":"Pasar Minggu"},{"distance":2820,"i_long":106.838896,"station_id":"TNT","i_lat":-6.3080680000000005,"transit":false,"line":2,"is_transit":false,"time":4,"station_name":"Tanjung Barat"},{"line":2,"i_long":106.832616,"station_id":"LNA","i_lat":-6.330363,"station_name":"Lenteng Agung","time":3,"is_transit":false,"distance":2671,"transit":false},{"station_id":"UP","distance":1029,"line":2,"transit":false,"i_long":106.834175,"is_transit":false,"station_name":"Univ. Pancasila","i_lat":-6.339291,"time":2},{"distance":2264,"station_name":"Univ. Indonesia","line":2,"time":3,"transit":false,"i_lat":-6.360749,"is_transit":false,"station_id":"UI","i_long":106.831474},{"is_transit":false,"station_id":"POC","time":2,"station_name":"Pondok Cina","distance":1109,"i_lat":-6.369073,"i_long":106.831114,"line":2,"transit":false},{"distance":2727,"i_lat":-6.391065,"i_long":106.819451,"time":4,"is_transit":false,"station_name":"Depokbaru","station_id":"DPB","transit":false,"line":2},{"distance":1584,"line":2,"station_id":"DP","transit":false,"is_transit":false,"i_lat":-6.405256,"station_name":"Depok","time":3,"i_long":106.816926},{"is_transit":true,"i_lat":-6.448811,"line":2,"station_name":"Citayam","distance":5084,"i_long":106.800298,"transit":true,"station_id":"CTA","time":6},{"i_lat":-6.460735,"time":0,"transit":false,"i_long":106.824374,"distance":0,"line":21,"station_name":"Pondok Rajeg","station_id":"PDRG","is_transit":false},{"station_id":"CBN","station_name":"Cibinong","time":0,"i_lat":-6.46424,"i_long":106.851978,"line":21,"is_transit":false,"distance":0,"transit":false}],[{"is_transit":false,"station_id":"AK","transit":false,"distance":0,"i_lat":-6.144674,"i_long":106.79867,"line":1,"time":0,"station_name":"Angke"},{"i_long":106.826365,"station_id":"KPB","time":9,"station_name":"Kampung Bandan","is_transit":true,"distance":4102,"transit":true,"line":4,"i_lat":-6.132549},{"station_id":"JAKK","distance":1364,"i_lat":-6.137569,"transit":true,"line":2,"i_long":106.812439,"time":3,"station_name":"Jakarta Kota","is_transit":true},{"station_id":"JAY","station_name":"Jayakarta","line":2,"transit":false,"is_transit":false,"i_long":106.820901,"time":4,"i_lat":-6.141205,"distance":1264},{"distance":1080,"i_long":106.82482,"is_transit":false,"time":2,"line":2,"station_name":"Manggabesar","transit":false,"station_id":"MGB","i_lat":-6.149769},{"transit":false,"station_name":"Sawah Besar","line":2,"distance":906,"i_lat":-6.160725,"station_id":"SW","is_transit":false,"i_long":106.827103,"time":2},{"i_lat":-6.166716,"station_name":"Juanda","transit":false,"line":2,"time":2,"is_transit":false,"station_id":"JUA","i_long":106.828284,"distance":1149},{"i_long":106.832183,"i_lat":-6.186295,"time":4,"transit":false,"station_name":"Gondangdia","station_id":"GDD","distance":2015,"is_transit":false,"line":2},{"station_name":"Cikini","time":3,"line":2,"station_id":"CKI","is_transit":false,"distance":1750,"transit":false,"i_lat":-6.198556,"i_long":106.840169},{"distance":1590,"time":4,"station_id":"MRI","i_lat":-6.209883,"is_transit":false,"i_long":106.84912,"line":2,"transit":false,"station_name":"Manggarai"},{"station_id":"TEB","distance":2610,"is_transit":false,"station_name":"Tebet","line":2,"i_lat":-6.226659,"time":4,"transit":false,"i_long":106.857948},{"i_long":106.856607,"station_name":"Cawang","i_lat":-6.242512,"station_id":"CW","transit":false,"distance":1230,"time":2,"line":2,"is_transit":false},{"i_long":106.85449,"line":2,"distance":1546,"transit":false,"station_id":"DRN","i_lat":-6.255332,"time":3,"station_name":"Duren Kalibata","is_transit":false},{"i_lat":-6.263214,"line":2,"station_name":"Pasar Minggu Baru","distance":824,"transit":false,"i_long":106.851577,"time":2,"is_transit":false,"station_id":"PSMB"},{"i_long":106.843999,"distance":2380,"is_transit":false,"i_lat":-6.2842400000000005,"station_id":"PSM","transit":false,"line":2,"station_name":"Pasar Minggu","time":2},{"distance":2820,"station_id":"TNT","i_lat":-6.3080680000000005,"time":4,"i_long":106.838896,"is_transit":false,"transit":false,"station_name":"Tanjung Barat","line":2},{"time":3,"distance":2671,"transit":false,"station_id":"LNA","i_lat":-6.330363,"line":2,"is_transit":false,"i_long":106.832616,"station_name":"Lenteng Agung"},{"is_transit":false,"time":2,"distance":1029,"i_lat":-6.339291,"station_id":"UP","transit":false,"i_long":106.834175,"line":2,"station_name":"Univ. Pancasila"},{"station_id":"UI","station_name":"Univ. Indonesia","is_transit":false,"transit":false,"i_lat":-6.360749,"distance":2264,"time":3,"i_long":106.831474,"line":2},{"distance":1109,"station_name":"Pondok Cina","transit":false,"station_id":"POC","line":2,"is_transit":false,"i_lat":-6.369073,"i_long":106.831114,"time":2},{"distance":2727,"transit":false,"i_lat":-6.391065,"time":4,"is_transit":false,"line":2,"station_name":"Depokbaru","station_id":"DPB","i_long":106.819451},{"i_lat":-6.405256,"station_id":"DP","time":3,"is_transit":false,"distance":1584,"transit":false,"i_long":106.816926,"line":2,"station_name":"Depok"},{"station_id":"CTA","station_name":"Citayam","transit":true,"i_lat":-6.448811,"distance":5084,"is_transit":true,"i_long":106.800298,"line":2,"time":6},{"time":0,"station_id":"PDRG","station_name":"Pondok Rajeg","distance":0,"i_lat":-6.460735,"i_long":106.824374,"line":21,"is_transit":false,"transit":false},{"station_name":"Cibinong","transit":false,"station_id":"CBN","i_long":106.851978,"line":21,"is_transit":false,"i_lat":-6.46424,"time":0,"distance":0}],[{"distance":0,"time":0,"station_id":"AK","i_long":106.79867,"is_transit":false,"transit":false,"station_name":"Angke","i_lat":-6.144674,"line":1},{"time":9,"line":4,"transit":true,"i_long":106.826365,"i_lat":-6.132549,"station_id":"KPB","distance":4102,"is_transit":true,"station_name":"Kampung Bandan"},{"distance":1444,"i_long":106.836569,"line":11,"transit":false,"station_id":"RJW","station_name":"Rajawali","is_transit":false,"time":3,"i_lat":-6.14505},{"time":5,"transit":false,"line":11,"station_id":"KMO","station_name":"Kemayoran","is_transit":false,"i_lat":-6.161728,"i_long":106.839204,"distance":1901},{"station_name":"Pasar Senen","i_long":106.84368,"is_transit":false,"transit":false,"time":4,"station_id":"PSE","i_lat":-6.174784,"distance":1436,"line":11},{"is_transit":false,"station_name":"Gang Sentiong","line":11,"station_id":"GST","time":8,"distance":1567,"i_long":106.850107,"transit":false,"i_lat":-6.185975},{"distance":973,"is_transit":false,"i_long":106.855437,"time":1,"transit":false,"i_lat":-6.193792,"line":11,"station_name":"Kramat","station_id":"KMT"},{"station_id":"POK","i_lat":-6.209188,"i_long":106.861737,"line":11,"distance":1829,"time":2,"is_transit":false,"station_name":"Pondok Jati","transit":false},{"transit":true,"distance":1236,"is_transit":true,"time":9,"i_lat":-6.215091,"line":1,"station_id":"JNG","station_name":"Jatinegara","i_long":106.86807400000001},{"i_long":106.858896,"time":2,"line":1,"station_name":"Matraman","is_transit":false,"distance":1377,"i_lat":-6.212485,"transit":false,"station_id":"MTR"},{"time":2,"i_long":106.84912,"station_id":"MRI","station_name":"Manggarai","transit":true,"i_lat":-6.209883,"is_transit":true,"distance":1275,"line":2},{"station_name":"Tebet","is_transit":false,"transit":false,"station_id":"TEB","i_long":106.857948,"time":4,"line":2,"distance":2610,"i_lat":-6.226659},{"station_id":"CW","distance":1230,"i_long":106.856607,"time":2,"transit":false,"i_lat":-6.242512,"station_name":"Cawang","line":2,"is_transit":false},{"transit":false,"distance":1546,"is_transit":false,"station_name":"Duren Kalibata","station_id":"DRN","i_lat":-6.255332,"time":3,"i_long":106.85449,"line":2},{"station_id":"PSMB","is_transit":false,"transit":false,"line":2,"distance":824,"i_lat":-6.263214,"station_name":"Pasar Minggu Baru","time":2,"i_long":106.851577},{"distance":2380,"station_id":"PSM","i_long":106.843999,"station_name":"Pasar Minggu","i_lat":-6.2842400000000005,"line":2,"is_transit":false,"time":2,"transit":false},{"i_long":106.838896,"line":2,"distance":2820,"time":4,"station_name":"Tanjung Barat","i_lat":-6.3080680000000005,"is_transit":false,"station_id":"TNT","transit":false},{"is_transit":false,"line":2,"time":3,"station_name":"Lenteng Agung","i_lat":-6.330363,"distance":2671,"transit":false,"station_id":"LNA","i_long":106.832616},{"i_long":106.834175,"line":2,"is_transit":false,"time":2,"distance":1029,"station_name":"Univ. Pancasila","transit":false,"station_id":"UP","i_lat":-6.339291},{"time":3,"is_transit":false,"i_lat":-6.360749,"i_long":106.831474,"station_id":"UI","transit":false,"line":2,"station_name":"Univ. Indonesia","distance":2264},{"station_name":"Pondok Cina","distance":1109,"time":2,"transit":false,"station_id":"POC","is_transit":false,"i_long":106.831114,"line":2,"i_lat":-6.369073},{"i_lat":-6.391065,"time":4,"transit":false,"station_name":"Depokbaru","station_id":"DPB","is_transit":false,"line":2,"distance":2727,"i_long":106.819451},{"station_id":"DP","transit":false,"i_long":106.816926,"time":3,"line":2,"is_transit":false,"station_name":"Depok","distance":1584,"i_lat":-6.405256},{"is_transit":true,"i_long":106.800298,"transit":true,"station_id":"CTA","i_lat":-6.448811,"time":6,"distance":5084,"station_name":"Citayam","line":2},{"time":0,"station_id":"PDRG","transit":false,"is_transit":false,"i_lat":-6.460735,"line":21,"distance":0,"i_long":106.824374,"station_name":"Pondok Rajeg"},{"transit":false,"line":21,"is_transit":false,"station_id":"CBN","i_long":106.851978,"i_lat":-6.46424,"time":0,"station_name":"Cibinong","distance":0}]]}