{"data":[[{"i_lat":-6.144674,"i_long":106.79867,"time":0,"station_id":"AK","line":1,"transit":false,"station_name":"Angke","distance":0,"is_transit":false},{"i_long":106.826365,"time":9,"distance":4102,"line":4,"station_name":"Kampung Bandan","i_lat":-6.132549,"station_id":"KPB","is_transit":true,"transit":true},{"distance":1444,"i_long":106.836569,"station_id":"RJW","transit":false,"is_transit":false,"time":3,"i_lat":-6.14505,"station_name":"Rajawali","line":11},{"station_name":"Kemayoran","time":5,"station_id":"KMO","distance":1901,"i_lat":-6.161728,"i_long":106.839204,"is_transit":false,"transit":false,"line":11},{"i_lat":-6.174784,"station_id":"PSE","i_long":106.84368,"time":4,"distance":1436,"line":11,"transit":false,"station_name":"Pasar Senen","is_transit":false},{"transit":false,"is_transit":false,"station_name":"Gang Sentiong","station_id":"GST","i_long":106.850107,"i_lat":-6.185975,"time":8,"distance":1567,"line":11},{"station_name":"Kramat","is_transit":false,"distance":973,"line":11,"i_long":106.855437,"station_id":"KMT","i_lat":-6.193792,"time":1,"transit":false},{"line":11,"station_name":"Pondok Jati","station_id":"POK","time":2,"is_transit":false,"i_long":106.861737,"distance":1829,"transit":false,"i_lat":-6.209188},{"i_long":106.86807400000001,"is_transit":true,"transit":true,"station_name":"Jatinegara","station_id":"JNG","distance":1236,"line":1,"i_lat":-6.215091,"time":9},{"distance":3395,"line":1,"is_transit":false,"time":3,"station_id":"KLD","i_lat":-6.2135,"i_long":106.899548,"station_name":"Klender","transit":false},{"distance":3100,"station_name":"Buaran","time":2,"line":1,"i_long":106.922662,"station_id":"BUA","is_transit":false,"i_lat":-6.215568,"transit":false},{"time":1,"line":1,"station_name":"Klenderbaru","i_lat":-6.217455,"distance":1305,"i_long":106.939679,"is_transit":false,"transit":false,"station_id":"KLDB"},{"i_long":106.951283,"line":1,"transit":false,"station_name":"Cakung","is_transit":false,"i_lat":-6.219053,"time":8,"station_id":"CUK","distance":1385},{"i_long":106.977657,"time":3,"station_id":"KRI","is_transit":false,"station_name":"Kranji","transit":false,"i_lat":-6.224515,"line":1,"distance":3097},{"transit":false,"station_name":"Bekasi","station_id":"BKS","is_transit":false,"line":1,"i_long":106.997013,"i_lat":-6.236616,"distance":2520,"time":4},{"line":1,"time":2,"i_lat":-6.248029,"station_id":"BKST","distance":2368,"station_name":"Bekasi Timur","i_long":107.016735,"is_transit":false,"transit":false},{"i_long":107.055722,"i_lat":-6.258864,"transit":false,"station_id":"TB","station_name":"Tambun","time":7,"line":1,"distance":4460,"is_transit":false},{"distance":3420,"is_transit":false,"transit":false,"line":1,"time":3,"i_lat":-6.261877,"station_id":"CIT","i_long":107.083084,"station_name":"Cibitung"},{"is_transit":false,"station_id":"TLM","i_long":107.093313,"distance":2800,"station_name":"Metland Telaga Murni","i_lat":-6.262938,"transit":false,"line":1,"time":2},{"i_lat":-6.2553149999999995,"station_id":"CKR","transit":false,"station_name":"Cikarang","is_transit":false,"time":4,"distance":3689,"line":1,"i_long":107.144613}],[{"i_long":106.79867,"distance":0,"station_id":"AK","is_transit":false,"time":0,"transit":false,"i_lat":-6.144674,"line":1,"station_name":"Angke"},{"distance":1230,"time":4,"line":1,"station_id":"DU","i_lat":-6.155215,"transit":false,"station_name":"Duri","is_transit":false,"i_long":106.800832},{"distance":3632,"station_id":"THB","transit":false,"station_name":"Tanah Abang","is_transit":false,"line":1,"i_long":106.811091,"i_lat":-6.185545,"time":8},{"i_lat":-6.20132,"time":5,"station_name":"Karet","is_transit":false,"distance":2029,"line":1,"i_long":106.816351,"station_id":"KAT","transit":false},{"i_lat":-6.201433,"line":1,"i_long":106.819881,"distance":471,"station_name":"Sudirman Baru","transit":false,"is_transit":false,"time":1,"station_id":"SUDB"},{"station_name":"Sudirman","transit":false,"i_lat":-6.202263,"line":1,"station_id":"SUD","distance":280,"time":1,"i_long":106.822649,"is_transit":false},{"distance":3186,"time":4,"station_id":"MRI","i_lat":-6.209883,"transit":false,"station_name":"Manggarai","i_long":106.84912,"line":2,"is_transit":false},{"station_id":"MTR","distance":1275,"station_name":"Matraman","time":2,"i_lat":-6.212485,"transit":false,"line":1,"is_transit":false,"i_long":106.858896},{"station_name":"Jatinegara","i_long":106.86807400000001,"time":8,"station_id":"JNG","is_transit":false,"line":1,"transit":false,"distance":1377,"i_lat":-6.215091},{"line":1,"i_long":106.899548,"station_id":"KLD","station_name":"Klender","is_transit":false,"transit":false,"distance":3395,"time":3,"i_lat":-6.2135},{"distance":3100,"line":1,"station_id":"BUA","transit":false,"station_name":"Buaran","i_long":106.922662,"i_lat":-6.215568,"is_transit":false,"time":2},{"i_long":106.939679,"station_name":"Klenderbaru","distance":1305,"i_lat":-6.217455,"line":1,"station_id":"KLDB","transit":false,"is_transit":false,"time":1},{"distance":1385,"i_lat":-6.219053,"time":8,"station_name":"Cakung","line":1,"i_long":106.951283,"station_id":"CUK","transit":false,"is_transit":false},{"i_lat":-6.224515,"i_long":106.977657,"transit":false,"station_name":"Kranji","station_id":"KRI","line":1,"is_transit":false,"time":3,"distance":3097},{"station_id":"BKS","station_name":"Bekasi","i_lat":-6.236616,"i_long":106.997013,"time":4,"transit":false,"distance":2520,"line":1,"is_transit":false},{"is_transit":false,"i_lat":-6.248029,"line":1,"station_id":"BKST","i_long":107.016735,"transit":false,"time":2,"distance":2368,"station_name":"Bekasi Timur"},{"i_long":107.055722,"line":1,"is_transit":false,"i_lat":-6.258864,"station_name":"Tambun","station_id":"TB","time":7,"transit":false,"distance":4460},{"i_long":107.083084,"i_lat":-6.261877,"station_id":"CIT","is_transit":false,"time":3,"distance":3420,"line":1,"transit":false,"station_name":"Cibitung"},{"line":1,"is_transit":false,"distance":2800,"transit":false,"time":2,"station_name":"Metland Telaga Murni","station_id":"TLM","i_lat":-6.262938,"i_long":107.093313},{"i_lat":-6.2553149999999995,"time":4,"station_name":"Cikarang","station_id":"CKR","transit":false,"line":1,"is_transit":false,"distance":3689,"i_long":107.144613}],[{"transit":false,"i_lat":-6.144674,"station_name":"Angke","is_transit":false,"time":0,"distance":0,"station_id":"AK","line":1,"i_long":106.79867},{"distance":4102,"is_transit":true,"station_id":"KPB","time":9,"transit":true,"station_name":"Kampung Bandan","i_long":106.826365,"i_lat":-6.132549,"line":4},{"distance":1364,"station_name":"Jakarta Kota","station_id":"JAKK","time":3,"transit":true,"is_transit":true,"i_long":106.812439,"i_lat":-6.137569,"line":2},{"i_long":106.820901,"i_lat":-6.141205,"station_name":"Jayakarta","line":2,"is_transit":false,"transit":false,"station_id":"JAY","time":4,"distance":1264},{"station_name":"Manggabesar","line":2,"distance":1080,"transit":false,"station_id":"MGB","i_lat":-6.149769,"i_long":106.82482,"is_transit":false,"time":2},{"station_name":"Sawah Besar","station_id":"SW","i_lat":-6.160725,"transit":false,"time":2,"i_long":106.827103,"line":2,"distance":906,"is_transit":false},{"line":2,"station_id":"JUA","i_lat":-6.166716,"time":2,"transit":false,"is_transit":false,"distance":1149,"station_name":"Juanda","i_long":106.828284},{"line":2,"is_transit":false,"station_name":"Gondangdia","i_lat":-6.186295,"station_id":"GDD","time":4,"transit":false,"distance":2015,"i_long":106.832183},{"distance":1750,"line":2,"station_id":"CKI","time":3,"transit":false,"station_name":"Cikini","i_lat":-6.198556,"is_transit":false,"i_long":106.840169},{"i_long":106.84912,"line":2,"i_lat":-6.209883,"transit":true,"time":4,"station_name":"Manggarai","station_id":"MRI","is_transit":true,"distance":1590},{"distance":1275,"line":1,"transit":false,"station_id":"MTR","time":2,"station_name":"Matraman","i_lat":-6.212485,"i_long":106.858896,"is_transit":false},{"distance":1377,"is_transit":false,"i_lat":-6.215091,"i_long":106.86807400000001,"line":1,"transit":false,"time":8,"station_name":"Jatinegara","station_id":"JNG"},{"station_id":"KLD","station_name":"Klender","distance":3395,"time":3,"i_long":106.899548,"transit":false,"is_transit":false,"i_lat":-6.2135,"line":1},{"station_id":"BUA","distance":3100,"i_lat":-6.215568,"is_transit":false,"station_name":"Buaran","transit":false,"line":1,"time":2,"i_long":106.922662},{"distance":1305,"line":1,"time":1,"station_id":"KLDB","i_lat":-6.217455,"i_long":106.939679,"transit":false,"station_name":"Klenderbaru","is_transit":false},{"transit":false,"distance":1385,"station_name":"Cakung","i_long":106.951283,"time":8,"station_id":"CUK","is_transit":false,"i_lat":-6.219053,"line":1},{"distance":3097,"station_id":"KRI","i_lat":-6.224515,"line":1,"is_transit":false,"station_name":"Kranji","transit":false,"time":3,"i_long":106.977657},{"i_long":106.997013,"station_id":"BKS","station_name":"Bekasi","is_transit":false,"time":4,"distance":2520,"line":1,"transit":false,"i_lat":-6.236616},{"is_transit":false,"distance":2368,"transit":false,"i_lat":-6.248029,"i_long":107.016735,"time":2,"line":1,"station_id":"BKST","station_name":"Bekasi Timur"},{"i_long":107.055722,"is_transit":false,"distance":4460,"line":1,"time":7,"station_id":"TB","i_lat":-6.258864,"transit":false,"station_name":"Tambun"},{"station_name":"Cibitung","station_id":"CIT","is_transit":false,"i_lat":-6.261877,"line":1,"i_long":107.083084,"distance":3420,"time":3,"transit":false},{"i_lat":-6.262938,"i_long":107.093313,"line":1,"time":2,"transit":false,"station_name":"Metland Telaga Murni","station_id":"TLM","distance":2800,"is_transit":false},{"is_transit":false,"station_id":"CKR","distance":3689,"time":4,"station_name":"Cikarang","i_lat":-6.2553149999999995,"transit":false,"line":1,"i_long":107.144613}],[{"time":0,"is_transit":false,"station_id":"AK","transit":false,"station_name":"Angke","line":1,"distance":0,"i_lat":-6.144674,"i_long":106.79867},{"station_name":"Duri","i_lat":-6.155215,"is_transit":false,"distance":1230,"station_id":"DU","time":4,"line":1,"transit":false,"i_long":106.800832},{"distance":3632,"time":8,"i_long":106.811091,"is_transit":false,"station_id":"THB","station_name":"Tanah Abang","transit":false,"line":1,"i_lat":-6.185545},{"i_long":106.816351,"time":5,"transit":false,"station_id":"KAT","is_transit":false,"line":1,"i_lat":-6.20132,"distance":2029,"station_name":"Karet"},{"i_lat":-6.201433,"line":1,"station_id":"SUDB","distance":471,"is_transit":false,"time":1,"transit":false,"station_name":"Sudirman Baru","i_long":106.819881},{"line":1,"is_transit":false,"distance":280,"i_lat":-6.202263,"i_long":106.822649,"transit":false,"station_name":"Sudirman","station_id":"SUD","time":1},{"i_lat":-6.209883,"line":2,"time":4,"i_long":106.84912,"transit":true,"station_id":"MRI","station_name":"Manggarai","is_transit":true,"distance":3186},{"i_lat":-6.198556,"station_id":"CKI","distance":1590,"line":2,"i_long":106.840169,"station_name":"Cikini","time":4,"is_transit":false,"transit":false},{"transit":false,"station_name":"Gondangdia","time":3,"distance":1750,"line":2,"station_id":"GDD","i_long":106.832183,"i_lat":-6.186295,"is_transit":false},{"transit":false,"i_lat":-6.166716,"station_name":"Juanda","station_id":"JUA","is_transit":false,"i_long":106.828284,"distance":2015,"line":2,"time":4},{"distance":1149,"station_name":"Sawah Besar","is_transit":false,"i_long":106.827103,"i_lat":-6.160725,"transit":false,"station_id":"SW","time":2,"line":2},{"line":2,"transit":false,"station_id":"MGB","time":2,"is_transit":false,"i_long":106.82482,"station_name":"Manggabesar","distance":906,"i_lat":-6.149769},{"is_transit":false,"time":2,"station_name":"Jayakarta","i_lat":-6.141205,"distance":1080,"station_id":"JAY","line":2,"i_long":106.820901,"transit":false},{"is_transit":true,"station_id":"JAKK","station_name":"Jakarta Kota","i_lat":-6.137569,"transit":true,"time":4,"distance":1264,"line":2,"i_long":106.812439},{"transit":true,"station_id":"KPB","time":3,"distance":1364,"line":4,"is_transit":true,"i_lat":-6.132549,"i_long":106.826365,"station_name":"Kampung Bandan"},{"time":3,"transit":false,"line":11,"i_long":106.836569,"station_name":"Rajawali","is_transit":false,"station_id":"RJW","i_lat":-6.14505,"distance":1444},{"i_long":106.839204,"station_name":"Kemayoran","transit":false,"is_transit":false,"time":5,"i_lat":-6.161728,"distance":1901,"station_id":"KMO","line":11},{"transit":false,"line":11,"station_id":"PSE","i_lat":-6.174784,"time":4,"station_name":"Pasar Senen","i_long":106.84368,"is_transit":false,"distance":1436},{"i_lat":-6.185975,"station_name":"Gang Sentiong","is_transit":false,"station_id":"GST","distance":1567,"line":11,"i_long":106.850107,"transit":false,"time":8},{"i_long":106.855437,"time":1,"transit":false,"station_name":"Kramat","is_transit":false,"line":11,"station_id":"KMT","distance":973,"i_lat":-6.193792},{"is_transit":false,"station_id":"POK","distance":1829,"transit":false,"i_long":106.861737,"i_lat":-6.209188,"line":11,"station_name":"Pondok Jati","time":2},{"station_id":"JNG","time":9,"i_lat":-6.215091,"transit":true,"i_long":106.86807400000001,"line":1,"distance":1236,"is_transit":true,"station_name":"Jatinegara"},{"station_name":"Klender","station_id":"KLD","is_transit":false,"line":1,"transit":false,"time":3,"distance":3395,"i_long":106.899548,"i_lat":-6.2135},{"i_lat":-6.215568,"distance":3100,"transit":false,"station_id":"BUA","time":2,"station_name":"Buaran","i_long":106.922662,"line":1,"is_transit":false},{"station_id":"KLDB","i_long":106.939679,"station_name":"Klenderbaru","distance":1305,"line":1,"time":1,"is_transit":false,"transit":false,"i_lat":-6.217455},{"line":1,"time":8,"distance":1385,"station_id":"CUK","station_name":"Cakung","is_transit":false,"i_long":106.951283,"transit":false,"i_lat":-6.219053},{"distance":3097,"transit":false,"i_long":106.977657,"i_lat":-6.224515,"time":3,"is_transit":false,"station_id":"KRI","line":1,"station_name":"Kranji"},{"time":4,"station_name":"Bekasi","station_id":"BKS","i_long":106.997013,"is_transit":false,"distance":2520,"i_lat":-6.236616,"transit":false,"line":1},{"time":2,"i_long":107.016735,"transit":false,"is_transit":false,"i_lat":-6.248029,"line":1,"station_name":"Bekasi Timur","station_id":"BKST","distance":2368},{"i_long":107.055722,"transit":false,"line":1,"station_name":"Tambun","i_lat":-6.258864,"station_id":"TB","distance":4460,"is_transit":false,"time":7},{"distance":3420,"time":3,"station_id":"CIT","is_transit":false,"line":1,"station_name":"Cibitung","i_lat":-6.261877,"transit":false,"i_long":107.083084},{"distance":2800,"station_id":"TLM","transit":false,"is_transit":false,"station_name":"Metland Telaga Murni","i_long":107.093313,"line":1,"i_lat":-6.262938,"time":2},{"transit":false,"i_long":107.144613,"time":4,"is_transit":false,"line":1,"station_id":"CKR","distance":3689,"i_lat":-6.2553149999999995,"station_name":"Cikarang"}]]}