{"data":[[{"is_transit":false,"station_name":"Angke","distance":0,"i_lat":-6.144674,"transit":false,"station_id":"AK","i_long":106.79867,"line":1,"time":0},{"is_transit":false,"i_lat":-6.155215,"station_id":"DU","distance":1230,"i_long":106.800832,"time":4,"station_name":"Duri","transit":false,"line":1},{"time":8,"station_name":"Tanah Abang","i_long":106.811091,"transit":true,"i_lat":-6.185545,"distance":3632,"station_id":"THB","is_transit":true,"line":1},{"station_id":"PLM","line":6,"station_name":"Palmerah","transit":false,"i_lat":-6.207404,"i_long":106.79689,"is_transit":false,"distance":3191,"time":6},{"station_name":"Kebayoran","time":7,"distance":3737,"i_lat":-6.237242,"transit":false,"i_long":106.780334,"is_transit":false,"line":6,"station_id":"KBY"},{"is_transit":false,"i_lat":-6.276362,"line":6,"distance":6218,"transit":false,"time":8,"station_id":"PDJ","i_long":106.74273,"station_name":"Pondokranji"},{"station_id":"JMU","i_lat":-6.288927,"time":3,"i_long":106.728916,"station_name":"Jurangmangu","distance":2179,"transit":false,"is_transit":false,"line":6},{"station_name":"Sudimara","i_long":106.712277,"line":6,"time":4,"distance":1994,"is_transit":false,"transit":false,"i_lat":-6.296963,"station_id":"SDM"},{"transit":false,"is_transit":false,"line":6,"station_name":"Rawa Buntu","i_long":106.675475,"distance":4566,"i_lat":-6.314823,"station_id":"RU","time":6},{"station_name":"Serpong","distance":2413,"station_id":"SRP","time":4,"transit":false,"i_lat":-6.319871,"is_transit":false,"i_long":106.66566,"line":6},{"i_long":106.640411,"i_lat":-6.32484,"is_transit":false,"distance":1784,"transit":false,"station_id":"CSK","station_name":"Cisauk","time":4,"line":3},{"transit":false,"time":4,"i_lat":-6.329547,"i_long":106.617853,"station_name":"Cicayur","station_id":"CC","distance":2519,"line":3,"is_transit":false},{"station_name":"Parung Panjang","time":8,"is_transit":false,"transit":false,"i_lat":-6.3441410000000005,"line":6,"i_long":106.568863,"distance":5968,"station_id":"PRP"},{"time":9,"station_id":"CJT","distance":7025,"station_name":"Cilejit","transit":false,"i_lat":-6.354349,"i_long":106.508482,"is_transit":false,"line":3},{"transit":false,"is_transit":false,"i_lat":-6.338021,"time":6,"distance":2675,"line":0,"i_long":106.491338,"station_id":"DAR","station_name":"Daru"},{"station_name":"Tenjo","distance":3902,"time":5,"i_long":106.460812,"transit":false,"is_transit":false,"line":6,"station_id":"TEJ","i_lat":-6.327251},{"transit":false,"i_lat":-6.328533,"is_transit":false,"i_long":106.425991,"station_id":"TGS","station_name":"Tigaraksa","distance":2974,"time":5,"line":6},{"time":3,"distance":2651,"transit":false,"is_transit":false,"station_name":"Cikoya","station_id":"CKY","i_lat":-6.33561,"i_long":106.411216,"line":3}],[{"distance":0,"is_transit":false,"i_lat":-6.144674,"time":0,"i_long":106.79867,"line":1,"transit":false,"station_id":"AK","station_name":"Angke"},{"is_transit":true,"i_long":106.826365,"distance":4102,"transit":true,"i_lat":-6.132549,"line":4,"time":9,"station_id":"KPB","station_name":"Kampung Bandan"},{"station_id":"JAKK","i_lat":-6.137569,"transit":true,"is_transit":true,"distance":1364,"line":2,"station_name":"Jakarta Kota","time":3,"i_long":106.812439},{"distance":1264,"time":4,"transit":false,"station_name":"Jayakarta","i_long":106.820901,"is_transit":false,"station_id":"JAY","i_lat":-6.141205,"line":2},{"time":2,"distance":1080,"is_transit":false,"transit":false,"station_id":"MGB","station_name":"Manggabesar","i_long":106.82482,"line":2,"i_lat":-6.149769},{"distance":906,"is_transit":false,"station_id":"SW","station_name":"Sawah Besar","transit":false,"i_long":106.827103,"line":2,"i_lat":-6.160725,"time":2},{"line":2,"is_transit":false,"time":2,"station_name":"Juanda","transit":false,"station_id":"JUA","i_long":106.828284,"distance":1149,"i_lat":-6.166716},{"is_transit":false,"station_name":"Gondangdia","transit":false,"i_lat":-6.186295,"i_long":106.832183,"time":4,"distance":2015,"line":2,"station_id":"GDD"},{"time":3,"is_transit":false,"station_name":"Cikini","i_lat":-6.198556,"i_long":106.840169,"line":2,"station_id":"CKI","distance":1750,"transit":false},{"station_name":"Manggarai","i_lat":-6.209883,"time":4,"i_long":106.84912,"line":2,"station_id":"MRI","distance":1590,"is_transit":true,"transit":true},{"time":4,"i_long":106.822649,"line":1,"distance":3186,"station_name":"Sudirman","transit":false,"is_transit":false,"i_lat":-6.202263,"station_id":"SUD"},{"station_name":"Sudirman Baru","transit":false,"line":1,"is_transit":false,"time":1,"distance":280,"station_id":"SUDB","i_lat":-6.201433,"i_long":106.819881},{"i_lat":-6.20132,"line":1,"station_name":"Karet","time":1,"i_long":106.816351,"station_id":"KAT","is_transit":false,"distance":471,"transit":false},{"distance":2029,"station_name":"Tanah Abang","i_long":106.811091,"line":1,"station_id":"THB","transit":true,"is_transit":true,"time":5,"i_lat":-6.185545},{"distance":3191,"is_transit":false,"station_id":"PLM","i_long":106.79689,"station_name":"Palmerah","i_lat":-6.207404,"transit":false,"line":6,"time":6},{"time":7,"station_name":"Kebayoran","i_lat":-6.237242,"station_id":"KBY","i_long":106.780334,"line":6,"is_transit":false,"transit":false,"distance":3737},{"station_name":"Pondokranji","distance":6218,"station_id":"PDJ","i_lat":-6.276362,"i_long":106.74273,"is_transit":false,"line":6,"transit":false,"time":8},{"i_long":106.728916,"time":3,"distance":2179,"transit":false,"station_id":"JMU","line":6,"is_transit":false,"i_lat":-6.288927,"station_name":"Jurangmangu"},{"line":6,"i_lat":-6.296963,"is_transit":false,"distance":1994,"transit":false,"station_id":"SDM","time":4,"station_name":"Sudimara","i_long":106.712277},{"i_lat":-6.314823,"i_long":106.675475,"station_id":"RU","line":6,"is_transit":false,"time":6,"transit":false,"distance":4566,"station_name":"Rawa Buntu"},{"distance":2413,"i_lat":-6.319871,"transit":false,"station_name":"Serpong","station_id":"SRP","i_long":106.66566,"is_transit":false,"line":6,"time":4},{"station_id":"CSK","is_transit":false,"i_lat":-6.32484,"line":3,"time":4,"station_name":"Cisauk","transit":false,"i_long":106.640411,"distance":1784},{"i_lat":-6.329547,"station_name":"Cicayur","line":3,"i_long":106.617853,"station_id":"CC","is_transit":false,"distance":2519,"time":4,"transit":false},{"transit":false,"line":6,"distance":5968,"is_transit":false,"i_long":106.568863,"station_id":"PRP","time":8,"station_name":"Parung Panjang","i_lat":-6.3441410000000005},{"is_transit":false,"i_lat":-6.354349,"line":3,"station_id":"CJT","transit":false,"time":9,"distance":7025,"i_long":106.508482,"station_name":"Cilejit"},{"i_long":106.491338,"i_lat":-6.338021,"line":0,"station_name":"Daru","transit":false,"station_id":"DAR","is_transit":false,"time":6,"distance":2675},{"transit":false,"i_lat":-6.327251,"is_transit":false,"time":5,"line":6,"station_name":"Tenjo","distance":3902,"i_long":106.460812,"station_id":"TEJ"},{"distance":2974,"station_id":"TGS","i_long":106.425991,"time":5,"is_transit":false,"station_name":"Tigaraksa","i_lat":-6.328533,"transit":false,"line":6},{"transit":false,"time":3,"station_name":"Cikoya","i_lat":-6.33561,"i_long":106.411216,"is_transit":false,"station_id":"CKY","distance":2651,"line":3}],[{"station_id":"AK","distance":0,"transit":false,"time":0,"station_name":"Angke","i_long":106.79867,"is_transit":false,"i_lat":-6.144674,"line":1},{"distance":4102,"station_name":"Kampung Bandan","time":9,"station_id":"KPB","transit":true,"i_lat":-6.132549,"i_long":106.826365,"is_transit":true,"line":4},{"line":11,"i_long":106.836569,"is_transit":false,"station_id":"RJW","distance":1444,"transit":false,"time":3,"i_lat":-6.14505,"station_name":"Rajawali"},{"station_name":"Kemayoran","distance":1901,"time":5,"line":11,"transit":false,"i_lat":-6.161728,"i_long":106.839204,"is_transit":false,"station_id":"KMO"},{"time":4,"i_long":106.84368,"is_transit":false,"i_lat":-6.174784,"line":11,"distance":1436,"station_name":"Pasar Senen","transit":false,"station_id":"PSE"},{"i_lat":-6.185975,"station_id":"GST","line":11,"time":8,"distance":1567,"is_transit":false,"station_name":"Gang Sentiong","transit":false,"i_long":106.850107},{"station_id":"KMT","i_long":106.855437,"is_transit":false,"station_name":"Kramat","time":1,"distance":973,"line":11,"transit":false,"i_lat":-6.193792},{"distance":1829,"transit":false,"station_name":"Pondok Jati","station_id":"POK","i_lat":-6.209188,"is_transit":false,"line":11,"time":2,"i_long":106.861737},{"time":9,"station_name":"Jatinegara","i_lat":-6.215091,"station_id":"JNG","is_transit":true,"line":1,"transit":true,"distance":1236,"i_long":106.86807400000001},{"station_id":"MTR","i_long":106.858896,"is_transit":false,"line":1,"distance":1377,"i_lat":-6.212485,"transit":false,"station_name":"Matraman","time":2},{"is_transit":false,"line":2,"i_long":106.84912,"distance":1275,"station_name":"Manggarai","transit":false,"time":2,"station_id":"MRI","i_lat":-6.209883},{"time":4,"station_name":"Sudirman","station_id":"SUD","i_lat":-6.202263,"transit":false,"is_transit":false,"i_long":106.822649,"distance":3186,"line":1},{"distance":280,"is_transit":false,"station_name":"Sudirman Baru","transit":false,"line":1,"time":1,"i_lat":-6.201433,"station_id":"SUDB","i_long":106.819881},{"transit":false,"i_long":106.816351,"distance":471,"station_id":"KAT","i_lat":-6.20132,"line":1,"time":1,"station_name":"Karet","is_transit":false},{"i_lat":-6.185545,"station_name":"Tanah Abang","is_transit":true,"line":1,"distance":2029,"station_id":"THB","i_long":106.811091,"transit":true,"time":5},{"distance":3191,"i_lat":-6.207404,"station_name":"Palmerah","transit":false,"i_long":106.79689,"time":6,"station_id":"PLM","line":6,"is_transit":false},{"time":7,"station_id":"KBY","station_name":"Kebayoran","distance":3737,"is_transit":false,"i_long":106.780334,"i_lat":-6.237242,"line":6,"transit":false},{"station_name":"Pondokranji","time":8,"i_lat":-6.276362,"is_transit":false,"transit":false,"i_long":106.74273,"line":6,"station_id":"PDJ","distance":6218},{"i_lat":-6.288927,"line":6,"time":3,"station_name":"Jurangmangu","transit":false,"is_transit":false,"distance":2179,"station_id":"JMU","i_long":106.728916},{"is_transit":false,"transit":false,"time":4,"station_name":"Sudimara","i_long":106.712277,"station_id":"SDM","i_lat":-6.296963,"distance":1994,"line":6},{"station_name":"Rawa Buntu","i_long":106.675475,"time":6,"line":6,"transit":false,"is_transit":false,"i_lat":-6.314823,"distance":4566,"station_id":"RU"},{"i_lat":-6.319871,"is_transit":false,"time":4,"line":6,"i_long":106.66566,"transit":false,"distance":2413,"station_id":"SRP","station_name":"Serpong"},{"station_name":"Cisauk","is_transit":false,"distance":1784,"time":4,"i_lat":-6.32484,"i_long":106.640411,"transit":false,"station_id":"CSK","line":3},{"station_id":"CC","i_long":106.617853,"time":4,"station_name":"Cicayur","line":3,"distance":2519,"is_transit":false,"transit":false,"i_lat":-6.329547},{"is_transit":false,"transit":false,"i_long":106.568863,"distance":5968,"station_name":"Parung Panjang","line":6,"time":8,"station_id":"PRP","i_lat":-6.3441410000000005},{"time":9,"is_transit":false,"i_lat":-6.354349,"station_name":"Cilejit","distance":7025,"station_id":"CJT","i_long":106.508482,"line":3,"transit":false},{"line":0,"station_id":"DAR","i_long":106.491338,"distance":2675,"transit":false,"is_transit":false,"time":6,"station_name":"Daru","i_lat":-6.338021},{"line":6,"time":5,"distance":3902,"transit":false,"is_transit":false,"station_id":"TEJ","i_long":106.460812,"i_lat":-6.327251,"station_name":"Tenjo"},{"line":6,"is_transit":false,"transit":false,"distance":2974,"i_long":106.425991,"time":5,"station_name":"Tigaraksa","station_id":"TGS","i_lat":-6.328533},{"station_name":"Cikoya","station_id":"CKY","is_transit":false,"i_long":106.411216,"time":3,"distance":2651,"transit":false,"i_lat":-6.33561,"line":3}]]}