{"data":[[{"station_id":"AK","i_lat":-6.144674,"transit":false,"line":1,"time":0,"i_long":106.79867,"is_transit":false,"distance":0,"station_name":"Angke"},{"transit":false,"line":1,"station_id":"DU","is_transit":false,"station_name":"Duri","distance":1230,"time":4,"i_lat":-6.155215,"i_long":106.800832},{"i_long":106.811091,"transit":false,"i_lat":-6.185545,"station_id":"THB","is_transit":false,"time":8,"station_name":"Tanah Abang","distance":3632,"line":1},{"time":5,"is_transit":false,"station_name":"Karet","line":1,"distance":2029,"station_id":"KAT","i_lat":-6.20132,"i_long":106.816351,"transit":false},{"distance":471,"i_lat":-6.201433,"station_id":"SUDB","i_long":106.819881,"time":1,"station_name":"Sudirman Baru","transit":false,"is_transit":false,"line":1},{"is_transit":false,"time":1,"distance":280,"transit":false,"i_long":106.822649,"line":1,"i_lat":-6.202263,"station_name":"Sudirman","station_id":"SUD"},{"line":2,"distance":3186,"time":4,"transit":true,"i_lat":-6.209883,"station_name":"Manggarai","station_id":"MRI","is_transit":true,"i_long":106.84912},{"transit":false,"distance":2610,"line":2,"i_long":106.857948,"station_id":"TEB","station_name":"Tebet","i_lat":-6.226659,"time":4,"is_transit":false},{"station_id":"CW","line":2,"is_transit":false,"i_lat":-6.242512,"distance":1230,"i_long":106.856607,"station_name":"Cawang","time":2,"transit":false},{"station_id":"DRN","i_long":106.85449,"transit":false,"i_lat":-6.255332,"time":3,"station_name":"Duren Kalibata","distance":1546,"line":2,"is_transit":false},{"station_name":"Pasar Minggu Baru","is_transit":false,"time":2,"i_lat":-6.263214,"transit":false,"distance":824,"station_id":"PSMB","i_long":106.851577,"line":2},{"i_long":106.843999,"transit":false,"time":2,"distance":2380,"line":2,"is_transit":false,"station_id":"PSM","station_name":"Pasar Minggu","i_lat":-6.2842400000000005},{"i_long":106.838896,"transit":false,"is_transit":false,"distance":2820,"i_lat":-6.3080680000000005,"time":4,"station_id":"TNT","line":2,"station_name":"Tanjung Barat"},{"line":2,"distance":2671,"is_transit":false,"i_long":106.832616,"station_name":"Lenteng Agung","time":3,"station_id":"LNA","transit":false,"i_lat":-6.330363},{"is_transit":false,"i_lat":-6.339291,"station_name":"Univ. Pancasila","station_id":"UP","transit":false,"distance":1029,"i_long":106.834175,"time":2,"line":2},{"time":3,"distance":2264,"station_name":"Univ. Indonesia","transit":false,"line":2,"station_id":"UI","i_long":106.831474,"i_lat":-6.360749,"is_transit":false},{"station_name":"Pondok Cina","is_transit":false,"i_long":106.831114,"station_id":"POC","line":2,"distance":1109,"i_lat":-6.369073,"time":2,"transit":false},{"i_lat":-6.391065,"station_name":"Depokbaru","i_long":106.819451,"line":2,"station_id":"DPB","distance":2727,"time":4,"is_transit":false,"transit":false},{"station_name":"Depok","i_lat":-6.405256,"is_transit":false,"transit":false,"distance":1584,"line":2,"station_id":"DP","time":3,"i_long":106.816926},{"distance":5084,"i_lat":-6.448811,"transit":true,"station_name":"Citayam","is_transit":true,"i_long":106.800298,"time":6,"line":2,"station_id":"CTA"},{"is_transit":false,"i_long":106.824374,"transit":false,"i_lat":-6.460735,"distance":0,"station_name":"Pondok Rajeg","line":21,"time":0,"station_id":"PDRG"},{"line":21,"time":0,"station_name":"Cibinong","is_transit":false,"i_lat":-6.46424,"transit":false,"i_long":106.851978,"station_id":"CBN","distance":0}],[{"station_id":"AK","is_transit":false,"distance":0,"i_lat":-6.144674,"time":0,"i_long":106.79867,"transit":false,"station_name":"Angke","line":1},{"i_lat":-6.132549,"transit":true,"distance":4102,"line":4,"is_transit":true,"station_name":"Kampung Bandan","time":9,"station_id":"KPB","i_long":106.826365},{"distance":1364,"transit":true,"time":3,"station_name":"Jakarta Kota","i_lat":-6.137569,"i_long":106.812439,"line":2,"station_id":"JAKK","is_transit":true},{"transit":false,"station_id":"JAY","i_long":106.820901,"line":2,"i_lat":-6.141205,"is_transit":false,"time":4,"station_name":"Jayakarta","distance":1264},{"is_transit":false,"distance":1080,"line":2,"transit":false,"station_id":"MGB","station_name":"Manggabesar","time":2,"i_lat":-6.149769,"i_long":106.82482},{"line":2,"station_id":"SW","transit":false,"station_name":"Sawah Besar","i_lat":-6.160725,"is_transit":false,"i_long":106.827103,"time":2,"distance":906},{"i_long":106.828284,"time":2,"distance":1149,"i_lat":-6.166716,"line":2,"station_id":"JUA","transit":false,"station_name":"Juanda","is_transit":false},{"is_transit":false,"i_long":106.832183,"time":4,"transit":false,"distance":2015,"i_lat":-6.186295,"station_id":"GDD","line":2,"station_name":"Gondangdia"},{"line":2,"transit":false,"station_id":"CKI","time":3,"station_name":"Cikini","distance":1750,"i_long":106.840169,"is_transit":false,"i_lat":-6.198556},{"line":2,"transit":false,"time":4,"i_long":106.84912,"is_transit":false,"station_name":"Manggarai","i_lat":-6.209883,"station_id":"MRI","distance":1590},{"station_id":"TEB","is_transit":false,"i_lat":-6.226659,"line":2,"time":4,"i_long":106.857948,"distance":2610,"station_name":"Tebet","transit":false},{"i_lat":-6.242512,"is_transit":false,"time":2,"distance":1230,"station_name":"Cawang","station_id":"CW","transit":false,"i_long":106.856607,"line":2},{"line":2,"distance":1546,"i_long":106.85449,"transit":false,"is_transit":false,"time":3,"station_name":"Duren Kalibata","station_id":"DRN","i_lat":-6.255332},{"i_lat":-6.263214,"is_transit":false,"time":2,"i_long":106.851577,"line":2,"transit":false,"station_name":"Pasar Minggu Baru","distance":824,"station_id":"PSMB"},{"line":2,"station_id":"PSM","i_long":106.843999,"distance":2380,"transit":false,"time":2,"i_lat":-6.2842400000000005,"is_transit":false,"station_name":"Pasar Minggu"},{"station_id":"TNT","distance":2820,"transit":false,"station_name":"Tanjung Barat","time":4,"i_lat":-6.3080680000000005,"i_long":106.838896,"line":2,"is_transit":false},{"distance":2671,"station_id":"LNA","is_transit":false,"i_lat":-6.330363,"station_name":"Lenteng Agung","time":3,"i_long":106.832616,"transit":false,"line":2},{"line":2,"station_name":"Univ. Pancasila","distance":1029,"transit":false,"time":2,"i_lat":-6.339291,"is_transit":false,"station_id":"UP","i_long":106.834175},{"i_lat":-6.360749,"transit":false,"distance":2264,"i_long":106.831474,"station_id":"UI","time":3,"station_name":"Univ. Indonesia","is_transit":false,"line":2},{"time":2,"station_name":"Pondok Cina","line":2,"is_transit":false,"i_long":106.831114,"station_id":"POC","distance":1109,"transit":false,"i_lat":-6.369073},{"line":2,"i_long":106.819451,"is_transit":false,"distance":2727,"station_id":"DPB","time":4,"transit":false,"i_lat":-6.391065,"station_name":"Depokbaru"},{"transit":false,"station_name":"Depok","station_id":"DP","is_transit":false,"distance":1584,"line":2,"time":3,"i_long":106.816926,"i_lat":-6.405256},{"i_long":106.800298,"station_id":"CTA","transit":true,"time":6,"line":2,"station_name":"Citayam","is_transit":true,"distance":5084,"i_lat":-6.448811},{"is_transit":false,"station_id":"PDRG","time":0,"distance":0,"i_lat":-6.460735,"line":21,"i_long":106.824374,"station_name":"Pondok Rajeg","transit":false},{"line":21,"distance":0,"transit":false,"station_id":"CBN","is_transit":false,"time":0,"i_lat":-6.46424,"i_long":106.851978,"station_name":"Cibinong"}],[{"is_transit":false,"station_name":"Angke","distance":0,"i_long":106.79867,"time":0,"transit":false,"station_id":"AK","i_lat":-6.144674,"line":1},{"station_name":"Kampung Bandan","transit":true,"i_lat":-6.132549,"line":4,"is_transit":true,"station_id":"KPB","time":9,"distance":4102,"i_long":106.826365},{"i_long":106.836569,"line":11,"transit":false,"station_id":"RJW","is_transit":false,"i_lat":-6.14505,"station_name":"Rajawali","distance":1444,"time":3},{"station_id":"KMO","transit":false,"station_name":"Kemayoran","is_transit":false,"time":5,"distance":1901,"i_long":106.839204,"line":11,"i_lat":-6.161728},{"station_id":"PSE","is_transit":false,"i_lat":-6.174784,"i_long":106.84368,"station_name":"Pasar Senen","line":11,"distance":1436,"time":4,"transit":false},{"station_id":"GST","i_long":106.850107,"transit":false,"line":11,"station_name":"Gang Sentiong","is_transit":false,"distance":1567,"i_lat":-6.185975,"time":8},{"station_id":"KMT","station_name":"Kramat","transit":false,"time":1,"distance":973,"is_transit":false,"i_lat":-6.193792,"i_long":106.855437,"line":11},{"distance":1829,"is_transit":false,"station_id":"POK","time":2,"i_long":106.861737,"line":11,"transit":false,"station_name":"Pondok Jati","i_lat":-6.209188},{"time":9,"line":1,"station_name":"Jatinegara","i_long":106.86807400000001,"is_transit":true,"distance":1236,"station_id":"JNG","i_lat":-6.215091,"transit":true},{"station_id":"MTR","time":2,"line":1,"station_name":"Matraman","i_lat":-6.212485,"is_transit":false,"distance":1377,"i_long":106.858896,"transit":false},{"station_id":"MRI","line":2,"i_lat":-6.209883,"station_name":"Manggarai","transit":true,"is_transit":true,"time":2,"distance":1275,"i_long":106.84912},{"time":4,"i_lat":-6.226659,"transit":false,"station_name":"Tebet","station_id":"TEB","i_long":106.857948,"distance":2610,"is_transit":false,"line":2},{"i_lat":-6.242512,"station_name":"Cawang","transit":false,"is_transit":false,"i_long":106.856607,"station_id":"CW","distance":1230,"time":2,"line":2},{"distance":1546,"line":2,"transit":false,"time":3,"station_name":"Duren Kalibata","i_long":106.85449,"station_id":"DRN","is_transit":false,"i_lat":-6.255332},{"i_lat":-6.263214,"station_name":"Pasar Minggu Baru","station_id":"PSMB","distance":824,"is_transit":false,"i_long":106.851577,"transit":false,"time":2,"line":2},{"i_lat":-6.2842400000000005,"distance":2380,"i_long":106.843999,"is_transit":false,"line":2,"station_name":"Pasar Minggu","transit":false,"station_id":"PSM","time":2},{"station_id":"TNT","i_lat":-6.3080680000000005,"is_transit":false,"line":2,"i_long":106.838896,"transit":false,"time":4,"station_name":"Tanjung Barat","distance":2820},{"distance":2671,"i_long":106.832616,"station_name":"Lenteng Agung","station_id":"LNA","time":3,"i_lat":-6.330363,"line":2,"transit":false,"is_transit":false},{"time":2,"distance":1029,"i_lat":-6.339291,"station_name":"Univ. Pancasila","transit":false,"i_long":106.834175,"station_id":"UP","line":2,"is_transit":false},{"distance":2264,"line":2,"transit":false,"i_long":106.831474,"time":3,"station_id":"UI","station_name":"Univ. Indonesia","is_transit":false,"i_lat":-6.360749},{"station_id":"POC","distance":1109,"i_long":106.831114,"time":2,"transit":false,"i_lat":-6.369073,"is_transit":false,"station_name":"Pondok Cina","line":2},{"station_id":"DPB","station_name":"Depokbaru","is_transit":false,"time":4,"i_long":106.819451,"i_lat":-6.391065,"distance":2727,"transit":false,"line":2},{"station_name":"Depok","station_id":"DP","is_transit":false,"transit":false,"i_lat":-6.405256,"line":2,"distance":1584,"i_long":106.816926,"time":3},{"distance":5084,"i_lat":-6.448811,"station_name":"Citayam","time":6,"i_long":106.800298,"line":2,"is_transit":true,"station_id":"CTA","transit":true},{"i_long":106.824374,"transit":false,"station_name":"Pondok Rajeg","time":0,"i_lat":-6.460735,"is_transit":false,"line":21,"distance":0,"station_id":"PDRG"},{"i_long":106.851978,"is_transit":false,"station_id":"CBN","station_name":"Cibinong","time":0,"transit":false,"distance":0,"i_lat":-6.46424,"line":21}]]}