{"data":[[{"i_long":106.79867,"line":1,"station_name":"Angke","is_transit":false,"distance":0,"transit":false,"station_id":"AK","i_lat":-6.144674,"time":0},{"station_name":"Duri","is_transit":false,"distance":1230,"transit":false,"i_long":106.800832,"line":1,"i_lat":-6.155215,"station_id":"DU","time":4},{"distance":3632,"i_long":106.811091,"line":1,"station_id":"THB","time":8,"transit":true,"station_name":"Tanah Abang","i_lat":-6.185545,"is_transit":true},{"station_name":"Palmerah","is_transit":false,"distance":3191,"line":6,"station_id":"PLM","i_lat":-6.207404,"transit":false,"i_long":106.79689,"time":6},{"line":6,"station_id":"KBY","time":7,"distance":3737,"station_name":"Kebayoran","is_transit":false,"transit":false,"i_lat":-6.237242,"i_long":106.780334},{"transit":false,"i_lat":-6.276362,"time":8,"distance":6218,"station_name":"Pondokranji","line":6,"i_long":106.74273,"station_id":"PDJ","is_transit":false},{"distance":2179,"line":6,"station_id":"JMU","i_lat":-6.288927,"transit":false,"station_name":"Jurangmangu","time":3,"is_transit":false,"i_long":106.728916},{"i_long":106.712277,"time":4,"is_transit":false,"i_lat":-6.296963,"line":6,"transit":false,"distance":1994,"station_name":"Sudimara","station_id":"SDM"},{"time":6,"i_long":106.675475,"station_id":"RU","distance":4566,"line":6,"i_lat":-6.314823,"station_name":"Rawa Buntu","transit":false,"is_transit":false},{"i_long":106.66566,"distance":2413,"time":4,"i_lat":-6.319871,"is_transit":false,"station_name":"Serpong","station_id":"SRP","line":6,"transit":false},{"station_id":"CSK","distance":1784,"line":3,"i_long":106.640411,"station_name":"Cisauk","transit":false,"time":4,"is_transit":false,"i_lat":-6.32484},{"line":3,"time":4,"station_id":"CC","is_transit":false,"distance":2519,"transit":false,"i_lat":-6.329547,"i_long":106.617853,"station_name":"Cicayur"},{"distance":5968,"i_long":106.568863,"station_id":"PRP","i_lat":-6.3441410000000005,"transit":false,"line":6,"is_transit":false,"time":8,"station_name":"Parung Panjang"},{"line":3,"i_long":106.508482,"station_id":"CJT","i_lat":-6.354349,"station_name":"Cilejit","time":9,"is_transit":false,"distance":7025,"transit":false},{"station_id":"DAR","distance":2675,"line":0,"transit":false,"i_long":106.491338,"is_transit":false,"station_name":"Daru","i_lat":-6.338021,"time":6},{"distance":3902,"station_name":"Tenjo","line":6,"time":5,"transit":false,"i_lat":-6.327251,"is_transit":false,"station_id":"TEJ","i_long":106.460812},{"is_transit":false,"station_id":"TGS","time":5,"station_name":"Tigaraksa","distance":2974,"i_lat":-6.328533,"i_long":106.425991,"line":6,"transit":false},{"distance":2651,"i_lat":-6.33561,"i_long":106.411216,"time":3,"is_transit":false,"station_name":"Cikoya","station_id":"CKY","transit":false,"line":3}],[{"distance":0,"line":1,"station_id":"AK","transit":false,"is_transit":false,"i_lat":-6.144674,"station_name":"Angke","time":0,"i_long":106.79867},{"is_transit":true,"i_lat":-6.132549,"line":4,"station_name":"Kampung Bandan","distance":4102,"i_long":106.826365,"transit":true,"station_id":"KPB","time":9},{"i_lat":-6.137569,"time":3,"transit":true,"i_long":106.812439,"distance":1364,"line":2,"station_name":"Jakarta Kota","station_id":"JAKK","is_transit":true},{"station_id":"JAY","station_name":"Jayakarta","time":4,"i_lat":-6.141205,"i_long":106.820901,"line":2,"is_transit":false,"distance":1264,"transit":false},{"is_transit":false,"station_id":"MGB","transit":false,"distance":1080,"i_lat":-6.149769,"i_long":106.82482,"line":2,"time":2,"station_name":"Manggabesar"},{"i_long":106.827103,"station_id":"SW","time":2,"station_name":"Sawah Besar","is_transit":false,"distance":906,"transit":false,"line":2,"i_lat":-6.160725},{"station_id":"JUA","distance":1149,"i_lat":-6.166716,"transit":false,"line":2,"i_long":106.828284,"time":2,"station_name":"Juanda","is_transit":false},{"station_id":"GDD","station_name":"Gondangdia","line":2,"transit":false,"is_transit":false,"i_long":106.832183,"time":4,"i_lat":-6.186295,"distance":2015},{"distance":1750,"i_long":106.840169,"is_transit":false,"time":3,"line":2,"station_name":"Cikini","transit":false,"station_id":"CKI","i_lat":-6.198556},{"transit":true,"station_name":"Manggarai","line":2,"distance":1590,"i_lat":-6.209883,"station_id":"MRI","is_transit":true,"i_long":106.84912,"time":4},{"i_lat":-6.202263,"station_name":"Sudirman","transit":false,"line":1,"time":4,"is_transit":false,"station_id":"SUD","i_long":106.822649,"distance":3186},{"i_long":106.819881,"i_lat":-6.201433,"time":1,"transit":false,"station_name":"Sudirman Baru","station_id":"SUDB","distance":280,"is_transit":false,"line":1},{"station_name":"Karet","time":1,"line":1,"station_id":"KAT","is_transit":false,"distance":471,"transit":false,"i_lat":-6.20132,"i_long":106.816351},{"distance":2029,"time":5,"station_id":"THB","i_lat":-6.185545,"is_transit":true,"i_long":106.811091,"line":1,"transit":true,"station_name":"Tanah Abang"},{"station_id":"PLM","distance":3191,"is_transit":false,"station_name":"Palmerah","line":6,"i_lat":-6.207404,"time":6,"transit":false,"i_long":106.79689},{"i_long":106.780334,"station_name":"Kebayoran","i_lat":-6.237242,"station_id":"KBY","transit":false,"distance":3737,"time":7,"line":6,"is_transit":false},{"i_long":106.74273,"line":6,"distance":6218,"transit":false,"station_id":"PDJ","i_lat":-6.276362,"time":8,"station_name":"Pondokranji","is_transit":false},{"transit":false,"station_id":"JMU","i_lat":-6.288927,"i_long":106.728916,"station_name":"Jurangmangu","is_transit":false,"line":6,"distance":2179,"time":3},{"transit":false,"i_lat":-6.296963,"time":4,"is_transit":false,"station_id":"SDM","distance":1994,"line":6,"station_name":"Sudimara","i_long":106.712277},{"distance":4566,"transit":false,"time":6,"station_name":"Rawa Buntu","i_lat":-6.314823,"line":6,"station_id":"RU","is_transit":false,"i_long":106.675475},{"transit":false,"is_transit":false,"i_long":106.66566,"time":4,"i_lat":-6.319871,"distance":2413,"line":6,"station_name":"Serpong","station_id":"SRP"},{"is_transit":false,"time":4,"distance":1784,"i_lat":-6.32484,"station_id":"CSK","transit":false,"i_long":106.640411,"line":3,"station_name":"Cisauk"},{"station_id":"CC","station_name":"Cicayur","is_transit":false,"transit":false,"i_lat":-6.329547,"distance":2519,"time":4,"i_long":106.617853,"line":3},{"distance":5968,"station_name":"Parung Panjang","transit":false,"station_id":"PRP","line":6,"is_transit":false,"i_lat":-6.3441410000000005,"i_long":106.568863,"time":8},{"distance":7025,"transit":false,"i_lat":-6.354349,"time":9,"is_transit":false,"line":3,"station_name":"Cilejit","station_id":"CJT","i_long":106.508482},{"i_lat":-6.338021,"station_id":"DAR","time":6,"is_transit":false,"distance":2675,"transit":false,"i_long":106.491338,"line":0,"station_name":"Daru"},{"station_id":"TEJ","station_name":"Tenjo","transit":false,"i_lat":-6.327251,"distance":3902,"is_transit":false,"i_long":106.460812,"line":6,"time":5},{"time":5,"station_id":"TGS","station_name":"Tigaraksa","distance":2974,"i_lat":-6.328533,"i_long":106.425991,"line":6,"is_transit":false,"transit":false},{"station_name":"Cikoya","transit":false,"station_id":"CKY","i_long":106.411216,"line":3,"is_transit":false,"i_lat":-6.33561,"time":3,"distance":2651}],[{"distance":0,"time":0,"station_id":"AK","i_long":106.79867,"is_transit":false,"transit":false,"station_name":"Angke","i_lat":-6.144674,"line":1},{"time":9,"line":4,"transit":true,"i_long":106.826365,"i_lat":-6.132549,"station_id":"KPB","distance":4102,"is_transit":true,"station_name":"Kampung Bandan"},{"distance":1444,"i_long":106.836569,"line":11,"transit":false,"station_id":"RJW","station_name":"Rajawali","is_transit":false,"time":3,"i_lat":-6.14505},{"time":5,"transit":false,"line":11,"station_id":"KMO","station_name":"Kemayoran","is_transit":false,"i_lat":-6.161728,"i_long":106.839204,"distance":1901},{"station_name":"Pasar Senen","i_long":106.84368,"is_transit":false,"transit":false,"time":4,"station_id":"PSE","i_lat":-6.174784,"distance":1436,"line":11},{"is_transit":false,"station_name":"Gang Sentiong","line":11,"station_id":"GST","time":8,"distance":1567,"i_long":106.850107,"transit":false,"i_lat":-6.185975},{"distance":973,"is_transit":false,"i_long":106.855437,"time":1,"transit":false,"i_lat":-6.193792,"line":11,"station_name":"Kramat","station_id":"KMT"},{"station_id":"POK","i_lat":-6.209188,"i_long":106.861737,"line":11,"distance":1829,"time":2,"is_transit":false,"station_name":"Pondok Jati","transit":false},{"transit":true,"distance":1236,"is_transit":true,"time":9,"i_lat":-6.215091,"line":1,"station_id":"JNG","station_name":"Jatinegara","i_long":106.86807400000001},{"i_long":106.858896,"time":2,"line":1,"station_name":"Matraman","is_transit":false,"distance":1377,"i_lat":-6.212485,"transit":false,"station_id":"MTR"},{"time":2,"i_long":106.84912,"station_id":"MRI","station_name":"Manggarai","transit":false,"i_lat":-6.209883,"is_transit":false,"distance":1275,"line":2},{"station_name":"Sudirman","is_transit":false,"transit":false,"station_id":"SUD","i_long":106.822649,"time":4,"line":1,"distance":3186,"i_lat":-6.202263},{"station_id":"SUDB","distance":280,"i_long":106.819881,"time":1,"transit":false,"i_lat":-6.201433,"station_name":"Sudirman Baru","line":1,"is_transit":false},{"transit":false,"distance":471,"is_transit":false,"station_name":"Karet","station_id":"KAT","i_lat":-6.20132,"time":1,"i_long":106.816351,"line":1},{"station_id":"THB","is_transit":true,"transit":true,"line":1,"distance":2029,"i_lat":-6.185545,"station_name":"Tanah Abang","time":5,"i_long":106.811091},{"distance":3191,"station_id":"PLM","i_long":106.79689,"station_name":"Palmerah","i_lat":-6.207404,"line":6,"is_transit":false,"time":6,"transit":false},{"i_long":106.780334,"line":6,"distance":3737,"time":7,"station_name":"Kebayoran","i_lat":-6.237242,"is_transit":false,"station_id":"KBY","transit":false},{"is_transit":false,"line":6,"time":8,"station_name":"Pondokranji","i_lat":-6.276362,"distance":6218,"transit":false,"station_id":"PDJ","i_long":106.74273},{"i_long":106.728916,"line":6,"is_transit":false,"time":3,"distance":2179,"station_name":"Jurangmangu","transit":false,"station_id":"JMU","i_lat":-6.288927},{"time":4,"is_transit":false,"i_lat":-6.296963,"i_long":106.712277,"station_id":"SDM","transit":false,"line":6,"station_name":"Sudimara","distance":1994},{"station_name":"Rawa Buntu","distance":4566,"time":6,"transit":false,"station_id":"RU","is_transit":false,"i_long":106.675475,"line":6,"i_lat":-6.314823},{"i_lat":-6.319871,"time":4,"transit":false,"station_name":"Serpong","station_id":"SRP","is_transit":false,"line":6,"distance":2413,"i_long":106.66566},{"station_id":"CSK","transit":false,"i_long":106.640411,"time":4,"line":3,"is_transit":false,"station_name":"Cisauk","distance":1784,"i_lat":-6.32484},{"is_transit":false,"i_long":106.617853,"transit":false,"station_id":"CC","i_lat":-6.329547,"time":4,"distance":2519,"station_name":"Cicayur","line":3},{"time":8,"station_id":"PRP","transit":false,"is_transit":false,"i_lat":-6.3441410000000005,"line":6,"distance":5968,"i_long":106.568863,"station_name":"Parung Panjang"},{"transit":false,"line":3,"is_transit":false,"station_id":"CJT","i_long":106.508482,"i_lat":-6.354349,"time":9,"station_name":"Cilejit","distance":7025},{"time":6,"distance":2675,"is_transit":false,"transit":false,"i_lat":-6.338021,"station_name":"Daru","line":0,"station_id":"DAR","i_long":106.491338},{"is_transit":false,"distance":3902,"i_lat":-6.327251,"transit":false,"station_id":"TEJ","time":5,"line":6,"station_name":"Tenjo","i_long":106.460812},{"station_name":"Tigaraksa","station_id":"TGS","time":5,"i_lat":-6.328533,"line":6,"distance":2974,"i_long":106.425991,"is_transit":false,"transit":false},{"distance":2651,"line":3,"time":3,"i_long":106.411216,"transit":false,"station_id":"CKY","station_name":"Cikoya","i_lat":-6.33561,"is_transit":false}]]}