{"data":[[{"i_long":106.79867,"station_name":"Angke","distance":0,"line":0,"i_lat":-6.144674,"station_id":"AK","is_transit":false,"time":0,"transit":false},{"i_long":106.826365,"distance":4102,"station_id":"KPB","i_lat":-6.132549,"line":0,"station_name":"Kampung Bandan","transit":true,"is_transit":true,"time":9},{"time":3,"line":11,"station_id":"RJW","transit":false,"distance":1444,"i_lat":-6.14505,"is_transit":false,"i_long":106.836569,"station_name":"Rajawali"},{"station_id":"KMO","time":5,"distance":1901,"i_long":106.839204,"line":11,"is_transit":false,"transit":false,"station_name":"Kemayoran","i_lat":-6.161728},{"transit":false,"station_name":"Pasar Senen","distance":1436,"i_lat":-6.174784,"i_long":106.84368,"time":4,"is_transit":false,"station_id":"PSE","line":11},{"station_id":"GST","transit":false,"i_long":106.850107,"time":8,"line":11,"is_transit":false,"distance":1567,"station_name":"Gang Sentiong","i_lat":-6.185975},{"time":1,"transit":false,"i_lat":-6.193792,"i_long":106.855437,"line":11,"is_transit":false,"distance":973,"station_name":"Kramat","station_id":"KMT"},{"transit":false,"station_name":"Pondok Jati","line":11,"is_transit":false,"time":2,"i_lat":-6.209188,"i_long":106.861737,"station_id":"POK","distance":1829},{"i_lat":-6.215091,"transit":true,"distance":1236,"line":0,"station_id":"JNG","station_name":"Jatinegara","is_transit":true,"time":9,"i_long":106.86807400000001},{"distance":3395,"i_lat":-6.2135,"station_id":"KLD","time":3,"transit":false,"i_long":106.899548,"station_name":"Klender","line":1,"is_transit":false},{"station_name":"Buaran","i_lat":-6.215568,"time":2,"i_long":106.922662,"station_id":"BUA","is_transit":false,"distance":3100,"line":0,"transit":false},{"i_long":106.939679,"i_lat":-6.217455,"distance":1305,"station_name":"Klenderbaru","transit":false,"is_transit":false,"station_id":"KLDB","line":1,"time":1},{"station_name":"Cakung","is_transit":false,"transit":false,"i_lat":-6.219053,"station_id":"CUK","time":8,"i_long":106.951283,"line":0,"distance":1385},{"i_long":106.977657,"line":1,"station_name":"Kranji","i_lat":-6.224515,"distance":3097,"transit":false,"time":3,"station_id":"KRI","is_transit":false},{"line":0,"transit":false,"i_lat":-6.236616,"i_long":106.997013,"station_id":"BKS","station_name":"Bekasi","time":4,"distance":2520,"is_transit":false},{"station_name":"Bekasi Timur","station_id":"BKST","line":0,"time":2,"is_transit":false,"i_lat":-6.248029,"i_long":107.016735,"distance":2368,"transit":false},{"i_lat":-6.258864,"i_long":107.055722,"station_id":"TB","transit":false,"line":1,"is_transit":false,"time":7,"station_name":"Tambun","distance":4460},{"is_transit":false,"i_lat":-6.261877,"transit":false,"line":0,"i_long":107.083084,"station_name":"Cibitung","distance":3420,"time":3,"station_id":"CIT"},{"i_long":107.093313,"i_lat":-6.262938,"transit":false,"line":1,"station_name":"Metland Telaga Murni","distance":2800,"station_id":"TLM","time":2,"is_transit":false},{"distance":3689,"time":4,"station_id":"CKR","station_name":"Cikarang","is_transit":false,"i_long":107.144613,"transit":false,"i_lat":-6.2553149999999995,"line":0}],[{"time":0,"line":0,"transit":false,"i_long":106.79867,"station_id":"AK","distance":0,"is_transit":false,"i_lat":-6.144674,"station_name":"Angke"},{"time":4,"i_long":106.800832,"station_name":"Duri","station_id":"DU","transit":true,"distance":1230,"is_transit":true,"line":1,"i_lat":-6.155215},{"station_name":"Tanah Abang","time":8,"i_long":106.811091,"i_lat":-6.185545,"transit":false,"station_id":"THB","is_transit":true,"line":1,"distance":3632},{"distance":2029,"line":1,"station_id":"KAT","station_name":"Karet","i_lat":-6.20132,"transit":false,"i_long":106.816351,"is_transit":false,"time":5},{"station_name":"Sudirman Baru","is_transit":false,"i_lat":-6.201433,"distance":471,"transit":false,"line":1,"time":1,"station_id":"SUDB","i_long":106.819881},{"station_id":"SUD","is_transit":false,"i_long":106.822649,"transit":false,"line":1,"station_name":"Sudirman","i_lat":-6.202263,"time":1,"distance":280},{"distance":3186,"line":0,"i_long":106.84912,"station_name":"Manggarai","is_transit":true,"transit":false,"station_id":"MRI","time":4,"i_lat":-6.209883},{"i_long":106.858896,"i_lat":-6.212485,"line":1,"is_transit":false,"time":2,"station_id":"MTR","transit":false,"station_name":"Matraman","distance":1275},{"distance":1377,"transit":false,"i_lat":-6.215091,"time":8,"station_name":"Jatinegara","is_transit":true,"station_id":"JNG","i_long":106.86807400000001,"line":0},{"transit":false,"is_transit":false,"distance":3395,"station_name":"Klender","i_long":106.899548,"line":1,"station_id":"KLD","time":3,"i_lat":-6.2135},{"station_name":"Buaran","transit":false,"i_lat":-6.215568,"station_id":"BUA","is_transit":false,"line":0,"distance":3100,"time":2,"i_long":106.922662},{"time":1,"line":1,"distance":1305,"i_lat":-6.217455,"station_name":"Klenderbaru","station_id":"KLDB","transit":false,"i_long":106.939679,"is_transit":false},{"transit":false,"i_long":106.951283,"line":0,"is_transit":false,"time":8,"i_lat":-6.219053,"station_id":"CUK","distance":1385,"station_name":"Cakung"},{"distance":3097,"time":3,"transit":false,"station_id":"KRI","i_long":106.977657,"i_lat":-6.224515,"is_transit":false,"station_name":"Kranji","line":1},{"line":0,"station_id":"BKS","distance":2520,"station_name":"Bekasi","time":4,"i_long":106.997013,"transit":false,"is_transit":false,"i_lat":-6.236616},{"station_name":"Bekasi Timur","transit":false,"station_id":"BKST","time":2,"i_long":107.016735,"i_lat":-6.248029,"distance":2368,"line":0,"is_transit":false},{"i_long":107.055722,"line":1,"time":7,"is_transit":false,"station_name":"Tambun","station_id":"TB","transit":false,"i_lat":-6.258864,"distance":4460},{"i_long":107.083084,"line":0,"i_lat":-6.261877,"station_name":"Cibitung","is_transit":false,"station_id":"CIT","distance":3420,"time":3,"transit":false},{"distance":2800,"line":1,"station_name":"Metland Telaga Murni","transit":false,"station_id":"TLM","i_lat":-6.262938,"i_long":107.093313,"is_transit":false,"time":2},{"station_id":"CKR","transit":false,"i_long":107.144613,"is_transit":false,"i_lat":-6.2553149999999995,"station_name":"Cikarang","distance":3689,"line":0,"time":4}],[{"i_lat":-6.144674,"transit":false,"station_id":"AK","is_transit":false,"i_long":106.79867,"line":0,"station_name":"Angke","distance":0,"time":0},{"i_lat":-6.132549,"i_long":106.826365,"is_transit":true,"station_name":"Kampung Bandan","station_id":"KPB","transit":false,"time":9,"line":0,"distance":4102},{"transit":true,"i_long":106.812439,"station_id":"JAKK","time":3,"line":0,"i_lat":-6.137569,"station_name":"Jakarta Kota","distance":1364,"is_transit":true},{"time":4,"transit":false,"line":7,"is_transit":false,"i_lat":-6.141205,"station_id":"JAY","station_name":"Jayakarta","distance":1264,"i_long":106.820901},{"station_id":"MGB","is_transit":false,"station_name":"Manggabesar","distance":1080,"transit":false,"i_lat":-6.149769,"i_long":106.82482,"time":2,"line":2},{"distance":906,"i_long":106.827103,"line":2,"station_name":"Sawah Besar","is_transit":false,"transit":false,"station_id":"SW","time":2,"i_lat":-6.160725},{"transit":false,"i_lat":-6.166716,"station_id":"JUA","distance":1149,"is_transit":false,"i_long":106.828284,"time":2,"line":2,"station_name":"Juanda"},{"i_lat":-6.186295,"is_transit":false,"transit":false,"time":4,"station_id":"GDD","line":2,"distance":2015,"i_long":106.832183,"station_name":"Gondangdia"},{"i_long":106.840169,"transit":false,"line":0,"station_name":"Cikini","time":3,"is_transit":false,"i_lat":-6.198556,"distance":1750,"station_id":"CKI"},{"time":4,"station_name":"Manggarai","station_id":"MRI","distance":1590,"line":0,"transit":true,"is_transit":true,"i_lat":-6.209883,"i_long":106.84912},{"is_transit":false,"i_long":106.858896,"line":1,"distance":1275,"time":2,"transit":false,"i_lat":-6.212485,"station_id":"MTR","station_name":"Matraman"},{"transit":false,"distance":1377,"i_long":106.86807400000001,"station_name":"Jatinegara","i_lat":-6.215091,"is_transit":true,"line":0,"time":8,"station_id":"JNG"},{"transit":false,"is_transit":false,"station_name":"Klender","line":1,"station_id":"KLD","time":3,"i_long":106.899548,"distance":3395,"i_lat":-6.2135},{"time":2,"station_id":"BUA","transit":false,"i_lat":-6.215568,"i_long":106.922662,"station_name":"Buaran","distance":3100,"line":0,"is_transit":false},{"distance":1305,"station_name":"Klenderbaru","transit":false,"i_long":106.939679,"station_id":"KLDB","i_lat":-6.217455,"line":1,"time":1,"is_transit":false},{"distance":1385,"i_long":106.951283,"station_id":"CUK","i_lat":-6.219053,"line":0,"is_transit":false,"station_name":"Cakung","time":8,"transit":false},{"transit":false,"station_id":"KRI","is_transit":false,"line":1,"station_name":"Kranji","time":3,"distance":3097,"i_lat":-6.224515,"i_long":106.977657},{"is_transit":false,"transit":false,"i_long":106.997013,"distance":2520,"station_id":"BKS","station_name":"Bekasi","time":4,"i_lat":-6.236616,"line":0},{"station_id":"BKST","is_transit":false,"distance":2368,"time":2,"transit":false,"line":0,"i_long":107.016735,"i_lat":-6.248029,"station_name":"Bekasi Timur"},{"station_name":"Tambun","i_long":107.055722,"i_lat":-6.258864,"is_transit":false,"line":1,"station_id":"TB","time":7,"transit":false,"distance":4460},{"station_name":"Cibitung","distance":3420,"line":0,"is_transit":false,"station_id":"CIT","time":3,"transit":false,"i_long":107.083084,"i_lat":-6.261877},{"station_id":"TLM","is_transit":false,"time":2,"distance":2800,"i_long":107.093313,"line":1,"station_name":"Metland Telaga Murni","transit":false,"i_lat":-6.262938},{"i_lat":-6.2553149999999995,"line":0,"time":4,"transit":false,"station_name":"Cikarang","station_id":"CKR","is_transit":false,"distance":3689,"i_long":107.144613}],[{"transit":false,"station_id":"AK","distance":0,"i_lat":-6.144674,"i_long":106.79867,"is_transit":false,"station_name":"Angke","time":0,"line":0},{"i_long":106.800832,"i_lat":-6.155215,"station_name":"Duri","station_id":"DU","line":1,"time":4,"transit":true,"distance":1230,"is_transit":true},{"station_name":"Tanah Abang","is_transit":true,"distance":3632,"i_lat":-6.185545,"i_long":106.811091,"station_id":"THB","line":1,"transit":false,"time":8},{"time":5,"station_name":"Karet","line":1,"transit":false,"i_lat":-6.20132,"is_transit":false,"station_id":"KAT","distance":2029,"i_long":106.816351},{"is_transit":false,"distance":471,"transit":false,"i_lat":-6.201433,"i_long":106.819881,"station_id":"SUDB","time":1,"station_name":"Sudirman Baru","line":1},{"distance":280,"i_long":106.822649,"station_id":"SUD","station_name":"Sudirman","time":1,"transit":false,"i_lat":-6.202263,"line":1,"is_transit":false},{"time":4,"station_name":"Manggarai","is_transit":true,"transit":true,"station_id":"MRI","i_lat":-6.209883,"line":0,"distance":3186,"i_long":106.84912},{"line":0,"station_id":"CKI","i_lat":-6.198556,"time":4,"is_transit":false,"transit":false,"i_long":106.840169,"station_name":"Cikini","distance":1590},{"is_transit":false,"station_id":"GDD","distance":1750,"time":3,"station_name":"Gondangdia","transit":false,"line":2,"i_lat":-6.186295,"i_long":106.832183},{"station_name":"Juanda","distance":2015,"time":4,"line":2,"is_transit":false,"transit":false,"i_long":106.828284,"station_id":"JUA","i_lat":-6.166716},{"station_name":"Sawah Besar","time":2,"i_lat":-6.160725,"i_long":106.827103,"line":2,"is_transit":false,"distance":1149,"transit":false,"station_id":"SW"},{"time":2,"transit":false,"i_lat":-6.149769,"line":2,"station_id":"MGB","station_name":"Manggabesar","is_transit":false,"distance":906,"i_long":106.82482},{"line":7,"i_lat":-6.141205,"transit":false,"station_name":"Jayakarta","time":2,"distance":1080,"i_long":106.820901,"is_transit":false,"station_id":"JAY"},{"transit":true,"station_id":"JAKK","time":4,"is_transit":true,"line":0,"i_lat":-6.137569,"i_long":106.812439,"station_name":"Jakarta Kota","distance":1264},{"station_id":"KPB","is_transit":true,"time":3,"distance":1364,"transit":true,"i_long":106.826365,"station_name":"Kampung Bandan","line":0,"i_lat":-6.132549},{"time":3,"i_lat":-6.14505,"line":11,"station_id":"RJW","distance":1444,"station_name":"Rajawali","transit":false,"is_transit":false,"i_long":106.836569},{"is_transit":false,"time":5,"station_name":"Kemayoran","transit":false,"distance":1901,"i_lat":-6.161728,"line":11,"i_long":106.839204,"station_id":"KMO"},{"station_name":"Pasar Senen","transit":false,"i_long":106.84368,"line":11,"time":4,"station_id":"PSE","distance":1436,"i_lat":-6.174784,"is_transit":false},{"time":8,"i_long":106.850107,"i_lat":-6.185975,"distance":1567,"station_name":"Gang Sentiong","line":11,"station_id":"GST","transit":false,"is_transit":false},{"time":1,"station_id":"KMT","is_transit":false,"line":11,"transit":false,"i_lat":-6.193792,"station_name":"Kramat","distance":973,"i_long":106.855437},{"line":11,"time":2,"i_long":106.861737,"station_id":"POK","is_transit":false,"station_name":"Pondok Jati","transit":false,"i_lat":-6.209188,"distance":1829},{"line":0,"is_transit":true,"transit":true,"station_id":"JNG","distance":1236,"station_name":"Jatinegara","i_long":106.86807400000001,"time":9,"i_lat":-6.215091},{"station_name":"Klender","line":1,"station_id":"KLD","i_lat":-6.2135,"i_long":106.899548,"is_transit":false,"distance":3395,"time":3,"transit":false},{"line":0,"station_name":"Buaran","transit":false,"i_long":106.922662,"is_transit":false,"station_id":"BUA","i_lat":-6.215568,"distance":3100,"time":2},{"station_name":"Klenderbaru","i_long":106.939679,"i_lat":-6.217455,"distance":1305,"time":1,"transit":false,"line":1,"is_transit":false,"station_id":"KLDB"},{"is_transit":false,"distance":1385,"station_id":"CUK","i_lat":-6.219053,"i_long":106.951283,"line":0,"time":8,"transit":false,"station_name":"Cakung"},{"is_transit":false,"distance":3097,"transit":false,"i_long":106.977657,"time":3,"i_lat":-6.224515,"line":1,"station_id":"KRI","station_name":"Kranji"},{"i_lat":-6.236616,"station_id":"BKS","time":4,"transit":false,"station_name":"Bekasi","is_transit":false,"i_long":106.997013,"line":0,"distance":2520},{"station_id":"BKST","distance":2368,"station_name":"Bekasi Timur","is_transit":false,"line":0,"i_long":107.016735,"i_lat":-6.248029,"time":2,"transit":false},{"i_long":107.055722,"station_name":"Tambun","line":1,"transit":false,"i_lat":-6.258864,"is_transit":false,"station_id":"TB","distance":4460,"time":7},{"station_name":"Cibitung","station_id":"CIT","distance":3420,"i_long":107.083084,"line":0,"i_lat":-6.261877,"is_transit":false,"time":3,"transit":false},{"station_id":"TLM","time":2,"i_long":107.093313,"distance":2800,"transit":false,"i_lat":-6.262938,"line":1,"station_name":"Metland Telaga Murni","is_transit":false},{"station_id":"CKR","distance":3689,"line":0,"station_name":"Cikarang","is_transit":false,"i_lat":-6.2553149999999995,"i_long":107.144613,"time":4,"transit":false}]]}