{"data":[[{"line":1,"transit":false,"distance":0,"station_id":"AK","i_lat":-6.144674,"time":0,"is_transit":false,"i_long":106.79867,"station_name":"Angke"},{"line":1,"distance":1230,"i_lat":-6.155215,"is_transit":true,"i_long":106.800832,"time":4,"transit":true,"station_id":"DU","station_name":"Duri"},{"transit":false,"line":5,"time":3,"is_transit":false,"i_long":106.788277,"station_name":"Grogol","distance":1700,"station_id":"GGL","i_lat":-6.162021}],[{"time":0,"distance":0,"transit":false,"line":1,"station_name":"Angke","is_transit":false,"station_id":"AK","i_lat":-6.144674,"i_long":106.79867},{"i_lat":-6.132549,"line":4,"time":9,"distance":4102,"is_transit":true,"transit":true,"station_name":"Kampung Bandan","i_long":106.826365,"station_id":"KPB"},{"i_lat":-6.137569,"line":2,"station_name":"Jakarta Kota","time":3,"transit":true,"i_long":106.812439,"distance":1364,"is_transit":true,"station_id":"JAKK"},{"i_lat":-6.141205,"is_transit":false,"distance":1264,"station_name":"Jayakarta","i_long":106.820901,"station_id":"JAY","line":2,"time":4,"transit":false},{"time":2,"transit":false,"line":2,"i_lat":-6.149769,"i_long":106.82482,"station_id":"MGB","distance":1080,"station_name":"Manggabesar","is_transit":false},{"station_name":"Sawah Besar","is_transit":false,"distance":906,"station_id":"SW","i_lat":-6.160725,"i_long":106.827103,"line":2,"time":2,"transit":false},{"i_long":106.828284,"station_name":"Juanda","transit":false,"station_id":"JUA","i_lat":-6.166716,"time":2,"distance":1149,"line":2,"is_transit":false},{"i_lat":-6.186295,"is_transit":false,"i_long":106.832183,"time":4,"transit":false,"distance":2015,"station_id":"GDD","line":2,"station_name":"Gondangdia"},{"station_id":"CKI","transit":false,"line":2,"distance":1750,"i_lat":-6.198556,"is_transit":false,"i_long":106.840169,"station_name":"Cikini","time":3},{"station_id":"MRI","time":4,"distance":1590,"transit":true,"i_lat":-6.209883,"line":2,"is_transit":true,"station_name":"Manggarai","i_long":106.84912},{"distance":3186,"is_transit":false,"transit":false,"line":1,"i_lat":-6.202263,"time":4,"station_id":"SUD","station_name":"Sudirman","i_long":106.822649},{"line":1,"distance":280,"transit":false,"i_lat":-6.201433,"i_long":106.819881,"is_transit":false,"time":1,"station_id":"SUDB","station_name":"Sudirman Baru"},{"distance":471,"station_id":"KAT","i_lat":-6.20132,"transit":false,"i_long":106.816351,"line":1,"is_transit":false,"time":1,"station_name":"Karet"},{"distance":2029,"station_name":"Tanah Abang","is_transit":false,"station_id":"THB","i_lat":-6.185545,"time":5,"i_long":106.811091,"line":1,"transit":false},{"station_id":"DU","time":8,"transit":true,"i_long":106.800832,"is_transit":true,"station_name":"Duri","i_lat":-6.155215,"distance":3632,"line":1},{"transit":false,"i_long":106.788277,"station_name":"Grogol","is_transit":false,"distance":1700,"station_id":"GGL","time":3,"i_lat":-6.162021,"line":5}],[{"is_transit":false,"time":0,"distance":0,"i_lat":-6.144674,"i_long":106.79867,"line":1,"transit":false,"station_name":"Angke","station_id":"AK"},{"i_long":106.826365,"is_transit":true,"i_lat":-6.132549,"time":9,"transit":true,"distance":4102,"line":4,"station_name":"Kampung Bandan","station_id":"KPB"},{"distance":1444,"station_id":"RJW","i_long":106.836569,"line":11,"station_name":"Rajawali","is_transit":false,"time":3,"i_lat":-6.14505,"transit":false},{"i_lat":-6.161728,"station_name":"Kemayoran","time":5,"transit":false,"is_transit":false,"i_long":106.839204,"station_id":"KMO","line":11,"distance":1901},{"transit":false,"i_lat":-6.174784,"line":11,"distance":1436,"station_id":"PSE","i_long":106.84368,"time":4,"station_name":"Pasar Senen","is_transit":false},{"distance":1567,"transit":false,"i_lat":-6.185975,"i_long":106.850107,"line":11,"is_transit":false,"time":8,"station_id":"GST","station_name":"Gang Sentiong"},{"is_transit":false,"station_id":"KMT","line":11,"time":1,"distance":973,"i_long":106.855437,"transit":false,"station_name":"Kramat","i_lat":-6.193792},{"transit":false,"time":2,"is_transit":false,"station_name":"Pondok Jati","distance":1829,"station_id":"POK","i_long":106.861737,"line":11,"i_lat":-6.209188},{"is_transit":true,"station_name":"Jatinegara","time":9,"distance":1236,"transit":true,"station_id":"JNG","line":1,"i_lat":-6.215091,"i_long":106.86807400000001},{"station_name":"Matraman","i_lat":-6.212485,"time":2,"distance":1377,"line":1,"transit":false,"is_transit":false,"i_long":106.858896,"station_id":"MTR"},{"i_lat":-6.209883,"time":2,"line":2,"transit":false,"i_long":106.84912,"station_name":"Manggarai","is_transit":false,"station_id":"MRI","distance":1275},{"station_name":"Sudirman","transit":false,"time":4,"distance":3186,"station_id":"SUD","i_lat":-6.202263,"line":1,"i_long":106.822649,"is_transit":false},{"transit":false,"i_lat":-6.201433,"station_id":"SUDB","is_transit":false,"station_name":"Sudirman Baru","time":1,"i_long":106.819881,"line":1,"distance":280},{"i_lat":-6.20132,"line":1,"station_id":"KAT","transit":false,"i_long":106.816351,"station_name":"Karet","time":1,"distance":471,"is_transit":false},{"station_name":"Tanah Abang","time":5,"station_id":"THB","i_long":106.811091,"transit":false,"distance":2029,"is_transit":false,"i_lat":-6.185545,"line":1},{"station_id":"DU","is_transit":true,"i_long":106.800832,"station_name":"Duri","time":8,"transit":true,"distance":3632,"i_lat":-6.155215,"line":1},{"distance":1700,"station_id":"GGL","time":3,"is_transit":false,"station_name":"Grogol","i_long":106.788277,"i_lat":-6.162021,"line":5,"transit":false}]]}