{"data":[[{"station_id":"AK","i_lat":-6.144674,"is_transit":false,"transit":false,"station_name":"Angke","time":0,"distance":0,"i_long":106.79867,"line":1},{"station_name":"Duri","i_lat":-6.155215,"station_id":"DU","transit":true,"line":1,"time":4,"is_transit":true,"i_long":106.800832,"distance":1230},{"i_lat":-6.162021,"station_name":"Grogol","distance":1700,"station_id":"GGL","is_transit":false,"time":3,"transit":false,"line":5,"i_long":106.788277}],[{"station_id":"AK","distance":0,"transit":false,"station_name":"Angke","is_transit":false,"i_lat":-6.144674,"i_long":106.79867,"line":1,"time":0},{"line":4,"is_transit":true,"transit":true,"distance":4102,"station_name":"Kampung Bandan","time":9,"station_id":"KPB","i_lat":-6.132549,"i_long":106.826365},{"line":2,"is_transit":true,"station_name":"Jakarta Kota","time":3,"transit":true,"i_long":106.812439,"station_id":"JAKK","i_lat":-6.137569,"distance":1364},{"time":4,"station_id":"JAY","is_transit":false,"station_name":"Jayakarta","i_lat":-6.141205,"line":2,"distance":1264,"transit":false,"i_long":106.820901},{"distance":1080,"time":2,"station_id":"MGB","transit":false,"i_long":106.82482,"is_transit":false,"i_lat":-6.149769,"station_name":"Manggabesar","line":2},{"distance":906,"transit":false,"i_long":106.827103,"station_id":"SW","is_transit":false,"time":2,"i_lat":-6.160725,"station_name":"Sawah Besar","line":2},{"station_id":"JUA","time":2,"is_transit":false,"i_long":106.828284,"station_name":"Juanda","i_lat":-6.166716,"distance":1149,"transit":false,"line":2},{"i_lat":-6.186295,"time":4,"station_id":"GDD","is_transit":false,"i_long":106.832183,"line":2,"station_name":"Gondangdia","transit":false,"distance":2015},{"time":3,"i_long":106.840169,"is_transit":false,"line":2,"i_lat":-6.198556,"distance":1750,"station_name":"Cikini","station_id":"CKI","transit":false},{"is_transit":true,"time":4,"i_lat":-6.209883,"station_id":"MRI","transit":true,"distance":1590,"station_name":"Manggarai","i_long":106.84912,"line":2},{"time":4,"transit":false,"is_transit":false,"i_long":106.822649,"distance":3186,"i_lat":-6.202263,"station_id":"SUD","station_name":"Sudirman","line":1},{"time":1,"station_name":"Sudirman Baru","transit":false,"i_lat":-6.201433,"station_id":"SUDB","i_long":106.819881,"distance":280,"is_transit":false,"line":1},{"transit":false,"station_id":"KAT","distance":471,"i_long":106.816351,"line":1,"station_name":"Karet","is_transit":false,"i_lat":-6.20132,"time":1},{"station_id":"THB","transit":false,"distance":2029,"i_lat":-6.185545,"time":5,"is_transit":false,"line":1,"station_name":"Tanah Abang","i_long":106.811091},{"distance":3632,"i_long":106.800832,"i_lat":-6.155215,"time":8,"station_name":"Duri","line":1,"transit":true,"station_id":"DU","is_transit":true},{"i_long":106.788277,"station_name":"Grogol","line":5,"transit":false,"time":3,"is_transit":false,"station_id":"GGL","distance":1700,"i_lat":-6.162021}],[{"line":1,"transit":false,"distance":0,"station_id":"AK","i_lat":-6.144674,"station_name":"Angke","is_transit":false,"i_long":106.79867,"time":0},{"transit":true,"station_name":"Kampung Bandan","station_id":"KPB","i_lat":-6.132549,"time":9,"distance":4102,"i_long":106.826365,"line":4,"is_transit":true},{"i_lat":-6.14505,"i_long":106.836569,"line":11,"station_name":"Rajawali","is_transit":false,"distance":1444,"station_id":"RJW","time":3,"transit":false},{"time":5,"distance":1901,"line":11,"station_id":"KMO","is_transit":false,"station_name":"Kemayoran","transit":false,"i_long":106.839204,"i_lat":-6.161728},{"i_lat":-6.174784,"station_name":"Pasar Senen","station_id":"PSE","line":11,"distance":1436,"time":4,"is_transit":false,"i_long":106.84368,"transit":false},{"transit":false,"distance":1567,"station_name":"Gang Sentiong","i_lat":-6.185975,"line":11,"i_long":106.850107,"station_id":"GST","is_transit":false,"time":8},{"station_id":"KMT","i_lat":-6.193792,"time":1,"station_name":"Kramat","transit":false,"line":11,"i_long":106.855437,"is_transit":false,"distance":973},{"i_lat":-6.209188,"line":11,"distance":1829,"i_long":106.861737,"time":2,"is_transit":false,"station_id":"POK","transit":false,"station_name":"Pondok Jati"},{"i_lat":-6.215091,"time":9,"i_long":106.86807400000001,"station_name":"Jatinegara","distance":1236,"station_id":"JNG","is_transit":true,"transit":true,"line":1},{"i_long":106.858896,"line":1,"time":2,"is_transit":false,"i_lat":-6.212485,"station_name":"Matraman","distance":1377,"station_id":"MTR","transit":false},{"distance":1275,"i_long":106.84912,"time":2,"line":2,"i_lat":-6.209883,"station_name":"Manggarai","transit":false,"station_id":"MRI","is_transit":false},{"i_long":106.822649,"line":1,"is_transit":false,"time":4,"distance":3186,"station_name":"Sudirman","transit":false,"i_lat":-6.202263,"station_id":"SUD"},{"i_long":106.819881,"station_id":"SUDB","station_name":"Sudirman Baru","transit":false,"distance":280,"time":1,"is_transit":false,"line":1,"i_lat":-6.201433},{"station_id":"KAT","line":1,"distance":471,"i_lat":-6.20132,"transit":false,"i_long":106.816351,"time":1,"station_name":"Karet","is_transit":false},{"i_lat":-6.185545,"distance":2029,"line":1,"time":5,"is_transit":false,"station_name":"Tanah Abang","station_id":"THB","transit":false,"i_long":106.811091},{"i_lat":-6.155215,"time":8,"distance":3632,"transit":true,"i_long":106.800832,"station_id":"DU","line":1,"station_name":"Duri","is_transit":true},{"i_long":106.788277,"time":3,"is_transit":false,"i_lat":-6.162021,"station_id":"GGL","station_name":"Grogol","line":5,"transit":false,"distance":1700}]]}