{"data":[[{"distance":0,"i_long":106.79867,"time":0,"line":1,"is_transit":false,"transit":false,"station_name":"Angke","station_id":"AK","i_lat":-6.144674},{"station_name":"Duri","is_transit":true,"i_lat":-6.155215,"line":1,"time":4,"transit":true,"distance":1230,"station_id":"DU","i_long":106.800832},{"station_id":"GGL","is_transit":false,"time":3,"distance":1700,"i_lat":-6.162021,"transit":false,"station_name":"Grogol","line":5,"i_long":106.788277}],[{"is_transit":false,"i_lat":-6.144674,"line":1,"station_name":"Angke","transit":false,"i_long":106.79867,"distance":0,"station_id":"AK","time":0},{"i_long":106.826365,"line":4,"station_name":"Kampung Bandan","is_transit":true,"time":9,"i_lat":-6.132549,"distance":4102,"station_id":"KPB","transit":true},{"line":2,"station_id":"JAKK","distance":1364,"transit":true,"time":3,"i_lat":-6.137569,"i_long":106.812439,"is_transit":true,"station_name":"Jakarta Kota"},{"i_lat":-6.141205,"line":2,"station_id":"JAY","i_long":106.820901,"transit":false,"is_transit":false,"station_name":"Jayakarta","distance":1264,"time":4},{"i_long":106.82482,"i_lat":-6.149769,"line":2,"station_id":"MGB","station_name":"Manggabesar","distance":1080,"is_transit":false,"transit":false,"time":2},{"line":2,"distance":906,"station_id":"SW","station_name":"Sawah Besar","transit":false,"time":2,"i_lat":-6.160725,"is_transit":false,"i_long":106.827103},{"line":2,"station_id":"JUA","is_transit":false,"transit":false,"station_name":"Juanda","i_lat":-6.166716,"distance":1149,"time":2,"i_long":106.828284},{"transit":false,"station_id":"GDD","is_transit":false,"time":4,"station_name":"Gondangdia","distance":2015,"i_long":106.832183,"line":2,"i_lat":-6.186295},{"line":2,"time":3,"i_long":106.840169,"station_name":"Cikini","is_transit":false,"station_id":"CKI","transit":false,"distance":1750,"i_lat":-6.198556},{"distance":1590,"is_transit":true,"station_id":"MRI","i_lat":-6.209883,"line":2,"station_name":"Manggarai","i_long":106.84912,"transit":true,"time":4},{"is_transit":false,"distance":3186,"station_name":"Sudirman","i_long":106.822649,"station_id":"SUD","transit":false,"line":1,"i_lat":-6.202263,"time":4},{"i_lat":-6.201433,"time":1,"i_long":106.819881,"line":1,"station_name":"Sudirman Baru","transit":false,"station_id":"SUDB","is_transit":false,"distance":280},{"distance":471,"i_long":106.816351,"station_id":"KAT","is_transit":false,"time":1,"i_lat":-6.20132,"line":1,"transit":false,"station_name":"Karet"},{"i_lat":-6.185545,"distance":2029,"time":5,"line":1,"station_name":"Tanah Abang","i_long":106.811091,"station_id":"THB","is_transit":false,"transit":false},{"line":1,"station_name":"Duri","time":8,"i_long":106.800832,"transit":true,"station_id":"DU","distance":3632,"is_transit":true,"i_lat":-6.155215},{"is_transit":false,"transit":false,"i_lat":-6.162021,"line":5,"station_id":"GGL","i_long":106.788277,"station_name":"Grogol","distance":1700,"time":3}],[{"transit":false,"station_id":"AK","is_transit":false,"station_name":"Angke","distance":0,"i_lat":-6.144674,"line":1,"i_long":106.79867,"time":0},{"is_transit":true,"transit":true,"distance":4102,"i_lat":-6.132549,"station_name":"Kampung Bandan","station_id":"KPB","time":9,"i_long":106.826365,"line":4},{"station_id":"RJW","i_lat":-6.14505,"i_long":106.836569,"is_transit":false,"transit":false,"station_name":"Rajawali","time":3,"distance":1444,"line":11},{"station_name":"Kemayoran","time":5,"i_long":106.839204,"i_lat":-6.161728,"line":11,"station_id":"KMO","is_transit":false,"transit":false,"distance":1901},{"is_transit":false,"i_lat":-6.174784,"station_name":"Pasar Senen","i_long":106.84368,"time":4,"transit":false,"station_id":"PSE","line":11,"distance":1436},{"line":11,"i_lat":-6.185975,"i_long":106.850107,"station_id":"GST","is_transit":false,"distance":1567,"transit":false,"station_name":"Gang Sentiong","time":8},{"i_lat":-6.193792,"distance":973,"station_id":"KMT","station_name":"Kramat","is_transit":false,"time":1,"i_long":106.855437,"line":11,"transit":false},{"line":11,"station_name":"Pondok Jati","is_transit":false,"distance":1829,"station_id":"POK","time":2,"i_lat":-6.209188,"i_long":106.861737,"transit":false},{"is_transit":true,"station_name":"Jatinegara","i_lat":-6.215091,"i_long":106.86807400000001,"line":1,"station_id":"JNG","distance":1236,"transit":true,"time":9},{"station_name":"Matraman","time":2,"line":1,"station_id":"MTR","distance":1377,"transit":false,"i_lat":-6.212485,"i_long":106.858896,"is_transit":false},{"transit":false,"station_id":"MRI","is_transit":false,"station_name":"Manggarai","line":2,"time":2,"distance":1275,"i_long":106.84912,"i_lat":-6.209883},{"distance":3186,"i_lat":-6.202263,"time":4,"line":1,"transit":false,"i_long":106.822649,"station_name":"Sudirman","station_id":"SUD","is_transit":false},{"station_id":"SUDB","line":1,"distance":280,"i_long":106.819881,"transit":false,"is_transit":false,"i_lat":-6.201433,"time":1,"station_name":"Sudirman Baru"},{"transit":false,"station_id":"KAT","station_name":"Karet","i_long":106.816351,"time":1,"line":1,"is_transit":false,"distance":471,"i_lat":-6.20132},{"transit":false,"distance":2029,"i_lat":-6.185545,"line":1,"i_long":106.811091,"is_transit":false,"station_id":"THB","time":5,"station_name":"Tanah Abang"},{"i_lat":-6.155215,"transit":true,"is_transit":true,"time":8,"station_id":"DU","line":1,"distance":3632,"station_name":"Duri","i_long":106.800832},{"time":3,"line":5,"transit":false,"station_name":"Grogol","station_id":"GGL","is_transit":false,"distance":1700,"i_lat":-6.162021,"i_long":106.788277}]]}