{"data":[[{"transit":false,"is_transit":false,"station_id":"AK","i_lat":-6.144674,"i_long":106.79867,"line":0,"station_name":"Angke","time":0,"distance":0},{"is_transit":true,"station_id":"DU","i_lat":-6.155215,"station_name":"Duri","line":1,"time":4,"i_long":106.800832,"distance":1230,"transit":true},{"line":5,"station_name":"Grogol","station_id":"GGL","transit":false,"i_lat":-6.162021,"time":3,"distance":1700,"i_long":106.788277,"is_transit":false}],[{"time":0,"transit":false,"i_lat":-6.144674,"i_long":106.79867,"distance":0,"station_id":"AK","station_name":"Angke","line":0,"is_transit":false},{"time":9,"distance":4102,"i_lat":-6.132549,"line":0,"is_transit":true,"i_long":106.826365,"station_id":"KPB","station_name":"Kampung Bandan","transit":false},{"station_name":"Jakarta Kota","line":0,"transit":true,"time":3,"i_long":106.812439,"distance":1364,"station_id":"JAKK","i_lat":-6.137569,"is_transit":true},{"distance":1264,"i_lat":-6.141205,"station_id":"JAY","is_transit":false,"i_long":106.820901,"line":7,"station_name":"Jayakarta","transit":false,"time":4},{"i_lat":-6.149769,"i_long":106.82482,"line":2,"station_name":"Manggabesar","time":2,"station_id":"MGB","distance":1080,"is_transit":false,"transit":false},{"station_name":"Sawah Besar","transit":false,"time":2,"i_lat":-6.160725,"i_long":106.827103,"station_id":"SW","is_transit":false,"distance":906,"line":2},{"transit":false,"line":2,"i_long":106.828284,"time":2,"station_name":"Juanda","i_lat":-6.166716,"is_transit":false,"station_id":"JUA","distance":1149},{"station_id":"GDD","is_transit":false,"time":4,"i_long":106.832183,"transit":false,"station_name":"Gondangdia","i_lat":-6.186295,"line":2,"distance":2015},{"i_long":106.840169,"time":3,"i_lat":-6.198556,"station_name":"Cikini","transit":false,"line":0,"distance":1750,"station_id":"CKI","is_transit":false},{"is_transit":true,"time":4,"distance":1590,"i_lat":-6.209883,"i_long":106.84912,"transit":true,"station_id":"MRI","line":0,"station_name":"Manggarai"},{"transit":false,"is_transit":false,"line":1,"i_long":106.822649,"time":4,"station_name":"Sudirman","station_id":"SUD","distance":3186,"i_lat":-6.202263},{"i_long":106.819881,"time":1,"station_name":"Sudirman Baru","i_lat":-6.201433,"line":1,"is_transit":false,"distance":280,"transit":false,"station_id":"SUDB"},{"transit":false,"station_name":"Karet","distance":471,"is_transit":false,"time":1,"line":1,"i_long":106.816351,"station_id":"KAT","i_lat":-6.20132},{"is_transit":true,"time":5,"i_long":106.811091,"line":1,"station_id":"THB","transit":false,"station_name":"Tanah Abang","distance":2029,"i_lat":-6.185545},{"station_name":"Duri","i_long":106.800832,"station_id":"DU","is_transit":true,"distance":3632,"transit":true,"i_lat":-6.155215,"line":1,"time":8},{"line":5,"i_lat":-6.162021,"i_long":106.788277,"time":3,"station_name":"Grogol","station_id":"GGL","transit":false,"distance":1700,"is_transit":false}],[{"station_name":"Angke","distance":0,"transit":false,"station_id":"AK","time":0,"i_long":106.79867,"is_transit":false,"line":0,"i_lat":-6.144674},{"station_name":"Kampung Bandan","transit":true,"time":9,"i_long":106.826365,"station_id":"KPB","is_transit":true,"i_lat":-6.132549,"line":0,"distance":4102},{"station_name":"Rajawali","is_transit":false,"i_lat":-6.14505,"line":11,"transit":false,"time":3,"station_id":"RJW","i_long":106.836569,"distance":1444},{"time":5,"line":11,"station_id":"KMO","is_transit":false,"distance":1901,"transit":false,"i_long":106.839204,"station_name":"Kemayoran","i_lat":-6.161728},{"station_name":"Pasar Senen","time":4,"distance":1436,"transit":false,"line":11,"station_id":"PSE","i_lat":-6.174784,"is_transit":false,"i_long":106.84368},{"time":8,"line":11,"i_lat":-6.185975,"i_long":106.850107,"station_name":"Gang Sentiong","is_transit":false,"transit":false,"distance":1567,"station_id":"GST"},{"station_name":"Kramat","time":1,"i_lat":-6.193792,"distance":973,"transit":false,"is_transit":false,"i_long":106.855437,"station_id":"KMT","line":11},{"line":11,"i_lat":-6.209188,"station_name":"Pondok Jati","station_id":"POK","distance":1829,"transit":false,"is_transit":false,"time":2,"i_long":106.861737},{"is_transit":true,"time":9,"i_long":106.86807400000001,"station_name":"Jatinegara","line":0,"station_id":"JNG","distance":1236,"transit":true,"i_lat":-6.215091},{"station_name":"Matraman","time":2,"station_id":"MTR","is_transit":false,"line":1,"i_lat":-6.212485,"i_long":106.858896,"transit":false,"distance":1377},{"station_name":"Manggarai","is_transit":true,"station_id":"MRI","distance":1275,"time":2,"line":0,"i_lat":-6.209883,"i_long":106.84912,"transit":false},{"distance":3186,"transit":false,"station_id":"SUD","time":4,"i_long":106.822649,"station_name":"Sudirman","is_transit":false,"line":1,"i_lat":-6.202263},{"line":1,"time":1,"transit":false,"i_long":106.819881,"is_transit":false,"distance":280,"station_id":"SUDB","i_lat":-6.201433,"station_name":"Sudirman Baru"},{"time":1,"i_lat":-6.20132,"i_long":106.816351,"station_id":"KAT","line":1,"station_name":"Karet","distance":471,"transit":false,"is_transit":false},{"distance":2029,"transit":false,"station_id":"THB","line":1,"station_name":"Tanah Abang","time":5,"is_transit":true,"i_lat":-6.185545,"i_long":106.811091},{"i_long":106.800832,"time":8,"line":1,"is_transit":true,"i_lat":-6.155215,"distance":3632,"station_id":"DU","station_name":"Duri","transit":true},{"i_long":106.788277,"is_transit":false,"station_id":"GGL","transit":false,"i_lat":-6.162021,"station_name":"Grogol","distance":1700,"line":5,"time":3}]]}