{"data":[[{"i_lat":-6.144674,"time":0,"station_name":"Angke","is_transit":false,"line":0,"distance":0,"i_long":106.79867,"transit":false,"station_id":"AK"},{"line":0,"distance":4102,"transit":true,"i_long":106.826365,"i_lat":-6.132549,"station_id":"KPB","station_name":"Kampung Bandan","time":9,"is_transit":true},{"is_transit":false,"transit":false,"station_name":"Rajawali","time":3,"i_long":106.836569,"i_lat":-6.14505,"distance":1444,"line":11,"station_id":"RJW"},{"distance":1901,"i_long":106.839204,"is_transit":false,"station_id":"KMO","transit":false,"station_name":"Kemayoran","time":5,"i_lat":-6.161728,"line":11},{"is_transit":false,"transit":false,"line":11,"distance":1436,"i_long":106.84368,"station_id":"PSE","time":4,"station_name":"Pasar Senen","i_lat":-6.174784},{"distance":1567,"i_lat":-6.185975,"station_name":"Gang Sentiong","i_long":106.850107,"station_id":"GST","line":11,"transit":false,"time":8,"is_transit":false},{"station_name":"Kramat","station_id":"KMT","time":1,"transit":false,"distance":973,"line":11,"i_long":106.855437,"i_lat":-6.193792,"is_transit":false},{"is_transit":false,"line":11,"station_id":"POK","i_lat":-6.209188,"transit":false,"station_name":"Pondok Jati","time":2,"distance":1829,"i_long":106.861737},{"line":0,"time":9,"is_transit":true,"i_lat":-6.215091,"station_name":"Jatinegara","station_id":"JNG","i_long":106.86807400000001,"transit":true,"distance":1236},{"is_transit":false,"time":3,"line":1,"i_lat":-6.2135,"transit":false,"distance":3395,"station_name":"Klender","i_long":106.899548,"station_id":"KLD"},{"is_transit":false,"line":0,"station_name":"Buaran","i_long":106.922662,"time":2,"transit":false,"i_lat":-6.215568,"station_id":"BUA","distance":3100},{"station_name":"Klenderbaru","i_long":106.939679,"line":1,"transit":false,"distance":1305,"time":1,"station_id":"KLDB","is_transit":false,"i_lat":-6.217455}],[{"i_lat":-6.144674,"distance":0,"station_id":"AK","time":0,"station_name":"Angke","is_transit":false,"transit":false,"i_long":106.79867,"line":0},{"i_long":106.800832,"station_id":"DU","is_transit":true,"line":1,"distance":1230,"i_lat":-6.155215,"station_name":"Duri","time":4,"transit":true},{"transit":false,"distance":3632,"station_name":"Tanah Abang","i_long":106.811091,"line":1,"station_id":"THB","is_transit":true,"time":8,"i_lat":-6.185545},{"station_id":"KAT","i_lat":-6.20132,"time":5,"distance":2029,"station_name":"Karet","i_long":106.816351,"line":1,"is_transit":false,"transit":false},{"i_long":106.819881,"line":1,"distance":471,"time":1,"transit":false,"is_transit":false,"i_lat":-6.201433,"station_id":"SUDB","station_name":"Sudirman Baru"},{"transit":false,"i_long":106.822649,"i_lat":-6.202263,"line":1,"station_id":"SUD","station_name":"Sudirman","distance":280,"is_transit":false,"time":1},{"line":0,"is_transit":true,"station_id":"MRI","station_name":"Manggarai","time":4,"transit":false,"i_lat":-6.209883,"distance":3186,"i_long":106.84912},{"is_transit":false,"line":1,"station_name":"Matraman","time":2,"distance":1275,"transit":false,"i_long":106.858896,"station_id":"MTR","i_lat":-6.212485},{"distance":1377,"i_lat":-6.215091,"station_name":"Jatinegara","transit":false,"is_transit":true,"station_id":"JNG","i_long":106.86807400000001,"line":0,"time":8},{"i_lat":-6.2135,"is_transit":false,"distance":3395,"transit":false,"station_name":"Klender","line":1,"station_id":"KLD","time":3,"i_long":106.899548},{"transit":false,"line":0,"station_id":"BUA","time":2,"distance":3100,"is_transit":false,"i_long":106.922662,"station_name":"Buaran","i_lat":-6.215568},{"distance":1305,"i_long":106.939679,"station_id":"KLDB","is_transit":false,"time":1,"transit":false,"i_lat":-6.217455,"line":1,"station_name":"Klenderbaru"}],[{"transit":false,"distance":0,"station_name":"Angke","station_id":"AK","time":0,"is_transit":false,"i_lat":-6.144674,"i_long":106.79867,"line":0},{"station_id":"KPB","distance":4102,"i_long":106.826365,"is_transit":true,"time":9,"transit":false,"station_name":"Kampung Bandan","i_lat":-6.132549,"line":0},{"transit":true,"is_transit":true,"station_name":"Jakarta Kota","i_lat":-6.137569,"line":0,"station_id":"JAKK","distance":1364,"i_long":106.812439,"time":3},{"transit":false,"i_long":106.820901,"station_name":"Jayakarta","is_transit":false,"time":4,"distance":1264,"line":7,"i_lat":-6.141205,"station_id":"JAY"},{"i_lat":-6.149769,"i_long":106.82482,"distance":1080,"line":2,"station_id":"MGB","time":2,"station_name":"Manggabesar","is_transit":false,"transit":false},{"station_id":"SW","is_transit":false,"time":2,"distance":906,"transit":false,"i_lat":-6.160725,"line":2,"i_long":106.827103,"station_name":"Sawah Besar"},{"station_name":"Juanda","is_transit":false,"time":2,"distance":1149,"i_lat":-6.166716,"line":2,"station_id":"JUA","i_long":106.828284,"transit":false},{"i_lat":-6.186295,"line":2,"is_transit":false,"transit":false,"i_long":106.832183,"station_name":"Gondangdia","station_id":"GDD","distance":2015,"time":4},{"time":3,"line":0,"station_name":"Cikini","i_lat":-6.198556,"transit":false,"distance":1750,"is_transit":false,"i_long":106.840169,"station_id":"CKI"},{"line":0,"station_name":"Manggarai","i_lat":-6.209883,"distance":1590,"station_id":"MRI","time":4,"transit":true,"is_transit":true,"i_long":106.84912},{"station_name":"Matraman","line":1,"i_lat":-6.212485,"i_long":106.858896,"station_id":"MTR","is_transit":false,"time":2,"transit":false,"distance":1275},{"time":8,"station_name":"Jatinegara","i_lat":-6.215091,"i_long":106.86807400000001,"station_id":"JNG","distance":1377,"line":0,"is_transit":true,"transit":false},{"i_long":106.899548,"time":3,"transit":false,"i_lat":-6.2135,"station_name":"Klender","station_id":"KLD","is_transit":false,"line":1,"distance":3395},{"line":0,"i_lat":-6.215568,"i_long":106.922662,"time":2,"transit":false,"station_name":"Buaran","station_id":"BUA","is_transit":false,"distance":3100},{"station_name":"Klenderbaru","i_lat":-6.217455,"i_long":106.939679,"line":1,"distance":1305,"transit":false,"station_id":"KLDB","is_transit":false,"time":1}],[{"distance":0,"station_id":"AK","is_transit":false,"line":0,"time":0,"i_long":106.79867,"station_name":"Angke","i_lat":-6.144674,"transit":false},{"distance":1230,"line":1,"transit":true,"is_transit":true,"station_name":"Duri","station_id":"DU","time":4,"i_long":106.800832,"i_lat":-6.155215},{"distance":3632,"station_name":"Tanah Abang","i_long":106.811091,"is_transit":true,"i_lat":-6.185545,"line":1,"station_id":"THB","time":8,"transit":false},{"station_id":"KAT","i_long":106.816351,"line":1,"is_transit":false,"time":5,"distance":2029,"station_name":"Karet","transit":false,"i_lat":-6.20132},{"line":1,"distance":471,"i_lat":-6.201433,"is_transit":false,"time":1,"station_id":"SUDB","station_name":"Sudirman Baru","i_long":106.819881,"transit":false},{"i_long":106.822649,"line":1,"transit":false,"station_id":"SUD","is_transit":false,"time":1,"station_name":"Sudirman","distance":280,"i_lat":-6.202263},{"station_id":"MRI","station_name":"Manggarai","is_transit":true,"time":4,"line":0,"i_long":106.84912,"distance":3186,"i_lat":-6.209883,"transit":true},{"i_lat":-6.198556,"i_long":106.840169,"transit":false,"station_id":"CKI","station_name":"Cikini","time":4,"is_transit":false,"line":0,"distance":1590},{"transit":false,"line":2,"i_long":106.832183,"station_name":"Gondangdia","i_lat":-6.186295,"station_id":"GDD","distance":1750,"time":3,"is_transit":false},{"i_long":106.828284,"line":2,"distance":2015,"is_transit":false,"time":4,"i_lat":-6.166716,"station_name":"Juanda","transit":false,"station_id":"JUA"},{"distance":1149,"station_id":"SW","station_name":"Sawah Besar","time":2,"transit":false,"i_lat":-6.160725,"line":2,"is_transit":false,"i_long":106.827103},{"line":2,"i_lat":-6.149769,"station_name":"Manggabesar","i_long":106.82482,"is_transit":false,"station_id":"MGB","time":2,"distance":906,"transit":false},{"distance":1080,"transit":false,"i_long":106.820901,"line":7,"station_name":"Jayakarta","i_lat":-6.141205,"is_transit":false,"station_id":"JAY","time":2},{"i_long":106.812439,"is_transit":true,"line":0,"distance":1264,"station_id":"JAKK","i_lat":-6.137569,"transit":true,"station_name":"Jakarta Kota","time":4},{"station_name":"Kampung Bandan","is_transit":true,"line":0,"i_long":106.826365,"i_lat":-6.132549,"station_id":"KPB","time":3,"distance":1364,"transit":true},{"line":11,"i_lat":-6.14505,"i_long":106.836569,"station_name":"Rajawali","station_id":"RJW","is_transit":false,"transit":false,"time":3,"distance":1444},{"i_lat":-6.161728,"i_long":106.839204,"line":11,"distance":1901,"station_name":"Kemayoran","time":5,"transit":false,"station_id":"KMO","is_transit":false},{"i_lat":-6.174784,"transit":false,"is_transit":false,"i_long":106.84368,"station_id":"PSE","time":4,"station_name":"Pasar Senen","distance":1436,"line":11},{"is_transit":false,"time":8,"i_long":106.850107,"distance":1567,"station_id":"GST","station_name":"Gang Sentiong","transit":false,"i_lat":-6.185975,"line":11},{"line":11,"distance":973,"is_transit":false,"transit":false,"station_name":"Kramat","i_long":106.855437,"time":1,"station_id":"KMT","i_lat":-6.193792},{"distance":1829,"i_lat":-6.209188,"station_name":"Pondok Jati","is_transit":false,"station_id":"POK","line":11,"time":2,"i_long":106.861737,"transit":false},{"station_id":"JNG","station_name":"Jatinegara","time":9,"transit":true,"line":0,"distance":1236,"i_long":106.86807400000001,"i_lat":-6.215091,"is_transit":true},{"station_name":"Klender","line":1,"is_transit":false,"distance":3395,"time":3,"transit":false,"i_lat":-6.2135,"station_id":"KLD","i_long":106.899548},{"distance":3100,"time":2,"i_lat":-6.215568,"transit":false,"i_long":106.922662,"station_id":"BUA","is_transit":false,"line":0,"station_name":"Buaran"},{"station_id":"KLDB","time":1,"i_long":106.939679,"distance":1305,"line":1,"transit":false,"i_lat":-6.217455,"station_name":"Klenderbaru","is_transit":false}]]}