{"data":[[{"is_transit":false,"line":1,"i_lat":-6.144674,"distance":0,"i_long":106.79867,"station_id":"AK","time":0,"transit":false,"station_name":"Angke"},{"station_id":"KPB","station_name":"Kampung Bandan","distance":4102,"i_long":106.826365,"time":9,"line":4,"transit":true,"is_transit":true,"i_lat":-6.132549},{"station_name":"Rajawali","is_transit":false,"i_long":106.836569,"line":11,"i_lat":-6.14505,"time":3,"distance":1444,"transit":false,"station_id":"RJW"},{"transit":false,"time":5,"is_transit":false,"line":11,"i_long":106.839204,"station_id":"KMO","distance":1901,"i_lat":-6.161728,"station_name":"Kemayoran"},{"i_long":106.84368,"is_transit":false,"station_name":"Pasar Senen","time":4,"transit":false,"distance":1436,"line":11,"station_id":"PSE","i_lat":-6.174784},{"transit":false,"i_long":106.850107,"line":11,"distance":1567,"station_id":"GST","i_lat":-6.185975,"time":8,"station_name":"Gang Sentiong","is_transit":false},{"station_name":"Kramat","time":1,"i_long":106.855437,"transit":false,"line":11,"i_lat":-6.193792,"is_transit":false,"station_id":"KMT","distance":973},{"i_long":106.861737,"line":11,"time":2,"station_id":"POK","is_transit":false,"distance":1829,"transit":false,"i_lat":-6.209188,"station_name":"Pondok Jati"},{"station_id":"JNG","i_lat":-6.215091,"i_long":106.86807400000001,"distance":1236,"line":1,"time":9,"is_transit":true,"station_name":"Jatinegara","transit":true},{"station_id":"KLD","distance":3395,"station_name":"Klender","transit":false,"i_lat":-6.2135,"line":1,"time":3,"is_transit":false,"i_long":106.899548}],[{"i_long":106.79867,"time":0,"line":1,"is_transit":false,"distance":0,"station_id":"AK","station_name":"Angke","i_lat":-6.144674,"transit":false},{"distance":1230,"station_name":"Duri","line":1,"i_long":106.800832,"station_id":"DU","i_lat":-6.155215,"transit":false,"time":4,"is_transit":false},{"line":1,"time":8,"is_transit":false,"transit":false,"i_lat":-6.185545,"station_id":"THB","distance":3632,"station_name":"Tanah Abang","i_long":106.811091},{"transit":false,"i_lat":-6.20132,"i_long":106.816351,"line":1,"station_name":"Karet","time":5,"station_id":"KAT","is_transit":false,"distance":2029},{"distance":471,"i_lat":-6.201433,"time":1,"line":1,"i_long":106.819881,"station_id":"SUDB","transit":false,"station_name":"Sudirman Baru","is_transit":false},{"transit":false,"station_name":"Sudirman","i_long":106.822649,"time":1,"is_transit":false,"i_lat":-6.202263,"station_id":"SUD","distance":280,"line":1},{"transit":false,"i_long":106.84912,"line":2,"i_lat":-6.209883,"station_id":"MRI","time":4,"station_name":"Manggarai","is_transit":false,"distance":3186},{"transit":false,"line":1,"i_lat":-6.212485,"station_id":"MTR","time":2,"station_name":"Matraman","is_transit":false,"i_long":106.858896,"distance":1275},{"is_transit":false,"station_name":"Jatinegara","transit":false,"time":8,"i_lat":-6.215091,"line":1,"station_id":"JNG","i_long":106.86807400000001,"distance":1377},{"station_id":"KLD","station_name":"Klender","distance":3395,"line":1,"time":3,"transit":false,"is_transit":false,"i_long":106.899548,"i_lat":-6.2135}],[{"time":0,"station_id":"AK","distance":0,"is_transit":false,"transit":false,"line":1,"i_lat":-6.144674,"station_name":"Angke","i_long":106.79867},{"is_transit":true,"time":9,"line":4,"distance":4102,"i_long":106.826365,"i_lat":-6.132549,"station_id":"KPB","station_name":"Kampung Bandan","transit":true},{"i_long":106.812439,"is_transit":true,"distance":1364,"station_id":"JAKK","station_name":"Jakarta Kota","i_lat":-6.137569,"line":2,"transit":true,"time":3},{"station_name":"Jayakarta","line":2,"transit":false,"i_long":106.820901,"is_transit":false,"i_lat":-6.141205,"station_id":"JAY","distance":1264,"time":4},{"transit":false,"station_name":"Manggabesar","is_transit":false,"i_long":106.82482,"time":2,"station_id":"MGB","distance":1080,"i_lat":-6.149769,"line":2},{"line":2,"station_name":"Sawah Besar","distance":906,"i_lat":-6.160725,"station_id":"SW","i_long":106.827103,"time":2,"transit":false,"is_transit":false},{"time":2,"distance":1149,"transit":false,"i_lat":-6.166716,"i_long":106.828284,"line":2,"is_transit":false,"station_name":"Juanda","station_id":"JUA"},{"is_transit":false,"station_name":"Gondangdia","station_id":"GDD","transit":false,"line":2,"i_lat":-6.186295,"time":4,"i_long":106.832183,"distance":2015},{"time":3,"station_name":"Cikini","is_transit":false,"distance":1750,"station_id":"CKI","i_long":106.840169,"transit":false,"i_lat":-6.198556,"line":2},{"station_id":"MRI","is_transit":true,"time":4,"station_name":"Manggarai","transit":true,"i_lat":-6.209883,"i_long":106.84912,"distance":1590,"line":2},{"is_transit":false,"transit":false,"line":1,"i_lat":-6.212485,"time":2,"station_id":"MTR","distance":1275,"i_long":106.858896,"station_name":"Matraman"},{"i_lat":-6.215091,"distance":1377,"i_long":106.86807400000001,"line":1,"station_name":"Jatinegara","time":8,"station_id":"JNG","is_transit":false,"transit":false},{"is_transit":false,"line":1,"station_id":"KLD","i_long":106.899548,"station_name":"Klender","time":3,"distance":3395,"transit":false,"i_lat":-6.2135}],[{"station_name":"Angke","is_transit":false,"transit":false,"line":1,"i_long":106.79867,"distance":0,"station_id":"AK","time":0,"i_lat":-6.144674},{"station_name":"Duri","i_long":106.800832,"line":1,"time":4,"distance":1230,"is_transit":false,"station_id":"DU","transit":false,"i_lat":-6.155215},{"station_name":"Tanah Abang","station_id":"THB","transit":false,"i_lat":-6.185545,"line":1,"time":8,"i_long":106.811091,"distance":3632,"is_transit":false},{"i_lat":-6.20132,"is_transit":false,"distance":2029,"time":5,"station_name":"Karet","i_long":106.816351,"line":1,"station_id":"KAT","transit":false},{"distance":471,"transit":false,"time":1,"i_long":106.819881,"line":1,"is_transit":false,"station_id":"SUDB","i_lat":-6.201433,"station_name":"Sudirman Baru"},{"distance":280,"is_transit":false,"i_long":106.822649,"i_lat":-6.202263,"station_name":"Sudirman","transit":false,"time":1,"line":1,"station_id":"SUD"},{"transit":true,"i_long":106.84912,"line":2,"time":4,"is_transit":true,"station_id":"MRI","i_lat":-6.209883,"distance":3186,"station_name":"Manggarai"},{"i_lat":-6.198556,"station_name":"Cikini","is_transit":false,"distance":1590,"i_long":106.840169,"station_id":"CKI","transit":false,"time":4,"line":2},{"transit":false,"i_lat":-6.186295,"distance":1750,"line":2,"i_long":106.832183,"time":3,"station_id":"GDD","station_name":"Gondangdia","is_transit":false},{"station_name":"Juanda","transit":false,"i_long":106.828284,"time":4,"station_id":"JUA","is_transit":false,"distance":2015,"i_lat":-6.166716,"line":2},{"distance":1149,"station_id":"SW","station_name":"Sawah Besar","is_transit":false,"line":2,"i_lat":-6.160725,"i_long":106.827103,"transit":false,"time":2},{"transit":false,"station_id":"MGB","i_long":106.82482,"line":2,"distance":906,"station_name":"Manggabesar","i_lat":-6.149769,"time":2,"is_transit":false},{"i_lat":-6.141205,"i_long":106.820901,"station_id":"JAY","station_name":"Jayakarta","time":2,"is_transit":false,"transit":false,"distance":1080,"line":2},{"distance":1264,"station_name":"Jakarta Kota","transit":true,"i_lat":-6.137569,"line":2,"is_transit":true,"time":4,"i_long":106.812439,"station_id":"JAKK"},{"transit":true,"time":3,"station_name":"Kampung Bandan","station_id":"KPB","line":4,"i_long":106.826365,"is_transit":true,"distance":1364,"i_lat":-6.132549},{"is_transit":false,"distance":1444,"station_id":"RJW","i_lat":-6.14505,"i_long":106.836569,"transit":false,"line":11,"station_name":"Rajawali","time":3},{"transit":false,"distance":1901,"i_lat":-6.161728,"i_long":106.839204,"station_name":"Kemayoran","time":5,"is_transit":false,"station_id":"KMO","line":11},{"distance":1436,"station_name":"Pasar Senen","i_lat":-6.174784,"is_transit":false,"station_id":"PSE","transit":false,"i_long":106.84368,"line":11,"time":4},{"station_id":"GST","transit":false,"time":8,"line":11,"is_transit":false,"i_long":106.850107,"distance":1567,"i_lat":-6.185975,"station_name":"Gang Sentiong"},{"transit":false,"line":11,"time":1,"station_name":"Kramat","distance":973,"station_id":"KMT","i_lat":-6.193792,"i_long":106.855437,"is_transit":false},{"station_name":"Pondok Jati","is_transit":false,"i_lat":-6.209188,"station_id":"POK","transit":false,"i_long":106.861737,"time":2,"distance":1829,"line":11},{"is_transit":true,"transit":true,"distance":1236,"station_id":"JNG","station_name":"Jatinegara","i_long":106.86807400000001,"line":1,"i_lat":-6.215091,"time":9},{"time":3,"distance":3395,"station_name":"Klender","line":1,"station_id":"KLD","is_transit":false,"i_lat":-6.2135,"i_long":106.899548,"transit":false}]]}