{"data":[[{"transit":false,"distance":0,"i_lat":-6.144674,"i_long":106.79867,"is_transit":false,"time":0,"station_id":"AK","station_name":"Angke","line":1},{"distance":4102,"station_name":"Kampung Bandan","station_id":"KPB","line":4,"is_transit":true,"transit":true,"i_lat":-6.132549,"time":9,"i_long":106.826365},{"i_lat":-6.14505,"time":3,"line":11,"is_transit":false,"station_name":"Rajawali","transit":false,"distance":1444,"i_long":106.836569,"station_id":"RJW"},{"i_lat":-6.161728,"is_transit":false,"distance":1901,"i_long":106.839204,"line":11,"transit":false,"station_id":"KMO","station_name":"Kemayoran","time":5},{"time":4,"i_long":106.84368,"is_transit":false,"transit":false,"i_lat":-6.174784,"station_id":"PSE","distance":1436,"line":11,"station_name":"Pasar Senen"},{"i_long":106.850107,"station_name":"Gang Sentiong","time":8,"transit":false,"line":11,"station_id":"GST","is_transit":false,"i_lat":-6.185975,"distance":1567},{"i_lat":-6.193792,"line":11,"time":1,"i_long":106.855437,"station_id":"KMT","transit":false,"is_transit":false,"station_name":"Kramat","distance":973},{"is_transit":false,"i_lat":-6.209188,"i_long":106.861737,"time":2,"line":11,"transit":false,"station_id":"POK","station_name":"Pondok Jati","distance":1829},{"distance":1236,"transit":true,"i_lat":-6.215091,"station_id":"JNG","time":9,"station_name":"Jatinegara","i_long":106.86807400000001,"line":1,"is_transit":true},{"time":3,"i_lat":-6.2135,"station_id":"KLD","line":1,"distance":3395,"station_name":"Klender","i_long":106.899548,"is_transit":false,"transit":false}],[{"transit":false,"time":0,"distance":0,"is_transit":false,"i_long":106.79867,"i_lat":-6.144674,"station_id":"AK","station_name":"Angke","line":1},{"distance":1230,"station_id":"DU","transit":false,"is_transit":false,"i_lat":-6.155215,"station_name":"Duri","time":4,"i_long":106.800832,"line":1},{"is_transit":false,"i_lat":-6.185545,"station_name":"Tanah Abang","station_id":"THB","i_long":106.811091,"line":1,"transit":false,"time":8,"distance":3632},{"is_transit":false,"i_long":106.816351,"line":1,"time":5,"station_id":"KAT","transit":false,"i_lat":-6.20132,"station_name":"Karet","distance":2029},{"line":1,"i_lat":-6.201433,"transit":false,"is_transit":false,"station_id":"SUDB","station_name":"Sudirman Baru","distance":471,"i_long":106.819881,"time":1},{"distance":280,"i_long":106.822649,"station_id":"SUD","is_transit":false,"line":1,"i_lat":-6.202263,"station_name":"Sudirman","transit":false,"time":1},{"i_long":106.84912,"time":4,"station_name":"Manggarai","station_id":"MRI","is_transit":false,"i_lat":-6.209883,"distance":3186,"line":2,"transit":false},{"i_long":106.858896,"time":2,"i_lat":-6.212485,"station_name":"Matraman","distance":1275,"line":1,"is_transit":false,"station_id":"MTR","transit":false},{"distance":1377,"transit":false,"time":8,"i_long":106.86807400000001,"is_transit":false,"line":1,"station_id":"JNG","i_lat":-6.215091,"station_name":"Jatinegara"},{"is_transit":false,"i_lat":-6.2135,"station_id":"KLD","time":3,"transit":false,"station_name":"Klender","distance":3395,"i_long":106.899548,"line":1}],[{"is_transit":false,"time":0,"line":1,"transit":false,"distance":0,"i_lat":-6.144674,"station_id":"AK","i_long":106.79867,"station_name":"Angke"},{"station_name":"Kampung Bandan","distance":4102,"line":4,"time":9,"i_lat":-6.132549,"transit":true,"station_id":"KPB","i_long":106.826365,"is_transit":true},{"line":2,"distance":1364,"is_transit":true,"transit":true,"station_id":"JAKK","time":3,"i_long":106.812439,"i_lat":-6.137569,"station_name":"Jakarta Kota"},{"i_lat":-6.141205,"station_id":"JAY","distance":1264,"i_long":106.820901,"line":2,"time":4,"is_transit":false,"station_name":"Jayakarta","transit":false},{"line":2,"station_name":"Manggabesar","i_lat":-6.149769,"station_id":"MGB","transit":false,"is_transit":false,"time":2,"distance":1080,"i_long":106.82482},{"transit":false,"station_id":"SW","station_name":"Sawah Besar","time":2,"line":2,"distance":906,"i_lat":-6.160725,"is_transit":false,"i_long":106.827103},{"time":2,"distance":1149,"transit":false,"i_lat":-6.166716,"i_long":106.828284,"station_id":"JUA","is_transit":false,"line":2,"station_name":"Juanda"},{"is_transit":false,"station_name":"Gondangdia","station_id":"GDD","i_long":106.832183,"line":2,"time":4,"transit":false,"distance":2015,"i_lat":-6.186295},{"distance":1750,"line":2,"time":3,"i_long":106.840169,"is_transit":false,"station_id":"CKI","station_name":"Cikini","transit":false,"i_lat":-6.198556},{"station_id":"MRI","time":4,"i_lat":-6.209883,"line":2,"is_transit":true,"transit":true,"distance":1590,"i_long":106.84912,"station_name":"Manggarai"},{"time":2,"station_name":"Matraman","i_lat":-6.212485,"i_long":106.858896,"distance":1275,"transit":false,"line":1,"is_transit":false,"station_id":"MTR"},{"is_transit":false,"transit":false,"distance":1377,"i_lat":-6.215091,"i_long":106.86807400000001,"time":8,"station_name":"Jatinegara","station_id":"JNG","line":1},{"transit":false,"line":1,"station_id":"KLD","is_transit":false,"i_long":106.899548,"station_name":"Klender","i_lat":-6.2135,"time":3,"distance":3395}],[{"is_transit":false,"time":0,"i_lat":-6.144674,"station_id":"AK","i_long":106.79867,"distance":0,"line":1,"transit":false,"station_name":"Angke"},{"station_name":"Duri","i_long":106.800832,"time":4,"distance":1230,"line":1,"station_id":"DU","is_transit":false,"transit":false,"i_lat":-6.155215},{"station_id":"THB","i_long":106.811091,"transit":false,"line":1,"time":8,"i_lat":-6.185545,"is_transit":false,"station_name":"Tanah Abang","distance":3632},{"station_id":"KAT","time":5,"distance":2029,"i_lat":-6.20132,"transit":false,"i_long":106.816351,"line":1,"is_transit":false,"station_name":"Karet"},{"i_long":106.819881,"line":1,"time":1,"station_id":"SUDB","distance":471,"station_name":"Sudirman Baru","i_lat":-6.201433,"transit":false,"is_transit":false},{"transit":false,"i_long":106.822649,"is_transit":false,"distance":280,"i_lat":-6.202263,"line":1,"station_name":"Sudirman","station_id":"SUD","time":1},{"line":2,"station_id":"MRI","is_transit":true,"station_name":"Manggarai","distance":3186,"transit":true,"i_lat":-6.209883,"time":4,"i_long":106.84912},{"distance":1590,"is_transit":false,"i_long":106.840169,"station_name":"Cikini","time":4,"transit":false,"i_lat":-6.198556,"station_id":"CKI","line":2},{"i_long":106.832183,"line":2,"is_transit":false,"transit":false,"station_name":"Gondangdia","i_lat":-6.186295,"time":3,"distance":1750,"station_id":"GDD"},{"time":4,"i_long":106.828284,"line":2,"distance":2015,"i_lat":-6.166716,"station_name":"Juanda","transit":false,"is_transit":false,"station_id":"JUA"},{"i_lat":-6.160725,"time":2,"is_transit":false,"distance":1149,"i_long":106.827103,"station_name":"Sawah Besar","line":2,"station_id":"SW","transit":false},{"transit":false,"station_id":"MGB","station_name":"Manggabesar","time":2,"distance":906,"is_transit":false,"i_long":106.82482,"line":2,"i_lat":-6.149769},{"i_lat":-6.141205,"time":2,"i_long":106.820901,"transit":false,"station_id":"JAY","line":2,"is_transit":false,"distance":1080,"station_name":"Jayakarta"},{"i_long":106.812439,"time":4,"station_id":"JAKK","transit":true,"line":2,"station_name":"Jakarta Kota","is_transit":true,"i_lat":-6.137569,"distance":1264},{"i_long":106.826365,"station_id":"KPB","transit":true,"is_transit":true,"distance":1364,"line":4,"station_name":"Kampung Bandan","i_lat":-6.132549,"time":3},{"transit":false,"distance":1444,"time":3,"line":11,"station_name":"Rajawali","is_transit":false,"station_id":"RJW","i_lat":-6.14505,"i_long":106.836569},{"station_name":"Kemayoran","transit":false,"is_transit":false,"time":5,"distance":1901,"i_lat":-6.161728,"station_id":"KMO","i_long":106.839204,"line":11},{"time":4,"distance":1436,"i_lat":-6.174784,"line":11,"station_id":"PSE","station_name":"Pasar Senen","transit":false,"is_transit":false,"i_long":106.84368},{"station_id":"GST","is_transit":false,"station_name":"Gang Sentiong","time":8,"transit":false,"i_long":106.850107,"distance":1567,"line":11,"i_lat":-6.185975},{"is_transit":false,"line":11,"i_lat":-6.193792,"station_id":"KMT","station_name":"Kramat","time":1,"transit":false,"distance":973,"i_long":106.855437},{"i_lat":-6.209188,"time":2,"i_long":106.861737,"station_id":"POK","distance":1829,"is_transit":false,"station_name":"Pondok Jati","line":11,"transit":false},{"transit":true,"is_transit":true,"distance":1236,"i_lat":-6.215091,"line":1,"station_name":"Jatinegara","station_id":"JNG","i_long":106.86807400000001,"time":9},{"station_id":"KLD","line":1,"transit":false,"station_name":"Klender","is_transit":false,"distance":3395,"i_lat":-6.2135,"time":3,"i_long":106.899548}]]}