{"data":[[{"station_name":"Angke","is_transit":false,"i_lat":-6.144674,"i_long":106.79867,"transit":false,"station_id":"AK","time":0,"distance":0,"line":1},{"i_long":106.826365,"transit":true,"station_id":"KPB","time":9,"is_transit":true,"distance":4102,"station_name":"Kampung Bandan","line":4,"i_lat":-6.132549},{"i_lat":-6.14505,"station_name":"Rajawali","line":11,"transit":false,"distance":1444,"station_id":"RJW","i_long":106.836569,"time":3,"is_transit":false},{"transit":false,"distance":1901,"station_name":"Kemayoran","time":5,"i_long":106.839204,"line":11,"is_transit":false,"i_lat":-6.161728,"station_id":"KMO"},{"station_name":"Pasar Senen","time":4,"i_long":106.84368,"line":11,"i_lat":-6.174784,"transit":false,"distance":1436,"station_id":"PSE","is_transit":false},{"station_id":"GST","i_long":106.850107,"i_lat":-6.185975,"line":11,"transit":false,"is_transit":false,"distance":1567,"station_name":"Gang Sentiong","time":8},{"station_id":"KMT","station_name":"Kramat","distance":973,"transit":false,"is_transit":false,"i_lat":-6.193792,"line":11,"i_long":106.855437,"time":1},{"time":2,"station_name":"Pondok Jati","is_transit":false,"distance":1829,"i_lat":-6.209188,"transit":false,"station_id":"POK","line":11,"i_long":106.861737},{"i_long":106.86807400000001,"i_lat":-6.215091,"line":1,"distance":1236,"transit":true,"station_name":"Jatinegara","is_transit":true,"station_id":"JNG","time":9},{"i_lat":-6.2135,"distance":3395,"line":1,"station_name":"Klender","transit":false,"is_transit":false,"time":3,"i_long":106.899548,"station_id":"KLD"},{"i_long":106.922662,"transit":false,"is_transit":false,"distance":3100,"i_lat":-6.215568,"time":2,"line":1,"station_id":"BUA","station_name":"Buaran"},{"station_id":"KLDB","i_lat":-6.217455,"is_transit":false,"transit":false,"station_name":"Klenderbaru","i_long":106.939679,"line":1,"distance":1305,"time":1}],[{"is_transit":false,"distance":0,"transit":false,"station_id":"AK","i_lat":-6.144674,"i_long":106.79867,"station_name":"Angke","line":1,"time":0},{"is_transit":false,"i_lat":-6.155215,"station_name":"Duri","i_long":106.800832,"distance":1230,"station_id":"DU","line":1,"transit":false,"time":4},{"distance":3632,"transit":false,"i_lat":-6.185545,"is_transit":false,"i_long":106.811091,"line":1,"station_name":"Tanah Abang","station_id":"THB","time":8},{"station_id":"KAT","line":1,"transit":false,"i_lat":-6.20132,"distance":2029,"i_long":106.816351,"time":5,"is_transit":false,"station_name":"Karet"},{"distance":471,"line":1,"is_transit":false,"i_lat":-6.201433,"station_id":"SUDB","i_long":106.819881,"time":1,"transit":false,"station_name":"Sudirman Baru"},{"distance":280,"i_lat":-6.202263,"transit":false,"time":1,"is_transit":false,"station_id":"SUD","station_name":"Sudirman","i_long":106.822649,"line":1},{"station_name":"Manggarai","is_transit":false,"i_lat":-6.209883,"i_long":106.84912,"station_id":"MRI","line":2,"transit":false,"time":4,"distance":3186},{"transit":false,"distance":1275,"station_id":"MTR","time":2,"is_transit":false,"i_lat":-6.212485,"i_long":106.858896,"station_name":"Matraman","line":1},{"i_long":106.86807400000001,"i_lat":-6.215091,"station_id":"JNG","station_name":"Jatinegara","is_transit":false,"time":8,"transit":false,"line":1,"distance":1377},{"i_long":106.899548,"station_id":"KLD","distance":3395,"is_transit":false,"station_name":"Klender","i_lat":-6.2135,"transit":false,"time":3,"line":1},{"transit":false,"time":2,"i_lat":-6.215568,"distance":3100,"i_long":106.922662,"line":1,"station_id":"BUA","is_transit":false,"station_name":"Buaran"},{"distance":1305,"is_transit":false,"i_long":106.939679,"station_name":"Klenderbaru","station_id":"KLDB","time":1,"transit":false,"i_lat":-6.217455,"line":1}],[{"station_name":"Angke","i_long":106.79867,"is_transit":false,"line":1,"time":0,"i_lat":-6.144674,"distance":0,"transit":false,"station_id":"AK"},{"time":9,"transit":true,"station_id":"KPB","station_name":"Kampung Bandan","is_transit":true,"distance":4102,"i_lat":-6.132549,"i_long":106.826365,"line":4},{"i_long":106.812439,"station_name":"Jakarta Kota","transit":true,"distance":1364,"i_lat":-6.137569,"line":2,"station_id":"JAKK","is_transit":true,"time":3},{"time":4,"line":2,"station_name":"Jayakarta","station_id":"JAY","i_lat":-6.141205,"transit":false,"i_long":106.820901,"is_transit":false,"distance":1264},{"distance":1080,"i_lat":-6.149769,"station_id":"MGB","time":2,"i_long":106.82482,"line":2,"transit":false,"is_transit":false,"station_name":"Manggabesar"},{"station_id":"SW","distance":906,"line":2,"time":2,"station_name":"Sawah Besar","i_lat":-6.160725,"i_long":106.827103,"is_transit":false,"transit":false},{"station_name":"Juanda","is_transit":false,"line":2,"i_long":106.828284,"distance":1149,"i_lat":-6.166716,"station_id":"JUA","transit":false,"time":2},{"transit":false,"station_name":"Gondangdia","time":4,"station_id":"GDD","distance":2015,"i_lat":-6.186295,"i_long":106.832183,"line":2,"is_transit":false},{"line":2,"is_transit":false,"time":3,"distance":1750,"i_long":106.840169,"transit":false,"i_lat":-6.198556,"station_id":"CKI","station_name":"Cikini"},{"i_long":106.84912,"i_lat":-6.209883,"time":4,"station_id":"MRI","line":2,"distance":1590,"is_transit":true,"transit":true,"station_name":"Manggarai"},{"is_transit":false,"transit":false,"distance":1275,"i_lat":-6.212485,"line":1,"time":2,"i_long":106.858896,"station_id":"MTR","station_name":"Matraman"},{"distance":1377,"is_transit":false,"transit":false,"time":8,"station_id":"JNG","i_lat":-6.215091,"i_long":106.86807400000001,"line":1,"station_name":"Jatinegara"},{"i_lat":-6.2135,"i_long":106.899548,"station_name":"Klender","transit":false,"is_transit":false,"line":1,"station_id":"KLD","time":3,"distance":3395},{"station_id":"BUA","is_transit":false,"i_long":106.922662,"transit":false,"time":2,"distance":3100,"i_lat":-6.215568,"line":1,"station_name":"Buaran"},{"time":1,"i_long":106.939679,"station_name":"Klenderbaru","transit":false,"i_lat":-6.217455,"is_transit":false,"station_id":"KLDB","distance":1305,"line":1}],[{"i_long":106.79867,"station_name":"Angke","line":1,"distance":0,"i_lat":-6.144674,"is_transit":false,"time":0,"station_id":"AK","transit":false},{"station_id":"DU","distance":1230,"station_name":"Duri","time":4,"i_long":106.800832,"is_transit":false,"transit":false,"i_lat":-6.155215,"line":1},{"station_id":"THB","i_lat":-6.185545,"station_name":"Tanah Abang","i_long":106.811091,"transit":false,"line":1,"is_transit":false,"time":8,"distance":3632},{"transit":false,"station_id":"KAT","i_lat":-6.20132,"station_name":"Karet","is_transit":false,"time":5,"distance":2029,"i_long":106.816351,"line":1},{"line":1,"transit":false,"station_name":"Sudirman Baru","station_id":"SUDB","is_transit":false,"distance":471,"i_lat":-6.201433,"i_long":106.819881,"time":1},{"i_long":106.822649,"station_id":"SUD","distance":280,"station_name":"Sudirman","is_transit":false,"i_lat":-6.202263,"transit":false,"line":1,"time":1},{"transit":true,"distance":3186,"i_long":106.84912,"is_transit":true,"time":4,"station_id":"MRI","i_lat":-6.209883,"station_name":"Manggarai","line":2},{"i_long":106.840169,"transit":false,"is_transit":false,"station_name":"Cikini","distance":1590,"time":4,"i_lat":-6.198556,"station_id":"CKI","line":2},{"transit":false,"i_lat":-6.186295,"station_name":"Gondangdia","station_id":"GDD","time":3,"is_transit":false,"distance":1750,"line":2,"i_long":106.832183},{"is_transit":false,"line":2,"i_long":106.828284,"station_id":"JUA","transit":false,"i_lat":-6.166716,"station_name":"Juanda","time":4,"distance":2015},{"transit":false,"line":2,"time":2,"is_transit":false,"station_name":"Sawah Besar","station_id":"SW","distance":1149,"i_long":106.827103,"i_lat":-6.160725},{"is_transit":false,"transit":false,"station_name":"Manggabesar","distance":906,"i_lat":-6.149769,"i_long":106.82482,"time":2,"line":2,"station_id":"MGB"},{"distance":1080,"is_transit":false,"transit":false,"line":2,"station_id":"JAY","i_lat":-6.141205,"i_long":106.820901,"station_name":"Jayakarta","time":2},{"transit":true,"line":2,"distance":1264,"i_long":106.812439,"station_name":"Jakarta Kota","station_id":"JAKK","is_transit":true,"time":4,"i_lat":-6.137569},{"station_name":"Kampung Bandan","is_transit":true,"i_long":106.826365,"i_lat":-6.132549,"time":3,"distance":1364,"line":4,"transit":true,"station_id":"KPB"},{"transit":false,"station_name":"Rajawali","time":3,"line":11,"distance":1444,"station_id":"RJW","is_transit":false,"i_lat":-6.14505,"i_long":106.836569},{"i_lat":-6.161728,"station_id":"KMO","time":5,"transit":false,"line":11,"is_transit":false,"station_name":"Kemayoran","distance":1901,"i_long":106.839204},{"time":4,"station_name":"Pasar Senen","station_id":"PSE","distance":1436,"transit":false,"is_transit":false,"line":11,"i_lat":-6.174784,"i_long":106.84368},{"station_id":"GST","station_name":"Gang Sentiong","is_transit":false,"transit":false,"time":8,"distance":1567,"line":11,"i_lat":-6.185975,"i_long":106.850107},{"station_name":"Kramat","i_lat":-6.193792,"time":1,"i_long":106.855437,"station_id":"KMT","distance":973,"line":11,"is_transit":false,"transit":false},{"station_name":"Pondok Jati","is_transit":false,"transit":false,"i_lat":-6.209188,"time":2,"station_id":"POK","distance":1829,"i_long":106.861737,"line":11},{"line":1,"is_transit":true,"station_id":"JNG","i_long":106.86807400000001,"transit":true,"distance":1236,"time":9,"station_name":"Jatinegara","i_lat":-6.215091},{"station_name":"Klender","i_long":106.899548,"is_transit":false,"transit":false,"station_id":"KLD","i_lat":-6.2135,"time":3,"line":1,"distance":3395},{"station_id":"BUA","distance":3100,"transit":false,"time":2,"i_long":106.922662,"is_transit":false,"line":1,"i_lat":-6.215568,"station_name":"Buaran"},{"i_lat":-6.217455,"time":1,"is_transit":false,"station_name":"Klenderbaru","station_id":"KLDB","transit":false,"distance":1305,"line":1,"i_long":106.939679}]]}