{"data":[[{"station_name":"Angke","i_lat":-6.144674,"is_transit":false,"transit":false,"distance":0,"line":1,"station_id":"AK","time":0,"i_long":106.79867},{"distance":4102,"i_lat":-6.132549,"transit":true,"station_name":"Kampung Bandan","is_transit":true,"i_long":106.826365,"time":9,"line":4,"station_id":"KPB"},{"is_transit":false,"i_long":106.836569,"transit":false,"i_lat":-6.14505,"distance":1444,"station_name":"Rajawali","line":11,"time":3,"station_id":"RJW"},{"line":11,"time":5,"station_name":"Kemayoran","is_transit":false,"i_lat":-6.161728,"transit":false,"i_long":106.839204,"station_id":"KMO","distance":1901},{"station_id":"PSE","is_transit":false,"distance":1436,"i_lat":-6.174784,"time":4,"i_long":106.84368,"transit":false,"station_name":"Pasar Senen","line":11},{"i_lat":-6.185975,"transit":false,"distance":1567,"line":11,"is_transit":false,"station_name":"Gang Sentiong","time":8,"station_id":"GST","i_long":106.850107},{"distance":973,"transit":false,"time":1,"station_name":"Kramat","i_lat":-6.193792,"i_long":106.855437,"line":11,"station_id":"KMT","is_transit":false}],[{"transit":false,"station_id":"AK","i_long":106.79867,"line":1,"i_lat":-6.144674,"is_transit":false,"time":0,"station_name":"Angke","distance":0},{"is_transit":false,"distance":1230,"line":1,"transit":false,"station_id":"DU","station_name":"Duri","time":4,"i_lat":-6.155215,"i_long":106.800832},{"line":1,"station_id":"THB","transit":false,"station_name":"Tanah Abang","i_lat":-6.185545,"is_transit":false,"i_long":106.811091,"time":8,"distance":3632},{"i_long":106.816351,"time":5,"distance":2029,"i_lat":-6.20132,"line":1,"station_id":"KAT","transit":false,"station_name":"Karet","is_transit":false},{"is_transit":false,"i_long":106.819881,"time":1,"transit":false,"distance":471,"i_lat":-6.201433,"station_id":"SUDB","line":1,"station_name":"Sudirman Baru"},{"line":1,"transit":false,"station_id":"SUD","time":1,"station_name":"Sudirman","distance":280,"i_long":106.822649,"is_transit":false,"i_lat":-6.202263},{"line":2,"transit":false,"time":4,"i_long":106.84912,"is_transit":false,"station_name":"Manggarai","i_lat":-6.209883,"station_id":"MRI","distance":3186},{"station_id":"MTR","is_transit":false,"i_lat":-6.212485,"line":1,"time":2,"i_long":106.858896,"distance":1275,"station_name":"Matraman","transit":false},{"i_lat":-6.215091,"is_transit":true,"time":8,"distance":1377,"station_name":"Jatinegara","station_id":"JNG","transit":true,"i_long":106.86807400000001,"line":1},{"line":11,"distance":1236,"i_long":106.861737,"transit":false,"is_transit":false,"time":2,"station_name":"Pondok Jati","station_id":"POK","i_lat":-6.209188},{"i_lat":-6.193792,"is_transit":false,"time":2,"i_long":106.855437,"line":11,"transit":false,"station_name":"Kramat","distance":1829,"station_id":"KMT"}],[{"line":1,"station_id":"AK","i_long":106.79867,"distance":0,"transit":false,"time":0,"i_lat":-6.144674,"is_transit":false,"station_name":"Angke"},{"station_id":"KPB","distance":4102,"transit":true,"station_name":"Kampung Bandan","time":9,"i_lat":-6.132549,"i_long":106.826365,"line":4,"is_transit":true},{"distance":1364,"station_id":"JAKK","is_transit":true,"i_lat":-6.137569,"station_name":"Jakarta Kota","time":3,"i_long":106.812439,"transit":true,"line":2},{"transit":false,"distance":1264,"i_lat":-6.141205,"i_long":106.820901,"station_id":"JAY","station_name":"Jayakarta","line":2,"time":4,"is_transit":false},{"station_name":"Manggabesar","transit":false,"time":2,"is_transit":false,"distance":1080,"i_lat":-6.149769,"station_id":"MGB","line":2,"i_long":106.82482},{"i_lat":-6.160725,"line":2,"transit":false,"i_long":106.827103,"station_name":"Sawah Besar","distance":906,"time":2,"is_transit":false,"station_id":"SW"},{"i_lat":-6.166716,"line":2,"time":2,"distance":1149,"transit":false,"is_transit":false,"station_id":"JUA","station_name":"Juanda","i_long":106.828284},{"station_id":"GDD","distance":2015,"i_lat":-6.186295,"line":2,"time":4,"is_transit":false,"transit":false,"station_name":"Gondangdia","i_long":106.832183},{"line":2,"is_transit":false,"transit":false,"i_long":106.840169,"i_lat":-6.198556,"time":3,"distance":1750,"station_name":"Cikini","station_id":"CKI"},{"time":4,"distance":1590,"is_transit":true,"station_id":"MRI","i_lat":-6.209883,"transit":true,"line":2,"station_name":"Manggarai","i_long":106.84912},{"is_transit":false,"transit":false,"station_id":"MTR","i_lat":-6.212485,"line":1,"distance":1275,"i_long":106.858896,"time":2,"station_name":"Matraman"},{"time":8,"station_name":"Jatinegara","line":1,"station_id":"JNG","distance":1377,"transit":true,"is_transit":true,"i_lat":-6.215091,"i_long":106.86807400000001},{"transit":false,"distance":1236,"i_lat":-6.209188,"time":2,"station_name":"Pondok Jati","station_id":"POK","line":11,"is_transit":false,"i_long":106.861737},{"is_transit":false,"i_lat":-6.193792,"line":11,"transit":false,"distance":1829,"station_id":"KMT","station_name":"Kramat","i_long":106.855437,"time":2}],[{"line":1,"station_name":"Angke","i_long":106.79867,"i_lat":-6.144674,"station_id":"AK","is_transit":false,"transit":false,"distance":0,"time":0},{"is_transit":false,"distance":1230,"transit":false,"station_name":"Duri","line":1,"station_id":"DU","time":4,"i_long":106.800832,"i_lat":-6.155215},{"line":1,"is_transit":false,"distance":3632,"i_long":106.811091,"i_lat":-6.185545,"time":8,"station_name":"Tanah Abang","station_id":"THB","transit":false},{"transit":false,"station_id":"KAT","time":5,"i_lat":-6.20132,"station_name":"Karet","distance":2029,"i_long":106.816351,"is_transit":false,"line":1},{"transit":false,"i_lat":-6.201433,"distance":471,"station_id":"SUDB","i_long":106.819881,"line":1,"station_name":"Sudirman Baru","time":1,"is_transit":false},{"transit":false,"station_name":"Sudirman","is_transit":false,"line":1,"station_id":"SUD","distance":280,"i_lat":-6.202263,"i_long":106.822649,"time":1},{"station_id":"MRI","i_lat":-6.209883,"i_long":106.84912,"time":4,"line":2,"transit":true,"distance":3186,"is_transit":true,"station_name":"Manggarai"},{"station_name":"Cikini","distance":1590,"line":2,"transit":false,"is_transit":false,"time":4,"station_id":"CKI","i_lat":-6.198556,"i_long":106.840169},{"station_name":"Gondangdia","line":2,"transit":false,"time":3,"station_id":"GDD","is_transit":false,"i_long":106.832183,"distance":1750,"i_lat":-6.186295},{"station_name":"Juanda","distance":2015,"time":4,"transit":false,"is_transit":false,"i_lat":-6.166716,"line":2,"i_long":106.828284,"station_id":"JUA"},{"distance":1149,"i_long":106.827103,"time":2,"transit":false,"is_transit":false,"station_name":"Sawah Besar","station_id":"SW","i_lat":-6.160725,"line":2},{"transit":false,"station_id":"MGB","station_name":"Manggabesar","distance":906,"is_transit":false,"i_lat":-6.149769,"line":2,"time":2,"i_long":106.82482},{"i_long":106.820901,"station_name":"Jayakarta","line":2,"is_transit":false,"i_lat":-6.141205,"transit":false,"station_id":"JAY","time":2,"distance":1080},{"i_long":106.812439,"i_lat":-6.137569,"distance":1264,"transit":true,"station_id":"JAKK","is_transit":true,"line":2,"station_name":"Jakarta Kota","time":4},{"distance":1364,"transit":true,"i_long":106.826365,"line":4,"station_id":"KPB","is_transit":true,"i_lat":-6.132549,"station_name":"Kampung Bandan","time":3},{"distance":1444,"station_name":"Rajawali","is_transit":false,"time":3,"station_id":"RJW","i_long":106.836569,"i_lat":-6.14505,"line":11,"transit":false},{"i_long":106.839204,"station_id":"KMO","station_name":"Kemayoran","is_transit":false,"time":5,"distance":1901,"line":11,"transit":false,"i_lat":-6.161728},{"transit":false,"station_name":"Pasar Senen","time":4,"distance":1436,"station_id":"PSE","i_lat":-6.174784,"i_long":106.84368,"is_transit":false,"line":11},{"i_lat":-6.185975,"line":11,"time":8,"transit":false,"i_long":106.850107,"station_name":"Gang Sentiong","is_transit":false,"distance":1567,"station_id":"GST"},{"is_transit":false,"transit":false,"line":11,"station_name":"Kramat","time":1,"i_lat":-6.193792,"i_long":106.855437,"station_id":"KMT","distance":973}]]}