{"data":[[{"is_transit":false,"station_id":"AK","i_lat":-6.144674,"line":1,"time":0,"station_name":"Angke","distance":0,"i_long":106.79867,"transit":false},{"time":9,"station_id":"KPB","i_long":106.826365,"line":4,"distance":4102,"station_name":"Kampung Bandan","transit":true,"is_transit":true,"i_lat":-6.132549},{"station_name":"Rajawali","i_long":106.836569,"distance":1444,"time":3,"i_lat":-6.14505,"is_transit":false,"transit":false,"line":11,"station_id":"RJW"},{"time":5,"line":11,"i_long":106.839204,"i_lat":-6.161728,"distance":1901,"station_name":"Kemayoran","station_id":"KMO","is_transit":false,"transit":false},{"station_id":"PSE","i_long":106.84368,"time":4,"transit":false,"distance":1436,"i_lat":-6.174784,"line":11,"station_name":"Pasar Senen","is_transit":false},{"station_name":"Gang Sentiong","is_transit":false,"time":8,"i_long":106.850107,"transit":false,"distance":1567,"i_lat":-6.185975,"line":11,"station_id":"GST"},{"station_name":"Kramat","station_id":"KMT","time":1,"line":11,"transit":false,"i_lat":-6.193792,"is_transit":false,"distance":973,"i_long":106.855437},{"transit":false,"station_id":"POK","is_transit":false,"distance":1829,"station_name":"Pondok Jati","i_lat":-6.209188,"time":2,"i_long":106.861737,"line":11},{"is_transit":true,"distance":1236,"transit":true,"station_id":"JNG","i_lat":-6.215091,"i_long":106.86807400000001,"station_name":"Jatinegara","time":9,"line":1},{"i_lat":-6.2135,"line":1,"time":3,"distance":3395,"i_long":106.899548,"station_id":"KLD","transit":false,"station_name":"Klender","is_transit":false},{"transit":false,"station_name":"Buaran","distance":3100,"line":1,"is_transit":false,"station_id":"BUA","time":2,"i_lat":-6.215568,"i_long":106.922662},{"station_name":"Klenderbaru","distance":1305,"is_transit":false,"time":1,"line":1,"transit":false,"station_id":"KLDB","i_long":106.939679,"i_lat":-6.217455}],[{"is_transit":false,"time":0,"i_lat":-6.144674,"station_name":"Angke","line":1,"station_id":"AK","distance":0,"i_long":106.79867,"transit":false},{"line":1,"transit":false,"station_id":"DU","station_name":"Duri","distance":1230,"time":4,"i_long":106.800832,"is_transit":false,"i_lat":-6.155215},{"station_id":"THB","station_name":"Tanah Abang","is_transit":false,"line":1,"transit":false,"time":8,"i_lat":-6.185545,"distance":3632,"i_long":106.811091},{"line":1,"transit":false,"station_id":"KAT","time":5,"distance":2029,"station_name":"Karet","i_long":106.816351,"i_lat":-6.20132,"is_transit":false},{"station_id":"SUDB","time":1,"i_lat":-6.201433,"distance":471,"i_long":106.819881,"is_transit":false,"station_name":"Sudirman Baru","line":1,"transit":false},{"station_name":"Sudirman","time":1,"is_transit":false,"transit":false,"station_id":"SUD","distance":280,"i_lat":-6.202263,"i_long":106.822649,"line":1},{"i_long":106.84912,"line":2,"station_id":"MRI","is_transit":false,"time":4,"station_name":"Manggarai","transit":false,"distance":3186,"i_lat":-6.209883},{"station_name":"Matraman","i_lat":-6.212485,"i_long":106.858896,"time":2,"transit":false,"line":1,"station_id":"MTR","distance":1275,"is_transit":false},{"time":8,"station_name":"Jatinegara","line":1,"distance":1377,"station_id":"JNG","is_transit":false,"i_long":106.86807400000001,"transit":false,"i_lat":-6.215091},{"i_lat":-6.2135,"time":3,"station_name":"Klender","distance":3395,"i_long":106.899548,"station_id":"KLD","line":1,"is_transit":false,"transit":false},{"distance":3100,"i_lat":-6.215568,"station_id":"BUA","station_name":"Buaran","is_transit":false,"line":1,"time":2,"i_long":106.922662,"transit":false},{"is_transit":false,"i_long":106.939679,"line":1,"i_lat":-6.217455,"time":1,"transit":false,"station_name":"Klenderbaru","distance":1305,"station_id":"KLDB"}],[{"i_lat":-6.144674,"transit":false,"station_name":"Angke","distance":0,"is_transit":false,"time":0,"i_long":106.79867,"station_id":"AK","line":1},{"i_long":106.826365,"i_lat":-6.132549,"station_id":"KPB","distance":4102,"transit":true,"station_name":"Kampung Bandan","is_transit":true,"time":9,"line":4},{"transit":true,"station_name":"Jakarta Kota","station_id":"JAKK","time":3,"i_lat":-6.137569,"line":2,"is_transit":true,"distance":1364,"i_long":106.812439},{"i_lat":-6.141205,"station_name":"Jayakarta","i_long":106.820901,"line":2,"time":4,"is_transit":false,"transit":false,"station_id":"JAY","distance":1264},{"distance":1080,"i_lat":-6.149769,"line":2,"i_long":106.82482,"station_id":"MGB","station_name":"Manggabesar","time":2,"transit":false,"is_transit":false},{"transit":false,"is_transit":false,"i_lat":-6.160725,"i_long":106.827103,"line":2,"station_id":"SW","station_name":"Sawah Besar","distance":906,"time":2},{"distance":1149,"station_id":"JUA","time":2,"transit":false,"i_lat":-6.166716,"i_long":106.828284,"station_name":"Juanda","is_transit":false,"line":2},{"i_lat":-6.186295,"line":2,"is_transit":false,"transit":false,"station_name":"Gondangdia","station_id":"GDD","distance":2015,"i_long":106.832183,"time":4},{"i_long":106.840169,"station_name":"Cikini","distance":1750,"time":3,"line":2,"transit":false,"is_transit":false,"station_id":"CKI","i_lat":-6.198556},{"time":4,"i_lat":-6.209883,"is_transit":true,"i_long":106.84912,"station_id":"MRI","distance":1590,"transit":true,"line":2,"station_name":"Manggarai"},{"is_transit":false,"station_name":"Matraman","i_long":106.858896,"distance":1275,"i_lat":-6.212485,"line":1,"transit":false,"time":2,"station_id":"MTR"},{"is_transit":false,"station_id":"JNG","transit":false,"station_name":"Jatinegara","line":1,"distance":1377,"time":8,"i_long":106.86807400000001,"i_lat":-6.215091},{"station_name":"Klender","distance":3395,"is_transit":false,"i_long":106.899548,"station_id":"KLD","i_lat":-6.2135,"transit":false,"time":3,"line":1},{"distance":3100,"i_lat":-6.215568,"line":1,"station_id":"BUA","station_name":"Buaran","is_transit":false,"time":2,"transit":false,"i_long":106.922662},{"i_long":106.939679,"transit":false,"station_name":"Klenderbaru","time":1,"is_transit":false,"station_id":"KLDB","i_lat":-6.217455,"line":1,"distance":1305}],[{"distance":0,"transit":false,"i_long":106.79867,"is_transit":false,"station_name":"Angke","station_id":"AK","line":1,"i_lat":-6.144674,"time":0},{"is_transit":false,"time":4,"transit":false,"station_name":"Duri","distance":1230,"i_lat":-6.155215,"i_long":106.800832,"line":1,"station_id":"DU"},{"line":1,"station_name":"Tanah Abang","distance":3632,"transit":false,"time":8,"i_lat":-6.185545,"i_long":106.811091,"station_id":"THB","is_transit":false},{"is_transit":false,"station_name":"Karet","transit":false,"station_id":"KAT","distance":2029,"i_lat":-6.20132,"i_long":106.816351,"time":5,"line":1},{"i_long":106.819881,"time":1,"i_lat":-6.201433,"line":1,"station_id":"SUDB","station_name":"Sudirman Baru","transit":false,"is_transit":false,"distance":471},{"station_id":"SUD","time":1,"i_long":106.822649,"distance":280,"station_name":"Sudirman","transit":false,"is_transit":false,"i_lat":-6.202263,"line":1},{"station_name":"Manggarai","time":4,"transit":true,"line":2,"distance":3186,"i_long":106.84912,"i_lat":-6.209883,"station_id":"MRI","is_transit":true},{"i_long":106.840169,"station_name":"Cikini","line":2,"station_id":"CKI","time":4,"distance":1590,"transit":false,"is_transit":false,"i_lat":-6.198556},{"station_name":"Gondangdia","is_transit":false,"i_long":106.832183,"station_id":"GDD","line":2,"transit":false,"time":3,"distance":1750,"i_lat":-6.186295},{"line":2,"transit":false,"is_transit":false,"i_long":106.828284,"time":4,"station_id":"JUA","i_lat":-6.166716,"station_name":"Juanda","distance":2015},{"transit":false,"station_name":"Sawah Besar","i_lat":-6.160725,"i_long":106.827103,"line":2,"distance":1149,"station_id":"SW","time":2,"is_transit":false},{"i_long":106.82482,"line":2,"station_id":"MGB","time":2,"distance":906,"i_lat":-6.149769,"transit":false,"is_transit":false,"station_name":"Manggabesar"},{"line":2,"distance":1080,"time":2,"i_lat":-6.141205,"station_id":"JAY","is_transit":false,"i_long":106.820901,"transit":false,"station_name":"Jayakarta"},{"is_transit":true,"station_name":"Jakarta Kota","i_long":106.812439,"time":4,"line":2,"i_lat":-6.137569,"transit":true,"distance":1264,"station_id":"JAKK"},{"i_lat":-6.132549,"time":3,"transit":true,"station_id":"KPB","is_transit":true,"station_name":"Kampung Bandan","i_long":106.826365,"distance":1364,"line":4},{"distance":1444,"line":11,"is_transit":false,"i_lat":-6.14505,"transit":false,"i_long":106.836569,"time":3,"station_name":"Rajawali","station_id":"RJW"},{"station_name":"Kemayoran","line":11,"distance":1901,"i_lat":-6.161728,"station_id":"KMO","is_transit":false,"transit":false,"time":5,"i_long":106.839204},{"is_transit":false,"station_name":"Pasar Senen","i_lat":-6.174784,"line":11,"transit":false,"station_id":"PSE","i_long":106.84368,"time":4,"distance":1436},{"i_long":106.850107,"station_id":"GST","line":11,"station_name":"Gang Sentiong","is_transit":false,"time":8,"distance":1567,"i_lat":-6.185975,"transit":false},{"station_name":"Kramat","line":11,"time":1,"station_id":"KMT","i_lat":-6.193792,"transit":false,"is_transit":false,"i_long":106.855437,"distance":973},{"transit":false,"line":11,"station_name":"Pondok Jati","i_long":106.861737,"i_lat":-6.209188,"is_transit":false,"time":2,"station_id":"POK","distance":1829},{"transit":true,"station_id":"JNG","is_transit":true,"station_name":"Jatinegara","time":9,"distance":1236,"i_lat":-6.215091,"line":1,"i_long":106.86807400000001},{"time":3,"transit":false,"i_long":106.899548,"i_lat":-6.2135,"station_name":"Klender","is_transit":false,"station_id":"KLD","distance":3395,"line":1},{"is_transit":false,"transit":false,"station_name":"Buaran","i_lat":-6.215568,"line":1,"station_id":"BUA","time":2,"distance":3100,"i_long":106.922662},{"transit":false,"time":1,"station_name":"Klenderbaru","distance":1305,"i_lat":-6.217455,"i_long":106.939679,"line":1,"is_transit":false,"station_id":"KLDB"}]]}