{"data":[[{"transit":false,"time":0,"line":1,"station_name":"Angke","i_lat":-6.144674,"i_long":106.79867,"station_id":"AK","is_transit":false,"distance":0},{"time":9,"distance":4102,"station_id":"KPB","station_name":"Kampung Bandan","is_transit":true,"line":4,"i_lat":-6.132549,"i_long":106.826365,"transit":true},{"i_lat":-6.14505,"distance":1444,"time":3,"is_transit":false,"line":11,"station_name":"Rajawali","i_long":106.836569,"station_id":"RJW","transit":false},{"line":11,"station_id":"KMO","time":5,"transit":false,"i_lat":-6.161728,"is_transit":false,"distance":1901,"i_long":106.839204,"station_name":"Kemayoran"},{"i_lat":-6.174784,"station_name":"Pasar Senen","i_long":106.84368,"transit":false,"line":11,"distance":1436,"is_transit":false,"time":4,"station_id":"PSE"},{"is_transit":false,"station_id":"GST","i_long":106.850107,"transit":false,"station_name":"Gang Sentiong","line":11,"time":8,"distance":1567,"i_lat":-6.185975},{"distance":973,"transit":false,"is_transit":false,"station_id":"KMT","i_long":106.855437,"line":11,"i_lat":-6.193792,"station_name":"Kramat","time":1},{"line":11,"station_id":"POK","distance":1829,"time":2,"i_long":106.861737,"station_name":"Pondok Jati","is_transit":false,"i_lat":-6.209188,"transit":false},{"transit":true,"station_id":"JNG","is_transit":true,"time":9,"i_long":106.86807400000001,"station_name":"Jatinegara","i_lat":-6.215091,"line":1,"distance":1236},{"is_transit":false,"i_long":106.899548,"station_id":"KLD","transit":false,"distance":3395,"i_lat":-6.2135,"station_name":"Klender","time":3,"line":1}],[{"time":0,"distance":0,"line":1,"station_id":"AK","station_name":"Angke","transit":false,"is_transit":false,"i_lat":-6.144674,"i_long":106.79867},{"i_long":106.800832,"line":1,"i_lat":-6.155215,"is_transit":false,"distance":1230,"station_id":"DU","station_name":"Duri","transit":false,"time":4},{"station_name":"Tanah Abang","transit":false,"distance":3632,"time":8,"is_transit":false,"i_lat":-6.185545,"i_long":106.811091,"station_id":"THB","line":1},{"station_id":"KAT","is_transit":false,"i_lat":-6.20132,"distance":2029,"time":5,"line":1,"transit":false,"i_long":106.816351,"station_name":"Karet"},{"is_transit":false,"station_id":"SUDB","i_long":106.819881,"line":1,"transit":false,"distance":471,"station_name":"Sudirman Baru","time":1,"i_lat":-6.201433},{"distance":280,"i_long":106.822649,"station_name":"Sudirman","station_id":"SUD","is_transit":false,"time":1,"line":1,"transit":false,"i_lat":-6.202263},{"station_name":"Manggarai","distance":3186,"i_long":106.84912,"station_id":"MRI","i_lat":-6.209883,"line":2,"transit":false,"time":4,"is_transit":false},{"is_transit":false,"time":2,"distance":1275,"i_lat":-6.212485,"line":1,"station_id":"MTR","transit":false,"station_name":"Matraman","i_long":106.858896},{"line":1,"station_id":"JNG","is_transit":false,"distance":1377,"station_name":"Jatinegara","transit":false,"i_lat":-6.215091,"time":8,"i_long":106.86807400000001},{"station_id":"KLD","station_name":"Klender","is_transit":false,"line":1,"distance":3395,"time":3,"i_long":106.899548,"transit":false,"i_lat":-6.2135}],[{"is_transit":false,"transit":false,"distance":0,"line":1,"station_name":"Angke","station_id":"AK","i_lat":-6.144674,"i_long":106.79867,"time":0},{"station_name":"Kampung Bandan","i_lat":-6.132549,"station_id":"KPB","is_transit":true,"transit":true,"time":9,"i_long":106.826365,"distance":4102,"line":4},{"line":2,"i_lat":-6.137569,"station_id":"JAKK","time":3,"distance":1364,"station_name":"Jakarta Kota","is_transit":true,"i_long":106.812439,"transit":true},{"time":4,"is_transit":false,"i_long":106.820901,"station_id":"JAY","distance":1264,"i_lat":-6.141205,"line":2,"transit":false,"station_name":"Jayakarta"},{"i_long":106.82482,"is_transit":false,"time":2,"station_name":"Manggabesar","distance":1080,"i_lat":-6.149769,"station_id":"MGB","line":2,"transit":false},{"line":2,"i_long":106.827103,"distance":906,"station_id":"SW","station_name":"Sawah Besar","transit":false,"is_transit":false,"i_lat":-6.160725,"time":2},{"i_lat":-6.166716,"transit":false,"distance":1149,"station_id":"JUA","line":2,"station_name":"Juanda","i_long":106.828284,"is_transit":false,"time":2},{"station_id":"GDD","i_long":106.832183,"is_transit":false,"transit":false,"distance":2015,"station_name":"Gondangdia","time":4,"line":2,"i_lat":-6.186295},{"is_transit":false,"line":2,"time":3,"transit":false,"station_id":"CKI","distance":1750,"i_lat":-6.198556,"i_long":106.840169,"station_name":"Cikini"},{"transit":true,"station_name":"Manggarai","i_lat":-6.209883,"time":4,"line":2,"is_transit":true,"distance":1590,"station_id":"MRI","i_long":106.84912},{"transit":false,"station_id":"MTR","is_transit":false,"time":2,"distance":1275,"station_name":"Matraman","i_lat":-6.212485,"i_long":106.858896,"line":1},{"station_name":"Jatinegara","transit":false,"time":8,"station_id":"JNG","distance":1377,"i_lat":-6.215091,"i_long":106.86807400000001,"is_transit":false,"line":1},{"station_id":"KLD","transit":false,"i_long":106.899548,"is_transit":false,"i_lat":-6.2135,"time":3,"line":1,"distance":3395,"station_name":"Klender"}],[{"i_lat":-6.144674,"i_long":106.79867,"station_name":"Angke","transit":false,"is_transit":false,"line":1,"time":0,"station_id":"AK","distance":0},{"time":4,"i_long":106.800832,"transit":false,"is_transit":false,"line":1,"station_name":"Duri","station_id":"DU","i_lat":-6.155215,"distance":1230},{"is_transit":false,"line":1,"distance":3632,"i_lat":-6.185545,"station_id":"THB","station_name":"Tanah Abang","time":8,"transit":false,"i_long":106.811091},{"i_long":106.816351,"i_lat":-6.20132,"distance":2029,"station_id":"KAT","transit":false,"line":1,"is_transit":false,"station_name":"Karet","time":5},{"distance":471,"station_name":"Sudirman Baru","is_transit":false,"i_long":106.819881,"time":1,"station_id":"SUDB","i_lat":-6.201433,"line":1,"transit":false},{"line":1,"station_name":"Sudirman","station_id":"SUD","is_transit":false,"transit":false,"time":1,"distance":280,"i_long":106.822649,"i_lat":-6.202263},{"line":2,"station_id":"MRI","distance":3186,"i_lat":-6.209883,"is_transit":true,"time":4,"i_long":106.84912,"station_name":"Manggarai","transit":true},{"distance":1590,"i_long":106.840169,"is_transit":false,"i_lat":-6.198556,"line":2,"transit":false,"station_id":"CKI","time":4,"station_name":"Cikini"},{"i_lat":-6.186295,"line":2,"distance":1750,"time":3,"is_transit":false,"station_name":"Gondangdia","station_id":"GDD","i_long":106.832183,"transit":false},{"line":2,"i_long":106.828284,"transit":false,"time":4,"distance":2015,"station_id":"JUA","i_lat":-6.166716,"station_name":"Juanda","is_transit":false},{"line":2,"time":2,"transit":false,"is_transit":false,"i_lat":-6.160725,"station_id":"SW","station_name":"Sawah Besar","i_long":106.827103,"distance":1149},{"transit":false,"line":2,"station_name":"Manggabesar","time":2,"i_long":106.82482,"distance":906,"i_lat":-6.149769,"station_id":"MGB","is_transit":false},{"i_long":106.820901,"line":2,"distance":1080,"station_name":"Jayakarta","transit":false,"station_id":"JAY","time":2,"i_lat":-6.141205,"is_transit":false},{"i_lat":-6.137569,"distance":1264,"station_name":"Jakarta Kota","station_id":"JAKK","is_transit":true,"transit":true,"time":4,"i_long":106.812439,"line":2},{"i_lat":-6.132549,"station_name":"Kampung Bandan","distance":1364,"transit":true,"station_id":"KPB","is_transit":true,"time":3,"line":4,"i_long":106.826365},{"transit":false,"line":11,"time":3,"is_transit":false,"station_id":"RJW","distance":1444,"i_long":106.836569,"station_name":"Rajawali","i_lat":-6.14505},{"transit":false,"i_long":106.839204,"station_name":"Kemayoran","i_lat":-6.161728,"line":11,"station_id":"KMO","time":5,"is_transit":false,"distance":1901},{"i_long":106.84368,"line":11,"distance":1436,"is_transit":false,"transit":false,"station_id":"PSE","i_lat":-6.174784,"station_name":"Pasar Senen","time":4},{"is_transit":false,"distance":1567,"station_id":"GST","station_name":"Gang Sentiong","time":8,"i_lat":-6.185975,"transit":false,"i_long":106.850107,"line":11},{"time":1,"distance":973,"station_name":"Kramat","station_id":"KMT","i_lat":-6.193792,"is_transit":false,"i_long":106.855437,"line":11,"transit":false},{"is_transit":false,"distance":1829,"i_lat":-6.209188,"i_long":106.861737,"time":2,"transit":false,"station_name":"Pondok Jati","station_id":"POK","line":11},{"i_long":106.86807400000001,"time":9,"transit":true,"station_id":"JNG","distance":1236,"station_name":"Jatinegara","i_lat":-6.215091,"line":1,"is_transit":true},{"line":1,"is_transit":false,"time":3,"distance":3395,"transit":false,"i_lat":-6.2135,"station_name":"Klender","station_id":"KLD","i_long":106.899548}]]}