{"data":[[{"distance":0,"time":0,"transit":false,"station_name":"Angke","station_id":"AK","i_lat":-6.144674,"line":1,"i_long":106.79867,"is_transit":false},{"station_id":"KPB","distance":4102,"station_name":"Kampung Bandan","time":9,"is_transit":true,"transit":true,"i_lat":-6.132549,"line":4,"i_long":106.826365},{"station_id":"RJW","i_lat":-6.14505,"i_long":106.836569,"is_transit":false,"transit":false,"time":3,"distance":1444,"line":11,"station_name":"Rajawali"},{"time":5,"i_long":106.839204,"line":11,"i_lat":-6.161728,"station_id":"KMO","is_transit":false,"distance":1901,"transit":false,"station_name":"Kemayoran"},{"distance":1436,"i_lat":-6.174784,"i_long":106.84368,"is_transit":false,"transit":false,"station_id":"PSE","time":4,"line":11,"station_name":"Pasar Senen"},{"i_long":106.850107,"station_id":"GST","station_name":"Gang Sentiong","distance":1567,"line":11,"time":8,"i_lat":-6.185975,"is_transit":false,"transit":false},{"time":1,"station_name":"Kramat","station_id":"KMT","line":11,"distance":973,"transit":false,"i_lat":-6.193792,"is_transit":false,"i_long":106.855437}],[{"transit":false,"station_id":"AK","station_name":"Angke","line":1,"is_transit":false,"i_long":106.79867,"time":0,"distance":0,"i_lat":-6.144674},{"i_lat":-6.155215,"is_transit":false,"line":1,"transit":false,"station_name":"Duri","station_id":"DU","time":4,"distance":1230,"i_long":106.800832},{"time":8,"i_long":106.811091,"is_transit":false,"line":1,"distance":3632,"station_name":"Tanah Abang","station_id":"THB","i_lat":-6.185545,"transit":false},{"station_name":"Karet","time":5,"i_long":106.816351,"line":1,"i_lat":-6.20132,"distance":2029,"is_transit":false,"station_id":"KAT","transit":false},{"station_id":"SUDB","distance":471,"transit":false,"time":1,"i_lat":-6.201433,"is_transit":false,"i_long":106.819881,"line":1,"station_name":"Sudirman Baru"},{"transit":false,"is_transit":false,"time":1,"i_long":106.822649,"line":1,"distance":280,"station_name":"Sudirman","station_id":"SUD","i_lat":-6.202263},{"is_transit":false,"station_id":"MRI","time":4,"line":2,"transit":false,"i_long":106.84912,"station_name":"Manggarai","i_lat":-6.209883,"distance":3186},{"i_long":106.858896,"distance":1275,"is_transit":false,"time":2,"station_name":"Matraman","transit":false,"i_lat":-6.212485,"line":1,"station_id":"MTR"},{"i_lat":-6.215091,"i_long":106.86807400000001,"line":1,"station_id":"JNG","station_name":"Jatinegara","distance":1377,"transit":true,"is_transit":true,"time":8},{"i_long":106.861737,"transit":false,"station_id":"POK","station_name":"Pondok Jati","time":2,"i_lat":-6.209188,"line":11,"distance":1236,"is_transit":false},{"time":2,"is_transit":false,"i_long":106.855437,"line":11,"distance":1829,"i_lat":-6.193792,"station_id":"KMT","station_name":"Kramat","transit":false}],[{"i_lat":-6.144674,"is_transit":false,"distance":0,"time":0,"station_id":"AK","line":1,"station_name":"Angke","i_long":106.79867,"transit":false},{"is_transit":true,"line":4,"i_long":106.826365,"distance":4102,"i_lat":-6.132549,"transit":true,"station_id":"KPB","station_name":"Kampung Bandan","time":9},{"line":2,"time":3,"is_transit":true,"distance":1364,"station_name":"Jakarta Kota","i_lat":-6.137569,"i_long":106.812439,"station_id":"JAKK","transit":true},{"distance":1264,"time":4,"station_name":"Jayakarta","i_long":106.820901,"transit":false,"station_id":"JAY","is_transit":false,"i_lat":-6.141205,"line":2},{"station_id":"MGB","is_transit":false,"time":2,"distance":1080,"i_long":106.82482,"transit":false,"station_name":"Manggabesar","line":2,"i_lat":-6.149769},{"distance":906,"i_long":106.827103,"transit":false,"station_id":"SW","time":2,"is_transit":false,"i_lat":-6.160725,"line":2,"station_name":"Sawah Besar"},{"station_id":"JUA","is_transit":false,"i_long":106.828284,"transit":false,"station_name":"Juanda","line":2,"time":2,"distance":1149,"i_lat":-6.166716},{"is_transit":false,"station_id":"GDD","transit":false,"i_lat":-6.186295,"time":4,"station_name":"Gondangdia","distance":2015,"i_long":106.832183,"line":2},{"time":3,"distance":1750,"i_lat":-6.198556,"transit":false,"is_transit":false,"station_id":"CKI","i_long":106.840169,"station_name":"Cikini","line":2},{"station_id":"MRI","time":4,"is_transit":true,"transit":true,"distance":1590,"i_long":106.84912,"line":2,"station_name":"Manggarai","i_lat":-6.209883},{"distance":1275,"station_id":"MTR","station_name":"Matraman","i_long":106.858896,"is_transit":false,"transit":false,"i_lat":-6.212485,"time":2,"line":1},{"i_lat":-6.215091,"is_transit":true,"time":8,"i_long":106.86807400000001,"line":1,"station_id":"JNG","transit":true,"station_name":"Jatinegara","distance":1377},{"is_transit":false,"station_name":"Pondok Jati","i_lat":-6.209188,"transit":false,"line":11,"station_id":"POK","i_long":106.861737,"distance":1236,"time":2},{"transit":false,"is_transit":false,"i_lat":-6.193792,"line":11,"distance":1829,"station_name":"Kramat","time":2,"station_id":"KMT","i_long":106.855437}],[{"time":0,"distance":0,"line":1,"station_id":"AK","station_name":"Angke","transit":false,"i_lat":-6.144674,"is_transit":false,"i_long":106.79867},{"line":1,"transit":false,"station_name":"Duri","is_transit":false,"station_id":"DU","i_long":106.800832,"distance":1230,"i_lat":-6.155215,"time":4},{"i_lat":-6.185545,"line":1,"time":8,"distance":3632,"i_long":106.811091,"station_name":"Tanah Abang","station_id":"THB","transit":false,"is_transit":false},{"transit":false,"i_long":106.816351,"is_transit":false,"distance":2029,"station_id":"KAT","station_name":"Karet","time":5,"line":1,"i_lat":-6.20132},{"transit":false,"i_long":106.819881,"line":1,"is_transit":false,"time":1,"i_lat":-6.201433,"station_id":"SUDB","station_name":"Sudirman Baru","distance":471},{"station_id":"SUD","distance":280,"is_transit":false,"transit":false,"i_lat":-6.202263,"line":1,"i_long":106.822649,"station_name":"Sudirman","time":1},{"time":4,"line":2,"i_lat":-6.209883,"i_long":106.84912,"station_name":"Manggarai","distance":3186,"transit":true,"station_id":"MRI","is_transit":true},{"i_lat":-6.198556,"time":4,"transit":false,"station_name":"Cikini","i_long":106.840169,"is_transit":false,"distance":1590,"line":2,"station_id":"CKI"},{"distance":1750,"station_id":"GDD","i_long":106.832183,"station_name":"Gondangdia","is_transit":false,"transit":false,"time":3,"i_lat":-6.186295,"line":2},{"is_transit":false,"line":2,"transit":false,"distance":2015,"station_id":"JUA","i_lat":-6.166716,"i_long":106.828284,"station_name":"Juanda","time":4},{"time":2,"station_name":"Sawah Besar","i_lat":-6.160725,"distance":1149,"line":2,"station_id":"SW","is_transit":false,"transit":false,"i_long":106.827103},{"transit":false,"time":2,"is_transit":false,"station_name":"Manggabesar","station_id":"MGB","i_long":106.82482,"line":2,"distance":906,"i_lat":-6.149769},{"time":2,"transit":false,"line":2,"distance":1080,"i_lat":-6.141205,"station_id":"JAY","station_name":"Jayakarta","i_long":106.820901,"is_transit":false},{"transit":true,"station_id":"JAKK","is_transit":true,"line":2,"distance":1264,"i_lat":-6.137569,"i_long":106.812439,"station_name":"Jakarta Kota","time":4},{"transit":true,"i_long":106.826365,"distance":1364,"time":3,"station_name":"Kampung Bandan","is_transit":true,"line":4,"i_lat":-6.132549,"station_id":"KPB"},{"station_id":"RJW","is_transit":false,"time":3,"i_lat":-6.14505,"distance":1444,"line":11,"station_name":"Rajawali","i_long":106.836569,"transit":false},{"time":5,"i_lat":-6.161728,"station_id":"KMO","line":11,"transit":false,"is_transit":false,"distance":1901,"station_name":"Kemayoran","i_long":106.839204},{"time":4,"is_transit":false,"station_name":"Pasar Senen","station_id":"PSE","i_long":106.84368,"transit":false,"line":11,"i_lat":-6.174784,"distance":1436},{"station_id":"GST","is_transit":false,"time":8,"station_name":"Gang Sentiong","i_lat":-6.185975,"transit":false,"i_long":106.850107,"line":11,"distance":1567},{"distance":973,"is_transit":false,"i_long":106.855437,"station_id":"KMT","line":11,"time":1,"station_name":"Kramat","i_lat":-6.193792,"transit":false}]]}