{"data":[[{"i_long":106.79867,"is_transit":false,"line":1,"station_name":"Angke","transit":false,"station_id":"AK","time":0,"distance":0,"i_lat":-6.144674},{"station_name":"Kampung Bandan","station_id":"KPB","is_transit":true,"distance":4102,"i_lat":-6.132549,"i_long":106.826365,"line":4,"transit":true,"time":9},{"is_transit":false,"station_name":"Rajawali","distance":1444,"station_id":"RJW","transit":false,"i_lat":-6.14505,"line":11,"time":3,"i_long":106.836569},{"i_lat":-6.161728,"time":5,"transit":false,"distance":1901,"is_transit":false,"station_id":"KMO","station_name":"Kemayoran","i_long":106.839204,"line":11},{"is_transit":false,"distance":1436,"i_long":106.84368,"line":11,"station_id":"PSE","station_name":"Pasar Senen","transit":false,"time":4,"i_lat":-6.174784},{"i_lat":-6.185975,"station_id":"GST","line":11,"is_transit":false,"transit":false,"distance":1567,"time":8,"i_long":106.850107,"station_name":"Gang Sentiong"},{"transit":false,"station_name":"Kramat","i_lat":-6.193792,"distance":973,"is_transit":false,"time":1,"station_id":"KMT","i_long":106.855437,"line":11}],[{"is_transit":false,"transit":false,"i_long":106.79867,"time":0,"station_name":"Angke","station_id":"AK","distance":0,"i_lat":-6.144674,"line":1},{"is_transit":false,"station_name":"Duri","transit":false,"i_lat":-6.155215,"i_long":106.800832,"distance":1230,"line":1,"station_id":"DU","time":4},{"i_lat":-6.185545,"station_id":"THB","i_long":106.811091,"transit":false,"line":1,"station_name":"Tanah Abang","time":8,"distance":3632,"is_transit":false},{"station_id":"KAT","transit":false,"line":1,"i_lat":-6.20132,"is_transit":false,"time":5,"station_name":"Karet","distance":2029,"i_long":106.816351},{"station_name":"Sudirman Baru","time":1,"i_lat":-6.201433,"station_id":"SUDB","i_long":106.819881,"line":1,"distance":471,"transit":false,"is_transit":false},{"time":1,"station_name":"Sudirman","transit":false,"line":1,"distance":280,"station_id":"SUD","i_long":106.822649,"is_transit":false,"i_lat":-6.202263},{"station_id":"MRI","i_lat":-6.209883,"line":2,"distance":3186,"time":4,"i_long":106.84912,"is_transit":false,"transit":false,"station_name":"Manggarai"},{"is_transit":false,"station_id":"MTR","transit":false,"i_long":106.858896,"station_name":"Matraman","time":2,"line":1,"distance":1275,"i_lat":-6.212485},{"time":8,"station_id":"JNG","line":1,"i_lat":-6.215091,"i_long":106.86807400000001,"station_name":"Jatinegara","is_transit":true,"transit":true,"distance":1377},{"transit":false,"is_transit":false,"time":2,"distance":1236,"station_id":"POK","i_lat":-6.209188,"i_long":106.861737,"line":11,"station_name":"Pondok Jati"},{"station_id":"KMT","distance":1829,"transit":false,"i_lat":-6.193792,"station_name":"Kramat","i_long":106.855437,"time":2,"line":11,"is_transit":false}],[{"distance":0,"station_id":"AK","i_long":106.79867,"is_transit":false,"station_name":"Angke","i_lat":-6.144674,"transit":false,"line":1,"time":0},{"line":4,"station_name":"Kampung Bandan","transit":true,"distance":4102,"station_id":"KPB","i_long":106.826365,"time":9,"is_transit":true,"i_lat":-6.132549},{"transit":true,"station_id":"JAKK","time":3,"station_name":"Jakarta Kota","is_transit":true,"line":2,"i_long":106.812439,"distance":1364,"i_lat":-6.137569},{"i_lat":-6.141205,"distance":1264,"time":4,"i_long":106.820901,"is_transit":false,"transit":false,"station_name":"Jayakarta","station_id":"JAY","line":2},{"station_id":"MGB","transit":false,"line":2,"station_name":"Manggabesar","time":2,"i_lat":-6.149769,"distance":1080,"i_long":106.82482,"is_transit":false},{"station_name":"Sawah Besar","station_id":"SW","transit":false,"i_lat":-6.160725,"time":2,"distance":906,"is_transit":false,"i_long":106.827103,"line":2},{"time":2,"distance":1149,"line":2,"i_long":106.828284,"station_id":"JUA","station_name":"Juanda","transit":false,"is_transit":false,"i_lat":-6.166716},{"i_lat":-6.186295,"i_long":106.832183,"line":2,"station_id":"GDD","transit":false,"time":4,"is_transit":false,"station_name":"Gondangdia","distance":2015},{"i_lat":-6.198556,"time":3,"station_name":"Cikini","line":2,"i_long":106.840169,"distance":1750,"is_transit":false,"station_id":"CKI","transit":false},{"transit":true,"i_long":106.84912,"is_transit":true,"station_name":"Manggarai","time":4,"line":2,"distance":1590,"i_lat":-6.209883,"station_id":"MRI"},{"distance":1275,"station_name":"Matraman","time":2,"is_transit":false,"line":1,"station_id":"MTR","transit":false,"i_lat":-6.212485,"i_long":106.858896},{"i_long":106.86807400000001,"time":8,"i_lat":-6.215091,"station_name":"Jatinegara","is_transit":true,"station_id":"JNG","line":1,"distance":1377,"transit":true},{"is_transit":false,"station_name":"Pondok Jati","time":2,"distance":1236,"station_id":"POK","transit":false,"i_lat":-6.209188,"i_long":106.861737,"line":11},{"i_lat":-6.193792,"line":11,"distance":1829,"i_long":106.855437,"is_transit":false,"transit":false,"station_id":"KMT","station_name":"Kramat","time":2}],[{"i_lat":-6.144674,"is_transit":false,"station_id":"AK","distance":0,"time":0,"transit":false,"line":1,"station_name":"Angke","i_long":106.79867},{"station_name":"Duri","time":4,"i_lat":-6.155215,"line":1,"transit":false,"is_transit":false,"station_id":"DU","distance":1230,"i_long":106.800832},{"station_name":"Tanah Abang","distance":3632,"is_transit":false,"station_id":"THB","transit":false,"line":1,"i_long":106.811091,"time":8,"i_lat":-6.185545},{"i_long":106.816351,"distance":2029,"time":5,"line":1,"is_transit":false,"station_name":"Karet","station_id":"KAT","i_lat":-6.20132,"transit":false},{"time":1,"station_id":"SUDB","line":1,"station_name":"Sudirman Baru","i_lat":-6.201433,"distance":471,"i_long":106.819881,"is_transit":false,"transit":false},{"is_transit":false,"i_lat":-6.202263,"station_id":"SUD","i_long":106.822649,"transit":false,"line":1,"time":1,"distance":280,"station_name":"Sudirman"},{"station_id":"MRI","station_name":"Manggarai","time":4,"line":2,"i_lat":-6.209883,"transit":true,"i_long":106.84912,"is_transit":true,"distance":3186},{"transit":false,"station_id":"CKI","time":4,"station_name":"Cikini","distance":1590,"line":2,"i_lat":-6.198556,"i_long":106.840169,"is_transit":false},{"i_long":106.832183,"station_name":"Gondangdia","line":2,"transit":false,"distance":1750,"is_transit":false,"station_id":"GDD","time":3,"i_lat":-6.186295},{"station_name":"Juanda","transit":false,"time":4,"is_transit":false,"station_id":"JUA","i_lat":-6.166716,"distance":2015,"i_long":106.828284,"line":2},{"i_lat":-6.160725,"line":2,"distance":1149,"is_transit":false,"station_id":"SW","i_long":106.827103,"time":2,"station_name":"Sawah Besar","transit":false},{"line":2,"time":2,"is_transit":false,"station_name":"Manggabesar","transit":false,"distance":906,"i_lat":-6.149769,"station_id":"MGB","i_long":106.82482},{"station_id":"JAY","i_long":106.820901,"station_name":"Jayakarta","distance":1080,"is_transit":false,"transit":false,"time":2,"i_lat":-6.141205,"line":2},{"i_long":106.812439,"line":2,"station_id":"JAKK","time":4,"distance":1264,"station_name":"Jakarta Kota","transit":true,"is_transit":true,"i_lat":-6.137569},{"i_long":106.826365,"station_id":"KPB","station_name":"Kampung Bandan","line":4,"distance":1364,"i_lat":-6.132549,"is_transit":true,"transit":true,"time":3},{"distance":1444,"station_id":"RJW","station_name":"Rajawali","time":3,"i_lat":-6.14505,"line":11,"transit":false,"i_long":106.836569,"is_transit":false},{"station_name":"Kemayoran","is_transit":false,"distance":1901,"time":5,"line":11,"station_id":"KMO","transit":false,"i_long":106.839204,"i_lat":-6.161728},{"is_transit":false,"i_long":106.84368,"line":11,"time":4,"station_id":"PSE","station_name":"Pasar Senen","distance":1436,"transit":false,"i_lat":-6.174784},{"distance":1567,"transit":false,"i_lat":-6.185975,"station_id":"GST","station_name":"Gang Sentiong","line":11,"i_long":106.850107,"is_transit":false,"time":8},{"is_transit":false,"station_id":"KMT","time":1,"i_lat":-6.193792,"distance":973,"transit":false,"i_long":106.855437,"station_name":"Kramat","line":11}]]}