{"data":[[{"is_transit":false,"time":0,"distance":0,"transit":false,"station_name":"Angke","i_lat":-6.144674,"i_long":106.79867,"line":0,"station_id":"AK"},{"station_id":"DU","i_lat":-6.155215,"station_name":"Duri","distance":1230,"time":4,"transit":true,"i_long":106.800832,"line":1,"is_transit":true},{"line":1,"i_lat":-6.185545,"station_id":"THB","distance":3632,"station_name":"Tanah Abang","i_long":106.811091,"time":8,"transit":false,"is_transit":true},{"station_name":"Karet","is_transit":false,"line":1,"i_long":106.816351,"i_lat":-6.20132,"time":5,"transit":false,"distance":2029,"station_id":"KAT"},{"time":1,"station_name":"Sudirman Baru","i_long":106.819881,"line":1,"is_transit":false,"transit":false,"station_id":"SUDB","distance":471,"i_lat":-6.201433},{"time":1,"station_id":"SUD","distance":280,"station_name":"Sudirman","line":1,"i_long":106.822649,"i_lat":-6.202263,"transit":false,"is_transit":false},{"is_transit":true,"time":4,"i_lat":-6.209883,"line":0,"i_long":106.84912,"transit":false,"distance":3186,"station_name":"Manggarai","station_id":"MRI"},{"station_id":"MTR","station_name":"Matraman","is_transit":false,"transit":false,"i_lat":-6.212485,"time":2,"distance":1275,"i_long":106.858896,"line":1}],[{"station_name":"Angke","distance":0,"i_long":106.79867,"station_id":"AK","time":0,"transit":false,"i_lat":-6.144674,"is_transit":false,"line":0},{"station_name":"Kampung Bandan","is_transit":true,"i_long":106.826365,"line":0,"transit":true,"time":9,"station_id":"KPB","distance":4102,"i_lat":-6.132549},{"i_long":106.836569,"is_transit":false,"distance":1444,"i_lat":-6.14505,"line":11,"station_name":"Rajawali","time":3,"station_id":"RJW","transit":false},{"station_id":"KMO","is_transit":false,"station_name":"Kemayoran","i_lat":-6.161728,"line":11,"time":5,"distance":1901,"transit":false,"i_long":106.839204},{"line":11,"time":4,"distance":1436,"i_long":106.84368,"i_lat":-6.174784,"station_name":"Pasar Senen","transit":false,"is_transit":false,"station_id":"PSE"},{"distance":1567,"i_long":106.850107,"i_lat":-6.185975,"line":11,"time":8,"station_name":"Gang Sentiong","transit":false,"is_transit":false,"station_id":"GST"},{"time":1,"is_transit":false,"station_id":"KMT","distance":973,"line":11,"station_name":"Kramat","transit":false,"i_lat":-6.193792,"i_long":106.855437},{"station_id":"POK","transit":false,"time":2,"is_transit":false,"i_long":106.861737,"station_name":"Pondok Jati","i_lat":-6.209188,"line":11,"distance":1829},{"time":9,"is_transit":true,"i_lat":-6.215091,"station_id":"JNG","transit":true,"station_name":"Jatinegara","i_long":106.86807400000001,"distance":1236,"line":0},{"is_transit":false,"time":2,"i_long":106.858896,"distance":1377,"line":1,"station_name":"Matraman","i_lat":-6.212485,"transit":false,"station_id":"MTR"}],[{"i_lat":-6.144674,"station_name":"Angke","is_transit":false,"station_id":"AK","i_long":106.79867,"transit":false,"distance":0,"line":0,"time":0},{"transit":false,"is_transit":true,"time":9,"station_name":"Kampung Bandan","i_long":106.826365,"station_id":"KPB","distance":4102,"i_lat":-6.132549,"line":0},{"distance":1364,"i_lat":-6.137569,"is_transit":true,"line":0,"transit":true,"station_name":"Jakarta Kota","time":3,"i_long":106.812439,"station_id":"JAKK"},{"is_transit":false,"time":4,"line":7,"distance":1264,"transit":false,"station_name":"Jayakarta","i_lat":-6.141205,"i_long":106.820901,"station_id":"JAY"},{"transit":false,"i_long":106.82482,"line":2,"time":2,"station_name":"Manggabesar","station_id":"MGB","distance":1080,"i_lat":-6.149769,"is_transit":false},{"station_name":"Sawah Besar","i_lat":-6.160725,"i_long":106.827103,"line":2,"station_id":"SW","is_transit":false,"time":2,"distance":906,"transit":false},{"transit":false,"line":2,"distance":1149,"station_name":"Juanda","is_transit":false,"time":2,"i_long":106.828284,"station_id":"JUA","i_lat":-6.166716},{"station_name":"Gondangdia","station_id":"GDD","time":4,"i_lat":-6.186295,"i_long":106.832183,"is_transit":false,"distance":2015,"transit":false,"line":2},{"distance":1750,"i_long":106.840169,"transit":false,"time":3,"station_name":"Cikini","i_lat":-6.198556,"line":0,"station_id":"CKI","is_transit":false},{"is_transit":true,"station_name":"Manggarai","station_id":"MRI","distance":1590,"transit":true,"i_lat":-6.209883,"i_long":106.84912,"time":4,"line":0},{"transit":false,"is_transit":false,"time":2,"line":1,"i_lat":-6.212485,"station_name":"Matraman","distance":1275,"i_long":106.858896,"station_id":"MTR"}],[{"line":0,"i_lat":-6.144674,"transit":false,"i_long":106.79867,"station_name":"Angke","station_id":"AK","is_transit":false,"time":0,"distance":0},{"station_name":"Duri","time":4,"transit":true,"line":1,"i_lat":-6.155215,"is_transit":true,"distance":1230,"station_id":"DU","i_long":106.800832},{"transit":false,"i_long":106.811091,"distance":3632,"line":1,"time":8,"i_lat":-6.185545,"station_name":"Tanah Abang","is_transit":true,"station_id":"THB"},{"line":1,"is_transit":false,"i_lat":-6.20132,"station_id":"KAT","i_long":106.816351,"transit":false,"time":5,"station_name":"Karet","distance":2029},{"time":1,"station_id":"SUDB","transit":false,"i_long":106.819881,"distance":471,"line":1,"is_transit":false,"i_lat":-6.201433,"station_name":"Sudirman Baru"},{"station_id":"SUD","time":1,"transit":false,"i_long":106.822649,"line":1,"station_name":"Sudirman","i_lat":-6.202263,"distance":280,"is_transit":false},{"distance":3186,"is_transit":true,"i_lat":-6.209883,"transit":true,"i_long":106.84912,"time":4,"station_name":"Manggarai","station_id":"MRI","line":0},{"station_id":"CKI","is_transit":false,"distance":1590,"i_lat":-6.198556,"i_long":106.840169,"transit":false,"station_name":"Cikini","line":0,"time":4},{"distance":1750,"station_id":"GDD","station_name":"Gondangdia","transit":false,"is_transit":false,"i_lat":-6.186295,"time":3,"i_long":106.832183,"line":2},{"i_long":106.828284,"is_transit":false,"i_lat":-6.166716,"line":2,"time":4,"transit":false,"station_name":"Juanda","station_id":"JUA","distance":2015},{"station_name":"Sawah Besar","is_transit":false,"line":2,"i_lat":-6.160725,"i_long":106.827103,"distance":1149,"station_id":"SW","transit":false,"time":2},{"station_id":"MGB","is_transit":false,"time":2,"i_lat":-6.149769,"i_long":106.82482,"transit":false,"line":2,"station_name":"Manggabesar","distance":906},{"station_name":"Jayakarta","distance":1080,"i_lat":-6.141205,"transit":false,"line":7,"time":2,"station_id":"JAY","i_long":106.820901,"is_transit":false},{"i_lat":-6.137569,"is_transit":true,"station_name":"Jakarta Kota","station_id":"JAKK","distance":1264,"transit":true,"i_long":106.812439,"time":4,"line":0},{"i_long":106.826365,"time":3,"station_id":"KPB","transit":true,"line":0,"is_transit":true,"distance":1364,"i_lat":-6.132549,"station_name":"Kampung Bandan"},{"is_transit":false,"distance":1444,"transit":false,"time":3,"line":11,"i_long":106.836569,"i_lat":-6.14505,"station_id":"RJW","station_name":"Rajawali"},{"distance":1901,"is_transit":false,"i_long":106.839204,"station_id":"KMO","transit":false,"i_lat":-6.161728,"time":5,"line":11,"station_name":"Kemayoran"},{"station_id":"PSE","is_transit":false,"time":4,"i_lat":-6.174784,"transit":false,"station_name":"Pasar Senen","line":11,"distance":1436,"i_long":106.84368},{"time":8,"station_id":"GST","is_transit":false,"i_long":106.850107,"i_lat":-6.185975,"line":11,"distance":1567,"station_name":"Gang Sentiong","transit":false},{"station_name":"Kramat","distance":973,"line":11,"i_lat":-6.193792,"i_long":106.855437,"is_transit":false,"time":1,"station_id":"KMT","transit":false},{"transit":false,"station_name":"Pondok Jati","station_id":"POK","is_transit":false,"time":2,"distance":1829,"i_lat":-6.209188,"i_long":106.861737,"line":11},{"i_lat":-6.215091,"station_name":"Jatinegara","transit":true,"station_id":"JNG","is_transit":true,"i_long":106.86807400000001,"distance":1236,"line":0,"time":9},{"i_long":106.858896,"is_transit":false,"station_id":"MTR","time":2,"line":1,"i_lat":-6.212485,"station_name":"Matraman","distance":1377,"transit":false}]]}