{"data":[[{"line":1,"is_transit":false,"distance":0,"station_id":"AK","transit":false,"i_lat":-6.144674,"time":0,"station_name":"Angke","i_long":106.79867},{"distance":1230,"transit":false,"line":1,"is_transit":false,"i_long":106.800832,"time":4,"i_lat":-6.155215,"station_id":"DU","station_name":"Duri"},{"line":1,"i_lat":-6.185545,"transit":false,"station_id":"THB","is_transit":false,"time":8,"distance":3632,"i_long":106.811091,"station_name":"Tanah Abang"},{"time":5,"is_transit":false,"distance":2029,"i_lat":-6.20132,"line":1,"transit":false,"station_id":"KAT","i_long":106.816351,"station_name":"Karet"},{"distance":471,"transit":false,"i_lat":-6.201433,"station_id":"SUDB","station_name":"Sudirman Baru","i_long":106.819881,"time":1,"is_transit":false,"line":1},{"time":1,"station_id":"SUD","station_name":"Sudirman","is_transit":false,"i_lat":-6.202263,"i_long":106.822649,"transit":false,"distance":280,"line":1},{"i_long":106.84912,"i_lat":-6.209883,"distance":3186,"station_id":"MRI","station_name":"Manggarai","is_transit":false,"line":2,"transit":false,"time":4},{"station_id":"MTR","i_lat":-6.212485,"time":2,"i_long":106.858896,"line":1,"station_name":"Matraman","is_transit":false,"distance":1275,"transit":false}],[{"distance":0,"transit":false,"time":0,"i_long":106.79867,"is_transit":false,"line":1,"station_id":"AK","station_name":"Angke","i_lat":-6.144674},{"line":4,"transit":true,"i_long":106.826365,"station_id":"KPB","is_transit":true,"time":9,"distance":4102,"station_name":"Kampung Bandan","i_lat":-6.132549},{"time":3,"i_long":106.836569,"distance":1444,"is_transit":false,"station_name":"Rajawali","line":11,"i_lat":-6.14505,"station_id":"RJW","transit":false},{"station_id":"KMO","is_transit":false,"distance":1901,"i_lat":-6.161728,"time":5,"i_long":106.839204,"line":11,"transit":false,"station_name":"Kemayoran"},{"time":4,"i_lat":-6.174784,"i_long":106.84368,"station_name":"Pasar Senen","is_transit":false,"station_id":"PSE","distance":1436,"transit":false,"line":11},{"is_transit":false,"i_long":106.850107,"station_name":"Gang Sentiong","time":8,"distance":1567,"i_lat":-6.185975,"station_id":"GST","line":11,"transit":false},{"is_transit":false,"line":11,"station_id":"KMT","transit":false,"distance":973,"i_long":106.855437,"time":1,"i_lat":-6.193792,"station_name":"Kramat"},{"i_lat":-6.209188,"time":2,"i_long":106.861737,"line":11,"station_id":"POK","is_transit":false,"distance":1829,"transit":false,"station_name":"Pondok Jati"},{"distance":1236,"station_name":"Jatinegara","transit":true,"station_id":"JNG","i_lat":-6.215091,"time":9,"line":1,"is_transit":true,"i_long":106.86807400000001},{"time":2,"i_long":106.858896,"station_id":"MTR","line":1,"transit":false,"i_lat":-6.212485,"is_transit":false,"distance":1377,"station_name":"Matraman"}],[{"time":0,"i_long":106.79867,"is_transit":false,"line":1,"station_name":"Angke","transit":false,"distance":0,"station_id":"AK","i_lat":-6.144674},{"i_lat":-6.132549,"station_name":"Kampung Bandan","i_long":106.826365,"line":4,"is_transit":true,"time":9,"transit":true,"station_id":"KPB","distance":4102},{"distance":1364,"line":2,"station_id":"JAKK","station_name":"Jakarta Kota","i_lat":-6.137569,"transit":true,"time":3,"is_transit":true,"i_long":106.812439},{"line":2,"station_name":"Jayakarta","i_lat":-6.141205,"i_long":106.820901,"transit":false,"distance":1264,"time":4,"is_transit":false,"station_id":"JAY"},{"transit":false,"station_name":"Manggabesar","distance":1080,"station_id":"MGB","i_lat":-6.149769,"i_long":106.82482,"line":2,"is_transit":false,"time":2},{"station_id":"SW","is_transit":false,"station_name":"Sawah Besar","distance":906,"i_long":106.827103,"line":2,"transit":false,"time":2,"i_lat":-6.160725},{"station_id":"JUA","is_transit":false,"i_lat":-6.166716,"station_name":"Juanda","distance":1149,"line":2,"time":2,"transit":false,"i_long":106.828284},{"transit":false,"line":2,"station_name":"Gondangdia","distance":2015,"i_long":106.832183,"time":4,"i_lat":-6.186295,"is_transit":false,"station_id":"GDD"},{"i_lat":-6.198556,"station_id":"CKI","transit":false,"station_name":"Cikini","is_transit":false,"line":2,"i_long":106.840169,"time":3,"distance":1750},{"time":4,"transit":true,"is_transit":true,"line":2,"station_name":"Manggarai","i_lat":-6.209883,"distance":1590,"i_long":106.84912,"station_id":"MRI"},{"distance":1275,"time":2,"is_transit":false,"i_lat":-6.212485,"i_long":106.858896,"station_id":"MTR","station_name":"Matraman","transit":false,"line":1}],[{"distance":0,"i_long":106.79867,"station_id":"AK","time":0,"i_lat":-6.144674,"is_transit":false,"transit":false,"station_name":"Angke","line":1},{"is_transit":false,"distance":1230,"i_lat":-6.155215,"i_long":106.800832,"line":1,"station_name":"Duri","station_id":"DU","time":4,"transit":false},{"line":1,"transit":false,"is_transit":false,"time":8,"station_name":"Tanah Abang","distance":3632,"i_long":106.811091,"station_id":"THB","i_lat":-6.185545},{"station_id":"KAT","transit":false,"time":5,"i_lat":-6.20132,"line":1,"station_name":"Karet","is_transit":false,"distance":2029,"i_long":106.816351},{"is_transit":false,"i_long":106.819881,"transit":false,"station_id":"SUDB","time":1,"i_lat":-6.201433,"line":1,"distance":471,"station_name":"Sudirman Baru"},{"line":1,"distance":280,"i_lat":-6.202263,"i_long":106.822649,"station_name":"Sudirman","is_transit":false,"station_id":"SUD","transit":false,"time":1},{"distance":3186,"is_transit":true,"transit":true,"time":4,"i_long":106.84912,"station_id":"MRI","line":2,"station_name":"Manggarai","i_lat":-6.209883},{"station_id":"CKI","i_long":106.840169,"line":2,"is_transit":false,"i_lat":-6.198556,"distance":1590,"station_name":"Cikini","time":4,"transit":false},{"time":3,"line":2,"station_name":"Gondangdia","is_transit":false,"i_lat":-6.186295,"distance":1750,"transit":false,"station_id":"GDD","i_long":106.832183},{"distance":2015,"i_long":106.828284,"time":4,"station_name":"Juanda","i_lat":-6.166716,"line":2,"is_transit":false,"station_id":"JUA","transit":false},{"time":2,"i_lat":-6.160725,"i_long":106.827103,"station_name":"Sawah Besar","is_transit":false,"distance":1149,"line":2,"station_id":"SW","transit":false},{"station_id":"MGB","transit":false,"i_lat":-6.149769,"time":2,"is_transit":false,"i_long":106.82482,"station_name":"Manggabesar","line":2,"distance":906},{"transit":false,"i_long":106.820901,"distance":1080,"time":2,"station_name":"Jayakarta","station_id":"JAY","is_transit":false,"i_lat":-6.141205,"line":2},{"i_lat":-6.137569,"transit":true,"line":2,"is_transit":true,"station_name":"Jakarta Kota","time":4,"station_id":"JAKK","i_long":106.812439,"distance":1264},{"line":4,"distance":1364,"i_lat":-6.132549,"station_name":"Kampung Bandan","time":3,"transit":true,"station_id":"KPB","is_transit":true,"i_long":106.826365},{"station_id":"RJW","i_lat":-6.14505,"line":11,"time":3,"distance":1444,"transit":false,"is_transit":false,"station_name":"Rajawali","i_long":106.836569},{"time":5,"line":11,"transit":false,"distance":1901,"is_transit":false,"station_name":"Kemayoran","i_lat":-6.161728,"i_long":106.839204,"station_id":"KMO"},{"station_id":"PSE","i_lat":-6.174784,"time":4,"is_transit":false,"station_name":"Pasar Senen","transit":false,"distance":1436,"i_long":106.84368,"line":11},{"i_long":106.850107,"station_name":"Gang Sentiong","i_lat":-6.185975,"is_transit":false,"station_id":"GST","line":11,"time":8,"transit":false,"distance":1567},{"station_name":"Kramat","i_lat":-6.193792,"time":1,"station_id":"KMT","is_transit":false,"distance":973,"line":11,"transit":false,"i_long":106.855437},{"is_transit":false,"i_long":106.861737,"time":2,"station_id":"POK","line":11,"transit":false,"distance":1829,"station_name":"Pondok Jati","i_lat":-6.209188},{"station_id":"JNG","transit":true,"time":9,"distance":1236,"i_long":106.86807400000001,"line":1,"station_name":"Jatinegara","is_transit":true,"i_lat":-6.215091},{"station_name":"Matraman","distance":1377,"i_lat":-6.212485,"i_long":106.858896,"is_transit":false,"time":2,"line":1,"station_id":"MTR","transit":false}]]}