{"data":[[{"station_name":"Angke","time":0,"i_lat":-6.144674,"is_transit":false,"station_id":"AK","transit":false,"distance":0,"i_long":106.79867,"line":0},{"station_name":"Duri","i_long":106.800832,"station_id":"DU","time":4,"i_lat":-6.155215,"line":1,"transit":true,"distance":1230,"is_transit":true},{"line":1,"i_lat":-6.185545,"distance":3632,"station_id":"THB","station_name":"Tanah Abang","is_transit":true,"time":8,"transit":true,"i_long":106.811091},{"transit":false,"i_lat":-6.207404,"line":6,"i_long":106.79689,"time":6,"station_name":"Palmerah","is_transit":false,"station_id":"PLM","distance":3191},{"i_long":106.780334,"time":7,"station_name":"Kebayoran","station_id":"KBY","is_transit":false,"distance":3737,"transit":false,"i_lat":-6.237242,"line":6},{"is_transit":false,"time":8,"station_name":"Pondokranji","i_long":106.74273,"station_id":"PDJ","i_lat":-6.276362,"distance":6218,"line":6,"transit":false}],[{"is_transit":false,"station_name":"Angke","i_long":106.79867,"transit":false,"line":0,"i_lat":-6.144674,"station_id":"AK","time":0,"distance":0},{"station_id":"KPB","time":9,"distance":4102,"station_name":"Kampung Bandan","is_transit":true,"i_lat":-6.132549,"i_long":106.826365,"line":0,"transit":false},{"distance":1364,"station_name":"Jakarta Kota","is_transit":true,"time":3,"i_lat":-6.137569,"i_long":106.812439,"line":0,"station_id":"JAKK","transit":true},{"is_transit":false,"distance":1264,"station_name":"Jayakarta","i_lat":-6.141205,"i_long":106.820901,"line":7,"time":4,"station_id":"JAY","transit":false},{"time":2,"station_name":"Manggabesar","is_transit":false,"i_long":106.82482,"distance":1080,"i_lat":-6.149769,"transit":false,"line":2,"station_id":"MGB"},{"station_id":"SW","i_lat":-6.160725,"i_long":106.827103,"distance":906,"transit":false,"is_transit":false,"station_name":"Sawah Besar","line":2,"time":2},{"time":2,"line":2,"station_id":"JUA","is_transit":false,"distance":1149,"station_name":"Juanda","transit":false,"i_long":106.828284,"i_lat":-6.166716},{"is_transit":false,"transit":false,"distance":2015,"line":2,"i_long":106.832183,"station_name":"Gondangdia","station_id":"GDD","i_lat":-6.186295,"time":4},{"is_transit":false,"transit":false,"time":3,"line":0,"i_long":106.840169,"station_name":"Cikini","i_lat":-6.198556,"distance":1750,"station_id":"CKI"},{"time":4,"i_long":106.84912,"is_transit":true,"i_lat":-6.209883,"line":0,"transit":true,"station_id":"MRI","station_name":"Manggarai","distance":1590},{"is_transit":false,"i_lat":-6.202263,"station_id":"SUD","time":4,"station_name":"Sudirman","distance":3186,"line":1,"transit":false,"i_long":106.822649},{"is_transit":false,"time":1,"station_id":"SUDB","i_long":106.819881,"i_lat":-6.201433,"transit":false,"line":1,"distance":280,"station_name":"Sudirman Baru"},{"distance":471,"line":1,"station_name":"Karet","i_long":106.816351,"time":1,"transit":false,"is_transit":false,"i_lat":-6.20132,"station_id":"KAT"},{"distance":2029,"line":1,"station_name":"Tanah Abang","station_id":"THB","time":5,"i_long":106.811091,"transit":true,"is_transit":true,"i_lat":-6.185545},{"i_long":106.79689,"i_lat":-6.207404,"time":6,"is_transit":false,"station_id":"PLM","distance":3191,"station_name":"Palmerah","line":6,"transit":false},{"station_name":"Kebayoran","time":7,"distance":3737,"i_lat":-6.237242,"is_transit":false,"transit":false,"line":6,"i_long":106.780334,"station_id":"KBY"},{"line":6,"station_name":"Pondokranji","distance":6218,"station_id":"PDJ","i_lat":-6.276362,"transit":false,"time":8,"i_long":106.74273,"is_transit":false}],[{"time":0,"station_name":"Angke","i_lat":-6.144674,"distance":0,"line":0,"i_long":106.79867,"is_transit":false,"station_id":"AK","transit":false},{"transit":true,"is_transit":true,"distance":4102,"station_name":"Kampung Bandan","time":9,"i_lat":-6.132549,"line":0,"i_long":106.826365,"station_id":"KPB"},{"time":3,"distance":1444,"line":11,"station_name":"Rajawali","transit":false,"i_lat":-6.14505,"i_long":106.836569,"is_transit":false,"station_id":"RJW"},{"i_lat":-6.161728,"station_name":"Kemayoran","i_long":106.839204,"line":11,"is_transit":false,"time":5,"station_id":"KMO","distance":1901,"transit":false},{"distance":1436,"line":11,"station_name":"Pasar Senen","transit":false,"time":4,"i_long":106.84368,"i_lat":-6.174784,"station_id":"PSE","is_transit":false},{"distance":1567,"i_lat":-6.185975,"is_transit":false,"line":11,"i_long":106.850107,"time":8,"transit":false,"station_name":"Gang Sentiong","station_id":"GST"},{"transit":false,"i_lat":-6.193792,"i_long":106.855437,"station_name":"Kramat","line":11,"is_transit":false,"time":1,"distance":973,"station_id":"KMT"},{"transit":false,"station_name":"Pondok Jati","i_long":106.861737,"line":11,"i_lat":-6.209188,"distance":1829,"station_id":"POK","is_transit":false,"time":2},{"station_id":"JNG","time":9,"i_lat":-6.215091,"is_transit":true,"distance":1236,"station_name":"Jatinegara","i_long":106.86807400000001,"line":0,"transit":true},{"transit":false,"i_lat":-6.212485,"station_id":"MTR","distance":1377,"i_long":106.858896,"station_name":"Matraman","is_transit":false,"time":2,"line":1},{"distance":1275,"i_long":106.84912,"time":2,"station_name":"Manggarai","i_lat":-6.209883,"line":0,"transit":false,"station_id":"MRI","is_transit":true},{"distance":3186,"is_transit":false,"i_long":106.822649,"time":4,"transit":false,"line":1,"station_id":"SUD","station_name":"Sudirman","i_lat":-6.202263},{"distance":280,"station_id":"SUDB","station_name":"Sudirman Baru","i_long":106.819881,"is_transit":false,"i_lat":-6.201433,"transit":false,"time":1,"line":1},{"i_long":106.816351,"line":1,"station_name":"Karet","is_transit":false,"transit":false,"distance":471,"station_id":"KAT","i_lat":-6.20132,"time":1},{"station_id":"THB","line":1,"time":5,"i_long":106.811091,"is_transit":true,"distance":2029,"station_name":"Tanah Abang","transit":true,"i_lat":-6.185545},{"is_transit":false,"transit":false,"station_name":"Palmerah","i_lat":-6.207404,"i_long":106.79689,"line":6,"station_id":"PLM","distance":3191,"time":6},{"station_name":"Kebayoran","i_long":106.780334,"is_transit":false,"transit":false,"line":6,"distance":3737,"station_id":"KBY","i_lat":-6.237242,"time":7},{"station_id":"PDJ","is_transit":false,"distance":6218,"time":8,"i_long":106.74273,"transit":false,"station_name":"Pondokranji","line":6,"i_lat":-6.276362}]]}