{"data":[[{"station_name":"Angke","station_id":"AK","i_long":106.79867,"time":0,"line":1,"i_lat":-6.144674,"distance":0,"is_transit":false,"transit":false},{"transit":false,"time":4,"distance":1230,"i_lat":-6.155215,"is_transit":false,"i_long":106.800832,"line":1,"station_name":"Duri","station_id":"DU"},{"time":8,"station_name":"Tanah Abang","is_transit":true,"i_lat":-6.185545,"line":1,"distance":3632,"station_id":"THB","i_long":106.811091,"transit":true},{"is_transit":false,"transit":false,"time":6,"i_long":106.79689,"station_id":"PLM","station_name":"Palmerah","i_lat":-6.207404,"distance":3191,"line":6},{"distance":3737,"i_lat":-6.237242,"station_name":"Kebayoran","transit":false,"time":7,"i_long":106.780334,"is_transit":false,"station_id":"KBY","line":6},{"line":6,"distance":6218,"time":8,"station_name":"Pondokranji","station_id":"PDJ","i_long":106.74273,"is_transit":false,"i_lat":-6.276362,"transit":false}],[{"i_long":106.79867,"transit":false,"line":1,"distance":0,"is_transit":false,"station_id":"AK","station_name":"Angke","time":0,"i_lat":-6.144674},{"station_id":"KPB","i_long":106.826365,"time":9,"is_transit":true,"i_lat":-6.132549,"distance":4102,"transit":true,"line":4,"station_name":"Kampung Bandan"},{"distance":1364,"i_long":106.812439,"transit":true,"station_name":"Jakarta Kota","is_transit":true,"time":3,"line":2,"station_id":"JAKK","i_lat":-6.137569},{"is_transit":false,"station_id":"JAY","transit":false,"line":2,"time":4,"distance":1264,"station_name":"Jayakarta","i_lat":-6.141205,"i_long":106.820901},{"i_long":106.82482,"station_id":"MGB","line":2,"distance":1080,"station_name":"Manggabesar","i_lat":-6.149769,"transit":false,"is_transit":false,"time":2},{"station_name":"Sawah Besar","i_lat":-6.160725,"line":2,"i_long":106.827103,"time":2,"station_id":"SW","distance":906,"is_transit":false,"transit":false},{"station_name":"Juanda","distance":1149,"station_id":"JUA","i_lat":-6.166716,"i_long":106.828284,"is_transit":false,"transit":false,"time":2,"line":2},{"distance":2015,"line":2,"is_transit":false,"time":4,"station_name":"Gondangdia","station_id":"GDD","i_lat":-6.186295,"transit":false,"i_long":106.832183},{"i_long":106.840169,"station_name":"Cikini","transit":false,"distance":1750,"i_lat":-6.198556,"line":2,"time":3,"station_id":"CKI","is_transit":false},{"station_name":"Manggarai","time":4,"transit":true,"i_lat":-6.209883,"is_transit":true,"station_id":"MRI","line":2,"distance":1590,"i_long":106.84912},{"line":1,"station_id":"SUD","station_name":"Sudirman","i_lat":-6.202263,"distance":3186,"transit":false,"time":4,"is_transit":false,"i_long":106.822649},{"station_id":"SUDB","transit":false,"distance":280,"i_lat":-6.201433,"time":1,"line":1,"is_transit":false,"i_long":106.819881,"station_name":"Sudirman Baru"},{"station_id":"KAT","distance":471,"i_lat":-6.20132,"transit":false,"is_transit":false,"line":1,"i_long":106.816351,"time":1,"station_name":"Karet"},{"station_id":"THB","i_lat":-6.185545,"station_name":"Tanah Abang","i_long":106.811091,"distance":2029,"time":5,"transit":true,"is_transit":true,"line":1},{"station_name":"Palmerah","line":6,"distance":3191,"i_lat":-6.207404,"i_long":106.79689,"transit":false,"station_id":"PLM","is_transit":false,"time":6},{"station_id":"KBY","time":7,"transit":false,"line":6,"is_transit":false,"i_long":106.780334,"i_lat":-6.237242,"station_name":"Kebayoran","distance":3737},{"time":8,"transit":false,"is_transit":false,"station_name":"Pondokranji","station_id":"PDJ","i_lat":-6.276362,"distance":6218,"i_long":106.74273,"line":6}],[{"transit":false,"station_name":"Angke","time":0,"is_transit":false,"i_lat":-6.144674,"station_id":"AK","line":1,"distance":0,"i_long":106.79867},{"time":9,"i_long":106.826365,"i_lat":-6.132549,"station_id":"KPB","transit":true,"distance":4102,"line":4,"is_transit":true,"station_name":"Kampung Bandan"},{"line":11,"distance":1444,"transit":false,"station_name":"Rajawali","i_long":106.836569,"is_transit":false,"station_id":"RJW","time":3,"i_lat":-6.14505},{"is_transit":false,"i_long":106.839204,"transit":false,"station_id":"KMO","i_lat":-6.161728,"time":5,"distance":1901,"station_name":"Kemayoran","line":11},{"station_name":"Pasar Senen","transit":false,"distance":1436,"i_lat":-6.174784,"line":11,"i_long":106.84368,"is_transit":false,"time":4,"station_id":"PSE"},{"time":8,"transit":false,"is_transit":false,"distance":1567,"i_long":106.850107,"station_name":"Gang Sentiong","station_id":"GST","i_lat":-6.185975,"line":11},{"is_transit":false,"i_lat":-6.193792,"time":1,"line":11,"station_id":"KMT","transit":false,"distance":973,"station_name":"Kramat","i_long":106.855437},{"line":11,"is_transit":false,"station_id":"POK","distance":1829,"time":2,"station_name":"Pondok Jati","transit":false,"i_lat":-6.209188,"i_long":106.861737},{"distance":1236,"line":1,"transit":true,"i_lat":-6.215091,"station_id":"JNG","station_name":"Jatinegara","i_long":106.86807400000001,"is_transit":true,"time":9},{"i_long":106.858896,"distance":1377,"station_id":"MTR","i_lat":-6.212485,"time":2,"station_name":"Matraman","transit":false,"line":1,"is_transit":false},{"i_lat":-6.209883,"i_long":106.84912,"is_transit":false,"station_name":"Manggarai","line":2,"station_id":"MRI","transit":false,"distance":1275,"time":2},{"i_lat":-6.202263,"station_id":"SUD","line":1,"station_name":"Sudirman","transit":false,"i_long":106.822649,"distance":3186,"is_transit":false,"time":4},{"is_transit":false,"i_lat":-6.201433,"station_id":"SUDB","distance":280,"time":1,"i_long":106.819881,"transit":false,"line":1,"station_name":"Sudirman Baru"},{"station_id":"KAT","station_name":"Karet","distance":471,"i_long":106.816351,"transit":false,"time":1,"i_lat":-6.20132,"line":1,"is_transit":false},{"is_transit":true,"line":1,"transit":true,"station_name":"Tanah Abang","distance":2029,"time":5,"i_long":106.811091,"i_lat":-6.185545,"station_id":"THB"},{"time":6,"is_transit":false,"i_lat":-6.207404,"line":6,"i_long":106.79689,"station_name":"Palmerah","distance":3191,"transit":false,"station_id":"PLM"},{"distance":3737,"is_transit":false,"i_long":106.780334,"i_lat":-6.237242,"transit":false,"line":6,"time":7,"station_id":"KBY","station_name":"Kebayoran"},{"i_lat":-6.276362,"time":8,"distance":6218,"station_name":"Pondokranji","station_id":"PDJ","i_long":106.74273,"line":6,"is_transit":false,"transit":false}]]}