{"data":[[{"distance":0,"is_transit":false,"line":1,"station_id":"AK","time":0,"i_long":106.79867,"i_lat":-6.144674,"transit":false,"station_name":"Angke"},{"time":4,"distance":1230,"station_id":"DU","is_transit":false,"i_lat":-6.155215,"i_long":106.800832,"transit":false,"station_name":"Duri","line":1},{"transit":true,"station_name":"Tanah Abang","station_id":"THB","time":8,"is_transit":true,"i_lat":-6.185545,"i_long":106.811091,"line":1,"distance":3632},{"station_name":"Palmerah","distance":3191,"i_lat":-6.207404,"line":6,"i_long":106.79689,"transit":false,"is_transit":false,"time":6,"station_id":"PLM"},{"time":7,"i_lat":-6.237242,"distance":3737,"line":6,"is_transit":false,"transit":false,"station_id":"KBY","station_name":"Kebayoran","i_long":106.780334},{"distance":6218,"is_transit":false,"i_lat":-6.276362,"station_name":"Pondokranji","transit":false,"line":6,"time":8,"i_long":106.74273,"station_id":"PDJ"},{"time":3,"transit":false,"distance":2179,"i_long":106.728916,"station_name":"Jurangmangu","line":6,"i_lat":-6.288927,"is_transit":false,"station_id":"JMU"},{"is_transit":false,"i_lat":-6.296963,"transit":false,"line":6,"station_id":"SDM","distance":1994,"i_long":106.712277,"time":4,"station_name":"Sudimara"},{"station_id":"RU","is_transit":false,"station_name":"Rawa Buntu","transit":false,"time":6,"distance":4566,"i_long":106.675475,"line":6,"i_lat":-6.314823},{"i_lat":-6.319871,"is_transit":false,"i_long":106.66566,"time":4,"line":6,"transit":false,"station_name":"Serpong","distance":2413,"station_id":"SRP"},{"is_transit":false,"transit":false,"distance":1784,"station_id":"CSK","time":4,"i_lat":-6.32484,"i_long":106.640411,"line":3,"station_name":"Cisauk"},{"station_name":"Cicayur","station_id":"CC","transit":false,"time":4,"is_transit":false,"line":3,"distance":2519,"i_long":106.617853,"i_lat":-6.329547},{"transit":false,"i_long":106.568863,"is_transit":false,"distance":5968,"line":6,"i_lat":-6.3441410000000005,"station_id":"PRP","station_name":"Parung Panjang","time":8}],[{"is_transit":false,"transit":false,"station_id":"AK","line":1,"distance":0,"i_lat":-6.144674,"i_long":106.79867,"time":0,"station_name":"Angke"},{"station_name":"Kampung Bandan","line":4,"time":9,"i_long":106.826365,"is_transit":true,"station_id":"KPB","distance":4102,"i_lat":-6.132549,"transit":true},{"transit":true,"line":2,"i_lat":-6.137569,"station_name":"Jakarta Kota","i_long":106.812439,"is_transit":true,"station_id":"JAKK","time":3,"distance":1364},{"transit":false,"time":4,"i_long":106.820901,"station_id":"JAY","distance":1264,"line":2,"station_name":"Jayakarta","is_transit":false,"i_lat":-6.141205},{"line":2,"i_long":106.82482,"transit":false,"station_name":"Manggabesar","distance":1080,"i_lat":-6.149769,"station_id":"MGB","is_transit":false,"time":2},{"i_long":106.827103,"transit":false,"station_id":"SW","is_transit":false,"time":2,"station_name":"Sawah Besar","distance":906,"i_lat":-6.160725,"line":2},{"line":2,"time":2,"transit":false,"i_long":106.828284,"station_name":"Juanda","i_lat":-6.166716,"is_transit":false,"station_id":"JUA","distance":1149},{"transit":false,"i_long":106.832183,"time":4,"station_name":"Gondangdia","i_lat":-6.186295,"line":2,"station_id":"GDD","is_transit":false,"distance":2015},{"station_name":"Cikini","transit":false,"time":3,"i_lat":-6.198556,"station_id":"CKI","is_transit":false,"line":2,"distance":1750,"i_long":106.840169},{"transit":true,"i_lat":-6.209883,"station_name":"Manggarai","distance":1590,"line":2,"time":4,"i_long":106.84912,"station_id":"MRI","is_transit":true},{"distance":3186,"line":1,"station_name":"Sudirman","i_lat":-6.202263,"transit":false,"i_long":106.822649,"station_id":"SUD","is_transit":false,"time":4},{"time":1,"transit":false,"station_id":"SUDB","is_transit":false,"distance":280,"station_name":"Sudirman Baru","line":1,"i_lat":-6.201433,"i_long":106.819881},{"station_name":"Karet","i_lat":-6.20132,"station_id":"KAT","i_long":106.816351,"line":1,"transit":false,"is_transit":false,"distance":471,"time":1},{"station_name":"Tanah Abang","i_lat":-6.185545,"transit":true,"i_long":106.811091,"line":1,"is_transit":true,"station_id":"THB","time":5,"distance":2029},{"i_lat":-6.207404,"time":6,"transit":false,"distance":3191,"station_id":"PLM","line":6,"is_transit":false,"station_name":"Palmerah","i_long":106.79689},{"station_name":"Kebayoran","distance":3737,"is_transit":false,"i_lat":-6.237242,"station_id":"KBY","time":7,"i_long":106.780334,"line":6,"transit":false},{"transit":false,"station_name":"Pondokranji","distance":6218,"i_lat":-6.276362,"station_id":"PDJ","line":6,"time":8,"i_long":106.74273,"is_transit":false},{"i_long":106.728916,"line":6,"distance":2179,"time":3,"station_id":"JMU","transit":false,"station_name":"Jurangmangu","is_transit":false,"i_lat":-6.288927},{"i_lat":-6.296963,"time":4,"station_name":"Sudimara","station_id":"SDM","is_transit":false,"distance":1994,"i_long":106.712277,"line":6,"transit":false},{"time":6,"line":6,"distance":4566,"station_id":"RU","transit":false,"i_long":106.675475,"station_name":"Rawa Buntu","is_transit":false,"i_lat":-6.314823},{"time":4,"i_lat":-6.319871,"station_name":"Serpong","is_transit":false,"distance":2413,"line":6,"i_long":106.66566,"transit":false,"station_id":"SRP"},{"i_lat":-6.32484,"time":4,"transit":false,"station_id":"CSK","is_transit":false,"line":3,"station_name":"Cisauk","distance":1784,"i_long":106.640411},{"i_lat":-6.329547,"distance":2519,"i_long":106.617853,"station_id":"CC","time":4,"is_transit":false,"station_name":"Cicayur","line":3,"transit":false},{"is_transit":false,"line":6,"station_id":"PRP","i_lat":-6.3441410000000005,"station_name":"Parung Panjang","i_long":106.568863,"time":8,"transit":false,"distance":5968}],[{"transit":false,"distance":0,"i_lat":-6.144674,"is_transit":false,"station_id":"AK","line":1,"i_long":106.79867,"station_name":"Angke","time":0},{"station_id":"KPB","i_lat":-6.132549,"i_long":106.826365,"station_name":"Kampung Bandan","is_transit":true,"transit":true,"distance":4102,"line":4,"time":9},{"line":11,"is_transit":false,"i_long":106.836569,"distance":1444,"station_id":"RJW","station_name":"Rajawali","time":3,"transit":false,"i_lat":-6.14505},{"i_long":106.839204,"station_name":"Kemayoran","distance":1901,"line":11,"transit":false,"station_id":"KMO","i_lat":-6.161728,"time":5,"is_transit":false},{"time":4,"is_transit":false,"distance":1436,"i_lat":-6.174784,"i_long":106.84368,"transit":false,"station_id":"PSE","station_name":"Pasar Senen","line":11},{"i_lat":-6.185975,"transit":false,"is_transit":false,"i_long":106.850107,"line":11,"station_id":"GST","station_name":"Gang Sentiong","time":8,"distance":1567},{"i_lat":-6.193792,"station_id":"KMT","is_transit":false,"transit":false,"line":11,"station_name":"Kramat","i_long":106.855437,"time":1,"distance":973},{"i_long":106.861737,"line":11,"is_transit":false,"station_name":"Pondok Jati","transit":false,"time":2,"distance":1829,"i_lat":-6.209188,"station_id":"POK"},{"is_transit":true,"time":9,"station_id":"JNG","i_long":106.86807400000001,"line":1,"transit":true,"distance":1236,"i_lat":-6.215091,"station_name":"Jatinegara"},{"station_name":"Matraman","station_id":"MTR","i_long":106.858896,"is_transit":false,"time":2,"distance":1377,"transit":false,"i_lat":-6.212485,"line":1},{"i_lat":-6.209883,"line":2,"station_name":"Manggarai","station_id":"MRI","is_transit":false,"transit":false,"distance":1275,"i_long":106.84912,"time":2},{"transit":false,"distance":3186,"line":1,"is_transit":false,"station_name":"Sudirman","i_lat":-6.202263,"i_long":106.822649,"station_id":"SUD","time":4},{"line":1,"distance":280,"i_lat":-6.201433,"time":1,"station_name":"Sudirman Baru","station_id":"SUDB","i_long":106.819881,"transit":false,"is_transit":false},{"time":1,"is_transit":false,"station_name":"Karet","i_long":106.816351,"i_lat":-6.20132,"station_id":"KAT","transit":false,"distance":471,"line":1},{"is_transit":true,"transit":true,"distance":2029,"time":5,"i_lat":-6.185545,"station_name":"Tanah Abang","station_id":"THB","line":1,"i_long":106.811091},{"transit":false,"time":6,"is_transit":false,"distance":3191,"line":6,"station_id":"PLM","station_name":"Palmerah","i_lat":-6.207404,"i_long":106.79689},{"distance":3737,"time":7,"is_transit":false,"i_lat":-6.237242,"i_long":106.780334,"station_id":"KBY","line":6,"station_name":"Kebayoran","transit":false},{"line":6,"transit":false,"i_long":106.74273,"i_lat":-6.276362,"station_name":"Pondokranji","station_id":"PDJ","distance":6218,"is_transit":false,"time":8},{"transit":false,"station_name":"Jurangmangu","i_long":106.728916,"i_lat":-6.288927,"time":3,"line":6,"distance":2179,"is_transit":false,"station_id":"JMU"},{"time":4,"transit":false,"line":6,"station_id":"SDM","is_transit":false,"distance":1994,"i_long":106.712277,"i_lat":-6.296963,"station_name":"Sudimara"},{"distance":4566,"transit":false,"station_id":"RU","station_name":"Rawa Buntu","is_transit":false,"time":6,"i_lat":-6.314823,"i_long":106.675475,"line":6},{"i_long":106.66566,"station_id":"SRP","station_name":"Serpong","distance":2413,"line":6,"transit":false,"is_transit":false,"time":4,"i_lat":-6.319871},{"is_transit":false,"i_lat":-6.32484,"station_id":"CSK","station_name":"Cisauk","i_long":106.640411,"line":3,"time":4,"transit":false,"distance":1784},{"distance":2519,"station_name":"Cicayur","is_transit":false,"transit":false,"time":4,"i_lat":-6.329547,"i_long":106.617853,"station_id":"CC","line":3},{"distance":5968,"line":6,"station_id":"PRP","is_transit":false,"time":8,"i_lat":-6.3441410000000005,"i_long":106.568863,"station_name":"Parung Panjang","transit":false}]]}