{"data":[[{"i_long":106.79867,"station_name":"Angke","time":0,"transit":false,"station_id":"AK","distance":0,"i_lat":-6.144674,"line":1,"is_transit":false},{"distance":1230,"time":4,"station_id":"DU","i_long":106.800832,"transit":false,"i_lat":-6.155215,"line":1,"station_name":"Duri","is_transit":false},{"distance":3632,"i_long":106.811091,"time":8,"station_name":"Tanah Abang","transit":true,"line":1,"is_transit":true,"station_id":"THB","i_lat":-6.185545},{"station_name":"Palmerah","station_id":"PLM","is_transit":false,"time":6,"distance":3191,"i_long":106.79689,"i_lat":-6.207404,"line":6,"transit":false},{"distance":3737,"station_name":"Kebayoran","line":6,"i_lat":-6.237242,"is_transit":false,"transit":false,"time":7,"i_long":106.780334,"station_id":"KBY"},{"i_lat":-6.276362,"i_long":106.74273,"time":8,"line":6,"is_transit":false,"transit":false,"station_id":"PDJ","station_name":"Pondokranji","distance":6218},{"is_transit":false,"i_lat":-6.288927,"i_long":106.728916,"station_id":"JMU","line":6,"distance":2179,"transit":false,"time":3,"station_name":"Jurangmangu"},{"i_long":106.712277,"transit":false,"is_transit":false,"line":6,"station_name":"Sudimara","i_lat":-6.296963,"time":4,"station_id":"SDM","distance":1994},{"i_long":106.675475,"distance":4566,"station_name":"Rawa Buntu","is_transit":false,"station_id":"RU","time":6,"line":6,"transit":false,"i_lat":-6.314823},{"i_lat":-6.319871,"transit":false,"distance":2413,"station_id":"SRP","is_transit":false,"time":4,"i_long":106.66566,"line":6,"station_name":"Serpong"},{"i_long":106.640411,"line":3,"i_lat":-6.32484,"transit":false,"time":4,"station_id":"CSK","is_transit":false,"distance":1784,"station_name":"Cisauk"},{"is_transit":false,"transit":false,"i_long":106.617853,"station_name":"Cicayur","station_id":"CC","i_lat":-6.329547,"line":3,"distance":2519,"time":4},{"station_name":"Parung Panjang","time":8,"station_id":"PRP","distance":5968,"is_transit":false,"i_long":106.568863,"transit":false,"i_lat":-6.3441410000000005,"line":6}],[{"station_name":"Angke","distance":0,"i_lat":-6.144674,"is_transit":false,"i_long":106.79867,"station_id":"AK","transit":false,"line":1,"time":0},{"station_name":"Kampung Bandan","station_id":"KPB","line":4,"distance":4102,"i_lat":-6.132549,"time":9,"i_long":106.826365,"transit":true,"is_transit":true},{"i_lat":-6.137569,"distance":1364,"transit":true,"is_transit":true,"time":3,"station_id":"JAKK","station_name":"Jakarta Kota","i_long":106.812439,"line":2},{"i_long":106.820901,"line":2,"transit":false,"station_name":"Jayakarta","is_transit":false,"time":4,"station_id":"JAY","i_lat":-6.141205,"distance":1264},{"is_transit":false,"line":2,"i_lat":-6.149769,"distance":1080,"transit":false,"station_name":"Manggabesar","i_long":106.82482,"time":2,"station_id":"MGB"},{"station_id":"SW","distance":906,"line":2,"is_transit":false,"transit":false,"i_lat":-6.160725,"i_long":106.827103,"time":2,"station_name":"Sawah Besar"},{"time":2,"is_transit":false,"i_long":106.828284,"line":2,"transit":false,"station_name":"Juanda","distance":1149,"station_id":"JUA","i_lat":-6.166716},{"station_name":"Gondangdia","i_lat":-6.186295,"i_long":106.832183,"station_id":"GDD","time":4,"transit":false,"line":2,"is_transit":false,"distance":2015},{"is_transit":false,"station_id":"CKI","i_lat":-6.198556,"distance":1750,"time":3,"station_name":"Cikini","line":2,"transit":false,"i_long":106.840169},{"i_long":106.84912,"distance":1590,"is_transit":true,"station_name":"Manggarai","i_lat":-6.209883,"line":2,"station_id":"MRI","time":4,"transit":true},{"station_id":"SUD","distance":3186,"i_lat":-6.202263,"is_transit":false,"i_long":106.822649,"station_name":"Sudirman","time":4,"line":1,"transit":false},{"is_transit":false,"distance":280,"station_name":"Sudirman Baru","time":1,"transit":false,"i_lat":-6.201433,"i_long":106.819881,"station_id":"SUDB","line":1},{"is_transit":false,"i_lat":-6.20132,"distance":471,"station_name":"Karet","line":1,"station_id":"KAT","transit":false,"time":1,"i_long":106.816351},{"station_name":"Tanah Abang","is_transit":true,"transit":true,"i_lat":-6.185545,"i_long":106.811091,"line":1,"station_id":"THB","time":5,"distance":2029},{"i_lat":-6.207404,"station_name":"Palmerah","i_long":106.79689,"line":6,"time":6,"distance":3191,"transit":false,"station_id":"PLM","is_transit":false},{"is_transit":false,"time":7,"i_long":106.780334,"line":6,"station_name":"Kebayoran","station_id":"KBY","distance":3737,"i_lat":-6.237242,"transit":false},{"transit":false,"station_name":"Pondokranji","i_lat":-6.276362,"line":6,"is_transit":false,"station_id":"PDJ","time":8,"distance":6218,"i_long":106.74273},{"time":3,"station_id":"JMU","transit":false,"distance":2179,"i_lat":-6.288927,"is_transit":false,"i_long":106.728916,"station_name":"Jurangmangu","line":6},{"station_id":"SDM","time":4,"is_transit":false,"i_lat":-6.296963,"distance":1994,"transit":false,"i_long":106.712277,"line":6,"station_name":"Sudimara"},{"is_transit":false,"i_long":106.675475,"time":6,"transit":false,"distance":4566,"line":6,"i_lat":-6.314823,"station_id":"RU","station_name":"Rawa Buntu"},{"station_name":"Serpong","i_lat":-6.319871,"station_id":"SRP","i_long":106.66566,"transit":false,"time":4,"is_transit":false,"line":6,"distance":2413},{"distance":1784,"is_transit":false,"station_name":"Cisauk","i_lat":-6.32484,"transit":false,"i_long":106.640411,"time":4,"line":3,"station_id":"CSK"},{"is_transit":false,"i_long":106.617853,"station_id":"CC","line":3,"transit":false,"time":4,"station_name":"Cicayur","i_lat":-6.329547,"distance":2519},{"transit":false,"line":6,"i_long":106.568863,"station_name":"Parung Panjang","distance":5968,"i_lat":-6.3441410000000005,"station_id":"PRP","is_transit":false,"time":8}],[{"i_lat":-6.144674,"i_long":106.79867,"station_id":"AK","station_name":"Angke","is_transit":false,"distance":0,"line":1,"time":0,"transit":false},{"is_transit":true,"i_lat":-6.132549,"time":9,"i_long":106.826365,"distance":4102,"station_id":"KPB","transit":true,"line":4,"station_name":"Kampung Bandan"},{"i_lat":-6.14505,"station_name":"Rajawali","time":3,"distance":1444,"i_long":106.836569,"is_transit":false,"station_id":"RJW","transit":false,"line":11},{"i_long":106.839204,"station_id":"KMO","transit":false,"is_transit":false,"distance":1901,"station_name":"Kemayoran","time":5,"i_lat":-6.161728,"line":11},{"is_transit":false,"time":4,"station_name":"Pasar Senen","i_long":106.84368,"line":11,"station_id":"PSE","distance":1436,"transit":false,"i_lat":-6.174784},{"i_lat":-6.185975,"station_id":"GST","is_transit":false,"i_long":106.850107,"line":11,"transit":false,"distance":1567,"time":8,"station_name":"Gang Sentiong"},{"i_lat":-6.193792,"transit":false,"distance":973,"is_transit":false,"station_id":"KMT","line":11,"station_name":"Kramat","i_long":106.855437,"time":1},{"time":2,"station_name":"Pondok Jati","transit":false,"distance":1829,"station_id":"POK","i_long":106.861737,"i_lat":-6.209188,"line":11,"is_transit":false},{"distance":1236,"i_lat":-6.215091,"station_name":"Jatinegara","line":1,"is_transit":true,"transit":true,"i_long":106.86807400000001,"station_id":"JNG","time":9},{"time":2,"i_lat":-6.212485,"is_transit":false,"distance":1377,"transit":false,"i_long":106.858896,"station_id":"MTR","line":1,"station_name":"Matraman"},{"station_name":"Manggarai","is_transit":false,"i_long":106.84912,"line":2,"station_id":"MRI","transit":false,"distance":1275,"time":2,"i_lat":-6.209883},{"is_transit":false,"line":1,"station_id":"SUD","time":4,"i_lat":-6.202263,"transit":false,"distance":3186,"i_long":106.822649,"station_name":"Sudirman"},{"is_transit":false,"distance":280,"line":1,"i_long":106.819881,"station_id":"SUDB","transit":false,"time":1,"i_lat":-6.201433,"station_name":"Sudirman Baru"},{"station_name":"Karet","line":1,"station_id":"KAT","i_lat":-6.20132,"distance":471,"time":1,"transit":false,"is_transit":false,"i_long":106.816351},{"i_lat":-6.185545,"transit":true,"distance":2029,"line":1,"station_id":"THB","i_long":106.811091,"is_transit":true,"time":5,"station_name":"Tanah Abang"},{"is_transit":false,"station_id":"PLM","time":6,"station_name":"Palmerah","transit":false,"i_long":106.79689,"distance":3191,"line":6,"i_lat":-6.207404},{"station_id":"KBY","line":6,"time":7,"i_long":106.780334,"is_transit":false,"transit":false,"distance":3737,"i_lat":-6.237242,"station_name":"Kebayoran"},{"station_name":"Pondokranji","i_lat":-6.276362,"time":8,"is_transit":false,"i_long":106.74273,"line":6,"transit":false,"distance":6218,"station_id":"PDJ"},{"line":6,"distance":2179,"station_id":"JMU","transit":false,"is_transit":false,"time":3,"i_long":106.728916,"station_name":"Jurangmangu","i_lat":-6.288927},{"is_transit":false,"station_name":"Sudimara","i_long":106.712277,"i_lat":-6.296963,"station_id":"SDM","line":6,"time":4,"transit":false,"distance":1994},{"i_lat":-6.314823,"time":6,"station_id":"RU","i_long":106.675475,"is_transit":false,"line":6,"distance":4566,"station_name":"Rawa Buntu","transit":false},{"is_transit":false,"station_id":"SRP","station_name":"Serpong","time":4,"i_long":106.66566,"transit":false,"distance":2413,"i_lat":-6.319871,"line":6},{"distance":1784,"i_lat":-6.32484,"i_long":106.640411,"station_name":"Cisauk","is_transit":false,"time":4,"station_id":"CSK","line":3,"transit":false},{"distance":2519,"station_name":"Cicayur","line":3,"is_transit":false,"time":4,"station_id":"CC","transit":false,"i_long":106.617853,"i_lat":-6.329547},{"distance":5968,"station_id":"PRP","i_long":106.568863,"station_name":"Parung Panjang","is_transit":false,"i_lat":-6.3441410000000005,"time":8,"transit":false,"line":6}]]}