{"data":[[{"is_transit":false,"transit":false,"station_name":"Angke","i_lat":-6.144674,"i_long":106.79867,"line":1,"station_id":"AK","time":0,"distance":0},{"is_transit":false,"time":4,"line":1,"i_long":106.800832,"station_id":"DU","transit":false,"i_lat":-6.155215,"station_name":"Duri","distance":1230},{"i_lat":-6.185545,"distance":3632,"i_long":106.811091,"is_transit":true,"station_name":"Tanah Abang","station_id":"THB","time":8,"line":1,"transit":true},{"time":6,"distance":3191,"i_long":106.79689,"station_id":"PLM","station_name":"Palmerah","transit":false,"i_lat":-6.207404,"is_transit":false,"line":6},{"station_name":"Kebayoran","transit":false,"distance":3737,"i_lat":-6.237242,"line":6,"i_long":106.780334,"is_transit":false,"time":7,"station_id":"KBY"},{"is_transit":false,"i_lat":-6.276362,"station_id":"PDJ","distance":6218,"line":6,"time":8,"station_name":"Pondokranji","transit":false,"i_long":106.74273},{"station_id":"JMU","i_long":106.728916,"transit":false,"time":3,"distance":2179,"station_name":"Jurangmangu","line":6,"is_transit":false,"i_lat":-6.288927},{"station_name":"Sudimara","transit":false,"time":4,"is_transit":false,"distance":1994,"i_long":106.712277,"line":6,"i_lat":-6.296963,"station_id":"SDM"},{"station_name":"Rawa Buntu","time":6,"is_transit":false,"station_id":"RU","transit":false,"i_long":106.675475,"i_lat":-6.314823,"distance":4566,"line":6},{"station_id":"SRP","line":6,"time":4,"i_lat":-6.319871,"distance":2413,"station_name":"Serpong","is_transit":false,"i_long":106.66566,"transit":false},{"transit":false,"i_lat":-6.32484,"distance":1784,"is_transit":false,"station_name":"Cisauk","station_id":"CSK","time":4,"i_long":106.640411,"line":3},{"is_transit":false,"transit":false,"time":4,"i_long":106.617853,"line":3,"i_lat":-6.329547,"station_id":"CC","station_name":"Cicayur","distance":2519},{"i_lat":-6.3441410000000005,"station_id":"PRP","i_long":106.568863,"transit":false,"line":6,"distance":5968,"station_name":"Parung Panjang","time":8,"is_transit":false}],[{"transit":false,"station_id":"AK","time":0,"station_name":"Angke","distance":0,"is_transit":false,"i_lat":-6.144674,"i_long":106.79867,"line":1},{"time":9,"i_lat":-6.132549,"is_transit":true,"line":4,"station_id":"KPB","station_name":"Kampung Bandan","transit":true,"distance":4102,"i_long":106.826365},{"i_long":106.812439,"is_transit":true,"time":3,"station_name":"Jakarta Kota","station_id":"JAKK","distance":1364,"transit":true,"i_lat":-6.137569,"line":2},{"distance":1264,"i_lat":-6.141205,"station_id":"JAY","transit":false,"is_transit":false,"i_long":106.820901,"time":4,"line":2,"station_name":"Jayakarta"},{"i_lat":-6.149769,"i_long":106.82482,"time":2,"transit":false,"distance":1080,"station_name":"Manggabesar","station_id":"MGB","is_transit":false,"line":2},{"distance":906,"time":2,"i_lat":-6.160725,"station_name":"Sawah Besar","i_long":106.827103,"line":2,"is_transit":false,"transit":false,"station_id":"SW"},{"distance":1149,"is_transit":false,"line":2,"station_name":"Juanda","time":2,"i_long":106.828284,"transit":false,"station_id":"JUA","i_lat":-6.166716},{"distance":2015,"station_id":"GDD","time":4,"station_name":"Gondangdia","transit":false,"i_lat":-6.186295,"line":2,"is_transit":false,"i_long":106.832183},{"station_id":"CKI","distance":1750,"i_long":106.840169,"time":3,"line":2,"transit":false,"is_transit":false,"station_name":"Cikini","i_lat":-6.198556},{"line":2,"station_name":"Manggarai","transit":true,"is_transit":true,"i_long":106.84912,"time":4,"i_lat":-6.209883,"station_id":"MRI","distance":1590},{"time":4,"i_lat":-6.202263,"line":1,"station_id":"SUD","station_name":"Sudirman","is_transit":false,"transit":false,"i_long":106.822649,"distance":3186},{"line":1,"transit":false,"i_lat":-6.201433,"station_name":"Sudirman Baru","time":1,"station_id":"SUDB","is_transit":false,"i_long":106.819881,"distance":280},{"station_name":"Karet","i_lat":-6.20132,"transit":false,"is_transit":false,"station_id":"KAT","line":1,"time":1,"distance":471,"i_long":106.816351},{"is_transit":true,"distance":2029,"time":5,"transit":true,"i_lat":-6.185545,"station_id":"THB","line":1,"station_name":"Tanah Abang","i_long":106.811091},{"is_transit":false,"station_id":"PLM","transit":false,"station_name":"Palmerah","i_long":106.79689,"i_lat":-6.207404,"line":6,"time":6,"distance":3191},{"distance":3737,"time":7,"transit":false,"i_lat":-6.237242,"i_long":106.780334,"line":6,"is_transit":false,"station_name":"Kebayoran","station_id":"KBY"},{"distance":6218,"transit":false,"is_transit":false,"station_name":"Pondokranji","station_id":"PDJ","i_lat":-6.276362,"line":6,"time":8,"i_long":106.74273},{"line":6,"transit":false,"distance":2179,"time":3,"station_id":"JMU","station_name":"Jurangmangu","i_lat":-6.288927,"is_transit":false,"i_long":106.728916},{"i_long":106.712277,"transit":false,"distance":1994,"i_lat":-6.296963,"line":6,"station_id":"SDM","time":4,"station_name":"Sudimara","is_transit":false},{"distance":4566,"time":6,"is_transit":false,"i_lat":-6.314823,"line":6,"station_id":"RU","station_name":"Rawa Buntu","i_long":106.675475,"transit":false},{"distance":2413,"i_lat":-6.319871,"station_id":"SRP","station_name":"Serpong","time":4,"i_long":106.66566,"transit":false,"line":6,"is_transit":false},{"is_transit":false,"station_id":"CSK","station_name":"Cisauk","i_long":106.640411,"transit":false,"i_lat":-6.32484,"distance":1784,"line":3,"time":4},{"transit":false,"station_name":"Cicayur","time":4,"i_lat":-6.329547,"station_id":"CC","is_transit":false,"distance":2519,"i_long":106.617853,"line":3},{"transit":false,"is_transit":false,"station_id":"PRP","i_lat":-6.3441410000000005,"distance":5968,"i_long":106.568863,"line":6,"time":8,"station_name":"Parung Panjang"}],[{"station_id":"AK","line":1,"distance":0,"station_name":"Angke","i_lat":-6.144674,"transit":false,"time":0,"is_transit":false,"i_long":106.79867},{"i_long":106.826365,"station_name":"Kampung Bandan","is_transit":true,"i_lat":-6.132549,"station_id":"KPB","time":9,"transit":true,"distance":4102,"line":4},{"station_name":"Rajawali","i_lat":-6.14505,"station_id":"RJW","distance":1444,"time":3,"transit":false,"i_long":106.836569,"line":11,"is_transit":false},{"station_id":"KMO","transit":false,"is_transit":false,"distance":1901,"line":11,"i_long":106.839204,"i_lat":-6.161728,"station_name":"Kemayoran","time":5},{"station_name":"Pasar Senen","transit":false,"distance":1436,"i_long":106.84368,"time":4,"i_lat":-6.174784,"line":11,"station_id":"PSE","is_transit":false},{"line":11,"station_id":"GST","station_name":"Gang Sentiong","i_lat":-6.185975,"transit":false,"is_transit":false,"time":8,"distance":1567,"i_long":106.850107},{"station_name":"Kramat","i_lat":-6.193792,"transit":false,"distance":973,"is_transit":false,"i_long":106.855437,"station_id":"KMT","line":11,"time":1},{"station_name":"Pondok Jati","station_id":"POK","i_long":106.861737,"line":11,"i_lat":-6.209188,"transit":false,"is_transit":false,"distance":1829,"time":2},{"i_long":106.86807400000001,"i_lat":-6.215091,"station_name":"Jatinegara","station_id":"JNG","distance":1236,"is_transit":true,"line":1,"time":9,"transit":true},{"station_id":"MTR","i_long":106.858896,"line":1,"is_transit":false,"i_lat":-6.212485,"time":2,"transit":false,"distance":1377,"station_name":"Matraman"},{"is_transit":false,"transit":false,"station_name":"Manggarai","distance":1275,"time":2,"i_long":106.84912,"i_lat":-6.209883,"station_id":"MRI","line":2},{"is_transit":false,"station_id":"SUD","time":4,"distance":3186,"i_lat":-6.202263,"station_name":"Sudirman","transit":false,"i_long":106.822649,"line":1},{"distance":280,"i_long":106.819881,"transit":false,"station_name":"Sudirman Baru","i_lat":-6.201433,"line":1,"station_id":"SUDB","time":1,"is_transit":false},{"time":1,"station_id":"KAT","line":1,"i_long":106.816351,"distance":471,"is_transit":false,"i_lat":-6.20132,"station_name":"Karet","transit":false},{"station_id":"THB","is_transit":true,"transit":true,"station_name":"Tanah Abang","time":5,"line":1,"i_lat":-6.185545,"i_long":106.811091,"distance":2029},{"i_long":106.79689,"station_name":"Palmerah","is_transit":false,"line":6,"station_id":"PLM","distance":3191,"transit":false,"time":6,"i_lat":-6.207404},{"is_transit":false,"time":7,"i_lat":-6.237242,"transit":false,"i_long":106.780334,"line":6,"distance":3737,"station_id":"KBY","station_name":"Kebayoran"},{"distance":6218,"time":8,"station_name":"Pondokranji","transit":false,"is_transit":false,"station_id":"PDJ","i_long":106.74273,"i_lat":-6.276362,"line":6},{"distance":2179,"time":3,"station_name":"Jurangmangu","transit":false,"i_lat":-6.288927,"i_long":106.728916,"line":6,"station_id":"JMU","is_transit":false},{"transit":false,"station_name":"Sudimara","time":4,"station_id":"SDM","distance":1994,"i_lat":-6.296963,"is_transit":false,"i_long":106.712277,"line":6},{"is_transit":false,"station_id":"RU","transit":false,"distance":4566,"i_long":106.675475,"i_lat":-6.314823,"station_name":"Rawa Buntu","line":6,"time":6},{"line":6,"transit":false,"station_id":"SRP","i_long":106.66566,"i_lat":-6.319871,"distance":2413,"station_name":"Serpong","time":4,"is_transit":false},{"line":3,"is_transit":false,"station_name":"Cisauk","time":4,"transit":false,"i_lat":-6.32484,"distance":1784,"i_long":106.640411,"station_id":"CSK"},{"is_transit":false,"i_lat":-6.329547,"i_long":106.617853,"time":4,"station_name":"Cicayur","station_id":"CC","transit":false,"distance":2519,"line":3},{"i_long":106.568863,"station_name":"Parung Panjang","is_transit":false,"distance":5968,"station_id":"PRP","line":6,"time":8,"transit":false,"i_lat":-6.3441410000000005}]]}