{"data":[[{"i_long":106.79867,"i_lat":-6.144674,"line":1,"time":0,"is_transit":false,"station_name":"Angke","station_id":"AK","distance":0,"transit":false},{"station_name":"Duri","transit":false,"i_lat":-6.155215,"line":1,"is_transit":false,"time":4,"i_long":106.800832,"distance":1230,"station_id":"DU"},{"is_transit":true,"line":1,"station_name":"Tanah Abang","station_id":"THB","i_lat":-6.185545,"i_long":106.811091,"transit":true,"distance":3632,"time":8},{"time":6,"is_transit":false,"line":6,"distance":3191,"transit":false,"station_id":"PLM","station_name":"Palmerah","i_lat":-6.207404,"i_long":106.79689},{"is_transit":false,"i_lat":-6.237242,"i_long":106.780334,"transit":false,"line":6,"station_name":"Kebayoran","time":7,"station_id":"KBY","distance":3737},{"transit":false,"i_lat":-6.276362,"line":6,"station_name":"Pondokranji","i_long":106.74273,"station_id":"PDJ","is_transit":false,"time":8,"distance":6218}],[{"station_id":"AK","distance":0,"line":1,"station_name":"Angke","is_transit":false,"i_long":106.79867,"i_lat":-6.144674,"transit":false,"time":0},{"distance":4102,"transit":true,"is_transit":true,"station_id":"KPB","line":4,"i_lat":-6.132549,"time":9,"i_long":106.826365,"station_name":"Kampung Bandan"},{"time":3,"distance":1364,"station_name":"Jakarta Kota","station_id":"JAKK","i_lat":-6.137569,"transit":true,"i_long":106.812439,"is_transit":true,"line":2},{"time":4,"transit":false,"station_id":"JAY","station_name":"Jayakarta","i_lat":-6.141205,"line":2,"is_transit":false,"distance":1264,"i_long":106.820901},{"line":2,"i_lat":-6.149769,"station_name":"Manggabesar","time":2,"transit":false,"distance":1080,"i_long":106.82482,"is_transit":false,"station_id":"MGB"},{"station_id":"SW","time":2,"distance":906,"i_lat":-6.160725,"is_transit":false,"i_long":106.827103,"line":2,"transit":false,"station_name":"Sawah Besar"},{"transit":false,"i_long":106.828284,"station_name":"Juanda","is_transit":false,"i_lat":-6.166716,"station_id":"JUA","line":2,"distance":1149,"time":2},{"i_long":106.832183,"line":2,"time":4,"distance":2015,"transit":false,"is_transit":false,"station_name":"Gondangdia","i_lat":-6.186295,"station_id":"GDD"},{"line":2,"transit":false,"distance":1750,"time":3,"i_lat":-6.198556,"station_id":"CKI","i_long":106.840169,"is_transit":false,"station_name":"Cikini"},{"station_name":"Manggarai","distance":1590,"is_transit":true,"station_id":"MRI","i_long":106.84912,"line":2,"transit":true,"time":4,"i_lat":-6.209883},{"station_name":"Sudirman","time":4,"distance":3186,"transit":false,"station_id":"SUD","i_lat":-6.202263,"i_long":106.822649,"line":1,"is_transit":false},{"i_lat":-6.201433,"i_long":106.819881,"is_transit":false,"transit":false,"line":1,"station_id":"SUDB","time":1,"distance":280,"station_name":"Sudirman Baru"},{"i_long":106.816351,"station_name":"Karet","is_transit":false,"time":1,"distance":471,"transit":false,"i_lat":-6.20132,"station_id":"KAT","line":1},{"i_lat":-6.185545,"is_transit":true,"transit":true,"station_name":"Tanah Abang","time":5,"station_id":"THB","distance":2029,"line":1,"i_long":106.811091},{"line":6,"station_id":"PLM","i_lat":-6.207404,"time":6,"i_long":106.79689,"is_transit":false,"transit":false,"distance":3191,"station_name":"Palmerah"},{"transit":false,"station_id":"KBY","is_transit":false,"time":7,"distance":3737,"i_lat":-6.237242,"i_long":106.780334,"station_name":"Kebayoran","line":6},{"distance":6218,"station_id":"PDJ","i_long":106.74273,"is_transit":false,"transit":false,"station_name":"Pondokranji","line":6,"i_lat":-6.276362,"time":8}],[{"time":0,"is_transit":false,"transit":false,"station_id":"AK","distance":0,"line":1,"i_long":106.79867,"station_name":"Angke","i_lat":-6.144674},{"time":9,"distance":4102,"is_transit":true,"station_name":"Kampung Bandan","i_lat":-6.132549,"station_id":"KPB","transit":true,"i_long":106.826365,"line":4},{"is_transit":false,"line":11,"i_long":106.836569,"transit":false,"i_lat":-6.14505,"distance":1444,"station_name":"Rajawali","station_id":"RJW","time":3},{"station_name":"Kemayoran","transit":false,"station_id":"KMO","time":5,"distance":1901,"i_long":106.839204,"line":11,"is_transit":false,"i_lat":-6.161728},{"transit":false,"i_long":106.84368,"station_name":"Pasar Senen","station_id":"PSE","is_transit":false,"i_lat":-6.174784,"distance":1436,"time":4,"line":11},{"station_name":"Gang Sentiong","i_lat":-6.185975,"transit":false,"i_long":106.850107,"is_transit":false,"time":8,"station_id":"GST","distance":1567,"line":11},{"time":1,"transit":false,"line":11,"station_name":"Kramat","is_transit":false,"i_lat":-6.193792,"i_long":106.855437,"distance":973,"station_id":"KMT"},{"time":2,"line":11,"is_transit":false,"station_name":"Pondok Jati","distance":1829,"transit":false,"station_id":"POK","i_lat":-6.209188,"i_long":106.861737},{"i_lat":-6.215091,"is_transit":true,"station_id":"JNG","line":1,"station_name":"Jatinegara","i_long":106.86807400000001,"time":9,"distance":1236,"transit":true},{"i_long":106.858896,"is_transit":false,"transit":false,"line":1,"distance":1377,"station_name":"Matraman","i_lat":-6.212485,"time":2,"station_id":"MTR"},{"i_lat":-6.209883,"transit":false,"is_transit":false,"distance":1275,"time":2,"i_long":106.84912,"station_id":"MRI","station_name":"Manggarai","line":2},{"time":4,"distance":3186,"transit":false,"line":1,"i_lat":-6.202263,"station_name":"Sudirman","is_transit":false,"station_id":"SUD","i_long":106.822649},{"transit":false,"station_name":"Sudirman Baru","time":1,"i_lat":-6.201433,"station_id":"SUDB","is_transit":false,"i_long":106.819881,"line":1,"distance":280},{"distance":471,"time":1,"line":1,"is_transit":false,"transit":false,"station_id":"KAT","i_long":106.816351,"station_name":"Karet","i_lat":-6.20132},{"time":5,"is_transit":true,"transit":true,"distance":2029,"i_lat":-6.185545,"i_long":106.811091,"station_id":"THB","line":1,"station_name":"Tanah Abang"},{"station_name":"Palmerah","i_lat":-6.207404,"i_long":106.79689,"distance":3191,"is_transit":false,"transit":false,"time":6,"station_id":"PLM","line":6},{"i_lat":-6.237242,"transit":false,"distance":3737,"time":7,"station_name":"Kebayoran","station_id":"KBY","i_long":106.780334,"line":6,"is_transit":false},{"is_transit":false,"station_name":"Pondokranji","distance":6218,"time":8,"station_id":"PDJ","transit":false,"i_lat":-6.276362,"i_long":106.74273,"line":6}]]}