{"data":[[{"time":0,"station_id":"AK","i_long":106.79867,"transit":false,"station_name":"Angke","line":0,"i_lat":-6.144674,"distance":0,"is_transit":false},{"i_long":106.800832,"time":4,"line":1,"is_transit":true,"distance":1230,"transit":true,"station_name":"Duri","station_id":"DU","i_lat":-6.155215},{"station_id":"THB","i_lat":-6.185545,"i_long":106.811091,"line":1,"transit":true,"is_transit":true,"station_name":"Tanah Abang","time":8,"distance":3632},{"transit":false,"time":6,"i_lat":-6.207404,"is_transit":false,"station_id":"PLM","i_long":106.79689,"station_name":"Palmerah","line":6,"distance":3191},{"station_name":"Kebayoran","transit":false,"line":6,"i_long":106.780334,"station_id":"KBY","distance":3737,"is_transit":false,"time":7,"i_lat":-6.237242},{"transit":false,"station_id":"PDJ","i_lat":-6.276362,"is_transit":false,"station_name":"Pondokranji","i_long":106.74273,"line":6,"time":8,"distance":6218},{"is_transit":false,"i_lat":-6.288927,"transit":false,"distance":2179,"time":3,"station_name":"Jurangmangu","station_id":"JMU","line":6,"i_long":106.728916},{"i_lat":-6.296963,"distance":1994,"station_id":"SDM","transit":false,"station_name":"Sudimara","i_long":106.712277,"is_transit":false,"line":6,"time":4},{"i_long":106.675475,"line":6,"station_id":"RU","station_name":"Rawa Buntu","transit":false,"i_lat":-6.314823,"time":6,"is_transit":false,"distance":4566},{"line":6,"i_long":106.66566,"station_name":"Serpong","time":4,"i_lat":-6.319871,"distance":2413,"transit":false,"is_transit":false,"station_id":"SRP"},{"is_transit":false,"line":0,"distance":1784,"transit":false,"station_name":"Cisauk","i_long":106.640411,"time":4,"station_id":"CSK","i_lat":-6.32484},{"time":4,"i_lat":-6.329547,"station_name":"Cicayur","i_long":106.617853,"transit":false,"line":0,"station_id":"CC","distance":2519,"is_transit":false},{"station_name":"Parung Panjang","station_id":"PRP","transit":false,"line":6,"distance":5968,"i_long":106.568863,"i_lat":-6.3441410000000005,"time":8,"is_transit":false}],[{"time":0,"is_transit":false,"transit":false,"line":0,"i_long":106.79867,"station_id":"AK","station_name":"Angke","distance":0,"i_lat":-6.144674},{"transit":false,"i_lat":-6.132549,"i_long":106.826365,"distance":4102,"station_name":"Kampung Bandan","is_transit":true,"time":9,"line":0,"station_id":"KPB"},{"time":3,"distance":1364,"i_long":106.812439,"i_lat":-6.137569,"station_name":"Jakarta Kota","line":0,"station_id":"JAKK","transit":true,"is_transit":true},{"distance":1264,"i_lat":-6.141205,"transit":false,"is_transit":false,"station_id":"JAY","i_long":106.820901,"station_name":"Jayakarta","line":7,"time":4},{"is_transit":false,"station_name":"Manggabesar","i_long":106.82482,"i_lat":-6.149769,"line":2,"station_id":"MGB","time":2,"transit":false,"distance":1080},{"i_lat":-6.160725,"transit":false,"distance":906,"i_long":106.827103,"is_transit":false,"station_name":"Sawah Besar","station_id":"SW","line":2,"time":2},{"station_id":"JUA","i_long":106.828284,"distance":1149,"transit":false,"i_lat":-6.166716,"line":2,"station_name":"Juanda","is_transit":false,"time":2},{"transit":false,"station_name":"Gondangdia","is_transit":false,"i_lat":-6.186295,"station_id":"GDD","i_long":106.832183,"distance":2015,"line":2,"time":4},{"i_lat":-6.198556,"time":3,"i_long":106.840169,"station_name":"Cikini","transit":false,"station_id":"CKI","distance":1750,"line":0,"is_transit":false},{"line":0,"is_transit":true,"time":4,"station_id":"MRI","i_lat":-6.209883,"distance":1590,"i_long":106.84912,"station_name":"Manggarai","transit":true},{"station_id":"SUD","time":4,"station_name":"Sudirman","distance":3186,"is_transit":false,"transit":false,"i_long":106.822649,"line":1,"i_lat":-6.202263},{"transit":false,"distance":280,"station_id":"SUDB","i_long":106.819881,"is_transit":false,"time":1,"station_name":"Sudirman Baru","i_lat":-6.201433,"line":1},{"is_transit":false,"line":1,"station_name":"Karet","i_lat":-6.20132,"distance":471,"i_long":106.816351,"station_id":"KAT","time":1,"transit":false},{"i_lat":-6.185545,"is_transit":true,"time":5,"line":1,"i_long":106.811091,"distance":2029,"transit":true,"station_name":"Tanah Abang","station_id":"THB"},{"time":6,"station_name":"Palmerah","station_id":"PLM","i_lat":-6.207404,"i_long":106.79689,"distance":3191,"is_transit":false,"line":6,"transit":false},{"i_lat":-6.237242,"time":7,"is_transit":false,"transit":false,"i_long":106.780334,"station_id":"KBY","station_name":"Kebayoran","line":6,"distance":3737},{"time":8,"station_name":"Pondokranji","distance":6218,"transit":false,"i_lat":-6.276362,"is_transit":false,"station_id":"PDJ","line":6,"i_long":106.74273},{"distance":2179,"transit":false,"time":3,"station_id":"JMU","station_name":"Jurangmangu","i_lat":-6.288927,"i_long":106.728916,"line":6,"is_transit":false},{"i_long":106.712277,"time":4,"line":6,"distance":1994,"i_lat":-6.296963,"station_id":"SDM","transit":false,"station_name":"Sudimara","is_transit":false},{"is_transit":false,"time":6,"distance":4566,"station_name":"Rawa Buntu","transit":false,"line":6,"i_long":106.675475,"station_id":"RU","i_lat":-6.314823},{"station_name":"Serpong","line":6,"distance":2413,"is_transit":false,"transit":false,"i_long":106.66566,"i_lat":-6.319871,"time":4,"station_id":"SRP"},{"time":4,"is_transit":false,"line":0,"distance":1784,"i_long":106.640411,"station_id":"CSK","i_lat":-6.32484,"station_name":"Cisauk","transit":false},{"station_name":"Cicayur","line":0,"station_id":"CC","i_long":106.617853,"is_transit":false,"distance":2519,"transit":false,"time":4,"i_lat":-6.329547},{"transit":false,"time":8,"is_transit":false,"station_id":"PRP","line":6,"distance":5968,"i_lat":-6.3441410000000005,"station_name":"Parung Panjang","i_long":106.568863}],[{"station_name":"Angke","line":0,"station_id":"AK","time":0,"distance":0,"i_lat":-6.144674,"is_transit":false,"i_long":106.79867,"transit":false},{"is_transit":true,"transit":true,"line":0,"i_lat":-6.132549,"time":9,"i_long":106.826365,"station_id":"KPB","distance":4102,"station_name":"Kampung Bandan"},{"transit":false,"i_lat":-6.14505,"station_name":"Rajawali","i_long":106.836569,"is_transit":false,"station_id":"RJW","distance":1444,"time":3,"line":11},{"station_name":"Kemayoran","station_id":"KMO","i_long":106.839204,"distance":1901,"i_lat":-6.161728,"transit":false,"time":5,"line":11,"is_transit":false},{"station_name":"Pasar Senen","i_lat":-6.174784,"line":11,"time":4,"is_transit":false,"station_id":"PSE","i_long":106.84368,"distance":1436,"transit":false},{"i_lat":-6.185975,"station_name":"Gang Sentiong","station_id":"GST","time":8,"line":11,"transit":false,"distance":1567,"is_transit":false,"i_long":106.850107},{"is_transit":false,"transit":false,"time":1,"i_long":106.855437,"station_id":"KMT","distance":973,"station_name":"Kramat","line":11,"i_lat":-6.193792},{"time":2,"transit":false,"i_lat":-6.209188,"is_transit":false,"line":11,"station_id":"POK","i_long":106.861737,"distance":1829,"station_name":"Pondok Jati"},{"time":9,"i_long":106.86807400000001,"is_transit":true,"station_id":"JNG","transit":true,"distance":1236,"station_name":"Jatinegara","i_lat":-6.215091,"line":0},{"station_id":"MTR","i_long":106.858896,"is_transit":false,"transit":false,"i_lat":-6.212485,"distance":1377,"line":1,"station_name":"Matraman","time":2},{"transit":false,"station_id":"MRI","i_lat":-6.209883,"i_long":106.84912,"line":0,"is_transit":true,"distance":1275,"station_name":"Manggarai","time":2},{"station_id":"SUD","transit":false,"time":4,"is_transit":false,"i_long":106.822649,"station_name":"Sudirman","i_lat":-6.202263,"distance":3186,"line":1},{"is_transit":false,"station_name":"Sudirman Baru","transit":false,"line":1,"time":1,"station_id":"SUDB","distance":280,"i_lat":-6.201433,"i_long":106.819881},{"i_lat":-6.20132,"i_long":106.816351,"line":1,"is_transit":false,"station_name":"Karet","distance":471,"station_id":"KAT","transit":false,"time":1},{"is_transit":true,"time":5,"station_name":"Tanah Abang","line":1,"i_lat":-6.185545,"transit":true,"station_id":"THB","distance":2029,"i_long":106.811091},{"station_id":"PLM","i_long":106.79689,"station_name":"Palmerah","is_transit":false,"time":6,"line":6,"transit":false,"distance":3191,"i_lat":-6.207404},{"is_transit":false,"time":7,"station_name":"Kebayoran","i_lat":-6.237242,"transit":false,"i_long":106.780334,"distance":3737,"station_id":"KBY","line":6},{"is_transit":false,"station_id":"PDJ","distance":6218,"i_long":106.74273,"transit":false,"line":6,"time":8,"station_name":"Pondokranji","i_lat":-6.276362},{"transit":false,"station_name":"Jurangmangu","line":6,"is_transit":false,"time":3,"i_long":106.728916,"distance":2179,"i_lat":-6.288927,"station_id":"JMU"},{"station_id":"SDM","transit":false,"i_long":106.712277,"distance":1994,"line":6,"time":4,"station_name":"Sudimara","i_lat":-6.296963,"is_transit":false},{"time":6,"station_name":"Rawa Buntu","i_lat":-6.314823,"distance":4566,"transit":false,"line":6,"i_long":106.675475,"station_id":"RU","is_transit":false},{"station_name":"Serpong","distance":2413,"station_id":"SRP","time":4,"line":6,"i_lat":-6.319871,"is_transit":false,"i_long":106.66566,"transit":false},{"i_lat":-6.32484,"is_transit":false,"station_name":"Cisauk","line":0,"time":4,"distance":1784,"transit":false,"i_long":106.640411,"station_id":"CSK"},{"is_transit":false,"i_long":106.617853,"time":4,"line":0,"transit":false,"i_lat":-6.329547,"station_name":"Cicayur","station_id":"CC","distance":2519},{"is_transit":false,"station_id":"PRP","time":8,"station_name":"Parung Panjang","line":6,"distance":5968,"i_lat":-6.3441410000000005,"transit":false,"i_long":106.568863}]]}