{"data":[[{"transit":false,"i_long":106.79867,"i_lat":-6.144674,"station_name":"Angke","distance":0,"station_id":"AK","line":1,"time":0,"is_transit":false},{"distance":1230,"station_id":"DU","line":1,"transit":false,"is_transit":false,"time":4,"station_name":"Duri","i_long":106.800832,"i_lat":-6.155215},{"station_name":"Tanah Abang","transit":true,"time":8,"is_transit":true,"i_lat":-6.185545,"distance":3632,"line":1,"i_long":106.811091,"station_id":"THB"},{"transit":false,"station_name":"Palmerah","station_id":"PLM","line":6,"i_lat":-6.207404,"is_transit":false,"distance":3191,"i_long":106.79689,"time":6},{"transit":false,"is_transit":false,"time":7,"i_lat":-6.237242,"station_name":"Kebayoran","station_id":"KBY","line":6,"i_long":106.780334,"distance":3737},{"time":8,"station_id":"PDJ","i_lat":-6.276362,"station_name":"Pondokranji","transit":false,"distance":6218,"line":6,"is_transit":false,"i_long":106.74273}],[{"i_long":106.79867,"time":0,"transit":false,"distance":0,"is_transit":false,"line":1,"station_id":"AK","station_name":"Angke","i_lat":-6.144674},{"is_transit":true,"time":9,"station_name":"Kampung Bandan","distance":4102,"i_long":106.826365,"line":4,"transit":true,"station_id":"KPB","i_lat":-6.132549},{"line":2,"is_transit":true,"station_name":"Jakarta Kota","transit":true,"time":3,"i_long":106.812439,"i_lat":-6.137569,"station_id":"JAKK","distance":1364},{"station_name":"Jayakarta","time":4,"i_lat":-6.141205,"is_transit":false,"i_long":106.820901,"transit":false,"station_id":"JAY","distance":1264,"line":2},{"transit":false,"distance":1080,"line":2,"station_id":"MGB","i_long":106.82482,"time":2,"is_transit":false,"i_lat":-6.149769,"station_name":"Manggabesar"},{"time":2,"i_long":106.827103,"line":2,"distance":906,"station_id":"SW","station_name":"Sawah Besar","i_lat":-6.160725,"is_transit":false,"transit":false},{"transit":false,"time":2,"station_name":"Juanda","distance":1149,"i_lat":-6.166716,"station_id":"JUA","line":2,"is_transit":false,"i_long":106.828284},{"i_lat":-6.186295,"station_name":"Gondangdia","time":4,"is_transit":false,"i_long":106.832183,"transit":false,"station_id":"GDD","distance":2015,"line":2},{"i_long":106.840169,"line":2,"time":3,"station_id":"CKI","distance":1750,"is_transit":false,"station_name":"Cikini","i_lat":-6.198556,"transit":false},{"time":4,"station_id":"MRI","i_lat":-6.209883,"line":2,"station_name":"Manggarai","is_transit":true,"distance":1590,"i_long":106.84912,"transit":true},{"is_transit":false,"time":4,"station_id":"SUD","i_lat":-6.202263,"line":1,"station_name":"Sudirman","i_long":106.822649,"distance":3186,"transit":false},{"is_transit":false,"distance":280,"station_id":"SUDB","transit":false,"time":1,"station_name":"Sudirman Baru","i_lat":-6.201433,"i_long":106.819881,"line":1},{"transit":false,"distance":471,"i_lat":-6.20132,"station_id":"KAT","i_long":106.816351,"time":1,"line":1,"is_transit":false,"station_name":"Karet"},{"time":5,"transit":true,"i_long":106.811091,"line":1,"distance":2029,"station_name":"Tanah Abang","is_transit":true,"station_id":"THB","i_lat":-6.185545},{"line":6,"i_lat":-6.207404,"is_transit":false,"station_id":"PLM","station_name":"Palmerah","transit":false,"i_long":106.79689,"time":6,"distance":3191},{"i_lat":-6.237242,"time":7,"transit":false,"is_transit":false,"station_name":"Kebayoran","i_long":106.780334,"station_id":"KBY","line":6,"distance":3737},{"is_transit":false,"time":8,"distance":6218,"line":6,"transit":false,"i_lat":-6.276362,"station_name":"Pondokranji","station_id":"PDJ","i_long":106.74273}],[{"distance":0,"i_lat":-6.144674,"i_long":106.79867,"station_name":"Angke","time":0,"transit":false,"is_transit":false,"line":1,"station_id":"AK"},{"time":9,"is_transit":true,"i_lat":-6.132549,"i_long":106.826365,"transit":true,"station_name":"Kampung Bandan","line":4,"distance":4102,"station_id":"KPB"},{"i_lat":-6.14505,"distance":1444,"time":3,"transit":false,"is_transit":false,"station_id":"RJW","i_long":106.836569,"line":11,"station_name":"Rajawali"},{"station_name":"Kemayoran","i_lat":-6.161728,"station_id":"KMO","transit":false,"time":5,"line":11,"distance":1901,"i_long":106.839204,"is_transit":false},{"time":4,"line":11,"distance":1436,"transit":false,"station_name":"Pasar Senen","station_id":"PSE","i_long":106.84368,"i_lat":-6.174784,"is_transit":false},{"i_lat":-6.185975,"is_transit":false,"station_id":"GST","i_long":106.850107,"distance":1567,"time":8,"station_name":"Gang Sentiong","line":11,"transit":false},{"distance":973,"station_name":"Kramat","time":1,"transit":false,"is_transit":false,"station_id":"KMT","i_lat":-6.193792,"i_long":106.855437,"line":11},{"i_long":106.861737,"line":11,"station_name":"Pondok Jati","time":2,"station_id":"POK","i_lat":-6.209188,"distance":1829,"is_transit":false,"transit":false},{"transit":true,"station_id":"JNG","is_transit":true,"time":9,"line":1,"distance":1236,"station_name":"Jatinegara","i_long":106.86807400000001,"i_lat":-6.215091},{"is_transit":false,"i_long":106.858896,"station_name":"Matraman","line":1,"i_lat":-6.212485,"station_id":"MTR","time":2,"distance":1377,"transit":false},{"time":2,"is_transit":false,"station_name":"Manggarai","i_lat":-6.209883,"station_id":"MRI","line":2,"transit":false,"i_long":106.84912,"distance":1275},{"distance":3186,"station_id":"SUD","i_lat":-6.202263,"transit":false,"i_long":106.822649,"line":1,"station_name":"Sudirman","time":4,"is_transit":false},{"i_long":106.819881,"i_lat":-6.201433,"station_name":"Sudirman Baru","distance":280,"is_transit":false,"time":1,"transit":false,"station_id":"SUDB","line":1},{"time":1,"station_id":"KAT","i_long":106.816351,"is_transit":false,"distance":471,"i_lat":-6.20132,"line":1,"transit":false,"station_name":"Karet"},{"i_long":106.811091,"is_transit":true,"transit":true,"distance":2029,"station_name":"Tanah Abang","time":5,"station_id":"THB","i_lat":-6.185545,"line":1},{"time":6,"is_transit":false,"line":6,"i_lat":-6.207404,"station_id":"PLM","transit":false,"i_long":106.79689,"distance":3191,"station_name":"Palmerah"},{"time":7,"line":6,"station_id":"KBY","distance":3737,"transit":false,"i_lat":-6.237242,"i_long":106.780334,"is_transit":false,"station_name":"Kebayoran"},{"distance":6218,"i_lat":-6.276362,"i_long":106.74273,"station_name":"Pondokranji","station_id":"PDJ","time":8,"is_transit":false,"transit":false,"line":6}]]}