{"data":[[{"is_transit":false,"distance":0,"station_id":"AK","i_lat":-6.144674,"line":0,"transit":false,"time":0,"station_name":"Angke","i_long":106.79867},{"transit":true,"time":9,"station_id":"KPB","station_name":"Kampung Bandan","line":0,"i_long":106.826365,"distance":4102,"is_transit":true,"i_lat":-6.132549},{"station_name":"Rajawali","is_transit":false,"line":11,"distance":1444,"station_id":"RJW","i_lat":-6.14505,"time":3,"i_long":106.836569,"transit":false}],[{"time":0,"distance":0,"is_transit":false,"station_id":"AK","line":0,"i_lat":-6.144674,"i_long":106.79867,"transit":false,"station_name":"Angke"},{"station_name":"Duri","line":1,"i_long":106.800832,"transit":true,"is_transit":true,"distance":1230,"time":4,"i_lat":-6.155215,"station_id":"DU"},{"line":1,"distance":3632,"is_transit":true,"i_lat":-6.185545,"station_name":"Tanah Abang","transit":false,"i_long":106.811091,"time":8,"station_id":"THB"},{"i_lat":-6.20132,"line":1,"station_id":"KAT","station_name":"Karet","i_long":106.816351,"is_transit":false,"time":5,"distance":2029,"transit":false},{"station_name":"Sudirman Baru","time":1,"line":1,"i_long":106.819881,"is_transit":false,"i_lat":-6.201433,"station_id":"SUDB","distance":471,"transit":false},{"station_name":"Sudirman","i_lat":-6.202263,"line":1,"is_transit":false,"station_id":"SUD","i_long":106.822649,"transit":false,"time":1,"distance":280},{"distance":3186,"i_lat":-6.209883,"i_long":106.84912,"line":0,"transit":false,"is_transit":true,"station_id":"MRI","station_name":"Manggarai","time":4},{"distance":1275,"station_name":"Matraman","transit":false,"i_lat":-6.212485,"is_transit":false,"station_id":"MTR","i_long":106.858896,"line":1,"time":2},{"transit":true,"i_long":106.86807400000001,"distance":1377,"station_id":"JNG","line":0,"is_transit":true,"time":8,"i_lat":-6.215091,"station_name":"Jatinegara"},{"station_id":"POK","station_name":"Pondok Jati","transit":false,"i_lat":-6.209188,"time":2,"line":11,"is_transit":false,"i_long":106.861737,"distance":1236},{"station_name":"Kramat","distance":1829,"transit":false,"i_lat":-6.193792,"i_long":106.855437,"time":2,"station_id":"KMT","line":11,"is_transit":false},{"distance":973,"is_transit":false,"i_long":106.850107,"time":1,"line":11,"station_name":"Gang Sentiong","transit":false,"station_id":"GST","i_lat":-6.185975},{"station_name":"Pasar Senen","line":11,"time":8,"transit":false,"i_long":106.84368,"i_lat":-6.174784,"is_transit":false,"distance":1567,"station_id":"PSE"},{"is_transit":false,"line":11,"i_lat":-6.161728,"i_long":106.839204,"transit":false,"distance":1436,"time":4,"station_name":"Kemayoran","station_id":"KMO"},{"distance":1901,"is_transit":false,"time":5,"station_id":"RJW","transit":false,"i_long":106.836569,"line":11,"station_name":"Rajawali","i_lat":-6.14505}],[{"i_lat":-6.144674,"time":0,"transit":false,"is_transit":false,"i_long":106.79867,"line":0,"distance":0,"station_name":"Angke","station_id":"AK"},{"station_name":"Duri","i_lat":-6.155215,"is_transit":true,"distance":1230,"transit":true,"station_id":"DU","time":4,"i_long":106.800832,"line":1},{"i_long":106.811091,"i_lat":-6.185545,"line":1,"distance":3632,"time":8,"is_transit":true,"station_name":"Tanah Abang","station_id":"THB","transit":false},{"transit":false,"station_id":"KAT","i_lat":-6.20132,"line":1,"time":5,"distance":2029,"station_name":"Karet","i_long":106.816351,"is_transit":false},{"distance":471,"is_transit":false,"station_name":"Sudirman Baru","line":1,"station_id":"SUDB","i_lat":-6.201433,"i_long":106.819881,"transit":false,"time":1},{"transit":false,"station_name":"Sudirman","line":1,"distance":280,"station_id":"SUD","is_transit":false,"time":1,"i_lat":-6.202263,"i_long":106.822649},{"distance":3186,"station_id":"MRI","i_lat":-6.209883,"i_long":106.84912,"line":0,"transit":true,"station_name":"Manggarai","time":4,"is_transit":true},{"line":0,"distance":1590,"transit":false,"time":4,"station_name":"Cikini","i_long":106.840169,"i_lat":-6.198556,"station_id":"CKI","is_transit":false},{"transit":false,"station_name":"Gondangdia","line":2,"is_transit":false,"i_lat":-6.186295,"time":3,"station_id":"GDD","i_long":106.832183,"distance":1750},{"distance":2015,"station_id":"JUA","is_transit":false,"time":4,"i_long":106.828284,"line":2,"i_lat":-6.166716,"transit":false,"station_name":"Juanda"},{"i_lat":-6.160725,"is_transit":false,"transit":false,"distance":1149,"time":2,"station_name":"Sawah Besar","i_long":106.827103,"station_id":"SW","line":2},{"station_id":"MGB","transit":false,"station_name":"Manggabesar","i_long":106.82482,"distance":906,"line":2,"time":2,"is_transit":false,"i_lat":-6.149769},{"transit":false,"station_id":"JAY","station_name":"Jayakarta","time":2,"line":7,"i_long":106.820901,"is_transit":false,"i_lat":-6.141205,"distance":1080},{"transit":true,"station_id":"JAKK","distance":1264,"station_name":"Jakarta Kota","i_lat":-6.137569,"time":4,"is_transit":true,"line":0,"i_long":106.812439},{"transit":true,"station_id":"KPB","i_lat":-6.132549,"line":0,"distance":1364,"is_transit":true,"time":3,"i_long":106.826365,"station_name":"Kampung Bandan"},{"station_id":"RJW","time":3,"i_lat":-6.14505,"distance":1444,"i_long":106.836569,"transit":false,"is_transit":false,"station_name":"Rajawali","line":11}],[{"line":0,"i_lat":-6.144674,"i_long":106.79867,"distance":0,"transit":false,"time":0,"station_id":"AK","station_name":"Angke","is_transit":false},{"station_name":"Kampung Bandan","station_id":"KPB","line":0,"distance":4102,"is_transit":true,"time":9,"i_lat":-6.132549,"transit":false,"i_long":106.826365},{"i_long":106.812439,"line":0,"distance":1364,"station_id":"JAKK","is_transit":true,"transit":true,"time":3,"i_lat":-6.137569,"station_name":"Jakarta Kota"},{"i_long":106.820901,"transit":false,"station_name":"Jayakarta","line":7,"i_lat":-6.141205,"distance":1264,"time":4,"station_id":"JAY","is_transit":false},{"station_name":"Manggabesar","i_lat":-6.149769,"distance":1080,"i_long":106.82482,"is_transit":false,"station_id":"MGB","transit":false,"time":2,"line":2},{"line":2,"station_id":"SW","i_lat":-6.160725,"time":2,"station_name":"Sawah Besar","i_long":106.827103,"transit":false,"distance":906,"is_transit":false},{"station_name":"Juanda","i_long":106.828284,"line":2,"station_id":"JUA","i_lat":-6.166716,"is_transit":false,"transit":false,"distance":1149,"time":2},{"transit":false,"line":2,"station_id":"GDD","station_name":"Gondangdia","time":4,"i_lat":-6.186295,"distance":2015,"is_transit":false,"i_long":106.832183},{"is_transit":false,"i_lat":-6.198556,"distance":1750,"time":3,"i_long":106.840169,"station_name":"Cikini","transit":false,"line":0,"station_id":"CKI"},{"distance":1590,"station_name":"Manggarai","line":0,"transit":true,"i_lat":-6.209883,"i_long":106.84912,"is_transit":true,"station_id":"MRI","time":4},{"time":2,"station_id":"MTR","line":1,"i_long":106.858896,"transit":false,"i_lat":-6.212485,"station_name":"Matraman","distance":1275,"is_transit":false},{"station_name":"Jatinegara","distance":1377,"is_transit":true,"transit":true,"time":8,"i_lat":-6.215091,"line":0,"station_id":"JNG","i_long":106.86807400000001},{"i_long":106.861737,"is_transit":false,"line":11,"time":2,"i_lat":-6.209188,"distance":1236,"station_id":"POK","station_name":"Pondok Jati","transit":false},{"distance":1829,"transit":false,"is_transit":false,"time":2,"station_id":"KMT","i_long":106.855437,"line":11,"station_name":"Kramat","i_lat":-6.193792},{"station_name":"Gang Sentiong","i_lat":-6.185975,"distance":973,"i_long":106.850107,"station_id":"GST","time":1,"is_transit":false,"line":11,"transit":false},{"time":8,"i_long":106.84368,"station_id":"PSE","i_lat":-6.174784,"station_name":"Pasar Senen","is_transit":false,"line":11,"distance":1567,"transit":false},{"time":4,"transit":false,"distance":1436,"i_lat":-6.161728,"i_long":106.839204,"line":11,"is_transit":false,"station_id":"KMO","station_name":"Kemayoran"},{"time":5,"station_name":"Rajawali","distance":1901,"line":11,"station_id":"RJW","transit":false,"is_transit":false,"i_long":106.836569,"i_lat":-6.14505}]]}