{"data":[[{"station_name":"Angke","transit":false,"is_transit":false,"station_id":"AK","distance":0,"time":0,"i_lat":-6.144674,"i_long":106.79867,"line":1},{"i_lat":-6.132549,"station_id":"KPB","i_long":106.826365,"distance":4102,"line":4,"station_name":"Kampung Bandan","is_transit":true,"transit":true,"time":9},{"station_name":"Rajawali","station_id":"RJW","distance":1444,"time":3,"transit":false,"i_lat":-6.14505,"is_transit":false,"i_long":106.836569,"line":11}],[{"i_long":106.79867,"line":1,"station_id":"AK","i_lat":-6.144674,"station_name":"Angke","time":0,"is_transit":false,"distance":0,"transit":false},{"station_name":"Duri","transit":false,"station_id":"DU","is_transit":false,"distance":1230,"time":4,"i_lat":-6.155215,"i_long":106.800832,"line":1},{"is_transit":false,"i_lat":-6.185545,"i_long":106.811091,"line":1,"station_name":"Tanah Abang","time":8,"station_id":"THB","transit":false,"distance":3632},{"is_transit":false,"transit":false,"station_id":"KAT","line":1,"i_long":106.816351,"i_lat":-6.20132,"distance":2029,"time":5,"station_name":"Karet"},{"i_lat":-6.201433,"i_long":106.819881,"is_transit":false,"transit":false,"station_name":"Sudirman Baru","station_id":"SUDB","distance":471,"time":1,"line":1},{"i_long":106.822649,"transit":false,"line":1,"time":1,"is_transit":false,"distance":280,"i_lat":-6.202263,"station_name":"Sudirman","station_id":"SUD"},{"is_transit":false,"line":2,"distance":3186,"station_name":"Manggarai","transit":false,"i_lat":-6.209883,"i_long":106.84912,"station_id":"MRI","time":4},{"i_lat":-6.212485,"time":2,"is_transit":false,"i_long":106.858896,"line":1,"transit":false,"station_name":"Matraman","distance":1275,"station_id":"MTR"},{"i_long":106.86807400000001,"station_name":"Jatinegara","time":8,"line":1,"transit":true,"i_lat":-6.215091,"distance":1377,"is_transit":true,"station_id":"JNG"},{"station_id":"POK","line":11,"transit":false,"i_lat":-6.209188,"time":2,"i_long":106.861737,"station_name":"Pondok Jati","distance":1236,"is_transit":false},{"i_lat":-6.193792,"station_name":"Kramat","line":11,"station_id":"KMT","i_long":106.855437,"is_transit":false,"transit":false,"distance":1829,"time":2},{"transit":false,"i_long":106.850107,"line":11,"station_name":"Gang Sentiong","distance":973,"i_lat":-6.185975,"is_transit":false,"station_id":"GST","time":1},{"is_transit":false,"station_id":"PSE","i_lat":-6.174784,"i_long":106.84368,"time":8,"distance":1567,"transit":false,"line":11,"station_name":"Pasar Senen"},{"time":4,"i_lat":-6.161728,"line":11,"station_name":"Kemayoran","transit":false,"station_id":"KMO","distance":1436,"i_long":106.839204,"is_transit":false},{"transit":false,"time":5,"station_name":"Rajawali","i_lat":-6.14505,"i_long":106.836569,"distance":1901,"line":11,"station_id":"RJW","is_transit":false}],[{"i_lat":-6.144674,"time":0,"i_long":106.79867,"station_name":"Angke","line":1,"transit":false,"station_id":"AK","distance":0,"is_transit":false},{"station_id":"DU","transit":false,"distance":1230,"i_long":106.800832,"line":1,"time":4,"station_name":"Duri","i_lat":-6.155215,"is_transit":false},{"distance":3632,"line":1,"i_lat":-6.185545,"is_transit":false,"station_name":"Tanah Abang","transit":false,"station_id":"THB","i_long":106.811091,"time":8},{"i_lat":-6.20132,"station_name":"Karet","transit":false,"distance":2029,"i_long":106.816351,"station_id":"KAT","time":5,"line":1,"is_transit":false},{"time":1,"is_transit":false,"line":1,"station_id":"SUDB","i_long":106.819881,"transit":false,"i_lat":-6.201433,"distance":471,"station_name":"Sudirman Baru"},{"line":1,"is_transit":false,"distance":280,"i_long":106.822649,"time":1,"i_lat":-6.202263,"station_id":"SUD","transit":false,"station_name":"Sudirman"},{"line":2,"station_name":"Manggarai","is_transit":true,"station_id":"MRI","transit":true,"i_lat":-6.209883,"time":4,"i_long":106.84912,"distance":3186},{"station_name":"Cikini","is_transit":false,"station_id":"CKI","i_lat":-6.198556,"transit":false,"i_long":106.840169,"line":2,"distance":1590,"time":4},{"distance":1750,"station_name":"Gondangdia","i_long":106.832183,"i_lat":-6.186295,"time":3,"line":2,"transit":false,"is_transit":false,"station_id":"GDD"},{"station_id":"JUA","is_transit":false,"distance":2015,"time":4,"i_long":106.828284,"station_name":"Juanda","transit":false,"i_lat":-6.166716,"line":2},{"i_long":106.827103,"line":2,"transit":false,"station_name":"Sawah Besar","station_id":"SW","distance":1149,"time":2,"i_lat":-6.160725,"is_transit":false},{"transit":false,"distance":906,"station_name":"Manggabesar","i_lat":-6.149769,"station_id":"MGB","time":2,"i_long":106.82482,"is_transit":false,"line":2},{"i_long":106.820901,"distance":1080,"station_id":"JAY","i_lat":-6.141205,"station_name":"Jayakarta","time":2,"transit":false,"line":2,"is_transit":false},{"transit":true,"line":2,"i_lat":-6.137569,"time":4,"i_long":106.812439,"distance":1264,"is_transit":true,"station_id":"JAKK","station_name":"Jakarta Kota"},{"station_id":"KPB","line":4,"transit":true,"station_name":"Kampung Bandan","i_lat":-6.132549,"time":3,"distance":1364,"i_long":106.826365,"is_transit":true},{"time":3,"distance":1444,"line":11,"i_long":106.836569,"transit":false,"station_id":"RJW","i_lat":-6.14505,"station_name":"Rajawali","is_transit":false}],[{"station_id":"AK","i_long":106.79867,"station_name":"Angke","time":0,"distance":0,"i_lat":-6.144674,"is_transit":false,"transit":false,"line":1},{"line":4,"i_long":106.826365,"time":9,"station_id":"KPB","station_name":"Kampung Bandan","distance":4102,"is_transit":true,"transit":true,"i_lat":-6.132549},{"station_id":"JAKK","i_long":106.812439,"time":3,"is_transit":true,"line":2,"station_name":"Jakarta Kota","transit":true,"i_lat":-6.137569,"distance":1364},{"transit":false,"station_id":"JAY","line":2,"i_lat":-6.141205,"time":4,"distance":1264,"i_long":106.820901,"station_name":"Jayakarta","is_transit":false},{"i_lat":-6.149769,"line":2,"is_transit":false,"station_id":"MGB","i_long":106.82482,"distance":1080,"time":2,"station_name":"Manggabesar","transit":false},{"is_transit":false,"transit":false,"station_id":"SW","time":2,"distance":906,"station_name":"Sawah Besar","i_long":106.827103,"i_lat":-6.160725,"line":2},{"i_lat":-6.166716,"distance":1149,"transit":false,"is_transit":false,"station_id":"JUA","time":2,"station_name":"Juanda","line":2,"i_long":106.828284},{"time":4,"i_lat":-6.186295,"is_transit":false,"i_long":106.832183,"distance":2015,"transit":false,"station_id":"GDD","line":2,"station_name":"Gondangdia"},{"transit":false,"station_id":"CKI","time":3,"is_transit":false,"i_lat":-6.198556,"distance":1750,"line":2,"station_name":"Cikini","i_long":106.840169},{"i_long":106.84912,"time":4,"i_lat":-6.209883,"transit":true,"station_name":"Manggarai","is_transit":true,"distance":1590,"station_id":"MRI","line":2},{"transit":false,"line":1,"station_id":"MTR","station_name":"Matraman","is_transit":false,"i_long":106.858896,"time":2,"i_lat":-6.212485,"distance":1275},{"distance":1377,"time":8,"i_long":106.86807400000001,"i_lat":-6.215091,"transit":true,"station_name":"Jatinegara","station_id":"JNG","is_transit":true,"line":1},{"station_id":"POK","time":2,"transit":false,"i_long":106.861737,"line":11,"is_transit":false,"station_name":"Pondok Jati","i_lat":-6.209188,"distance":1236},{"line":11,"i_long":106.855437,"transit":false,"distance":1829,"station_name":"Kramat","station_id":"KMT","time":2,"i_lat":-6.193792,"is_transit":false},{"distance":973,"station_name":"Gang Sentiong","i_lat":-6.185975,"transit":false,"station_id":"GST","i_long":106.850107,"time":1,"line":11,"is_transit":false},{"i_long":106.84368,"line":11,"station_id":"PSE","i_lat":-6.174784,"transit":false,"station_name":"Pasar Senen","is_transit":false,"distance":1567,"time":8},{"station_name":"Kemayoran","is_transit":false,"i_lat":-6.161728,"i_long":106.839204,"station_id":"KMO","distance":1436,"line":11,"transit":false,"time":4},{"station_name":"Rajawali","line":11,"is_transit":false,"i_lat":-6.14505,"distance":1901,"time":5,"station_id":"RJW","transit":false,"i_long":106.836569}]]}