{"data":[[{"station_name":"Angke","station_id":"AK","line":1,"transit":false,"i_long":106.79867,"is_transit":false,"i_lat":-6.144674,"time":0,"distance":0},{"time":4,"is_transit":false,"station_name":"Duri","i_lat":-6.155215,"i_long":106.800832,"transit":false,"station_id":"DU","distance":1230,"line":1},{"transit":false,"time":8,"i_lat":-6.185545,"station_id":"THB","i_long":106.811091,"station_name":"Tanah Abang","line":1,"distance":3632,"is_transit":false},{"is_transit":false,"station_name":"Karet","station_id":"KAT","distance":2029,"i_lat":-6.20132,"line":1,"transit":false,"time":5,"i_long":106.816351},{"i_long":106.819881,"transit":false,"distance":471,"is_transit":false,"time":1,"line":1,"station_name":"Sudirman Baru","station_id":"SUDB","i_lat":-6.201433}],[{"time":0,"i_lat":-6.144674,"i_long":106.79867,"is_transit":false,"station_id":"AK","line":1,"distance":0,"transit":false,"station_name":"Angke"},{"station_name":"Kampung Bandan","transit":true,"time":9,"station_id":"KPB","i_lat":-6.132549,"line":4,"is_transit":true,"distance":4102,"i_long":106.826365},{"transit":true,"is_transit":true,"i_long":106.812439,"distance":1364,"station_id":"JAKK","station_name":"Jakarta Kota","time":3,"i_lat":-6.137569,"line":2},{"line":2,"station_name":"Jayakarta","time":4,"distance":1264,"i_lat":-6.141205,"station_id":"JAY","is_transit":false,"transit":false,"i_long":106.820901},{"i_long":106.82482,"distance":1080,"station_id":"MGB","time":2,"transit":false,"station_name":"Manggabesar","line":2,"i_lat":-6.149769,"is_transit":false},{"i_long":106.827103,"station_id":"SW","line":2,"i_lat":-6.160725,"station_name":"Sawah Besar","transit":false,"is_transit":false,"time":2,"distance":906},{"i_lat":-6.166716,"i_long":106.828284,"time":2,"station_id":"JUA","transit":false,"station_name":"Juanda","distance":1149,"line":2,"is_transit":false},{"station_name":"Gondangdia","station_id":"GDD","is_transit":false,"time":4,"distance":2015,"i_long":106.832183,"line":2,"transit":false,"i_lat":-6.186295},{"line":2,"transit":false,"station_name":"Cikini","time":3,"station_id":"CKI","distance":1750,"i_lat":-6.198556,"is_transit":false,"i_long":106.840169},{"is_transit":true,"line":2,"distance":1590,"time":4,"station_id":"MRI","transit":true,"i_lat":-6.209883,"i_long":106.84912,"station_name":"Manggarai"},{"distance":3186,"station_name":"Sudirman","station_id":"SUD","transit":false,"time":4,"i_lat":-6.202263,"i_long":106.822649,"line":1,"is_transit":false},{"time":1,"i_lat":-6.201433,"is_transit":false,"station_name":"Sudirman Baru","station_id":"SUDB","transit":false,"i_long":106.819881,"distance":280,"line":1}],[{"station_id":"AK","time":0,"i_lat":-6.144674,"station_name":"Angke","is_transit":false,"distance":0,"transit":false,"i_long":106.79867,"line":1},{"distance":4102,"i_long":106.826365,"station_id":"KPB","i_lat":-6.132549,"time":9,"line":4,"transit":true,"station_name":"Kampung Bandan","is_transit":true},{"station_id":"RJW","is_transit":false,"transit":false,"station_name":"Rajawali","distance":1444,"line":11,"i_lat":-6.14505,"time":3,"i_long":106.836569},{"line":11,"transit":false,"station_name":"Kemayoran","station_id":"KMO","time":5,"distance":1901,"is_transit":false,"i_lat":-6.161728,"i_long":106.839204},{"time":4,"station_id":"PSE","i_lat":-6.174784,"i_long":106.84368,"line":11,"station_name":"Pasar Senen","is_transit":false,"transit":false,"distance":1436},{"transit":false,"station_name":"Gang Sentiong","station_id":"GST","time":8,"distance":1567,"is_transit":false,"i_lat":-6.185975,"line":11,"i_long":106.850107},{"is_transit":false,"station_name":"Kramat","i_lat":-6.193792,"station_id":"KMT","line":11,"distance":973,"i_long":106.855437,"time":1,"transit":false},{"is_transit":false,"transit":false,"station_name":"Pondok Jati","time":2,"distance":1829,"i_long":106.861737,"station_id":"POK","line":11,"i_lat":-6.209188},{"i_lat":-6.215091,"i_long":106.86807400000001,"is_transit":true,"station_name":"Jatinegara","line":1,"transit":true,"station_id":"JNG","time":9,"distance":1236},{"i_long":106.858896,"line":1,"station_name":"Matraman","transit":false,"station_id":"MTR","is_transit":false,"distance":1377,"time":2,"i_lat":-6.212485},{"i_lat":-6.209883,"i_long":106.84912,"line":2,"is_transit":false,"station_name":"Manggarai","station_id":"MRI","time":2,"distance":1275,"transit":false},{"transit":false,"station_name":"Sudirman","is_transit":false,"station_id":"SUD","line":1,"i_lat":-6.202263,"i_long":106.822649,"time":4,"distance":3186},{"i_long":106.819881,"line":1,"time":1,"i_lat":-6.201433,"transit":false,"station_name":"Sudirman Baru","station_id":"SUDB","is_transit":false,"distance":280}]]}