{"data":[[{"station_id":"AK","is_transit":false,"transit":false,"station_name":"Angke","line":0,"time":0,"distance":0,"i_lat":-6.144674,"i_long":106.79867},{"i_lat":-6.155215,"i_long":106.800832,"line":1,"station_id":"DU","time":4,"transit":true,"station_name":"Duri","is_transit":true,"distance":1230},{"transit":false,"is_transit":true,"i_long":106.811091,"station_id":"THB","distance":3632,"time":8,"line":1,"i_lat":-6.185545,"station_name":"Tanah Abang"},{"i_long":106.816351,"i_lat":-6.20132,"transit":false,"time":5,"is_transit":false,"station_id":"KAT","line":1,"station_name":"Karet","distance":2029},{"station_name":"Sudirman Baru","time":1,"distance":471,"i_lat":-6.201433,"is_transit":false,"line":1,"transit":false,"station_id":"SUDB","i_long":106.819881}],[{"transit":false,"time":0,"is_transit":false,"i_lat":-6.144674,"distance":0,"line":0,"i_long":106.79867,"station_name":"Angke","station_id":"AK"},{"station_id":"KPB","line":0,"distance":4102,"is_transit":true,"station_name":"Kampung Bandan","time":9,"i_long":106.826365,"i_lat":-6.132549,"transit":false},{"i_lat":-6.137569,"station_id":"JAKK","time":3,"distance":1364,"line":0,"i_long":106.812439,"is_transit":true,"transit":true,"station_name":"Jakarta Kota"},{"i_long":106.820901,"station_id":"JAY","i_lat":-6.141205,"transit":false,"line":7,"distance":1264,"time":4,"station_name":"Jayakarta","is_transit":false},{"distance":1080,"station_id":"MGB","time":2,"i_long":106.82482,"station_name":"Manggabesar","i_lat":-6.149769,"is_transit":false,"transit":false,"line":2},{"station_name":"Sawah Besar","is_transit":false,"i_long":106.827103,"time":2,"station_id":"SW","distance":906,"line":2,"transit":false,"i_lat":-6.160725},{"time":2,"line":2,"distance":1149,"station_id":"JUA","station_name":"Juanda","transit":false,"i_long":106.828284,"is_transit":false,"i_lat":-6.166716},{"distance":2015,"i_lat":-6.186295,"transit":false,"i_long":106.832183,"line":2,"station_name":"Gondangdia","time":4,"station_id":"GDD","is_transit":false},{"is_transit":false,"i_lat":-6.198556,"i_long":106.840169,"station_name":"Cikini","distance":1750,"transit":false,"line":0,"station_id":"CKI","time":3},{"distance":1590,"station_name":"Manggarai","i_long":106.84912,"time":4,"line":0,"station_id":"MRI","transit":true,"is_transit":true,"i_lat":-6.209883},{"station_name":"Sudirman","i_lat":-6.202263,"transit":false,"i_long":106.822649,"time":4,"distance":3186,"is_transit":false,"line":1,"station_id":"SUD"},{"i_long":106.819881,"is_transit":false,"station_name":"Sudirman Baru","i_lat":-6.201433,"line":1,"station_id":"SUDB","transit":false,"time":1,"distance":280}],[{"i_lat":-6.144674,"station_name":"Angke","i_long":106.79867,"distance":0,"line":0,"transit":false,"station_id":"AK","time":0,"is_transit":false},{"station_id":"KPB","is_transit":true,"transit":true,"distance":4102,"i_lat":-6.132549,"i_long":106.826365,"time":9,"station_name":"Kampung Bandan","line":0},{"line":11,"distance":1444,"i_lat":-6.14505,"station_name":"Rajawali","i_long":106.836569,"time":3,"transit":false,"is_transit":false,"station_id":"RJW"},{"station_name":"Kemayoran","distance":1901,"station_id":"KMO","transit":false,"line":11,"is_transit":false,"time":5,"i_lat":-6.161728,"i_long":106.839204},{"time":4,"transit":false,"is_transit":false,"distance":1436,"station_id":"PSE","line":11,"i_lat":-6.174784,"i_long":106.84368,"station_name":"Pasar Senen"},{"station_name":"Gang Sentiong","transit":false,"distance":1567,"line":11,"station_id":"GST","time":8,"i_lat":-6.185975,"i_long":106.850107,"is_transit":false},{"station_id":"KMT","is_transit":false,"i_lat":-6.193792,"transit":false,"distance":973,"i_long":106.855437,"line":11,"station_name":"Kramat","time":1},{"station_name":"Pondok Jati","distance":1829,"transit":false,"is_transit":false,"time":2,"i_lat":-6.209188,"i_long":106.861737,"line":11,"station_id":"POK"},{"distance":1236,"transit":true,"is_transit":true,"i_long":106.86807400000001,"time":9,"i_lat":-6.215091,"station_name":"Jatinegara","line":0,"station_id":"JNG"},{"i_long":106.858896,"station_id":"MTR","transit":false,"distance":1377,"station_name":"Matraman","line":1,"time":2,"i_lat":-6.212485,"is_transit":false},{"i_long":106.84912,"station_id":"MRI","i_lat":-6.209883,"distance":1275,"line":0,"time":2,"station_name":"Manggarai","is_transit":true,"transit":false},{"i_lat":-6.202263,"line":1,"station_name":"Sudirman","time":4,"station_id":"SUD","i_long":106.822649,"transit":false,"is_transit":false,"distance":3186},{"is_transit":false,"station_name":"Sudirman Baru","distance":280,"line":1,"time":1,"i_lat":-6.201433,"station_id":"SUDB","transit":false,"i_long":106.819881}]]}