{"data":[[{"i_long":106.79867,"distance":0,"is_transit":false,"time":0,"line":1,"station_name":"Angke","i_lat":-6.144674,"transit":false,"station_id":"AK"},{"station_id":"DU","distance":1230,"transit":false,"time":4,"line":1,"station_name":"Duri","i_long":106.800832,"is_transit":false,"i_lat":-6.155215},{"time":8,"i_long":106.811091,"is_transit":false,"station_id":"THB","station_name":"Tanah Abang","transit":false,"i_lat":-6.185545,"line":1,"distance":3632},{"distance":2029,"is_transit":false,"line":1,"i_lat":-6.20132,"time":5,"station_name":"Karet","station_id":"KAT","transit":false,"i_long":106.816351},{"time":1,"i_lat":-6.201433,"station_name":"Sudirman Baru","is_transit":false,"line":1,"transit":false,"i_long":106.819881,"station_id":"SUDB","distance":471}],[{"is_transit":false,"line":1,"distance":0,"station_id":"AK","station_name":"Angke","transit":false,"i_lat":-6.144674,"time":0,"i_long":106.79867},{"transit":true,"i_long":106.826365,"is_transit":true,"time":9,"station_name":"Kampung Bandan","distance":4102,"station_id":"KPB","i_lat":-6.132549,"line":4},{"i_lat":-6.137569,"line":2,"is_transit":true,"distance":1364,"time":3,"i_long":106.812439,"station_id":"JAKK","transit":true,"station_name":"Jakarta Kota"},{"distance":1264,"line":2,"i_long":106.820901,"i_lat":-6.141205,"station_id":"JAY","station_name":"Jayakarta","transit":false,"is_transit":false,"time":4},{"station_id":"MGB","is_transit":false,"transit":false,"line":2,"i_lat":-6.149769,"distance":1080,"i_long":106.82482,"station_name":"Manggabesar","time":2},{"transit":false,"time":2,"i_lat":-6.160725,"line":2,"is_transit":false,"distance":906,"station_id":"SW","station_name":"Sawah Besar","i_long":106.827103},{"transit":false,"i_long":106.828284,"i_lat":-6.166716,"line":2,"distance":1149,"station_id":"JUA","is_transit":false,"time":2,"station_name":"Juanda"},{"transit":false,"time":4,"station_name":"Gondangdia","distance":2015,"i_long":106.832183,"line":2,"station_id":"GDD","is_transit":false,"i_lat":-6.186295},{"i_long":106.840169,"is_transit":false,"station_name":"Cikini","distance":1750,"i_lat":-6.198556,"line":2,"time":3,"transit":false,"station_id":"CKI"},{"i_lat":-6.209883,"time":4,"station_id":"MRI","transit":true,"is_transit":true,"i_long":106.84912,"distance":1590,"line":2,"station_name":"Manggarai"},{"i_lat":-6.202263,"station_name":"Sudirman","distance":3186,"is_transit":false,"line":1,"i_long":106.822649,"transit":false,"time":4,"station_id":"SUD"},{"station_name":"Sudirman Baru","time":1,"line":1,"distance":280,"station_id":"SUDB","is_transit":false,"i_long":106.819881,"transit":false,"i_lat":-6.201433}],[{"i_lat":-6.144674,"distance":0,"is_transit":false,"i_long":106.79867,"time":0,"station_name":"Angke","line":1,"station_id":"AK","transit":false},{"station_id":"KPB","is_transit":true,"station_name":"Kampung Bandan","i_lat":-6.132549,"distance":4102,"time":9,"i_long":106.826365,"transit":true,"line":4},{"distance":1444,"station_id":"RJW","is_transit":false,"i_long":106.836569,"line":11,"transit":false,"i_lat":-6.14505,"time":3,"station_name":"Rajawali"},{"i_long":106.839204,"station_name":"Kemayoran","distance":1901,"is_transit":false,"time":5,"line":11,"transit":false,"station_id":"KMO","i_lat":-6.161728},{"line":11,"transit":false,"station_name":"Pasar Senen","distance":1436,"station_id":"PSE","is_transit":false,"time":4,"i_lat":-6.174784,"i_long":106.84368},{"line":11,"station_id":"GST","i_lat":-6.185975,"time":8,"i_long":106.850107,"distance":1567,"is_transit":false,"transit":false,"station_name":"Gang Sentiong"},{"i_long":106.855437,"line":11,"station_id":"KMT","distance":973,"transit":false,"is_transit":false,"station_name":"Kramat","i_lat":-6.193792,"time":1},{"i_lat":-6.209188,"time":2,"i_long":106.861737,"station_id":"POK","station_name":"Pondok Jati","distance":1829,"transit":false,"is_transit":false,"line":11},{"transit":true,"station_id":"JNG","station_name":"Jatinegara","i_long":106.86807400000001,"distance":1236,"i_lat":-6.215091,"time":9,"is_transit":true,"line":1},{"station_name":"Matraman","is_transit":false,"station_id":"MTR","transit":false,"time":2,"line":1,"i_long":106.858896,"distance":1377,"i_lat":-6.212485},{"station_name":"Manggarai","line":2,"i_long":106.84912,"distance":1275,"station_id":"MRI","i_lat":-6.209883,"transit":false,"is_transit":false,"time":2},{"station_id":"SUD","transit":false,"is_transit":false,"station_name":"Sudirman","time":4,"i_long":106.822649,"line":1,"distance":3186,"i_lat":-6.202263},{"station_id":"SUDB","time":1,"i_long":106.819881,"is_transit":false,"i_lat":-6.201433,"distance":280,"transit":false,"line":1,"station_name":"Sudirman Baru"}]]}