{"data":[[{"time":0,"station_id":"AK","transit":false,"i_long":106.79867,"line":1,"is_transit":false,"station_name":"Angke","distance":0,"i_lat":-6.144674},{"station_id":"DU","time":4,"i_long":106.800832,"station_name":"Duri","i_lat":-6.155215,"line":1,"transit":false,"distance":1230,"is_transit":false},{"distance":3632,"i_lat":-6.185545,"i_long":106.811091,"station_id":"THB","is_transit":true,"station_name":"Tanah Abang","transit":true,"time":8,"line":1},{"line":6,"transit":false,"station_name":"Palmerah","i_lat":-6.207404,"time":6,"station_id":"PLM","is_transit":false,"distance":3191,"i_long":106.79689},{"is_transit":false,"station_id":"KBY","i_lat":-6.237242,"i_long":106.780334,"distance":3737,"transit":false,"line":6,"station_name":"Kebayoran","time":7},{"station_id":"PDJ","is_transit":false,"time":8,"transit":false,"i_lat":-6.276362,"distance":6218,"i_long":106.74273,"line":6,"station_name":"Pondokranji"},{"transit":false,"distance":2179,"i_lat":-6.288927,"line":6,"station_id":"JMU","is_transit":false,"station_name":"Jurangmangu","time":3,"i_long":106.728916},{"i_lat":-6.296963,"transit":false,"station_id":"SDM","station_name":"Sudimara","line":6,"time":4,"distance":1994,"is_transit":false,"i_long":106.712277},{"is_transit":false,"line":6,"i_long":106.675475,"distance":4566,"station_id":"RU","time":6,"i_lat":-6.314823,"station_name":"Rawa Buntu","transit":false},{"station_id":"SRP","distance":2413,"i_long":106.66566,"time":4,"line":6,"i_lat":-6.319871,"transit":false,"station_name":"Serpong","is_transit":false}],[{"distance":0,"transit":false,"i_lat":-6.144674,"line":1,"is_transit":false,"i_long":106.79867,"station_name":"Angke","station_id":"AK","time":0},{"distance":4102,"time":9,"station_name":"Kampung Bandan","station_id":"KPB","i_lat":-6.132549,"is_transit":true,"line":4,"transit":true,"i_long":106.826365},{"transit":true,"station_name":"Jakarta Kota","station_id":"JAKK","distance":1364,"i_long":106.812439,"is_transit":true,"line":2,"time":3,"i_lat":-6.137569},{"transit":false,"distance":1264,"i_lat":-6.141205,"is_transit":false,"time":4,"station_name":"Jayakarta","station_id":"JAY","i_long":106.820901,"line":2},{"station_id":"MGB","distance":1080,"is_transit":false,"i_long":106.82482,"i_lat":-6.149769,"station_name":"Manggabesar","time":2,"line":2,"transit":false},{"distance":906,"station_name":"Sawah Besar","i_long":106.827103,"time":2,"line":2,"station_id":"SW","is_transit":false,"transit":false,"i_lat":-6.160725},{"distance":1149,"line":2,"is_transit":false,"i_lat":-6.166716,"station_id":"JUA","station_name":"Juanda","transit":false,"time":2,"i_long":106.828284},{"time":4,"is_transit":false,"station_name":"Gondangdia","station_id":"GDD","i_long":106.832183,"transit":false,"line":2,"i_lat":-6.186295,"distance":2015},{"distance":1750,"station_name":"Cikini","is_transit":false,"time":3,"i_lat":-6.198556,"transit":false,"i_long":106.840169,"line":2,"station_id":"CKI"},{"is_transit":true,"distance":1590,"i_long":106.84912,"station_id":"MRI","line":2,"station_name":"Manggarai","time":4,"i_lat":-6.209883,"transit":true},{"i_lat":-6.202263,"i_long":106.822649,"distance":3186,"line":1,"time":4,"transit":false,"station_id":"SUD","is_transit":false,"station_name":"Sudirman"},{"station_name":"Sudirman Baru","is_transit":false,"transit":false,"distance":280,"station_id":"SUDB","i_lat":-6.201433,"i_long":106.819881,"time":1,"line":1},{"line":1,"station_id":"KAT","distance":471,"i_lat":-6.20132,"i_long":106.816351,"station_name":"Karet","transit":false,"is_transit":false,"time":1},{"i_lat":-6.185545,"station_id":"THB","i_long":106.811091,"station_name":"Tanah Abang","distance":2029,"is_transit":true,"line":1,"transit":true,"time":5},{"station_id":"PLM","time":6,"i_long":106.79689,"is_transit":false,"i_lat":-6.207404,"distance":3191,"line":6,"station_name":"Palmerah","transit":false},{"line":6,"transit":false,"time":7,"distance":3737,"is_transit":false,"i_lat":-6.237242,"station_id":"KBY","i_long":106.780334,"station_name":"Kebayoran"},{"is_transit":false,"station_name":"Pondokranji","station_id":"PDJ","transit":false,"time":8,"i_lat":-6.276362,"i_long":106.74273,"distance":6218,"line":6},{"i_lat":-6.288927,"i_long":106.728916,"distance":2179,"line":6,"is_transit":false,"transit":false,"station_id":"JMU","station_name":"Jurangmangu","time":3},{"line":6,"station_id":"SDM","time":4,"is_transit":false,"i_long":106.712277,"distance":1994,"station_name":"Sudimara","transit":false,"i_lat":-6.296963},{"station_id":"RU","station_name":"Rawa Buntu","time":6,"transit":false,"is_transit":false,"i_long":106.675475,"line":6,"distance":4566,"i_lat":-6.314823},{"transit":false,"station_id":"SRP","time":4,"line":6,"is_transit":false,"station_name":"Serpong","i_lat":-6.319871,"i_long":106.66566,"distance":2413}],[{"station_id":"AK","i_long":106.79867,"is_transit":false,"distance":0,"transit":false,"line":1,"station_name":"Angke","i_lat":-6.144674,"time":0},{"transit":true,"line":4,"distance":4102,"station_id":"KPB","is_transit":true,"time":9,"station_name":"Kampung Bandan","i_lat":-6.132549,"i_long":106.826365},{"time":3,"distance":1444,"i_lat":-6.14505,"station_name":"Rajawali","is_transit":false,"transit":false,"line":11,"station_id":"RJW","i_long":106.836569},{"line":11,"i_lat":-6.161728,"transit":false,"time":5,"station_id":"KMO","station_name":"Kemayoran","i_long":106.839204,"distance":1901,"is_transit":false},{"distance":1436,"i_lat":-6.174784,"station_name":"Pasar Senen","i_long":106.84368,"transit":false,"is_transit":false,"line":11,"station_id":"PSE","time":4},{"station_id":"GST","is_transit":false,"transit":false,"time":8,"distance":1567,"i_long":106.850107,"line":11,"station_name":"Gang Sentiong","i_lat":-6.185975},{"i_long":106.855437,"line":11,"transit":false,"station_id":"KMT","is_transit":false,"distance":973,"station_name":"Kramat","time":1,"i_lat":-6.193792},{"time":2,"line":11,"station_id":"POK","transit":false,"distance":1829,"is_transit":false,"station_name":"Pondok Jati","i_long":106.861737,"i_lat":-6.209188},{"i_lat":-6.215091,"i_long":106.86807400000001,"station_id":"JNG","is_transit":true,"line":1,"distance":1236,"station_name":"Jatinegara","transit":true,"time":9},{"distance":1377,"transit":false,"i_long":106.858896,"is_transit":false,"line":1,"time":2,"station_id":"MTR","i_lat":-6.212485,"station_name":"Matraman"},{"is_transit":false,"transit":false,"station_id":"MRI","i_lat":-6.209883,"distance":1275,"i_long":106.84912,"time":2,"line":2,"station_name":"Manggarai"},{"is_transit":false,"station_name":"Sudirman","transit":false,"line":1,"i_lat":-6.202263,"station_id":"SUD","time":4,"i_long":106.822649,"distance":3186},{"transit":false,"is_transit":false,"time":1,"distance":280,"station_name":"Sudirman Baru","station_id":"SUDB","i_lat":-6.201433,"i_long":106.819881,"line":1},{"time":1,"transit":false,"i_long":106.816351,"line":1,"station_id":"KAT","i_lat":-6.20132,"is_transit":false,"station_name":"Karet","distance":471},{"station_id":"THB","i_lat":-6.185545,"distance":2029,"time":5,"is_transit":true,"i_long":106.811091,"transit":true,"line":1,"station_name":"Tanah Abang"},{"transit":false,"station_id":"PLM","distance":3191,"is_transit":false,"station_name":"Palmerah","time":6,"i_lat":-6.207404,"line":6,"i_long":106.79689},{"time":7,"is_transit":false,"line":6,"station_id":"KBY","i_lat":-6.237242,"station_name":"Kebayoran","i_long":106.780334,"transit":false,"distance":3737},{"is_transit":false,"i_lat":-6.276362,"line":6,"station_id":"PDJ","station_name":"Pondokranji","i_long":106.74273,"time":8,"distance":6218,"transit":false},{"station_name":"Jurangmangu","station_id":"JMU","i_lat":-6.288927,"transit":false,"is_transit":false,"i_long":106.728916,"distance":2179,"line":6,"time":3},{"distance":1994,"i_lat":-6.296963,"line":6,"transit":false,"station_name":"Sudimara","time":4,"station_id":"SDM","is_transit":false,"i_long":106.712277},{"distance":4566,"transit":false,"i_lat":-6.314823,"station_id":"RU","i_long":106.675475,"is_transit":false,"line":6,"time":6,"station_name":"Rawa Buntu"},{"is_transit":false,"line":6,"station_id":"SRP","station_name":"Serpong","distance":2413,"transit":false,"i_long":106.66566,"i_lat":-6.319871,"time":4}]]}