{"data":[[{"is_transit":false,"distance":0,"i_lat":-6.144674,"station_id":"AK","i_long":106.79867,"station_name":"Angke","line":1,"transit":false,"time":0},{"transit":false,"distance":1230,"station_id":"DU","line":1,"i_lat":-6.155215,"is_transit":false,"time":4,"station_name":"Duri","i_long":106.800832},{"i_long":106.811091,"distance":3632,"station_name":"Tanah Abang","time":8,"transit":true,"station_id":"THB","i_lat":-6.185545,"is_transit":true,"line":1},{"i_long":106.79689,"is_transit":false,"time":6,"transit":false,"distance":3191,"station_id":"PLM","station_name":"Palmerah","line":6,"i_lat":-6.207404},{"i_lat":-6.237242,"i_long":106.780334,"distance":3737,"line":6,"time":7,"transit":false,"station_name":"Kebayoran","station_id":"KBY","is_transit":false},{"station_id":"PDJ","i_lat":-6.276362,"line":6,"transit":false,"distance":6218,"is_transit":false,"i_long":106.74273,"station_name":"Pondokranji","time":8},{"time":3,"distance":2179,"station_name":"Jurangmangu","transit":false,"i_long":106.728916,"i_lat":-6.288927,"line":6,"is_transit":false,"station_id":"JMU"},{"i_long":106.712277,"station_id":"SDM","i_lat":-6.296963,"time":4,"transit":false,"distance":1994,"line":6,"is_transit":false,"station_name":"Sudimara"},{"distance":4566,"line":6,"i_long":106.675475,"i_lat":-6.314823,"is_transit":false,"time":6,"transit":false,"station_id":"RU","station_name":"Rawa Buntu"},{"line":6,"distance":2413,"transit":false,"is_transit":false,"i_lat":-6.319871,"i_long":106.66566,"time":4,"station_id":"SRP","station_name":"Serpong"}],[{"line":1,"time":0,"station_name":"Angke","transit":false,"i_long":106.79867,"i_lat":-6.144674,"distance":0,"station_id":"AK","is_transit":false},{"i_lat":-6.132549,"line":4,"i_long":106.826365,"station_id":"KPB","distance":4102,"station_name":"Kampung Bandan","transit":true,"is_transit":true,"time":9},{"transit":true,"time":3,"is_transit":true,"station_id":"JAKK","i_lat":-6.137569,"line":2,"i_long":106.812439,"station_name":"Jakarta Kota","distance":1364},{"distance":1264,"station_name":"Jayakarta","station_id":"JAY","i_long":106.820901,"line":2,"transit":false,"time":4,"i_lat":-6.141205,"is_transit":false},{"i_lat":-6.149769,"i_long":106.82482,"transit":false,"distance":1080,"time":2,"station_id":"MGB","line":2,"is_transit":false,"station_name":"Manggabesar"},{"i_long":106.827103,"transit":false,"station_name":"Sawah Besar","i_lat":-6.160725,"station_id":"SW","time":2,"line":2,"is_transit":false,"distance":906},{"i_long":106.828284,"is_transit":false,"station_id":"JUA","transit":false,"line":2,"distance":1149,"time":2,"i_lat":-6.166716,"station_name":"Juanda"},{"station_id":"GDD","is_transit":false,"time":4,"transit":false,"station_name":"Gondangdia","i_lat":-6.186295,"i_long":106.832183,"line":2,"distance":2015},{"i_lat":-6.198556,"line":2,"station_id":"CKI","transit":false,"distance":1750,"time":3,"is_transit":false,"station_name":"Cikini","i_long":106.840169},{"line":2,"time":4,"station_id":"MRI","station_name":"Manggarai","distance":1590,"i_lat":-6.209883,"is_transit":true,"transit":true,"i_long":106.84912},{"station_id":"SUD","transit":false,"i_lat":-6.202263,"line":1,"i_long":106.822649,"time":4,"distance":3186,"station_name":"Sudirman","is_transit":false},{"station_id":"SUDB","i_long":106.819881,"station_name":"Sudirman Baru","time":1,"distance":280,"is_transit":false,"transit":false,"i_lat":-6.201433,"line":1},{"line":1,"i_lat":-6.20132,"time":1,"station_id":"KAT","i_long":106.816351,"is_transit":false,"station_name":"Karet","transit":false,"distance":471},{"is_transit":true,"station_name":"Tanah Abang","i_lat":-6.185545,"time":5,"transit":true,"i_long":106.811091,"distance":2029,"station_id":"THB","line":1},{"line":6,"distance":3191,"station_id":"PLM","transit":false,"time":6,"is_transit":false,"station_name":"Palmerah","i_long":106.79689,"i_lat":-6.207404},{"distance":3737,"is_transit":false,"line":6,"station_name":"Kebayoran","station_id":"KBY","i_lat":-6.237242,"time":7,"i_long":106.780334,"transit":false},{"is_transit":false,"transit":false,"station_id":"PDJ","station_name":"Pondokranji","distance":6218,"time":8,"i_lat":-6.276362,"i_long":106.74273,"line":6},{"i_long":106.728916,"station_id":"JMU","station_name":"Jurangmangu","is_transit":false,"transit":false,"line":6,"time":3,"distance":2179,"i_lat":-6.288927},{"transit":false,"station_id":"SDM","time":4,"i_lat":-6.296963,"is_transit":false,"station_name":"Sudimara","i_long":106.712277,"line":6,"distance":1994},{"is_transit":false,"station_name":"Rawa Buntu","i_lat":-6.314823,"line":6,"distance":4566,"time":6,"station_id":"RU","i_long":106.675475,"transit":false},{"time":4,"distance":2413,"i_long":106.66566,"transit":false,"station_name":"Serpong","station_id":"SRP","line":6,"is_transit":false,"i_lat":-6.319871}],[{"station_id":"AK","time":0,"is_transit":false,"distance":0,"line":1,"i_lat":-6.144674,"station_name":"Angke","transit":false,"i_long":106.79867},{"distance":4102,"transit":true,"is_transit":true,"time":9,"i_lat":-6.132549,"line":4,"station_name":"Kampung Bandan","i_long":106.826365,"station_id":"KPB"},{"time":3,"transit":false,"station_id":"RJW","i_lat":-6.14505,"i_long":106.836569,"line":11,"distance":1444,"is_transit":false,"station_name":"Rajawali"},{"line":11,"station_id":"KMO","distance":1901,"station_name":"Kemayoran","transit":false,"is_transit":false,"i_lat":-6.161728,"time":5,"i_long":106.839204},{"station_id":"PSE","station_name":"Pasar Senen","time":4,"line":11,"i_long":106.84368,"transit":false,"distance":1436,"i_lat":-6.174784,"is_transit":false},{"time":8,"i_long":106.850107,"station_id":"GST","transit":false,"station_name":"Gang Sentiong","distance":1567,"line":11,"is_transit":false,"i_lat":-6.185975},{"transit":false,"i_lat":-6.193792,"i_long":106.855437,"station_name":"Kramat","distance":973,"is_transit":false,"station_id":"KMT","time":1,"line":11},{"time":2,"station_id":"POK","i_long":106.861737,"line":11,"station_name":"Pondok Jati","distance":1829,"is_transit":false,"transit":false,"i_lat":-6.209188},{"transit":true,"line":1,"station_id":"JNG","i_long":106.86807400000001,"i_lat":-6.215091,"station_name":"Jatinegara","time":9,"is_transit":true,"distance":1236},{"is_transit":false,"distance":1377,"transit":false,"i_long":106.858896,"station_id":"MTR","time":2,"station_name":"Matraman","i_lat":-6.212485,"line":1},{"is_transit":false,"station_id":"MRI","transit":false,"distance":1275,"station_name":"Manggarai","i_lat":-6.209883,"i_long":106.84912,"line":2,"time":2},{"i_long":106.822649,"line":1,"station_id":"SUD","time":4,"distance":3186,"transit":false,"i_lat":-6.202263,"is_transit":false,"station_name":"Sudirman"},{"station_id":"SUDB","station_name":"Sudirman Baru","is_transit":false,"i_long":106.819881,"transit":false,"i_lat":-6.201433,"time":1,"distance":280,"line":1},{"line":1,"i_lat":-6.20132,"distance":471,"station_id":"KAT","time":1,"is_transit":false,"station_name":"Karet","transit":false,"i_long":106.816351},{"is_transit":true,"time":5,"station_name":"Tanah Abang","station_id":"THB","transit":true,"line":1,"i_lat":-6.185545,"i_long":106.811091,"distance":2029},{"is_transit":false,"station_id":"PLM","line":6,"distance":3191,"i_long":106.79689,"i_lat":-6.207404,"time":6,"station_name":"Palmerah","transit":false},{"station_id":"KBY","i_lat":-6.237242,"line":6,"station_name":"Kebayoran","transit":false,"time":7,"distance":3737,"i_long":106.780334,"is_transit":false},{"i_long":106.74273,"distance":6218,"station_id":"PDJ","transit":false,"station_name":"Pondokranji","i_lat":-6.276362,"line":6,"time":8,"is_transit":false},{"station_name":"Jurangmangu","i_lat":-6.288927,"transit":false,"i_long":106.728916,"time":3,"station_id":"JMU","distance":2179,"line":6,"is_transit":false},{"station_name":"Sudimara","distance":1994,"is_transit":false,"transit":false,"i_long":106.712277,"line":6,"time":4,"station_id":"SDM","i_lat":-6.296963},{"i_long":106.675475,"i_lat":-6.314823,"station_name":"Rawa Buntu","line":6,"distance":4566,"is_transit":false,"transit":false,"station_id":"RU","time":6},{"line":6,"i_long":106.66566,"is_transit":false,"station_id":"SRP","station_name":"Serpong","transit":false,"time":4,"i_lat":-6.319871,"distance":2413}]]}