{"data":[[{"transit":false,"station_name":"Angke","i_lat":-6.144674,"station_id":"AK","time":0,"i_long":106.79867,"line":0,"distance":0,"is_transit":false},{"i_long":106.800832,"transit":true,"station_name":"Duri","station_id":"DU","distance":1230,"i_lat":-6.155215,"is_transit":true,"time":4,"line":1},{"i_lat":-6.185545,"station_id":"THB","transit":true,"i_long":106.811091,"time":8,"is_transit":true,"station_name":"Tanah Abang","line":1,"distance":3632},{"time":6,"station_name":"Palmerah","i_long":106.79689,"i_lat":-6.207404,"line":6,"is_transit":false,"distance":3191,"transit":false,"station_id":"PLM"},{"transit":false,"i_lat":-6.237242,"distance":3737,"line":6,"station_name":"Kebayoran","is_transit":false,"time":7,"station_id":"KBY","i_long":106.780334},{"time":8,"i_long":106.74273,"i_lat":-6.276362,"line":6,"transit":false,"station_name":"Pondokranji","is_transit":false,"distance":6218,"station_id":"PDJ"},{"i_lat":-6.288927,"distance":2179,"line":6,"station_id":"JMU","time":3,"i_long":106.728916,"is_transit":false,"station_name":"Jurangmangu","transit":false},{"i_long":106.712277,"i_lat":-6.296963,"station_name":"Sudimara","line":6,"is_transit":false,"station_id":"SDM","time":4,"distance":1994,"transit":false},{"distance":4566,"i_lat":-6.314823,"station_id":"RU","time":6,"station_name":"Rawa Buntu","i_long":106.675475,"line":6,"is_transit":false,"transit":false},{"line":6,"i_lat":-6.319871,"time":4,"station_id":"SRP","station_name":"Serpong","i_long":106.66566,"is_transit":false,"transit":false,"distance":2413}],[{"i_long":106.79867,"distance":0,"line":0,"station_id":"AK","time":0,"i_lat":-6.144674,"transit":false,"is_transit":false,"station_name":"Angke"},{"transit":false,"i_lat":-6.132549,"station_id":"KPB","distance":4102,"is_transit":true,"station_name":"Kampung Bandan","i_long":106.826365,"line":0,"time":9},{"i_lat":-6.137569,"i_long":106.812439,"distance":1364,"station_name":"Jakarta Kota","line":0,"station_id":"JAKK","transit":true,"is_transit":true,"time":3},{"time":4,"is_transit":false,"transit":false,"station_name":"Jayakarta","station_id":"JAY","i_long":106.820901,"line":7,"distance":1264,"i_lat":-6.141205},{"transit":false,"i_lat":-6.149769,"time":2,"line":2,"i_long":106.82482,"station_id":"MGB","distance":1080,"station_name":"Manggabesar","is_transit":false},{"station_id":"SW","is_transit":false,"station_name":"Sawah Besar","transit":false,"distance":906,"time":2,"line":2,"i_long":106.827103,"i_lat":-6.160725},{"distance":1149,"station_id":"JUA","line":2,"i_long":106.828284,"is_transit":false,"transit":false,"station_name":"Juanda","time":2,"i_lat":-6.166716},{"line":2,"time":4,"is_transit":false,"transit":false,"station_id":"GDD","station_name":"Gondangdia","i_long":106.832183,"distance":2015,"i_lat":-6.186295},{"transit":false,"time":3,"i_long":106.840169,"station_id":"CKI","is_transit":false,"line":0,"distance":1750,"i_lat":-6.198556,"station_name":"Cikini"},{"line":0,"station_name":"Manggarai","transit":true,"is_transit":true,"i_lat":-6.209883,"i_long":106.84912,"station_id":"MRI","time":4,"distance":1590},{"station_id":"SUD","time":4,"i_lat":-6.202263,"i_long":106.822649,"line":1,"station_name":"Sudirman","is_transit":false,"distance":3186,"transit":false},{"distance":280,"i_long":106.819881,"is_transit":false,"time":1,"transit":false,"station_id":"SUDB","station_name":"Sudirman Baru","i_lat":-6.201433,"line":1},{"distance":471,"transit":false,"time":1,"station_id":"KAT","i_lat":-6.20132,"line":1,"is_transit":false,"station_name":"Karet","i_long":106.816351},{"distance":2029,"is_transit":true,"transit":true,"time":5,"i_long":106.811091,"station_name":"Tanah Abang","station_id":"THB","line":1,"i_lat":-6.185545},{"time":6,"i_lat":-6.207404,"transit":false,"station_id":"PLM","i_long":106.79689,"distance":3191,"is_transit":false,"station_name":"Palmerah","line":6},{"station_id":"KBY","station_name":"Kebayoran","time":7,"i_lat":-6.237242,"transit":false,"is_transit":false,"line":6,"i_long":106.780334,"distance":3737},{"time":8,"station_name":"Pondokranji","is_transit":false,"distance":6218,"i_long":106.74273,"line":6,"station_id":"PDJ","i_lat":-6.276362,"transit":false},{"i_lat":-6.288927,"i_long":106.728916,"is_transit":false,"line":6,"station_name":"Jurangmangu","transit":false,"station_id":"JMU","distance":2179,"time":3},{"time":4,"distance":1994,"station_id":"SDM","is_transit":false,"i_lat":-6.296963,"transit":false,"i_long":106.712277,"station_name":"Sudimara","line":6},{"i_lat":-6.314823,"distance":4566,"transit":false,"is_transit":false,"line":6,"station_id":"RU","time":6,"i_long":106.675475,"station_name":"Rawa Buntu"},{"is_transit":false,"transit":false,"i_lat":-6.319871,"i_long":106.66566,"distance":2413,"station_id":"SRP","time":4,"station_name":"Serpong","line":6}],[{"line":0,"time":0,"i_lat":-6.144674,"is_transit":false,"transit":false,"i_long":106.79867,"station_id":"AK","station_name":"Angke","distance":0},{"transit":true,"i_lat":-6.132549,"time":9,"line":0,"station_id":"KPB","is_transit":true,"station_name":"Kampung Bandan","i_long":106.826365,"distance":4102},{"is_transit":false,"transit":false,"i_long":106.836569,"station_name":"Rajawali","station_id":"RJW","distance":1444,"time":3,"line":11,"i_lat":-6.14505},{"time":5,"i_long":106.839204,"distance":1901,"line":11,"station_name":"Kemayoran","station_id":"KMO","transit":false,"i_lat":-6.161728,"is_transit":false},{"station_name":"Pasar Senen","is_transit":false,"time":4,"transit":false,"distance":1436,"i_lat":-6.174784,"station_id":"PSE","i_long":106.84368,"line":11},{"i_long":106.850107,"station_id":"GST","time":8,"line":11,"station_name":"Gang Sentiong","distance":1567,"i_lat":-6.185975,"is_transit":false,"transit":false},{"line":11,"i_lat":-6.193792,"station_id":"KMT","time":1,"station_name":"Kramat","transit":false,"distance":973,"i_long":106.855437,"is_transit":false},{"station_id":"POK","time":2,"line":11,"station_name":"Pondok Jati","i_long":106.861737,"transit":false,"is_transit":false,"distance":1829,"i_lat":-6.209188},{"distance":1236,"station_id":"JNG","is_transit":true,"i_long":106.86807400000001,"time":9,"station_name":"Jatinegara","i_lat":-6.215091,"line":0,"transit":true},{"distance":1377,"is_transit":false,"time":2,"transit":false,"station_name":"Matraman","station_id":"MTR","i_lat":-6.212485,"i_long":106.858896,"line":1},{"time":2,"i_long":106.84912,"station_id":"MRI","i_lat":-6.209883,"is_transit":true,"line":0,"station_name":"Manggarai","distance":1275,"transit":false},{"i_long":106.822649,"distance":3186,"transit":false,"is_transit":false,"station_name":"Sudirman","time":4,"i_lat":-6.202263,"station_id":"SUD","line":1},{"line":1,"transit":false,"i_lat":-6.201433,"distance":280,"station_id":"SUDB","time":1,"i_long":106.819881,"is_transit":false,"station_name":"Sudirman Baru"},{"is_transit":false,"line":1,"time":1,"station_id":"KAT","station_name":"Karet","i_lat":-6.20132,"distance":471,"transit":false,"i_long":106.816351},{"i_long":106.811091,"distance":2029,"i_lat":-6.185545,"time":5,"station_name":"Tanah Abang","station_id":"THB","transit":true,"is_transit":true,"line":1},{"is_transit":false,"transit":false,"i_long":106.79689,"time":6,"line":6,"station_name":"Palmerah","i_lat":-6.207404,"distance":3191,"station_id":"PLM"},{"time":7,"line":6,"i_long":106.780334,"is_transit":false,"transit":false,"station_id":"KBY","distance":3737,"station_name":"Kebayoran","i_lat":-6.237242},{"station_name":"Pondokranji","line":6,"i_lat":-6.276362,"station_id":"PDJ","is_transit":false,"distance":6218,"transit":false,"time":8,"i_long":106.74273},{"transit":false,"line":6,"station_name":"Jurangmangu","i_lat":-6.288927,"i_long":106.728916,"time":3,"station_id":"JMU","is_transit":false,"distance":2179},{"line":6,"station_name":"Sudimara","transit":false,"is_transit":false,"station_id":"SDM","distance":1994,"time":4,"i_lat":-6.296963,"i_long":106.712277},{"time":6,"station_name":"Rawa Buntu","station_id":"RU","transit":false,"i_lat":-6.314823,"is_transit":false,"i_long":106.675475,"line":6,"distance":4566},{"station_name":"Serpong","i_long":106.66566,"station_id":"SRP","distance":2413,"transit":false,"time":4,"i_lat":-6.319871,"is_transit":false,"line":6}]]}