{"data":[[{"time":0,"line":1,"distance":0,"i_long":106.79867,"is_transit":false,"station_name":"Angke","station_id":"AK","i_lat":-6.144674,"transit":false},{"is_transit":false,"station_name":"Duri","i_lat":-6.155215,"i_long":106.800832,"station_id":"DU","time":4,"transit":false,"distance":1230,"line":1},{"station_id":"THB","distance":3632,"i_lat":-6.185545,"time":8,"line":1,"station_name":"Tanah Abang","transit":true,"i_long":106.811091,"is_transit":true},{"line":6,"station_name":"Palmerah","transit":false,"distance":3191,"is_transit":false,"time":6,"i_lat":-6.207404,"i_long":106.79689,"station_id":"PLM"},{"i_lat":-6.237242,"station_id":"KBY","time":7,"is_transit":false,"distance":3737,"station_name":"Kebayoran","i_long":106.780334,"transit":false,"line":6},{"time":8,"i_long":106.74273,"distance":6218,"transit":false,"is_transit":false,"station_id":"PDJ","station_name":"Pondokranji","i_lat":-6.276362,"line":6},{"i_lat":-6.288927,"transit":false,"i_long":106.728916,"distance":2179,"is_transit":false,"line":6,"time":3,"station_name":"Jurangmangu","station_id":"JMU"},{"time":4,"station_id":"SDM","is_transit":false,"distance":1994,"station_name":"Sudimara","i_long":106.712277,"i_lat":-6.296963,"transit":false,"line":6},{"time":6,"station_id":"RU","station_name":"Rawa Buntu","i_long":106.675475,"line":6,"distance":4566,"is_transit":false,"transit":false,"i_lat":-6.314823},{"is_transit":false,"station_name":"Serpong","line":6,"transit":false,"i_lat":-6.319871,"station_id":"SRP","distance":2413,"i_long":106.66566,"time":4}],[{"i_long":106.79867,"is_transit":false,"station_id":"AK","station_name":"Angke","transit":false,"i_lat":-6.144674,"line":1,"time":0,"distance":0},{"line":4,"i_long":106.826365,"station_id":"KPB","time":9,"distance":4102,"transit":true,"i_lat":-6.132549,"station_name":"Kampung Bandan","is_transit":true},{"is_transit":true,"line":2,"station_id":"JAKK","distance":1364,"transit":true,"i_lat":-6.137569,"i_long":106.812439,"time":3,"station_name":"Jakarta Kota"},{"i_lat":-6.141205,"station_id":"JAY","distance":1264,"station_name":"Jayakarta","is_transit":false,"time":4,"transit":false,"i_long":106.820901,"line":2},{"i_lat":-6.149769,"transit":false,"distance":1080,"line":2,"station_name":"Manggabesar","i_long":106.82482,"is_transit":false,"station_id":"MGB","time":2},{"station_name":"Sawah Besar","line":2,"i_long":106.827103,"station_id":"SW","transit":false,"time":2,"i_lat":-6.160725,"is_transit":false,"distance":906},{"time":2,"station_id":"JUA","is_transit":false,"line":2,"distance":1149,"station_name":"Juanda","i_lat":-6.166716,"i_long":106.828284,"transit":false},{"i_long":106.832183,"distance":2015,"i_lat":-6.186295,"transit":false,"station_name":"Gondangdia","time":4,"station_id":"GDD","line":2,"is_transit":false},{"line":2,"i_lat":-6.198556,"station_id":"CKI","i_long":106.840169,"distance":1750,"station_name":"Cikini","transit":false,"is_transit":false,"time":3},{"i_long":106.84912,"line":2,"is_transit":true,"station_id":"MRI","distance":1590,"i_lat":-6.209883,"time":4,"transit":true,"station_name":"Manggarai"},{"station_name":"Sudirman","line":1,"i_long":106.822649,"time":4,"is_transit":false,"i_lat":-6.202263,"distance":3186,"station_id":"SUD","transit":false},{"i_lat":-6.201433,"i_long":106.819881,"is_transit":false,"distance":280,"time":1,"station_id":"SUDB","transit":false,"line":1,"station_name":"Sudirman Baru"},{"time":1,"is_transit":false,"transit":false,"line":1,"station_name":"Karet","i_lat":-6.20132,"station_id":"KAT","distance":471,"i_long":106.816351},{"station_name":"Tanah Abang","i_lat":-6.185545,"is_transit":true,"station_id":"THB","distance":2029,"line":1,"time":5,"i_long":106.811091,"transit":true},{"is_transit":false,"line":6,"distance":3191,"station_name":"Palmerah","transit":false,"time":6,"station_id":"PLM","i_long":106.79689,"i_lat":-6.207404},{"i_lat":-6.237242,"station_id":"KBY","is_transit":false,"distance":3737,"station_name":"Kebayoran","time":7,"transit":false,"i_long":106.780334,"line":6},{"distance":6218,"time":8,"i_long":106.74273,"line":6,"station_id":"PDJ","is_transit":false,"station_name":"Pondokranji","transit":false,"i_lat":-6.276362},{"line":6,"is_transit":false,"station_name":"Jurangmangu","transit":false,"i_lat":-6.288927,"i_long":106.728916,"distance":2179,"time":3,"station_id":"JMU"},{"is_transit":false,"transit":false,"station_id":"SDM","i_lat":-6.296963,"line":6,"station_name":"Sudimara","time":4,"i_long":106.712277,"distance":1994},{"is_transit":false,"distance":4566,"station_id":"RU","station_name":"Rawa Buntu","i_long":106.675475,"transit":false,"line":6,"time":6,"i_lat":-6.314823},{"time":4,"station_name":"Serpong","transit":false,"i_lat":-6.319871,"line":6,"is_transit":false,"i_long":106.66566,"station_id":"SRP","distance":2413}],[{"transit":false,"distance":0,"line":1,"station_name":"Angke","time":0,"station_id":"AK","i_long":106.79867,"is_transit":false,"i_lat":-6.144674},{"i_long":106.826365,"line":4,"distance":4102,"time":9,"station_id":"KPB","i_lat":-6.132549,"is_transit":true,"transit":true,"station_name":"Kampung Bandan"},{"i_lat":-6.14505,"i_long":106.836569,"station_id":"RJW","line":11,"station_name":"Rajawali","transit":false,"is_transit":false,"distance":1444,"time":3},{"i_long":106.839204,"distance":1901,"is_transit":false,"i_lat":-6.161728,"station_id":"KMO","transit":false,"station_name":"Kemayoran","line":11,"time":5},{"line":11,"distance":1436,"station_name":"Pasar Senen","time":4,"is_transit":false,"transit":false,"station_id":"PSE","i_lat":-6.174784,"i_long":106.84368},{"is_transit":false,"i_long":106.850107,"time":8,"i_lat":-6.185975,"station_name":"Gang Sentiong","transit":false,"line":11,"distance":1567,"station_id":"GST"},{"i_long":106.855437,"station_id":"KMT","i_lat":-6.193792,"is_transit":false,"distance":973,"station_name":"Kramat","transit":false,"line":11,"time":1},{"i_lat":-6.209188,"distance":1829,"is_transit":false,"i_long":106.861737,"line":11,"station_id":"POK","time":2,"transit":false,"station_name":"Pondok Jati"},{"distance":1236,"i_long":106.86807400000001,"line":1,"station_id":"JNG","is_transit":true,"i_lat":-6.215091,"station_name":"Jatinegara","time":9,"transit":true},{"time":2,"distance":1377,"station_name":"Matraman","is_transit":false,"station_id":"MTR","line":1,"transit":false,"i_lat":-6.212485,"i_long":106.858896},{"is_transit":false,"i_lat":-6.209883,"distance":1275,"line":2,"time":2,"transit":false,"i_long":106.84912,"station_id":"MRI","station_name":"Manggarai"},{"is_transit":false,"i_lat":-6.202263,"i_long":106.822649,"station_id":"SUD","transit":false,"time":4,"distance":3186,"line":1,"station_name":"Sudirman"},{"station_name":"Sudirman Baru","i_lat":-6.201433,"line":1,"station_id":"SUDB","distance":280,"time":1,"i_long":106.819881,"transit":false,"is_transit":false},{"line":1,"is_transit":false,"station_name":"Karet","time":1,"i_long":106.816351,"i_lat":-6.20132,"station_id":"KAT","transit":false,"distance":471},{"i_lat":-6.185545,"station_name":"Tanah Abang","distance":2029,"transit":true,"i_long":106.811091,"time":5,"station_id":"THB","is_transit":true,"line":1},{"line":6,"is_transit":false,"station_id":"PLM","transit":false,"i_lat":-6.207404,"distance":3191,"station_name":"Palmerah","i_long":106.79689,"time":6},{"i_lat":-6.237242,"distance":3737,"is_transit":false,"station_id":"KBY","station_name":"Kebayoran","transit":false,"time":7,"line":6,"i_long":106.780334},{"station_id":"PDJ","i_lat":-6.276362,"station_name":"Pondokranji","time":8,"i_long":106.74273,"is_transit":false,"transit":false,"line":6,"distance":6218},{"is_transit":false,"distance":2179,"station_name":"Jurangmangu","i_long":106.728916,"i_lat":-6.288927,"time":3,"transit":false,"line":6,"station_id":"JMU"},{"distance":1994,"i_long":106.712277,"line":6,"is_transit":false,"i_lat":-6.296963,"station_name":"Sudimara","time":4,"transit":false,"station_id":"SDM"},{"line":6,"i_long":106.675475,"station_id":"RU","transit":false,"time":6,"i_lat":-6.314823,"distance":4566,"station_name":"Rawa Buntu","is_transit":false},{"station_name":"Serpong","time":4,"i_long":106.66566,"is_transit":false,"transit":false,"distance":2413,"i_lat":-6.319871,"station_id":"SRP","line":6}]]}