{"data":[[{"time":0,"distance":0,"transit":false,"i_long":106.79867,"i_lat":-6.144674,"station_name":"Angke","station_id":"AK","is_transit":false,"line":1},{"distance":1230,"station_id":"DU","station_name":"Duri","is_transit":true,"i_lat":-6.155215,"time":4,"i_long":106.800832,"transit":true,"line":1},{"distance":1700,"i_lat":-6.162021,"line":5,"station_name":"Grogol","is_transit":false,"i_long":106.788277,"station_id":"GGL","time":3,"transit":false},{"is_transit":false,"i_long":106.771379,"time":2,"i_lat":-6.161433,"line":5,"station_id":"PSG","transit":false,"station_name":"Pesing","distance":2036},{"distance":1614,"station_id":"TKO","time":2,"i_lat":-6.1587309999999995,"transit":false,"station_name":"Taman Kota","is_transit":false,"i_long":106.756522,"line":5}],[{"station_id":"AK","distance":0,"i_lat":-6.144674,"transit":false,"i_long":106.79867,"station_name":"Angke","line":1,"is_transit":false,"time":0},{"station_name":"Kampung Bandan","time":9,"distance":4102,"i_lat":-6.132549,"transit":true,"station_id":"KPB","line":4,"is_transit":true,"i_long":106.826365},{"transit":true,"station_name":"Jakarta Kota","time":3,"i_lat":-6.137569,"station_id":"JAKK","is_transit":true,"distance":1364,"i_long":106.812439,"line":2},{"station_name":"Jayakarta","transit":false,"time":4,"is_transit":false,"line":2,"i_lat":-6.141205,"distance":1264,"i_long":106.820901,"station_id":"JAY"},{"is_transit":false,"time":2,"transit":false,"station_id":"MGB","station_name":"Manggabesar","distance":1080,"i_lat":-6.149769,"i_long":106.82482,"line":2},{"time":2,"line":2,"i_long":106.827103,"i_lat":-6.160725,"station_name":"Sawah Besar","distance":906,"transit":false,"is_transit":false,"station_id":"SW"},{"station_name":"Juanda","line":2,"i_long":106.828284,"station_id":"JUA","is_transit":false,"transit":false,"distance":1149,"i_lat":-6.166716,"time":2},{"is_transit":false,"transit":false,"station_id":"GDD","time":4,"distance":2015,"line":2,"i_lat":-6.186295,"i_long":106.832183,"station_name":"Gondangdia"},{"transit":false,"station_name":"Cikini","station_id":"CKI","is_transit":false,"time":3,"i_lat":-6.198556,"i_long":106.840169,"distance":1750,"line":2},{"transit":true,"time":4,"i_lat":-6.209883,"i_long":106.84912,"line":2,"is_transit":true,"distance":1590,"station_id":"MRI","station_name":"Manggarai"},{"time":4,"is_transit":false,"station_name":"Sudirman","distance":3186,"station_id":"SUD","i_lat":-6.202263,"i_long":106.822649,"line":1,"transit":false},{"transit":false,"i_long":106.819881,"station_id":"SUDB","line":1,"is_transit":false,"distance":280,"time":1,"station_name":"Sudirman Baru","i_lat":-6.201433},{"distance":471,"i_lat":-6.20132,"is_transit":false,"station_id":"KAT","station_name":"Karet","transit":false,"time":1,"line":1,"i_long":106.816351},{"is_transit":false,"transit":false,"line":1,"station_name":"Tanah Abang","time":5,"station_id":"THB","i_long":106.811091,"i_lat":-6.185545,"distance":2029},{"time":8,"i_lat":-6.155215,"is_transit":true,"station_id":"DU","distance":3632,"transit":true,"i_long":106.800832,"line":1,"station_name":"Duri"},{"time":3,"i_lat":-6.162021,"transit":false,"i_long":106.788277,"line":5,"station_id":"GGL","is_transit":false,"station_name":"Grogol","distance":1700},{"i_lat":-6.161433,"i_long":106.771379,"is_transit":false,"line":5,"time":2,"distance":2036,"transit":false,"station_name":"Pesing","station_id":"PSG"},{"i_lat":-6.1587309999999995,"station_id":"TKO","transit":false,"distance":1614,"line":5,"i_long":106.756522,"station_name":"Taman Kota","is_transit":false,"time":2}],[{"is_transit":false,"station_name":"Angke","i_lat":-6.144674,"transit":false,"distance":0,"line":1,"station_id":"AK","i_long":106.79867,"time":0},{"i_long":106.826365,"distance":4102,"transit":true,"station_name":"Kampung Bandan","is_transit":true,"station_id":"KPB","time":9,"i_lat":-6.132549,"line":4},{"transit":false,"station_id":"RJW","station_name":"Rajawali","is_transit":false,"distance":1444,"i_lat":-6.14505,"i_long":106.836569,"line":11,"time":3},{"station_name":"Kemayoran","i_lat":-6.161728,"transit":false,"is_transit":false,"distance":1901,"station_id":"KMO","i_long":106.839204,"line":11,"time":5},{"distance":1436,"i_long":106.84368,"line":11,"transit":false,"i_lat":-6.174784,"station_name":"Pasar Senen","station_id":"PSE","time":4,"is_transit":false},{"transit":false,"station_name":"Gang Sentiong","time":8,"i_long":106.850107,"station_id":"GST","is_transit":false,"distance":1567,"i_lat":-6.185975,"line":11},{"is_transit":false,"distance":973,"line":11,"station_name":"Kramat","i_lat":-6.193792,"station_id":"KMT","time":1,"transit":false,"i_long":106.855437},{"station_name":"Pondok Jati","time":2,"distance":1829,"i_lat":-6.209188,"line":11,"station_id":"POK","i_long":106.861737,"transit":false,"is_transit":false},{"i_lat":-6.215091,"is_transit":true,"i_long":106.86807400000001,"line":1,"distance":1236,"time":9,"transit":true,"station_name":"Jatinegara","station_id":"JNG"},{"i_lat":-6.212485,"transit":false,"line":1,"distance":1377,"time":2,"station_id":"MTR","is_transit":false,"station_name":"Matraman","i_long":106.858896},{"time":2,"i_lat":-6.209883,"i_long":106.84912,"distance":1275,"station_id":"MRI","line":2,"transit":false,"station_name":"Manggarai","is_transit":false},{"i_lat":-6.202263,"transit":false,"is_transit":false,"i_long":106.822649,"station_id":"SUD","distance":3186,"station_name":"Sudirman","line":1,"time":4},{"station_name":"Sudirman Baru","distance":280,"i_long":106.819881,"station_id":"SUDB","is_transit":false,"time":1,"i_lat":-6.201433,"line":1,"transit":false},{"station_id":"KAT","is_transit":false,"time":1,"i_lat":-6.20132,"station_name":"Karet","i_long":106.816351,"transit":false,"line":1,"distance":471},{"station_name":"Tanah Abang","time":5,"i_long":106.811091,"line":1,"distance":2029,"is_transit":false,"station_id":"THB","i_lat":-6.185545,"transit":false},{"is_transit":true,"line":1,"time":8,"transit":true,"distance":3632,"i_lat":-6.155215,"station_name":"Duri","i_long":106.800832,"station_id":"DU"},{"i_lat":-6.162021,"station_name":"Grogol","time":3,"i_long":106.788277,"transit":false,"station_id":"GGL","line":5,"distance":1700,"is_transit":false},{"transit":false,"is_transit":false,"distance":2036,"i_long":106.771379,"line":5,"i_lat":-6.161433,"time":2,"station_name":"Pesing","station_id":"PSG"},{"station_name":"Taman Kota","station_id":"TKO","distance":1614,"i_lat":-6.1587309999999995,"i_long":106.756522,"line":5,"transit":false,"is_transit":false,"time":2}]]}