{"data":[[{"i_long":106.79867,"station_id":"AK","time":0,"distance":0,"is_transit":false,"station_name":"Angke","transit":false,"i_lat":-6.144674,"line":1},{"time":4,"i_lat":-6.155215,"is_transit":true,"i_long":106.800832,"distance":1230,"line":1,"transit":true,"station_name":"Duri","station_id":"DU"},{"station_id":"GGL","i_lat":-6.162021,"time":3,"station_name":"Grogol","i_long":106.788277,"is_transit":false,"line":5,"distance":1700,"transit":false},{"line":5,"time":2,"station_id":"PSG","station_name":"Pesing","i_lat":-6.161433,"transit":false,"distance":2036,"i_long":106.771379,"is_transit":false},{"time":2,"i_long":106.756522,"distance":1614,"line":5,"transit":false,"station_name":"Taman Kota","i_lat":-6.1587309999999995,"station_id":"TKO","is_transit":false}],[{"i_lat":-6.144674,"i_long":106.79867,"distance":0,"line":1,"station_id":"AK","is_transit":false,"time":0,"station_name":"Angke","transit":false},{"time":9,"station_id":"KPB","distance":4102,"i_long":106.826365,"transit":true,"i_lat":-6.132549,"line":4,"station_name":"Kampung Bandan","is_transit":true},{"is_transit":true,"i_long":106.812439,"station_id":"JAKK","time":3,"distance":1364,"station_name":"Jakarta Kota","i_lat":-6.137569,"line":2,"transit":true},{"distance":1264,"i_long":106.820901,"i_lat":-6.141205,"transit":false,"station_name":"Jayakarta","time":4,"line":2,"is_transit":false,"station_id":"JAY"},{"distance":1080,"transit":false,"is_transit":false,"i_long":106.82482,"time":2,"line":2,"i_lat":-6.149769,"station_name":"Manggabesar","station_id":"MGB"},{"distance":906,"i_lat":-6.160725,"transit":false,"time":2,"station_id":"SW","is_transit":false,"i_long":106.827103,"station_name":"Sawah Besar","line":2},{"station_name":"Juanda","transit":false,"i_lat":-6.166716,"i_long":106.828284,"is_transit":false,"distance":1149,"time":2,"station_id":"JUA","line":2},{"i_long":106.832183,"is_transit":false,"line":2,"transit":false,"time":4,"station_id":"GDD","distance":2015,"station_name":"Gondangdia","i_lat":-6.186295},{"time":3,"station_name":"Cikini","i_lat":-6.198556,"is_transit":false,"station_id":"CKI","distance":1750,"line":2,"transit":false,"i_long":106.840169},{"transit":true,"is_transit":true,"station_id":"MRI","time":4,"distance":1590,"i_lat":-6.209883,"station_name":"Manggarai","i_long":106.84912,"line":2},{"station_name":"Sudirman","station_id":"SUD","is_transit":false,"distance":3186,"i_lat":-6.202263,"transit":false,"time":4,"i_long":106.822649,"line":1},{"is_transit":false,"distance":280,"i_long":106.819881,"line":1,"station_name":"Sudirman Baru","time":1,"i_lat":-6.201433,"transit":false,"station_id":"SUDB"},{"station_id":"KAT","i_long":106.816351,"line":1,"time":1,"transit":false,"distance":471,"is_transit":false,"station_name":"Karet","i_lat":-6.20132},{"transit":false,"i_long":106.811091,"line":1,"station_id":"THB","is_transit":false,"distance":2029,"station_name":"Tanah Abang","i_lat":-6.185545,"time":5},{"station_id":"DU","distance":3632,"transit":true,"station_name":"Duri","is_transit":true,"time":8,"i_lat":-6.155215,"i_long":106.800832,"line":1},{"time":3,"i_lat":-6.162021,"station_id":"GGL","transit":false,"i_long":106.788277,"station_name":"Grogol","is_transit":false,"distance":1700,"line":5},{"transit":false,"time":2,"station_id":"PSG","distance":2036,"station_name":"Pesing","i_lat":-6.161433,"i_long":106.771379,"is_transit":false,"line":5},{"station_id":"TKO","distance":1614,"is_transit":false,"time":2,"i_lat":-6.1587309999999995,"line":5,"transit":false,"i_long":106.756522,"station_name":"Taman Kota"}],[{"is_transit":false,"distance":0,"i_long":106.79867,"line":1,"transit":false,"station_name":"Angke","station_id":"AK","time":0,"i_lat":-6.144674},{"i_lat":-6.132549,"line":4,"distance":4102,"time":9,"i_long":106.826365,"transit":true,"station_name":"Kampung Bandan","is_transit":true,"station_id":"KPB"},{"time":3,"is_transit":false,"transit":false,"distance":1444,"station_name":"Rajawali","i_long":106.836569,"station_id":"RJW","line":11,"i_lat":-6.14505},{"station_id":"KMO","i_long":106.839204,"i_lat":-6.161728,"transit":false,"is_transit":false,"station_name":"Kemayoran","distance":1901,"time":5,"line":11},{"i_lat":-6.174784,"transit":false,"i_long":106.84368,"line":11,"is_transit":false,"distance":1436,"station_name":"Pasar Senen","station_id":"PSE","time":4},{"line":11,"is_transit":false,"time":8,"distance":1567,"station_name":"Gang Sentiong","station_id":"GST","i_lat":-6.185975,"i_long":106.850107,"transit":false},{"station_name":"Kramat","transit":false,"is_transit":false,"distance":973,"station_id":"KMT","i_lat":-6.193792,"i_long":106.855437,"line":11,"time":1},{"i_lat":-6.209188,"station_name":"Pondok Jati","station_id":"POK","is_transit":false,"distance":1829,"time":2,"transit":false,"i_long":106.861737,"line":11},{"is_transit":true,"station_name":"Jatinegara","time":9,"i_lat":-6.215091,"i_long":106.86807400000001,"station_id":"JNG","line":1,"transit":true,"distance":1236},{"line":1,"station_id":"MTR","station_name":"Matraman","transit":false,"time":2,"i_lat":-6.212485,"is_transit":false,"distance":1377,"i_long":106.858896},{"station_name":"Manggarai","i_lat":-6.209883,"time":2,"station_id":"MRI","i_long":106.84912,"transit":false,"is_transit":false,"distance":1275,"line":2},{"i_long":106.822649,"distance":3186,"i_lat":-6.202263,"station_id":"SUD","line":1,"is_transit":false,"station_name":"Sudirman","transit":false,"time":4},{"time":1,"station_name":"Sudirman Baru","i_lat":-6.201433,"line":1,"is_transit":false,"distance":280,"transit":false,"i_long":106.819881,"station_id":"SUDB"},{"i_lat":-6.20132,"transit":false,"i_long":106.816351,"station_name":"Karet","is_transit":false,"time":1,"line":1,"distance":471,"station_id":"KAT"},{"time":5,"is_transit":false,"station_name":"Tanah Abang","distance":2029,"i_lat":-6.185545,"i_long":106.811091,"transit":false,"line":1,"station_id":"THB"},{"time":8,"i_lat":-6.155215,"i_long":106.800832,"station_name":"Duri","is_transit":true,"station_id":"DU","distance":3632,"transit":true,"line":1},{"station_name":"Grogol","line":5,"transit":false,"distance":1700,"is_transit":false,"station_id":"GGL","time":3,"i_lat":-6.162021,"i_long":106.788277},{"i_lat":-6.161433,"distance":2036,"i_long":106.771379,"transit":false,"station_id":"PSG","is_transit":false,"line":5,"station_name":"Pesing","time":2},{"i_long":106.756522,"time":2,"line":5,"transit":false,"i_lat":-6.1587309999999995,"is_transit":false,"station_name":"Taman Kota","station_id":"TKO","distance":1614}]]}