{"data":[[{"time":0,"is_transit":false,"line":0,"station_id":"AK","i_long":106.79867,"transit":false,"station_name":"Angke","i_lat":-6.144674,"distance":0},{"station_name":"Duri","is_transit":true,"station_id":"DU","distance":1230,"time":4,"i_long":106.800832,"line":1,"transit":true,"i_lat":-6.155215},{"transit":false,"time":3,"line":5,"i_lat":-6.162021,"station_id":"GGL","i_long":106.788277,"distance":1700,"is_transit":false,"station_name":"Grogol"},{"line":5,"transit":false,"i_lat":-6.161433,"i_long":106.771379,"station_id":"PSG","is_transit":false,"distance":2036,"station_name":"Pesing","time":2},{"time":2,"station_id":"TKO","transit":false,"distance":1614,"i_lat":-6.1587309999999995,"line":5,"i_long":106.756522,"is_transit":false,"station_name":"Taman Kota"}],[{"i_long":106.79867,"station_name":"Angke","is_transit":false,"time":0,"i_lat":-6.144674,"transit":false,"distance":0,"station_id":"AK","line":0},{"line":0,"station_id":"KPB","is_transit":true,"transit":false,"station_name":"Kampung Bandan","distance":4102,"i_lat":-6.132549,"time":9,"i_long":106.826365},{"distance":1364,"i_lat":-6.137569,"station_id":"JAKK","line":0,"is_transit":true,"i_long":106.812439,"transit":true,"station_name":"Jakarta Kota","time":3},{"line":7,"station_name":"Jayakarta","is_transit":false,"transit":false,"time":4,"i_lat":-6.141205,"station_id":"JAY","distance":1264,"i_long":106.820901},{"distance":1080,"i_lat":-6.149769,"transit":false,"line":2,"is_transit":false,"time":2,"station_id":"MGB","i_long":106.82482,"station_name":"Manggabesar"},{"station_id":"SW","i_long":106.827103,"distance":906,"i_lat":-6.160725,"line":2,"time":2,"station_name":"Sawah Besar","is_transit":false,"transit":false},{"transit":false,"line":2,"station_id":"JUA","station_name":"Juanda","time":2,"distance":1149,"is_transit":false,"i_long":106.828284,"i_lat":-6.166716},{"time":4,"i_long":106.832183,"transit":false,"distance":2015,"station_name":"Gondangdia","i_lat":-6.186295,"is_transit":false,"line":2,"station_id":"GDD"},{"is_transit":false,"distance":1750,"transit":false,"i_long":106.840169,"i_lat":-6.198556,"line":0,"time":3,"station_id":"CKI","station_name":"Cikini"},{"line":0,"i_lat":-6.209883,"is_transit":true,"i_long":106.84912,"time":4,"transit":true,"station_name":"Manggarai","distance":1590,"station_id":"MRI"},{"line":1,"transit":false,"distance":3186,"i_lat":-6.202263,"station_name":"Sudirman","station_id":"SUD","i_long":106.822649,"is_transit":false,"time":4},{"i_long":106.819881,"distance":280,"transit":false,"time":1,"i_lat":-6.201433,"is_transit":false,"line":1,"station_id":"SUDB","station_name":"Sudirman Baru"},{"distance":471,"is_transit":false,"i_lat":-6.20132,"i_long":106.816351,"time":1,"line":1,"transit":false,"station_name":"Karet","station_id":"KAT"},{"i_long":106.811091,"line":1,"is_transit":true,"time":5,"transit":false,"distance":2029,"station_id":"THB","station_name":"Tanah Abang","i_lat":-6.185545},{"transit":true,"station_id":"DU","time":8,"station_name":"Duri","distance":3632,"is_transit":true,"line":1,"i_lat":-6.155215,"i_long":106.800832},{"time":3,"i_long":106.788277,"distance":1700,"station_name":"Grogol","transit":false,"i_lat":-6.162021,"line":5,"station_id":"GGL","is_transit":false},{"station_name":"Pesing","transit":false,"station_id":"PSG","i_lat":-6.161433,"line":5,"i_long":106.771379,"distance":2036,"is_transit":false,"time":2},{"line":5,"transit":false,"time":2,"distance":1614,"i_lat":-6.1587309999999995,"is_transit":false,"station_id":"TKO","i_long":106.756522,"station_name":"Taman Kota"}],[{"station_name":"Angke","is_transit":false,"i_long":106.79867,"station_id":"AK","line":0,"time":0,"transit":false,"distance":0,"i_lat":-6.144674},{"station_id":"KPB","time":9,"is_transit":true,"i_lat":-6.132549,"distance":4102,"i_long":106.826365,"line":0,"transit":true,"station_name":"Kampung Bandan"},{"time":3,"line":11,"station_name":"Rajawali","distance":1444,"station_id":"RJW","i_long":106.836569,"is_transit":false,"i_lat":-6.14505,"transit":false},{"station_name":"Kemayoran","time":5,"i_lat":-6.161728,"i_long":106.839204,"transit":false,"station_id":"KMO","distance":1901,"line":11,"is_transit":false},{"i_long":106.84368,"line":11,"distance":1436,"transit":false,"station_id":"PSE","time":4,"is_transit":false,"i_lat":-6.174784,"station_name":"Pasar Senen"},{"is_transit":false,"station_id":"GST","line":11,"distance":1567,"time":8,"i_lat":-6.185975,"i_long":106.850107,"transit":false,"station_name":"Gang Sentiong"},{"station_id":"KMT","line":11,"is_transit":false,"i_long":106.855437,"transit":false,"distance":973,"i_lat":-6.193792,"time":1,"station_name":"Kramat"},{"i_long":106.861737,"station_id":"POK","station_name":"Pondok Jati","line":11,"is_transit":false,"transit":false,"time":2,"i_lat":-6.209188,"distance":1829},{"station_id":"JNG","transit":true,"i_lat":-6.215091,"line":0,"station_name":"Jatinegara","distance":1236,"is_transit":true,"time":9,"i_long":106.86807400000001},{"i_lat":-6.212485,"station_name":"Matraman","distance":1377,"i_long":106.858896,"transit":false,"is_transit":false,"time":2,"line":1,"station_id":"MTR"},{"is_transit":true,"station_name":"Manggarai","i_long":106.84912,"distance":1275,"i_lat":-6.209883,"time":2,"line":0,"transit":false,"station_id":"MRI"},{"transit":false,"station_name":"Sudirman","distance":3186,"time":4,"i_long":106.822649,"i_lat":-6.202263,"line":1,"station_id":"SUD","is_transit":false},{"station_name":"Sudirman Baru","time":1,"i_lat":-6.201433,"transit":false,"distance":280,"i_long":106.819881,"line":1,"is_transit":false,"station_id":"SUDB"},{"i_long":106.816351,"station_id":"KAT","i_lat":-6.20132,"station_name":"Karet","transit":false,"distance":471,"is_transit":false,"line":1,"time":1},{"i_long":106.811091,"station_name":"Tanah Abang","time":5,"line":1,"transit":false,"i_lat":-6.185545,"station_id":"THB","distance":2029,"is_transit":true},{"i_long":106.800832,"transit":true,"station_name":"Duri","time":8,"station_id":"DU","is_transit":true,"line":1,"distance":3632,"i_lat":-6.155215},{"distance":1700,"station_name":"Grogol","station_id":"GGL","i_lat":-6.162021,"time":3,"transit":false,"i_long":106.788277,"is_transit":false,"line":5},{"time":2,"station_id":"PSG","i_lat":-6.161433,"i_long":106.771379,"is_transit":false,"station_name":"Pesing","line":5,"transit":false,"distance":2036},{"time":2,"station_name":"Taman Kota","transit":false,"distance":1614,"i_lat":-6.1587309999999995,"i_long":106.756522,"is_transit":false,"line":5,"station_id":"TKO"}]]}