{"data":[[{"transit":false,"is_transit":false,"time":0,"station_id":"AK","station_name":"Angke","i_long":106.79867,"i_lat":-6.144674,"line":1,"distance":0},{"i_long":106.800832,"distance":1230,"transit":true,"is_transit":true,"time":4,"i_lat":-6.155215,"station_name":"Duri","station_id":"DU","line":1},{"distance":1700,"station_name":"Grogol","station_id":"GGL","transit":false,"i_long":106.788277,"i_lat":-6.162021,"line":5,"is_transit":false,"time":3},{"distance":2036,"time":2,"i_long":106.771379,"station_name":"Pesing","transit":false,"is_transit":false,"i_lat":-6.161433,"station_id":"PSG","line":5},{"i_long":106.756522,"station_name":"Taman Kota","transit":false,"i_lat":-6.1587309999999995,"line":5,"station_id":"TKO","distance":1614,"is_transit":false,"time":2}],[{"time":0,"is_transit":false,"line":1,"transit":false,"i_long":106.79867,"distance":0,"i_lat":-6.144674,"station_name":"Angke","station_id":"AK"},{"is_transit":true,"i_long":106.826365,"station_id":"KPB","distance":4102,"time":9,"station_name":"Kampung Bandan","transit":true,"line":4,"i_lat":-6.132549},{"station_id":"JAKK","is_transit":true,"i_long":106.812439,"time":3,"line":2,"distance":1364,"station_name":"Jakarta Kota","transit":true,"i_lat":-6.137569},{"line":2,"i_lat":-6.141205,"distance":1264,"is_transit":false,"i_long":106.820901,"transit":false,"station_id":"JAY","time":4,"station_name":"Jayakarta"},{"i_long":106.82482,"distance":1080,"is_transit":false,"i_lat":-6.149769,"station_id":"MGB","station_name":"Manggabesar","line":2,"transit":false,"time":2},{"i_lat":-6.160725,"station_name":"Sawah Besar","is_transit":false,"time":2,"line":2,"station_id":"SW","distance":906,"transit":false,"i_long":106.827103},{"time":2,"station_name":"Juanda","distance":1149,"is_transit":false,"station_id":"JUA","i_long":106.828284,"line":2,"i_lat":-6.166716,"transit":false},{"line":2,"station_id":"GDD","distance":2015,"time":4,"i_long":106.832183,"station_name":"Gondangdia","is_transit":false,"transit":false,"i_lat":-6.186295},{"transit":false,"station_id":"CKI","is_transit":false,"line":2,"i_long":106.840169,"time":3,"station_name":"Cikini","distance":1750,"i_lat":-6.198556},{"station_id":"MRI","is_transit":true,"transit":true,"distance":1590,"time":4,"i_lat":-6.209883,"i_long":106.84912,"line":2,"station_name":"Manggarai"},{"transit":false,"i_long":106.822649,"is_transit":false,"line":1,"distance":3186,"station_id":"SUD","i_lat":-6.202263,"station_name":"Sudirman","time":4},{"station_id":"SUDB","time":1,"station_name":"Sudirman Baru","i_long":106.819881,"i_lat":-6.201433,"transit":false,"distance":280,"is_transit":false,"line":1},{"is_transit":false,"i_long":106.816351,"time":1,"station_name":"Karet","i_lat":-6.20132,"distance":471,"transit":false,"line":1,"station_id":"KAT"},{"transit":false,"i_lat":-6.185545,"time":5,"is_transit":false,"line":1,"distance":2029,"i_long":106.811091,"station_name":"Tanah Abang","station_id":"THB"},{"time":8,"is_transit":true,"i_lat":-6.155215,"i_long":106.800832,"station_id":"DU","transit":true,"line":1,"station_name":"Duri","distance":3632},{"time":3,"i_lat":-6.162021,"is_transit":false,"i_long":106.788277,"line":5,"station_name":"Grogol","station_id":"GGL","transit":false,"distance":1700},{"line":5,"station_id":"PSG","distance":2036,"transit":false,"is_transit":false,"time":2,"i_long":106.771379,"station_name":"Pesing","i_lat":-6.161433},{"distance":1614,"station_name":"Taman Kota","i_lat":-6.1587309999999995,"station_id":"TKO","transit":false,"is_transit":false,"time":2,"i_long":106.756522,"line":5}],[{"i_lat":-6.144674,"distance":0,"i_long":106.79867,"station_name":"Angke","time":0,"station_id":"AK","transit":false,"line":1,"is_transit":false},{"is_transit":true,"line":4,"i_long":106.826365,"i_lat":-6.132549,"station_name":"Kampung Bandan","transit":true,"time":9,"distance":4102,"station_id":"KPB"},{"is_transit":false,"line":11,"station_name":"Rajawali","transit":false,"i_long":106.836569,"station_id":"RJW","time":3,"i_lat":-6.14505,"distance":1444},{"station_id":"KMO","distance":1901,"transit":false,"time":5,"line":11,"station_name":"Kemayoran","is_transit":false,"i_lat":-6.161728,"i_long":106.839204},{"station_id":"PSE","station_name":"Pasar Senen","distance":1436,"transit":false,"time":4,"i_lat":-6.174784,"i_long":106.84368,"line":11,"is_transit":false},{"line":11,"station_id":"GST","station_name":"Gang Sentiong","transit":false,"is_transit":false,"distance":1567,"time":8,"i_long":106.850107,"i_lat":-6.185975},{"i_lat":-6.193792,"station_name":"Kramat","time":1,"i_long":106.855437,"is_transit":false,"transit":false,"station_id":"KMT","line":11,"distance":973},{"i_long":106.861737,"transit":false,"station_name":"Pondok Jati","station_id":"POK","distance":1829,"is_transit":false,"time":2,"i_lat":-6.209188,"line":11},{"station_name":"Jatinegara","station_id":"JNG","transit":true,"distance":1236,"is_transit":true,"time":9,"i_lat":-6.215091,"line":1,"i_long":106.86807400000001},{"is_transit":false,"station_id":"MTR","transit":false,"time":2,"distance":1377,"line":1,"station_name":"Matraman","i_lat":-6.212485,"i_long":106.858896},{"is_transit":false,"time":2,"distance":1275,"station_id":"MRI","station_name":"Manggarai","i_lat":-6.209883,"i_long":106.84912,"transit":false,"line":2},{"transit":false,"i_lat":-6.202263,"is_transit":false,"station_name":"Sudirman","line":1,"i_long":106.822649,"distance":3186,"station_id":"SUD","time":4},{"station_name":"Sudirman Baru","is_transit":false,"distance":280,"transit":false,"station_id":"SUDB","line":1,"i_long":106.819881,"i_lat":-6.201433,"time":1},{"station_name":"Karet","distance":471,"station_id":"KAT","i_long":106.816351,"time":1,"i_lat":-6.20132,"line":1,"transit":false,"is_transit":false},{"time":5,"i_lat":-6.185545,"i_long":106.811091,"distance":2029,"transit":false,"station_name":"Tanah Abang","station_id":"THB","is_transit":false,"line":1},{"i_lat":-6.155215,"distance":3632,"is_transit":true,"station_name":"Duri","time":8,"i_long":106.800832,"line":1,"station_id":"DU","transit":true},{"is_transit":false,"i_lat":-6.162021,"transit":false,"station_id":"GGL","time":3,"i_long":106.788277,"distance":1700,"station_name":"Grogol","line":5},{"i_long":106.771379,"is_transit":false,"station_name":"Pesing","time":2,"line":5,"station_id":"PSG","i_lat":-6.161433,"transit":false,"distance":2036},{"is_transit":false,"station_id":"TKO","i_long":106.756522,"i_lat":-6.1587309999999995,"line":5,"station_name":"Taman Kota","time":2,"transit":false,"distance":1614}]]}