{"data":[[{"i_lat":-6.144674,"i_long":106.79867,"station_name":"Angke","distance":0,"transit":false,"line":1,"is_transit":false,"time":0,"station_id":"AK"},{"i_long":106.800832,"transit":false,"station_name":"Duri","line":1,"is_transit":false,"time":4,"station_id":"DU","i_lat":-6.155215,"distance":1230},{"station_id":"THB","station_name":"Tanah Abang","distance":3632,"time":8,"i_long":106.811091,"is_transit":false,"transit":false,"line":1,"i_lat":-6.185545},{"station_name":"Karet","transit":false,"time":5,"is_transit":false,"station_id":"KAT","i_lat":-6.20132,"i_long":106.816351,"line":1,"distance":2029},{"i_long":106.819881,"transit":false,"distance":471,"station_id":"SUDB","station_name":"Sudirman Baru","i_lat":-6.201433,"time":1,"line":1,"is_transit":false},{"i_lat":-6.202263,"line":1,"time":1,"distance":280,"station_id":"SUD","transit":false,"is_transit":false,"station_name":"Sudirman","i_long":106.822649},{"transit":true,"distance":3186,"line":2,"time":4,"station_name":"Manggarai","is_transit":true,"station_id":"MRI","i_lat":-6.209883,"i_long":106.84912},{"line":2,"i_long":106.857948,"station_id":"TEB","transit":false,"i_lat":-6.226659,"time":4,"station_name":"Tebet","is_transit":false,"distance":2610},{"is_transit":false,"line":2,"station_id":"CW","transit":false,"time":2,"i_lat":-6.242512,"i_long":106.856607,"station_name":"Cawang","distance":1230},{"transit":false,"i_lat":-6.255332,"distance":1546,"time":3,"i_long":106.85449,"is_transit":false,"station_name":"Duren Kalibata","station_id":"DRN","line":2},{"station_id":"PSMB","transit":false,"i_lat":-6.263214,"line":2,"i_long":106.851577,"station_name":"Pasar Minggu Baru","is_transit":false,"time":2,"distance":824},{"i_lat":-6.2842400000000005,"station_id":"PSM","distance":2380,"is_transit":false,"transit":false,"i_long":106.843999,"line":2,"time":2,"station_name":"Pasar Minggu"},{"transit":false,"line":2,"is_transit":false,"station_id":"TNT","distance":2820,"i_lat":-6.3080680000000005,"time":4,"station_name":"Tanjung Barat","i_long":106.838896},{"transit":false,"i_long":106.832616,"station_id":"LNA","time":3,"line":2,"i_lat":-6.330363,"station_name":"Lenteng Agung","is_transit":false,"distance":2671},{"station_name":"Univ. Pancasila","time":2,"is_transit":false,"i_long":106.834175,"distance":1029,"line":2,"station_id":"UP","i_lat":-6.339291,"transit":false}],[{"station_id":"AK","distance":0,"i_lat":-6.144674,"transit":false,"station_name":"Angke","is_transit":false,"time":0,"i_long":106.79867,"line":1},{"i_lat":-6.132549,"i_long":106.826365,"is_transit":true,"station_id":"KPB","distance":4102,"station_name":"Kampung Bandan","transit":true,"time":9,"line":4},{"line":2,"station_id":"JAKK","station_name":"Jakarta Kota","i_lat":-6.137569,"transit":true,"distance":1364,"i_long":106.812439,"is_transit":true,"time":3},{"line":2,"station_name":"Jayakarta","station_id":"JAY","time":4,"i_lat":-6.141205,"distance":1264,"i_long":106.820901,"transit":false,"is_transit":false},{"is_transit":false,"time":2,"transit":false,"station_name":"Manggabesar","station_id":"MGB","distance":1080,"i_lat":-6.149769,"i_long":106.82482,"line":2},{"i_lat":-6.160725,"time":2,"i_long":106.827103,"line":2,"station_name":"Sawah Besar","station_id":"SW","transit":false,"is_transit":false,"distance":906},{"station_name":"Juanda","transit":false,"station_id":"JUA","i_lat":-6.166716,"time":2,"i_long":106.828284,"line":2,"is_transit":false,"distance":1149},{"i_long":106.832183,"distance":2015,"is_transit":false,"i_lat":-6.186295,"line":2,"time":4,"transit":false,"station_id":"GDD","station_name":"Gondangdia"},{"i_lat":-6.198556,"is_transit":false,"station_name":"Cikini","i_long":106.840169,"station_id":"CKI","distance":1750,"line":2,"time":3,"transit":false},{"distance":1590,"station_id":"MRI","i_lat":-6.209883,"i_long":106.84912,"transit":false,"station_name":"Manggarai","is_transit":false,"line":2,"time":4},{"line":2,"station_id":"TEB","transit":false,"i_lat":-6.226659,"is_transit":false,"time":4,"i_long":106.857948,"station_name":"Tebet","distance":2610},{"station_id":"CW","is_transit":false,"transit":false,"i_lat":-6.242512,"line":2,"time":2,"i_long":106.856607,"station_name":"Cawang","distance":1230},{"distance":1546,"is_transit":false,"i_lat":-6.255332,"line":2,"station_id":"DRN","i_long":106.85449,"time":3,"station_name":"Duren Kalibata","transit":false},{"station_id":"PSMB","i_long":106.851577,"is_transit":false,"distance":824,"line":2,"station_name":"Pasar Minggu Baru","time":2,"i_lat":-6.263214,"transit":false},{"station_name":"Pasar Minggu","i_lat":-6.2842400000000005,"line":2,"is_transit":false,"distance":2380,"transit":false,"station_id":"PSM","i_long":106.843999,"time":2},{"station_id":"TNT","i_long":106.838896,"is_transit":false,"station_name":"Tanjung Barat","distance":2820,"line":2,"time":4,"transit":false,"i_lat":-6.3080680000000005},{"transit":false,"is_transit":false,"line":2,"distance":2671,"station_name":"Lenteng Agung","time":3,"station_id":"LNA","i_lat":-6.330363,"i_long":106.832616},{"station_name":"Univ. Pancasila","is_transit":false,"time":2,"i_long":106.834175,"distance":1029,"i_lat":-6.339291,"transit":false,"station_id":"UP","line":2}],[{"transit":false,"is_transit":false,"time":0,"i_long":106.79867,"station_id":"AK","line":1,"distance":0,"i_lat":-6.144674,"station_name":"Angke"},{"is_transit":true,"station_name":"Kampung Bandan","time":9,"distance":4102,"line":4,"transit":true,"station_id":"KPB","i_lat":-6.132549,"i_long":106.826365},{"time":3,"is_transit":false,"station_id":"RJW","line":11,"distance":1444,"i_long":106.836569,"i_lat":-6.14505,"transit":false,"station_name":"Rajawali"},{"time":5,"distance":1901,"station_id":"KMO","i_lat":-6.161728,"transit":false,"i_long":106.839204,"station_name":"Kemayoran","is_transit":false,"line":11},{"line":11,"is_transit":false,"station_name":"Pasar Senen","station_id":"PSE","distance":1436,"transit":false,"i_lat":-6.174784,"i_long":106.84368,"time":4},{"i_long":106.850107,"transit":false,"time":8,"line":11,"is_transit":false,"station_name":"Gang Sentiong","station_id":"GST","i_lat":-6.185975,"distance":1567},{"line":11,"is_transit":false,"distance":973,"station_name":"Kramat","i_long":106.855437,"transit":false,"station_id":"KMT","time":1,"i_lat":-6.193792},{"i_lat":-6.209188,"station_id":"POK","distance":1829,"line":11,"transit":false,"station_name":"Pondok Jati","is_transit":false,"time":2,"i_long":106.861737},{"distance":1236,"line":1,"station_id":"JNG","transit":true,"i_lat":-6.215091,"i_long":106.86807400000001,"station_name":"Jatinegara","is_transit":true,"time":9},{"line":1,"station_name":"Matraman","time":2,"i_long":106.858896,"i_lat":-6.212485,"distance":1377,"transit":false,"is_transit":false,"station_id":"MTR"},{"transit":true,"station_name":"Manggarai","line":2,"i_lat":-6.209883,"is_transit":true,"time":2,"distance":1275,"i_long":106.84912,"station_id":"MRI"},{"is_transit":false,"distance":2610,"station_id":"TEB","i_lat":-6.226659,"i_long":106.857948,"transit":false,"line":2,"time":4,"station_name":"Tebet"},{"station_name":"Cawang","transit":false,"i_long":106.856607,"line":2,"is_transit":false,"time":2,"station_id":"CW","i_lat":-6.242512,"distance":1230},{"i_lat":-6.255332,"line":2,"distance":1546,"is_transit":false,"transit":false,"time":3,"station_id":"DRN","i_long":106.85449,"station_name":"Duren Kalibata"},{"time":2,"line":2,"i_lat":-6.263214,"i_long":106.851577,"station_id":"PSMB","transit":false,"distance":824,"is_transit":false,"station_name":"Pasar Minggu Baru"},{"station_name":"Pasar Minggu","time":2,"line":2,"is_transit":false,"distance":2380,"i_lat":-6.2842400000000005,"transit":false,"station_id":"PSM","i_long":106.843999},{"distance":2820,"i_long":106.838896,"time":4,"transit":false,"station_name":"Tanjung Barat","is_transit":false,"station_id":"TNT","i_lat":-6.3080680000000005,"line":2},{"i_long":106.832616,"transit":false,"is_transit":false,"distance":2671,"time":3,"line":2,"station_name":"Lenteng Agung","station_id":"LNA","i_lat":-6.330363},{"is_transit":false,"transit":false,"i_long":106.834175,"line":2,"i_lat":-6.339291,"station_name":"Univ. Pancasila","time":2,"distance":1029,"station_id":"UP"}]]}