{"data":[[{"station_id":"AK","transit":false,"time":0,"is_transit":false,"i_long":106.79867,"station_name":"Angke","i_lat":-6.144674,"line":0,"distance":0},{"time":4,"is_transit":true,"i_lat":-6.155215,"station_id":"DU","transit":true,"station_name":"Duri","i_long":106.800832,"distance":1230,"line":1},{"is_transit":true,"time":8,"i_long":106.811091,"distance":3632,"line":1,"station_name":"Tanah Abang","i_lat":-6.185545,"transit":false,"station_id":"THB"},{"i_lat":-6.20132,"station_name":"Karet","is_transit":false,"station_id":"KAT","i_long":106.816351,"transit":false,"distance":2029,"line":1,"time":5},{"transit":false,"is_transit":false,"time":1,"station_name":"Sudirman Baru","i_long":106.819881,"station_id":"SUDB","distance":471,"i_lat":-6.201433,"line":1},{"distance":280,"i_lat":-6.202263,"is_transit":false,"line":1,"transit":false,"station_name":"Sudirman","time":1,"i_long":106.822649,"station_id":"SUD"},{"is_transit":true,"time":4,"line":0,"distance":3186,"transit":true,"station_name":"Manggarai","i_lat":-6.209883,"i_long":106.84912,"station_id":"MRI"},{"transit":false,"i_long":106.857948,"line":2,"time":4,"station_name":"Tebet","station_id":"TEB","distance":2610,"i_lat":-6.226659,"is_transit":false},{"station_name":"Cawang","i_lat":-6.242512,"i_long":106.856607,"line":0,"station_id":"CW","is_transit":false,"time":2,"distance":1230,"transit":false},{"transit":false,"line":0,"distance":1546,"station_name":"Duren Kalibata","is_transit":false,"time":3,"i_long":106.85449,"station_id":"DRN","i_lat":-6.255332},{"station_name":"Pasar Minggu Baru","station_id":"PSMB","time":2,"i_lat":-6.263214,"i_long":106.851577,"is_transit":false,"distance":824,"transit":false,"line":2},{"distance":2380,"i_long":106.843999,"transit":false,"time":2,"station_name":"Pasar Minggu","i_lat":-6.2842400000000005,"line":2,"station_id":"PSM","is_transit":false},{"is_transit":false,"station_name":"Tanjung Barat","station_id":"TNT","distance":2820,"transit":false,"i_lat":-6.3080680000000005,"i_long":106.838896,"time":4,"line":2},{"transit":false,"is_transit":false,"time":3,"line":2,"i_lat":-6.330363,"station_name":"Lenteng Agung","distance":2671,"i_long":106.832616,"station_id":"LNA"},{"line":2,"i_lat":-6.339291,"transit":false,"i_long":106.834175,"station_name":"Univ. Pancasila","station_id":"UP","is_transit":false,"time":2,"distance":1029}],[{"station_name":"Angke","time":0,"transit":false,"line":0,"i_lat":-6.144674,"is_transit":false,"distance":0,"station_id":"AK","i_long":106.79867},{"transit":false,"i_long":106.826365,"distance":4102,"line":0,"time":9,"i_lat":-6.132549,"station_name":"Kampung Bandan","is_transit":true,"station_id":"KPB"},{"line":0,"is_transit":true,"i_lat":-6.137569,"station_id":"JAKK","i_long":106.812439,"transit":true,"time":3,"station_name":"Jakarta Kota","distance":1364},{"time":4,"station_id":"JAY","transit":false,"i_long":106.820901,"distance":1264,"line":7,"is_transit":false,"i_lat":-6.141205,"station_name":"Jayakarta"},{"station_id":"MGB","time":2,"transit":false,"i_long":106.82482,"line":2,"station_name":"Manggabesar","i_lat":-6.149769,"distance":1080,"is_transit":false},{"distance":906,"is_transit":false,"i_lat":-6.160725,"transit":false,"i_long":106.827103,"time":2,"station_name":"Sawah Besar","station_id":"SW","line":2},{"station_id":"JUA","is_transit":false,"distance":1149,"i_lat":-6.166716,"i_long":106.828284,"transit":false,"station_name":"Juanda","line":2,"time":2},{"distance":2015,"station_id":"GDD","station_name":"Gondangdia","transit":false,"is_transit":false,"i_lat":-6.186295,"time":4,"i_long":106.832183,"line":2},{"i_long":106.840169,"is_transit":false,"i_lat":-6.198556,"line":0,"time":3,"transit":false,"station_name":"Cikini","station_id":"CKI","distance":1750},{"station_name":"Manggarai","is_transit":true,"line":0,"i_lat":-6.209883,"i_long":106.84912,"distance":1590,"station_id":"MRI","transit":true,"time":4},{"station_id":"TEB","is_transit":false,"time":4,"i_lat":-6.226659,"i_long":106.857948,"transit":false,"line":2,"station_name":"Tebet","distance":2610},{"station_name":"Cawang","distance":1230,"i_lat":-6.242512,"transit":false,"line":0,"time":2,"station_id":"CW","i_long":106.856607,"is_transit":false},{"i_lat":-6.255332,"is_transit":false,"station_name":"Duren Kalibata","station_id":"DRN","distance":1546,"transit":false,"i_long":106.85449,"time":3,"line":0},{"i_long":106.851577,"time":2,"station_id":"PSMB","transit":false,"line":2,"is_transit":false,"distance":824,"i_lat":-6.263214,"station_name":"Pasar Minggu Baru"},{"is_transit":false,"distance":2380,"transit":false,"time":2,"line":2,"i_long":106.843999,"i_lat":-6.2842400000000005,"station_id":"PSM","station_name":"Pasar Minggu"},{"transit":false,"distance":2820,"station_name":"Tanjung Barat","time":4,"i_lat":-6.3080680000000005,"i_long":106.838896,"is_transit":false,"line":2,"station_id":"TNT"},{"i_long":106.832616,"time":3,"line":2,"station_name":"Lenteng Agung","transit":false,"i_lat":-6.330363,"distance":2671,"is_transit":false,"station_id":"LNA"},{"station_id":"UP","line":2,"i_long":106.834175,"time":2,"i_lat":-6.339291,"distance":1029,"is_transit":false,"transit":false,"station_name":"Univ. Pancasila"}],[{"transit":false,"station_name":"Angke","i_long":106.79867,"i_lat":-6.144674,"distance":0,"station_id":"AK","is_transit":false,"time":0,"line":0},{"station_name":"Kampung Bandan","station_id":"KPB","time":9,"i_long":106.826365,"distance":4102,"i_lat":-6.132549,"is_transit":true,"line":0,"transit":true},{"is_transit":false,"transit":false,"station_id":"RJW","distance":1444,"i_long":106.836569,"station_name":"Rajawali","line":11,"i_lat":-6.14505,"time":3},{"time":5,"is_transit":false,"station_id":"KMO","distance":1901,"transit":false,"i_long":106.839204,"i_lat":-6.161728,"line":11,"station_name":"Kemayoran"},{"station_id":"PSE","station_name":"Pasar Senen","i_lat":-6.174784,"is_transit":false,"time":4,"i_long":106.84368,"distance":1436,"line":11,"transit":false},{"station_id":"GST","time":8,"distance":1567,"i_lat":-6.185975,"is_transit":false,"line":11,"transit":false,"station_name":"Gang Sentiong","i_long":106.850107},{"distance":973,"i_lat":-6.193792,"i_long":106.855437,"station_name":"Kramat","is_transit":false,"time":1,"transit":false,"line":11,"station_id":"KMT"},{"time":2,"i_lat":-6.209188,"transit":false,"line":11,"i_long":106.861737,"is_transit":false,"station_name":"Pondok Jati","station_id":"POK","distance":1829},{"distance":1236,"i_lat":-6.215091,"station_name":"Jatinegara","transit":true,"station_id":"JNG","i_long":106.86807400000001,"line":0,"is_transit":true,"time":9},{"time":2,"station_name":"Matraman","i_long":106.858896,"i_lat":-6.212485,"is_transit":false,"distance":1377,"station_id":"MTR","transit":false,"line":1},{"is_transit":true,"i_long":106.84912,"i_lat":-6.209883,"line":0,"time":2,"transit":true,"station_id":"MRI","station_name":"Manggarai","distance":1275},{"line":2,"is_transit":false,"station_id":"TEB","distance":2610,"station_name":"Tebet","time":4,"i_lat":-6.226659,"i_long":106.857948,"transit":false},{"transit":false,"line":0,"station_name":"Cawang","is_transit":false,"i_long":106.856607,"distance":1230,"i_lat":-6.242512,"time":2,"station_id":"CW"},{"distance":1546,"is_transit":false,"time":3,"i_lat":-6.255332,"line":0,"station_name":"Duren Kalibata","station_id":"DRN","transit":false,"i_long":106.85449},{"i_lat":-6.263214,"time":2,"line":2,"station_name":"Pasar Minggu Baru","transit":false,"station_id":"PSMB","distance":824,"is_transit":false,"i_long":106.851577},{"station_id":"PSM","i_lat":-6.2842400000000005,"distance":2380,"station_name":"Pasar Minggu","i_long":106.843999,"is_transit":false,"time":2,"transit":false,"line":2},{"is_transit":false,"station_id":"TNT","station_name":"Tanjung Barat","transit":false,"distance":2820,"line":2,"time":4,"i_lat":-6.3080680000000005,"i_long":106.838896},{"i_lat":-6.330363,"is_transit":false,"station_id":"LNA","time":3,"i_long":106.832616,"distance":2671,"station_name":"Lenteng Agung","line":2,"transit":false},{"time":2,"station_id":"UP","is_transit":false,"transit":false,"i_long":106.834175,"line":2,"station_name":"Univ. Pancasila","i_lat":-6.339291,"distance":1029}]]}