{"data":[[{"transit":false,"station_name":"Angke","time":0,"i_long":106.79867,"i_lat":-6.144674,"line":1,"station_id":"AK","is_transit":false,"distance":0},{"i_lat":-6.155215,"transit":false,"station_id":"DU","line":1,"station_name":"Duri","time":4,"i_long":106.800832,"is_transit":false,"distance":1230},{"line":1,"station_id":"THB","transit":false,"time":8,"is_transit":false,"i_lat":-6.185545,"distance":3632,"station_name":"Tanah Abang","i_long":106.811091},{"station_name":"Karet","is_transit":false,"distance":2029,"i_lat":-6.20132,"i_long":106.816351,"line":1,"transit":false,"time":5,"station_id":"KAT"},{"station_id":"SUDB","time":1,"distance":471,"station_name":"Sudirman Baru","transit":false,"is_transit":false,"i_lat":-6.201433,"line":1,"i_long":106.819881},{"line":1,"time":1,"i_lat":-6.202263,"station_id":"SUD","station_name":"Sudirman","distance":280,"transit":false,"is_transit":false,"i_long":106.822649},{"distance":3186,"transit":true,"i_long":106.84912,"station_name":"Manggarai","station_id":"MRI","is_transit":true,"time":4,"i_lat":-6.209883,"line":2},{"line":2,"distance":2610,"i_lat":-6.226659,"station_id":"TEB","transit":false,"station_name":"Tebet","is_transit":false,"i_long":106.857948,"time":4},{"time":2,"transit":false,"i_lat":-6.242512,"is_transit":false,"i_long":106.856607,"station_name":"Cawang","line":2,"distance":1230,"station_id":"CW"},{"line":2,"station_name":"Duren Kalibata","station_id":"DRN","i_long":106.85449,"transit":false,"is_transit":false,"i_lat":-6.255332,"distance":1546,"time":3},{"line":2,"transit":false,"time":2,"is_transit":false,"station_id":"PSMB","station_name":"Pasar Minggu Baru","i_lat":-6.263214,"i_long":106.851577,"distance":824},{"i_long":106.843999,"station_id":"PSM","transit":false,"time":2,"i_lat":-6.2842400000000005,"distance":2380,"line":2,"station_name":"Pasar Minggu","is_transit":false},{"line":2,"station_id":"TNT","distance":2820,"time":4,"is_transit":false,"i_lat":-6.3080680000000005,"station_name":"Tanjung Barat","i_long":106.838896,"transit":false},{"i_long":106.832616,"station_id":"LNA","transit":false,"station_name":"Lenteng Agung","is_transit":false,"i_lat":-6.330363,"distance":2671,"line":2,"time":3},{"i_long":106.834175,"transit":false,"i_lat":-6.339291,"station_id":"UP","distance":1029,"is_transit":false,"station_name":"Univ. Pancasila","line":2,"time":2}],[{"i_long":106.79867,"time":0,"station_name":"Angke","distance":0,"transit":false,"line":1,"is_transit":false,"i_lat":-6.144674,"station_id":"AK"},{"time":9,"transit":true,"station_id":"KPB","station_name":"Kampung Bandan","i_long":106.826365,"line":4,"is_transit":true,"distance":4102,"i_lat":-6.132549},{"i_long":106.812439,"station_name":"Jakarta Kota","transit":true,"distance":1364,"i_lat":-6.137569,"is_transit":true,"station_id":"JAKK","line":2,"time":3},{"is_transit":false,"time":4,"transit":false,"i_long":106.820901,"line":2,"i_lat":-6.141205,"station_id":"JAY","station_name":"Jayakarta","distance":1264},{"distance":1080,"time":2,"is_transit":false,"i_lat":-6.149769,"line":2,"station_id":"MGB","i_long":106.82482,"station_name":"Manggabesar","transit":false},{"station_id":"SW","time":2,"i_long":106.827103,"transit":false,"line":2,"distance":906,"station_name":"Sawah Besar","is_transit":false,"i_lat":-6.160725},{"distance":1149,"is_transit":false,"line":2,"time":2,"transit":false,"i_lat":-6.166716,"i_long":106.828284,"station_id":"JUA","station_name":"Juanda"},{"time":4,"distance":2015,"is_transit":false,"station_name":"Gondangdia","i_long":106.832183,"transit":false,"station_id":"GDD","i_lat":-6.186295,"line":2},{"i_lat":-6.198556,"time":3,"line":2,"station_name":"Cikini","is_transit":false,"transit":false,"distance":1750,"i_long":106.840169,"station_id":"CKI"},{"i_lat":-6.209883,"is_transit":false,"station_name":"Manggarai","i_long":106.84912,"time":4,"distance":1590,"station_id":"MRI","line":2,"transit":false},{"is_transit":false,"station_id":"TEB","time":4,"distance":2610,"i_lat":-6.226659,"transit":false,"station_name":"Tebet","line":2,"i_long":106.857948},{"i_lat":-6.242512,"station_id":"CW","line":2,"transit":false,"i_long":106.856607,"distance":1230,"time":2,"station_name":"Cawang","is_transit":false},{"transit":false,"station_id":"DRN","station_name":"Duren Kalibata","is_transit":false,"time":3,"distance":1546,"i_long":106.85449,"i_lat":-6.255332,"line":2},{"station_id":"PSMB","station_name":"Pasar Minggu Baru","transit":false,"is_transit":false,"time":2,"i_lat":-6.263214,"line":2,"distance":824,"i_long":106.851577},{"i_lat":-6.2842400000000005,"line":2,"transit":false,"distance":2380,"i_long":106.843999,"is_transit":false,"time":2,"station_name":"Pasar Minggu","station_id":"PSM"},{"i_lat":-6.3080680000000005,"distance":2820,"line":2,"station_name":"Tanjung Barat","transit":false,"station_id":"TNT","is_transit":false,"i_long":106.838896,"time":4},{"station_name":"Lenteng Agung","time":3,"line":2,"is_transit":false,"station_id":"LNA","transit":false,"distance":2671,"i_long":106.832616,"i_lat":-6.330363},{"station_name":"Univ. Pancasila","i_long":106.834175,"time":2,"transit":false,"line":2,"distance":1029,"i_lat":-6.339291,"is_transit":false,"station_id":"UP"}],[{"station_id":"AK","transit":false,"is_transit":false,"i_lat":-6.144674,"time":0,"line":1,"distance":0,"i_long":106.79867,"station_name":"Angke"},{"i_lat":-6.132549,"station_id":"KPB","time":9,"station_name":"Kampung Bandan","transit":true,"line":4,"distance":4102,"is_transit":true,"i_long":106.826365},{"line":11,"distance":1444,"transit":false,"i_lat":-6.14505,"station_name":"Rajawali","i_long":106.836569,"time":3,"is_transit":false,"station_id":"RJW"},{"station_id":"KMO","is_transit":false,"i_lat":-6.161728,"i_long":106.839204,"line":11,"transit":false,"distance":1901,"time":5,"station_name":"Kemayoran"},{"is_transit":false,"station_name":"Pasar Senen","i_long":106.84368,"distance":1436,"transit":false,"i_lat":-6.174784,"time":4,"line":11,"station_id":"PSE"},{"station_id":"GST","distance":1567,"is_transit":false,"transit":false,"i_lat":-6.185975,"i_long":106.850107,"line":11,"station_name":"Gang Sentiong","time":8},{"time":1,"transit":false,"station_id":"KMT","line":11,"i_long":106.855437,"station_name":"Kramat","i_lat":-6.193792,"is_transit":false,"distance":973},{"i_lat":-6.209188,"is_transit":false,"station_name":"Pondok Jati","station_id":"POK","distance":1829,"i_long":106.861737,"line":11,"transit":false,"time":2},{"transit":true,"time":9,"i_lat":-6.215091,"line":1,"is_transit":true,"station_name":"Jatinegara","station_id":"JNG","distance":1236,"i_long":106.86807400000001},{"distance":1377,"i_long":106.858896,"transit":false,"station_name":"Matraman","time":2,"line":1,"is_transit":false,"station_id":"MTR","i_lat":-6.212485},{"station_name":"Manggarai","transit":true,"i_lat":-6.209883,"i_long":106.84912,"station_id":"MRI","line":2,"distance":1275,"time":2,"is_transit":true},{"i_lat":-6.226659,"is_transit":false,"station_name":"Tebet","i_long":106.857948,"line":2,"station_id":"TEB","distance":2610,"time":4,"transit":false},{"station_name":"Cawang","time":2,"i_lat":-6.242512,"line":2,"i_long":106.856607,"station_id":"CW","transit":false,"distance":1230,"is_transit":false},{"transit":false,"is_transit":false,"station_name":"Duren Kalibata","i_long":106.85449,"i_lat":-6.255332,"distance":1546,"line":2,"station_id":"DRN","time":3},{"is_transit":false,"station_name":"Pasar Minggu Baru","i_lat":-6.263214,"transit":false,"distance":824,"i_long":106.851577,"line":2,"station_id":"PSMB","time":2},{"line":2,"is_transit":false,"station_id":"PSM","transit":false,"time":2,"station_name":"Pasar Minggu","i_lat":-6.2842400000000005,"distance":2380,"i_long":106.843999},{"i_long":106.838896,"i_lat":-6.3080680000000005,"is_transit":false,"transit":false,"line":2,"distance":2820,"station_id":"TNT","time":4,"station_name":"Tanjung Barat"},{"time":3,"i_lat":-6.330363,"station_name":"Lenteng Agung","line":2,"is_transit":false,"transit":false,"distance":2671,"station_id":"LNA","i_long":106.832616},{"line":2,"is_transit":false,"i_long":106.834175,"transit":false,"time":2,"station_id":"UP","station_name":"Univ. Pancasila","distance":1029,"i_lat":-6.339291}]]}