{"data":[[{"transit":false,"time":0,"is_transit":false,"i_lat":-6.144674,"i_long":106.79867,"line":1,"station_name":"Angke","station_id":"AK","distance":0},{"line":1,"distance":1230,"station_id":"DU","time":4,"station_name":"Duri","is_transit":false,"transit":false,"i_lat":-6.155215,"i_long":106.800832},{"transit":false,"time":8,"i_long":106.811091,"station_id":"THB","line":1,"is_transit":false,"i_lat":-6.185545,"station_name":"Tanah Abang","distance":3632},{"is_transit":false,"time":5,"distance":2029,"i_lat":-6.20132,"transit":false,"i_long":106.816351,"station_name":"Karet","station_id":"KAT","line":1},{"is_transit":false,"i_long":106.819881,"line":1,"time":1,"i_lat":-6.201433,"transit":false,"distance":471,"station_name":"Sudirman Baru","station_id":"SUDB"},{"transit":false,"time":1,"line":1,"distance":280,"station_name":"Sudirman","i_lat":-6.202263,"station_id":"SUD","is_transit":false,"i_long":106.822649},{"line":2,"i_lat":-6.209883,"station_name":"Manggarai","is_transit":true,"i_long":106.84912,"transit":true,"station_id":"MRI","time":4,"distance":3186},{"is_transit":false,"distance":2610,"station_id":"TEB","i_long":106.857948,"time":4,"line":2,"transit":false,"i_lat":-6.226659,"station_name":"Tebet"},{"station_id":"CW","time":2,"i_lat":-6.242512,"transit":false,"station_name":"Cawang","is_transit":false,"i_long":106.856607,"line":2,"distance":1230},{"transit":false,"is_transit":false,"distance":1546,"i_lat":-6.255332,"i_long":106.85449,"line":2,"station_name":"Duren Kalibata","station_id":"DRN","time":3},{"station_id":"PSMB","transit":false,"station_name":"Pasar Minggu Baru","is_transit":false,"distance":824,"i_lat":-6.263214,"i_long":106.851577,"line":2,"time":2},{"is_transit":false,"distance":2380,"transit":false,"time":2,"line":2,"i_lat":-6.2842400000000005,"station_name":"Pasar Minggu","station_id":"PSM","i_long":106.843999},{"station_id":"TNT","line":2,"station_name":"Tanjung Barat","distance":2820,"transit":false,"is_transit":false,"i_lat":-6.3080680000000005,"i_long":106.838896,"time":4},{"transit":false,"time":3,"i_lat":-6.330363,"i_long":106.832616,"distance":2671,"line":2,"station_id":"LNA","station_name":"Lenteng Agung","is_transit":false},{"distance":1029,"i_long":106.834175,"line":2,"i_lat":-6.339291,"transit":false,"station_id":"UP","station_name":"Univ. Pancasila","time":2,"is_transit":false}],[{"distance":0,"station_id":"AK","station_name":"Angke","time":0,"i_long":106.79867,"is_transit":false,"i_lat":-6.144674,"line":1,"transit":false},{"distance":4102,"i_lat":-6.132549,"line":4,"is_transit":true,"station_name":"Kampung Bandan","i_long":106.826365,"transit":true,"station_id":"KPB","time":9},{"time":3,"is_transit":true,"transit":true,"distance":1364,"station_name":"Jakarta Kota","i_lat":-6.137569,"line":2,"i_long":106.812439,"station_id":"JAKK"},{"is_transit":false,"station_name":"Jayakarta","time":4,"distance":1264,"i_long":106.820901,"station_id":"JAY","line":2,"transit":false,"i_lat":-6.141205},{"is_transit":false,"distance":1080,"station_name":"Manggabesar","station_id":"MGB","i_lat":-6.149769,"time":2,"line":2,"transit":false,"i_long":106.82482},{"i_long":106.827103,"time":2,"line":2,"station_id":"SW","transit":false,"distance":906,"station_name":"Sawah Besar","is_transit":false,"i_lat":-6.160725},{"i_lat":-6.166716,"station_id":"JUA","station_name":"Juanda","i_long":106.828284,"is_transit":false,"distance":1149,"line":2,"transit":false,"time":2},{"transit":false,"is_transit":false,"station_name":"Gondangdia","i_lat":-6.186295,"i_long":106.832183,"time":4,"distance":2015,"station_id":"GDD","line":2},{"station_name":"Cikini","station_id":"CKI","transit":false,"i_lat":-6.198556,"i_long":106.840169,"line":2,"is_transit":false,"distance":1750,"time":3},{"transit":false,"station_id":"MRI","time":4,"i_long":106.84912,"line":2,"station_name":"Manggarai","is_transit":false,"distance":1590,"i_lat":-6.209883},{"station_name":"Tebet","distance":2610,"station_id":"TEB","is_transit":false,"i_lat":-6.226659,"transit":false,"line":2,"time":4,"i_long":106.857948},{"transit":false,"distance":1230,"station_id":"CW","is_transit":false,"i_long":106.856607,"time":2,"station_name":"Cawang","i_lat":-6.242512,"line":2},{"i_long":106.85449,"time":3,"distance":1546,"is_transit":false,"station_name":"Duren Kalibata","transit":false,"line":2,"station_id":"DRN","i_lat":-6.255332},{"distance":824,"time":2,"is_transit":false,"transit":false,"i_lat":-6.263214,"i_long":106.851577,"line":2,"station_id":"PSMB","station_name":"Pasar Minggu Baru"},{"line":2,"i_long":106.843999,"distance":2380,"time":2,"station_id":"PSM","is_transit":false,"i_lat":-6.2842400000000005,"transit":false,"station_name":"Pasar Minggu"},{"transit":false,"line":2,"i_lat":-6.3080680000000005,"station_name":"Tanjung Barat","is_transit":false,"time":4,"station_id":"TNT","i_long":106.838896,"distance":2820},{"station_id":"LNA","station_name":"Lenteng Agung","distance":2671,"is_transit":false,"i_long":106.832616,"transit":false,"line":2,"i_lat":-6.330363,"time":3},{"transit":false,"distance":1029,"time":2,"station_name":"Univ. Pancasila","line":2,"i_lat":-6.339291,"station_id":"UP","is_transit":false,"i_long":106.834175}],[{"time":0,"line":1,"i_long":106.79867,"station_id":"AK","is_transit":false,"transit":false,"distance":0,"station_name":"Angke","i_lat":-6.144674},{"is_transit":true,"station_name":"Kampung Bandan","distance":4102,"i_long":106.826365,"time":9,"i_lat":-6.132549,"transit":true,"station_id":"KPB","line":4},{"i_long":106.836569,"line":11,"time":3,"is_transit":false,"distance":1444,"transit":false,"station_id":"RJW","station_name":"Rajawali","i_lat":-6.14505},{"station_id":"KMO","time":5,"transit":false,"i_lat":-6.161728,"line":11,"is_transit":false,"i_long":106.839204,"distance":1901,"station_name":"Kemayoran"},{"station_name":"Pasar Senen","station_id":"PSE","transit":false,"line":11,"is_transit":false,"i_lat":-6.174784,"distance":1436,"time":4,"i_long":106.84368},{"is_transit":false,"line":11,"transit":false,"station_id":"GST","station_name":"Gang Sentiong","time":8,"i_long":106.850107,"distance":1567,"i_lat":-6.185975},{"distance":973,"is_transit":false,"transit":false,"station_name":"Kramat","station_id":"KMT","i_lat":-6.193792,"i_long":106.855437,"time":1,"line":11},{"time":2,"transit":false,"station_name":"Pondok Jati","is_transit":false,"i_lat":-6.209188,"i_long":106.861737,"line":11,"distance":1829,"station_id":"POK"},{"time":9,"station_name":"Jatinegara","is_transit":true,"distance":1236,"station_id":"JNG","line":1,"transit":true,"i_long":106.86807400000001,"i_lat":-6.215091},{"transit":false,"line":1,"i_long":106.858896,"distance":1377,"station_id":"MTR","station_name":"Matraman","time":2,"is_transit":false,"i_lat":-6.212485},{"i_long":106.84912,"transit":true,"station_name":"Manggarai","i_lat":-6.209883,"line":2,"time":2,"distance":1275,"station_id":"MRI","is_transit":true},{"i_long":106.857948,"is_transit":false,"time":4,"i_lat":-6.226659,"line":2,"transit":false,"distance":2610,"station_id":"TEB","station_name":"Tebet"},{"station_name":"Cawang","station_id":"CW","i_lat":-6.242512,"i_long":106.856607,"distance":1230,"transit":false,"time":2,"is_transit":false,"line":2},{"station_id":"DRN","i_lat":-6.255332,"time":3,"station_name":"Duren Kalibata","transit":false,"distance":1546,"i_long":106.85449,"is_transit":false,"line":2},{"station_name":"Pasar Minggu Baru","transit":false,"is_transit":false,"i_long":106.851577,"line":2,"distance":824,"i_lat":-6.263214,"station_id":"PSMB","time":2},{"i_long":106.843999,"line":2,"transit":false,"is_transit":false,"i_lat":-6.2842400000000005,"station_name":"Pasar Minggu","station_id":"PSM","distance":2380,"time":2},{"line":2,"station_id":"TNT","is_transit":false,"transit":false,"time":4,"i_lat":-6.3080680000000005,"i_long":106.838896,"station_name":"Tanjung Barat","distance":2820},{"station_id":"LNA","station_name":"Lenteng Agung","is_transit":false,"transit":false,"distance":2671,"time":3,"i_long":106.832616,"line":2,"i_lat":-6.330363},{"i_lat":-6.339291,"transit":false,"time":2,"i_long":106.834175,"line":2,"station_name":"Univ. Pancasila","is_transit":false,"station_id":"UP","distance":1029}]]}