{"data":[[{"i_lat":-7.756284,"distance":0,"is_transit":false,"i_long":110.500451,"line":0,"station_id":"BBN","station_name":"Brambanan","transit":false,"time":0},{"distance":5850,"i_long":110.548972,"time":7,"station_name":"Srowot","station_id":"SWT","i_lat":-7.74111,"line":7,"transit":false,"is_transit":false},{"distance":6738,"is_transit":false,"i_lat":-7.712087,"station_id":"KT","line":7,"i_long":110.602981,"transit":false,"station_name":"Klaten","time":8},{"is_transit":false,"distance":9279,"station_name":"Ceper","transit":false,"time":9,"i_lat":-7.668597,"i_long":110.674861,"line":7,"station_id":"CE"},{"time":7,"i_lat":-7.62181,"is_transit":false,"station_id":"DL","i_long":110.706679,"line":7,"distance":6271,"transit":false,"station_name":"Delanggu"},{"time":6,"transit":false,"line":7,"station_name":"Gawok","is_transit":false,"i_long":110.744432,"distance":5543,"station_id":"GW","i_lat":-7.589036},{"line":7,"transit":false,"station_id":"PWS","station_name":"Purwosari","distance":6639,"i_long":110.796655,"is_transit":false,"i_lat":-7.561362,"time":7},{"station_name":"Solo Balapan","i_lat":-7.556783,"i_long":110.821471,"line":7,"time":6,"transit":false,"station_id":"SLO","is_transit":false,"distance":2936},{"station_name":"Solo Jebres","station_id":"SK","distance":2141,"i_lat":-7.56197,"transit":false,"i_long":110.839459,"is_transit":false,"time":10,"line":7}]]}