{"data":[[{"i_long":110.500451,"station_id":"BBN","line":0,"is_transit":false,"station_name":"Brambanan","i_lat":-7.756284,"transit":false,"time":0,"distance":0},{"i_lat":-7.74111,"time":7,"line":7,"station_name":"Srowot","i_long":110.548972,"distance":5850,"station_id":"SWT","is_transit":false,"transit":false},{"station_id":"KT","transit":false,"i_long":110.602981,"distance":6738,"is_transit":false,"station_name":"Klaten","time":8,"i_lat":-7.712087,"line":7},{"transit":false,"i_lat":-7.668597,"time":9,"line":7,"station_name":"Ceper","i_long":110.674861,"station_id":"CE","is_transit":false,"distance":9279},{"distance":6271,"station_id":"DL","time":7,"is_transit":false,"transit":false,"station_name":"Delanggu","i_lat":-7.62181,"line":7,"i_long":110.706679},{"station_id":"GW","station_name":"Gawok","i_lat":-7.589036,"line":7,"distance":5543,"transit":false,"i_long":110.744432,"is_transit":false,"time":6},{"is_transit":false,"transit":false,"line":7,"i_lat":-7.561362,"station_id":"PWS","station_name":"Purwosari","i_long":110.796655,"time":7,"distance":6639},{"distance":2936,"station_name":"Solo Balapan","transit":false,"time":6,"station_id":"SLO","i_lat":-7.556783,"i_long":110.821471,"is_transit":false,"line":7},{"is_transit":false,"distance":2141,"station_name":"Solo Jebres","time":10,"i_long":110.839459,"station_id":"SK","line":7,"transit":false,"i_lat":-7.56197}]]}