{"data":[[{"is_transit":false,"transit":false,"distance":0,"station_name":"Brambanan","time":0,"line":0,"i_long":110.500451,"station_id":"BBN","i_lat":-7.756284},{"i_long":110.548972,"i_lat":-7.74111,"is_transit":false,"station_id":"SWT","time":7,"station_name":"Srowot","transit":false,"line":7,"distance":5850},{"is_transit":false,"i_lat":-7.712087,"line":7,"station_name":"Klaten","i_long":110.602981,"distance":6738,"station_id":"KT","transit":false,"time":8},{"transit":false,"i_lat":-7.668597,"station_id":"CE","is_transit":false,"station_name":"Ceper","i_long":110.674861,"time":9,"distance":9279,"line":0},{"is_transit":false,"station_name":"Delanggu","line":0,"distance":6271,"time":7,"i_lat":-7.62181,"i_long":110.706679,"transit":false,"station_id":"DL"},{"station_name":"Gawok","time":6,"station_id":"GW","i_lat":-7.589036,"i_long":110.744432,"is_transit":false,"line":7,"distance":5543,"transit":false},{"distance":6639,"transit":false,"station_id":"PWS","station_name":"Purwosari","time":7,"is_transit":false,"i_long":110.796655,"i_lat":-7.561362,"line":7},{"station_id":"SLO","distance":2936,"station_name":"Solo Balapan","transit":false,"time":6,"i_lat":-7.556783,"i_long":110.821471,"line":7,"is_transit":false},{"i_lat":-7.56197,"distance":2141,"station_id":"SK","station_name":"Solo Jebres","line":7,"i_long":110.839459,"transit":false,"is_transit":false,"time":10}]]}