{"data":[[{"line":0,"station_name":"Brambanan","is_transit":false,"distance":0,"station_id":"BBN","i_lat":-7.756284,"transit":false,"time":0,"i_long":110.500451},{"transit":false,"i_long":110.548972,"time":7,"station_id":"SWT","station_name":"Srowot","distance":5850,"i_lat":-7.74111,"line":7,"is_transit":false},{"time":8,"distance":6738,"transit":false,"station_id":"KT","i_lat":-7.712087,"is_transit":false,"i_long":110.602981,"line":7,"station_name":"Klaten"},{"station_name":"Ceper","time":9,"station_id":"CE","distance":9279,"line":7,"i_lat":-7.668597,"transit":false,"is_transit":false,"i_long":110.674861},{"time":7,"i_lat":-7.62181,"i_long":110.706679,"station_id":"DL","distance":6271,"line":7,"is_transit":false,"transit":false,"station_name":"Delanggu"},{"transit":false,"station_name":"Gawok","is_transit":false,"i_lat":-7.589036,"line":7,"i_long":110.744432,"time":6,"station_id":"GW","distance":5543},{"is_transit":false,"line":7,"station_name":"Purwosari","distance":6639,"i_lat":-7.561362,"time":7,"transit":false,"i_long":110.796655,"station_id":"PWS"},{"time":6,"i_long":110.821471,"line":7,"transit":false,"station_id":"SLO","station_name":"Solo Balapan","distance":2936,"i_lat":-7.556783,"is_transit":false},{"distance":2141,"line":7,"i_lat":-7.56197,"transit":false,"i_long":110.839459,"time":10,"is_transit":false,"station_id":"SK","station_name":"Solo Jebres"}]]}