{"data":[[{"line":2,"distance":0,"time":0,"i_long":106.792719,"transit":false,"station_name":"Bojonggede","is_transit":false,"i_lat":-6.493243,"station_id":"BJD"},{"transit":false,"i_lat":-6.448811,"time":5,"station_name":"Citayam","is_transit":false,"line":2,"distance":5197,"i_long":106.800298,"station_id":"CTA"},{"is_transit":false,"i_lat":-6.405256,"time":6,"station_name":"Depok","distance":5084,"station_id":"DP","i_long":106.816926,"transit":false,"line":2},{"distance":1584,"transit":false,"is_transit":false,"time":3,"i_lat":-6.391065,"i_long":106.819451,"station_id":"DPB","line":2,"station_name":"Depokbaru"},{"transit":false,"is_transit":false,"distance":2727,"time":4,"station_name":"Pondok Cina","i_lat":-6.369073,"line":2,"i_long":106.831114,"station_id":"POC"},{"line":2,"station_id":"UI","station_name":"Univ. Indonesia","is_transit":false,"transit":false,"distance":1109,"i_lat":-6.360749,"time":2,"i_long":106.831474},{"station_id":"UP","is_transit":false,"time":3,"station_name":"Univ. Pancasila","distance":2264,"i_lat":-6.339291,"line":2,"i_long":106.834175,"transit":false},{"line":2,"distance":1029,"i_lat":-6.330363,"station_id":"LNA","transit":false,"time":2,"station_name":"Lenteng Agung","is_transit":false,"i_long":106.832616},{"i_long":106.838896,"is_transit":false,"time":3,"distance":2671,"station_name":"Tanjung Barat","i_lat":-6.3080680000000005,"line":2,"transit":false,"station_id":"TNT"},{"time":4,"i_lat":-6.2842400000000005,"station_id":"PSM","i_long":106.843999,"transit":false,"station_name":"Pasar Minggu","distance":2820,"line":2,"is_transit":false},{"transit":false,"is_transit":false,"time":2,"i_long":106.851577,"station_id":"PSMB","distance":2380,"station_name":"Pasar Minggu Baru","i_lat":-6.263214,"line":2},{"i_lat":-6.255332,"i_long":106.85449,"time":2,"is_transit":false,"distance":824,"station_id":"DRN","line":2,"transit":false,"station_name":"Duren Kalibata"},{"time":3,"transit":false,"distance":1546,"station_name":"Cawang","line":2,"station_id":"CW","i_lat":-6.242512,"is_transit":false,"i_long":106.856607},{"distance":1230,"station_name":"Tebet","station_id":"TEB","time":2,"is_transit":false,"i_long":106.857948,"line":2,"transit":false,"i_lat":-6.226659},{"station_id":"MRI","transit":true,"line":2,"distance":2610,"is_transit":true,"station_name":"Manggarai","time":4,"i_lat":-6.209883,"i_long":106.84912},{"transit":false,"distance":3186,"station_id":"SUD","time":4,"station_name":"Sudirman","is_transit":false,"i_lat":-6.202263,"line":1,"i_long":106.822649},{"distance":280,"station_name":"Sudirman Baru","i_lat":-6.201433,"i_long":106.819881,"transit":false,"line":1,"station_id":"SUDB","time":1,"is_transit":false},{"distance":471,"is_transit":false,"i_lat":-6.20132,"i_long":106.816351,"line":1,"station_name":"Karet","station_id":"KAT","time":1,"transit":false},{"line":1,"transit":false,"is_transit":false,"time":5,"distance":2029,"station_name":"Tanah Abang","i_long":106.811091,"station_id":"THB","i_lat":-6.185545},{"station_id":"DU","transit":true,"time":8,"i_lat":-6.155215,"line":1,"station_name":"Duri","distance":3632,"is_transit":true,"i_long":106.800832},{"is_transit":false,"i_long":106.788277,"transit":false,"station_id":"GRG","time":3,"i_lat":-6.162021,"line":5,"distance":1700,"station_name":"Grogol"},{"line":5,"distance":2036,"i_lat":-6.161433,"i_long":106.771379,"station_name":"Pesing","is_transit":false,"station_id":"PSG","transit":false,"time":2},{"distance":1614,"is_transit":false,"transit":false,"time":2,"i_long":106.756522,"station_id":"TKO","line":5,"station_name":"Taman Kota","i_lat":-6.1587309999999995},{"station_id":"BOI","i_long":106.737035,"line":5,"is_transit":false,"i_lat":-6.159876,"distance":2334,"station_name":"Bojongindah","time":2,"transit":false},{"time":4,"line":5,"station_name":"Rawa Buaya","is_transit":false,"i_lat":-6.162758,"distance":1152,"station_id":"RW","transit":false,"i_long":106.723064},{"distance":2504,"i_long":106.701612,"time":3,"station_name":"Kalideres","i_lat":-6.166068,"line":5,"is_transit":false,"station_id":"KDS","transit":false},{"transit":false,"i_lat":-6.169933,"i_long":106.679458,"station_name":"Poris","distance":2548,"is_transit":false,"line":5,"station_id":"PI","time":3},{"station_id":"BPR","transit":false,"i_lat":-6.171811,"time":3,"is_transit":false,"i_long":106.665036,"station_name":"Batuceper","line":5,"distance":1834}],[{"transit":false,"i_long":106.792719,"distance":0,"time":0,"station_name":"Bojonggede","station_id":"BJD","is_transit":false,"i_lat":-6.493243,"line":2},{"i_lat":-6.448811,"transit":false,"line":2,"is_transit":false,"station_name":"Citayam","time":5,"station_id":"CTA","i_long":106.800298,"distance":5197},{"line":2,"distance":5084,"i_lat":-6.405256,"station_name":"Depok","time":6,"station_id":"DP","is_transit":false,"transit":false,"i_long":106.816926},{"station_id":"DPB","i_lat":-6.391065,"line":2,"time":3,"distance":1584,"transit":false,"is_transit":false,"station_name":"Depokbaru","i_long":106.819451},{"time":4,"line":2,"transit":false,"distance":2727,"is_transit":false,"station_name":"Pondok Cina","i_lat":-6.369073,"i_long":106.831114,"station_id":"POC"},{"time":2,"line":2,"station_name":"Univ. Indonesia","is_transit":false,"transit":false,"distance":1109,"station_id":"UI","i_long":106.831474,"i_lat":-6.360749},{"i_lat":-6.339291,"transit":false,"station_name":"Univ. Pancasila","distance":2264,"station_id":"UP","i_long":106.834175,"line":2,"is_transit":false,"time":3},{"station_name":"Lenteng Agung","transit":false,"i_lat":-6.330363,"is_transit":false,"distance":1029,"station_id":"LNA","i_long":106.832616,"line":2,"time":2},{"station_id":"TNT","transit":false,"station_name":"Tanjung Barat","time":3,"i_long":106.838896,"line":2,"distance":2671,"is_transit":false,"i_lat":-6.3080680000000005},{"line":2,"time":4,"distance":2820,"station_name":"Pasar Minggu","transit":false,"station_id":"PSM","is_transit":false,"i_lat":-6.2842400000000005,"i_long":106.843999},{"line":2,"i_lat":-6.263214,"station_id":"PSMB","time":2,"distance":2380,"is_transit":false,"transit":false,"station_name":"Pasar Minggu Baru","i_long":106.851577},{"distance":824,"transit":false,"is_transit":false,"time":2,"i_long":106.85449,"station_id":"DRN","station_name":"Duren Kalibata","i_lat":-6.255332,"line":2},{"i_long":106.856607,"station_name":"Cawang","is_transit":false,"station_id":"CW","transit":false,"i_lat":-6.242512,"line":2,"time":3,"distance":1546},{"i_long":106.857948,"station_name":"Tebet","station_id":"TEB","i_lat":-6.226659,"is_transit":false,"line":2,"distance":1230,"time":2,"transit":false},{"transit":false,"i_long":106.84912,"line":2,"i_lat":-6.209883,"station_id":"MRI","station_name":"Manggarai","distance":2610,"time":4,"is_transit":false},{"time":4,"transit":false,"station_name":"Cikini","is_transit":false,"i_long":106.840169,"i_lat":-6.198556,"line":2,"station_id":"CKI","distance":1590},{"distance":1750,"station_name":"Gondangdia","time":3,"i_long":106.832183,"line":2,"transit":false,"station_id":"GDD","i_lat":-6.186295,"is_transit":false},{"is_transit":false,"station_name":"Juanda","transit":false,"station_id":"JUA","i_lat":-6.166716,"distance":2015,"i_long":106.828284,"line":2,"time":4},{"station_id":"SW","time":2,"i_lat":-6.160725,"line":2,"transit":false,"i_long":106.827103,"is_transit":false,"station_name":"Sawah Besar","distance":1149},{"is_transit":false,"distance":906,"time":2,"station_id":"MGB","i_lat":-6.149769,"transit":false,"line":2,"i_long":106.82482,"station_name":"Manggabesar"},{"i_long":106.820901,"line":2,"station_id":"JAY","time":2,"i_lat":-6.141205,"station_name":"Jayakarta","distance":1080,"is_transit":false,"transit":false},{"is_transit":true,"time":4,"i_lat":-6.137569,"i_long":106.812439,"line":2,"station_name":"Jakarta Kota","distance":1264,"station_id":"JAKK","transit":true},{"station_id":"KPB","station_name":"Kampung Bandan","is_transit":true,"i_long":106.826365,"transit":true,"line":4,"distance":1364,"time":3,"i_lat":-6.132549},{"line":1,"i_lat":-6.144674,"transit":false,"station_id":"AK","distance":4102,"is_transit":false,"station_name":"Angke","time":9,"i_long":106.79867},{"i_long":106.800832,"transit":true,"i_lat":-6.155215,"time":4,"station_name":"Duri","station_id":"DU","distance":1230,"line":1,"is_transit":true},{"station_id":"GRG","is_transit":false,"i_lat":-6.162021,"distance":1700,"i_long":106.788277,"line":5,"time":3,"station_name":"Grogol","transit":false},{"station_id":"PSG","is_transit":false,"transit":false,"time":2,"i_lat":-6.161433,"i_long":106.771379,"distance":2036,"station_name":"Pesing","line":5},{"station_name":"Taman Kota","time":2,"distance":1614,"i_lat":-6.1587309999999995,"is_transit":false,"station_id":"TKO","transit":false,"i_long":106.756522,"line":5},{"line":5,"station_name":"Bojongindah","is_transit":false,"distance":2334,"station_id":"BOI","time":2,"transit":false,"i_long":106.737035,"i_lat":-6.159876},{"line":5,"i_long":106.723064,"distance":1152,"is_transit":false,"station_name":"Rawa Buaya","time":4,"station_id":"RW","transit":false,"i_lat":-6.162758},{"time":3,"transit":false,"i_lat":-6.166068,"is_transit":false,"station_id":"KDS","station_name":"Kalideres","line":5,"distance":2504,"i_long":106.701612},{"station_name":"Poris","i_lat":-6.169933,"time":3,"transit":false,"is_transit":false,"station_id":"PI","i_long":106.679458,"line":5,"distance":2548},{"line":5,"is_transit":false,"time":3,"station_name":"Batuceper","i_long":106.665036,"distance":1834,"station_id":"BPR","i_lat":-6.171811,"transit":false}],[{"distance":0,"i_lat":-6.493243,"is_transit":false,"line":2,"station_id":"BJD","station_name":"Bojonggede","transit":false,"i_long":106.792719,"time":0},{"i_long":106.800298,"station_id":"CTA","i_lat":-6.448811,"distance":5197,"station_name":"Citayam","is_transit":false,"transit":false,"line":2,"time":5},{"station_name":"Depok","distance":5084,"station_id":"DP","is_transit":false,"time":6,"transit":false,"i_lat":-6.405256,"i_long":106.816926,"line":2},{"is_transit":false,"i_lat":-6.391065,"station_id":"DPB","transit":false,"station_name":"Depokbaru","distance":1584,"time":3,"i_long":106.819451,"line":2},{"i_long":106.831114,"is_transit":false,"transit":false,"station_name":"Pondok Cina","station_id":"POC","distance":2727,"i_lat":-6.369073,"line":2,"time":4},{"i_lat":-6.360749,"i_long":106.831474,"distance":1109,"line":2,"time":2,"station_name":"Univ. Indonesia","transit":false,"station_id":"UI","is_transit":false},{"line":2,"station_name":"Univ. Pancasila","distance":2264,"station_id":"UP","transit":false,"i_long":106.834175,"time":3,"is_transit":false,"i_lat":-6.339291},{"i_long":106.832616,"transit":false,"station_id":"LNA","station_name":"Lenteng Agung","is_transit":false,"distance":1029,"time":2,"line":2,"i_lat":-6.330363},{"time":3,"station_name":"Tanjung Barat","is_transit":false,"i_lat":-6.3080680000000005,"transit":false,"i_long":106.838896,"line":2,"distance":2671,"station_id":"TNT"},{"i_lat":-6.2842400000000005,"distance":2820,"line":2,"station_id":"PSM","time":4,"i_long":106.843999,"transit":false,"station_name":"Pasar Minggu","is_transit":false},{"time":2,"i_long":106.851577,"distance":2380,"station_name":"Pasar Minggu Baru","is_transit":false,"transit":false,"line":2,"i_lat":-6.263214,"station_id":"PSMB"},{"line":2,"station_id":"DRN","i_long":106.85449,"is_transit":false,"transit":false,"station_name":"Duren Kalibata","time":2,"i_lat":-6.255332,"distance":824},{"station_name":"Cawang","distance":1546,"transit":false,"i_lat":-6.242512,"is_transit":false,"station_id":"CW","i_long":106.856607,"line":2,"time":3},{"transit":false,"station_name":"Tebet","i_lat":-6.226659,"station_id":"TEB","distance":1230,"time":2,"i_long":106.857948,"line":2,"is_transit":false},{"transit":true,"line":2,"is_transit":true,"i_lat":-6.209883,"time":4,"station_name":"Manggarai","station_id":"MRI","i_long":106.84912,"distance":2610},{"is_transit":false,"station_id":"MTR","line":1,"station_name":"Matraman","time":2,"distance":1275,"i_lat":-6.212485,"transit":false,"i_long":106.858896},{"transit":true,"is_transit":true,"i_long":106.86807400000001,"line":1,"time":8,"station_name":"Jatinegara","distance":1377,"station_id":"JNG","i_lat":-6.215091},{"line":11,"time":2,"distance":1236,"station_name":"Pondok Jati","is_transit":false,"i_lat":-6.209188,"i_long":106.861737,"station_id":"POK","transit":false},{"station_name":"Kramat","i_long":106.855437,"station_id":"KMT","is_transit":false,"transit":false,"i_lat":-6.193792,"distance":1829,"time":2,"line":11},{"transit":false,"station_id":"GST","line":11,"i_long":106.850107,"distance":973,"time":1,"is_transit":false,"station_name":"Gang Sentiong","i_lat":-6.185975},{"i_long":106.84368,"line":11,"is_transit":false,"distance":1567,"i_lat":-6.174784,"transit":false,"station_id":"PSE","station_name":"Pasar Senen","time":8},{"transit":false,"line":11,"station_name":"Kemayoran","distance":1436,"station_id":"KMO","i_lat":-6.161728,"is_transit":false,"time":4,"i_long":106.839204},{"distance":1901,"i_long":106.836569,"time":5,"line":11,"station_id":"RJW","transit":false,"station_name":"Rajawali","is_transit":false,"i_lat":-6.14505},{"time":3,"line":4,"transit":true,"station_id":"KPB","distance":1444,"station_name":"Kampung Bandan","i_long":106.826365,"is_transit":true,"i_lat":-6.132549},{"is_transit":false,"transit":false,"time":9,"distance":4102,"i_lat":-6.144674,"line":1,"i_long":106.79867,"station_id":"AK","station_name":"Angke"},{"distance":1230,"station_id":"DU","time":4,"station_name":"Duri","transit":true,"i_long":106.800832,"i_lat":-6.155215,"line":1,"is_transit":true},{"distance":1700,"time":3,"line":5,"transit":false,"is_transit":false,"i_lat":-6.162021,"station_id":"GRG","i_long":106.788277,"station_name":"Grogol"},{"station_name":"Pesing","line":5,"transit":false,"station_id":"PSG","distance":2036,"i_lat":-6.161433,"i_long":106.771379,"is_transit":false,"time":2},{"station_id":"TKO","station_name":"Taman Kota","time":2,"i_lat":-6.1587309999999995,"is_transit":false,"transit":false,"i_long":106.756522,"line":5,"distance":1614},{"line":5,"transit":false,"i_lat":-6.159876,"station_id":"BOI","i_long":106.737035,"station_name":"Bojongindah","time":2,"distance":2334,"is_transit":false},{"station_name":"Rawa Buaya","is_transit":false,"station_id":"RW","transit":false,"time":4,"i_long":106.723064,"line":5,"distance":1152,"i_lat":-6.162758},{"i_lat":-6.166068,"station_name":"Kalideres","distance":2504,"is_transit":false,"time":3,"line":5,"transit":false,"i_long":106.701612,"station_id":"KDS"},{"i_lat":-6.169933,"line":5,"station_name":"Poris","transit":false,"time":3,"i_long":106.679458,"is_transit":false,"station_id":"PI","distance":2548},{"time":3,"transit":false,"distance":1834,"station_name":"Batuceper","is_transit":false,"station_id":"BPR","i_lat":-6.171811,"line":5,"i_long":106.665036}]]}