{"data":[[{"station_name":"Bojonggede","station_id":"BJD","distance":0,"time":0,"transit":false,"is_transit":false,"i_lat":-6.493243,"i_long":106.792719,"line":2},{"line":2,"transit":false,"i_lat":-6.448811,"station_id":"CTA","distance":5197,"is_transit":false,"i_long":106.800298,"time":5,"station_name":"Citayam"},{"distance":5084,"time":6,"transit":false,"i_long":106.816926,"station_name":"Depok","station_id":"DP","is_transit":false,"line":2,"i_lat":-6.405256},{"i_lat":-6.391065,"station_name":"Depokbaru","station_id":"DPB","is_transit":false,"time":3,"distance":1584,"transit":false,"i_long":106.819451,"line":2},{"time":4,"is_transit":false,"distance":2727,"station_name":"Pondok Cina","line":2,"station_id":"POC","transit":false,"i_long":106.831114,"i_lat":-6.369073},{"station_name":"Univ. Indonesia","transit":false,"is_transit":false,"i_lat":-6.360749,"distance":1109,"line":2,"station_id":"UI","time":2,"i_long":106.831474},{"line":2,"distance":2264,"time":3,"is_transit":false,"i_lat":-6.339291,"i_long":106.834175,"transit":false,"station_id":"UP","station_name":"Univ. Pancasila"},{"transit":false,"station_name":"Lenteng Agung","distance":1029,"i_long":106.832616,"time":2,"station_id":"LNA","is_transit":false,"line":2,"i_lat":-6.330363},{"transit":false,"station_name":"Tanjung Barat","is_transit":false,"station_id":"TNT","distance":2671,"time":3,"i_lat":-6.3080680000000005,"i_long":106.838896,"line":2},{"transit":false,"distance":2820,"i_long":106.843999,"i_lat":-6.2842400000000005,"time":4,"station_name":"Pasar Minggu","line":2,"is_transit":false,"station_id":"PSM"},{"i_long":106.851577,"station_name":"Pasar Minggu Baru","line":2,"station_id":"PSMB","time":2,"i_lat":-6.263214,"is_transit":false,"distance":2380,"transit":false},{"line":2,"transit":false,"is_transit":false,"station_name":"Duren Kalibata","station_id":"DRN","distance":824,"i_lat":-6.255332,"i_long":106.85449,"time":2},{"i_long":106.856607,"station_id":"CW","transit":false,"time":3,"is_transit":false,"station_name":"Cawang","distance":1546,"i_lat":-6.242512,"line":2},{"distance":1230,"line":2,"is_transit":false,"transit":false,"station_name":"Tebet","time":2,"i_long":106.857948,"i_lat":-6.226659,"station_id":"TEB"},{"line":2,"transit":true,"station_id":"MRI","time":4,"is_transit":true,"station_name":"Manggarai","i_long":106.84912,"i_lat":-6.209883,"distance":2610},{"station_name":"Sudirman","transit":false,"is_transit":false,"i_lat":-6.202263,"station_id":"SUD","distance":3186,"time":4,"i_long":106.822649,"line":1},{"line":1,"transit":false,"time":1,"station_id":"SUDB","distance":280,"i_long":106.819881,"i_lat":-6.201433,"is_transit":false,"station_name":"Sudirman Baru"},{"line":1,"station_name":"Karet","distance":471,"i_lat":-6.20132,"i_long":106.816351,"time":1,"is_transit":false,"transit":false,"station_id":"KAT"},{"distance":2029,"time":5,"i_lat":-6.185545,"i_long":106.811091,"is_transit":false,"transit":false,"station_name":"Tanah Abang","station_id":"THB","line":1},{"i_long":106.800832,"station_id":"DU","station_name":"Duri","transit":true,"is_transit":true,"i_lat":-6.155215,"line":1,"time":8,"distance":3632},{"i_long":106.788277,"distance":1700,"line":5,"is_transit":false,"station_id":"GGL","time":3,"station_name":"Grogol","i_lat":-6.162021,"transit":false},{"station_name":"Pesing","transit":false,"time":2,"station_id":"PSG","line":5,"i_lat":-6.161433,"i_long":106.771379,"distance":2036,"is_transit":false},{"i_lat":-6.1587309999999995,"distance":1614,"station_name":"Taman Kota","time":2,"station_id":"TKO","i_long":106.756522,"is_transit":false,"transit":false,"line":5},{"i_lat":-6.159876,"line":5,"time":2,"station_id":"BOI","is_transit":false,"distance":2334,"transit":false,"i_long":106.737035,"station_name":"Bojongindah"},{"time":4,"station_id":"RW","line":5,"transit":false,"i_long":106.723064,"distance":1152,"i_lat":-6.162758,"is_transit":false,"station_name":"Rawa Buaya"},{"time":3,"transit":false,"i_lat":-6.166068,"is_transit":false,"distance":2504,"i_long":106.701612,"station_name":"Kalideres","station_id":"KDS","line":5},{"is_transit":false,"transit":false,"line":5,"time":3,"station_id":"PI","i_lat":-6.169933,"distance":2548,"i_long":106.679458,"station_name":"Poris"},{"time":3,"transit":false,"is_transit":false,"line":5,"station_id":"BPR","station_name":"Batuceper","distance":1834,"i_long":106.665036,"i_lat":-6.171811}],[{"i_lat":-6.493243,"station_name":"Bojonggede","station_id":"BJD","time":0,"transit":false,"distance":0,"line":2,"is_transit":false,"i_long":106.792719},{"station_id":"CTA","i_lat":-6.448811,"station_name":"Citayam","i_long":106.800298,"is_transit":false,"time":5,"distance":5197,"line":2,"transit":false},{"i_lat":-6.405256,"line":2,"i_long":106.816926,"station_id":"DP","station_name":"Depok","transit":false,"is_transit":false,"time":6,"distance":5084},{"distance":1584,"is_transit":false,"station_id":"DPB","station_name":"Depokbaru","i_lat":-6.391065,"i_long":106.819451,"time":3,"transit":false,"line":2},{"is_transit":false,"i_long":106.831114,"station_name":"Pondok Cina","line":2,"transit":false,"time":4,"distance":2727,"station_id":"POC","i_lat":-6.369073},{"station_name":"Univ. Indonesia","is_transit":false,"time":2,"i_long":106.831474,"transit":false,"station_id":"UI","line":2,"i_lat":-6.360749,"distance":1109},{"transit":false,"station_name":"Univ. Pancasila","distance":2264,"time":3,"is_transit":false,"i_lat":-6.339291,"i_long":106.834175,"line":2,"station_id":"UP"},{"distance":1029,"transit":false,"line":2,"i_lat":-6.330363,"is_transit":false,"station_id":"LNA","i_long":106.832616,"station_name":"Lenteng Agung","time":2},{"distance":2671,"line":2,"is_transit":false,"time":3,"i_lat":-6.3080680000000005,"i_long":106.838896,"transit":false,"station_name":"Tanjung Barat","station_id":"TNT"},{"is_transit":false,"i_lat":-6.2842400000000005,"station_id":"PSM","transit":false,"station_name":"Pasar Minggu","distance":2820,"i_long":106.843999,"line":2,"time":4},{"line":2,"transit":false,"time":2,"station_name":"Pasar Minggu Baru","distance":2380,"is_transit":false,"i_long":106.851577,"i_lat":-6.263214,"station_id":"PSMB"},{"i_long":106.85449,"line":2,"i_lat":-6.255332,"time":2,"transit":false,"is_transit":false,"distance":824,"station_name":"Duren Kalibata","station_id":"DRN"},{"station_id":"CW","is_transit":false,"transit":false,"i_long":106.856607,"station_name":"Cawang","distance":1546,"i_lat":-6.242512,"time":3,"line":2},{"station_id":"TEB","i_lat":-6.226659,"i_long":106.857948,"line":2,"station_name":"Tebet","is_transit":false,"time":2,"distance":1230,"transit":false},{"i_lat":-6.209883,"line":2,"time":4,"station_name":"Manggarai","station_id":"MRI","i_long":106.84912,"distance":2610,"is_transit":false,"transit":false},{"line":2,"time":4,"station_id":"CKI","transit":false,"i_long":106.840169,"is_transit":false,"station_name":"Cikini","distance":1590,"i_lat":-6.198556},{"time":3,"distance":1750,"station_name":"Gondangdia","transit":false,"i_lat":-6.186295,"i_long":106.832183,"is_transit":false,"station_id":"GDD","line":2},{"i_long":106.828284,"distance":2015,"is_transit":false,"station_id":"JUA","i_lat":-6.166716,"time":4,"station_name":"Juanda","line":2,"transit":false},{"station_id":"SW","station_name":"Sawah Besar","time":2,"distance":1149,"transit":false,"i_long":106.827103,"line":2,"is_transit":false,"i_lat":-6.160725},{"transit":false,"station_id":"MGB","is_transit":false,"i_long":106.82482,"i_lat":-6.149769,"distance":906,"station_name":"Manggabesar","time":2,"line":2},{"transit":false,"station_id":"JAY","i_lat":-6.141205,"time":2,"line":2,"i_long":106.820901,"is_transit":false,"station_name":"Jayakarta","distance":1080},{"time":4,"station_id":"JAKK","i_lat":-6.137569,"i_long":106.812439,"station_name":"Jakarta Kota","line":2,"distance":1264,"is_transit":true,"transit":true},{"transit":true,"time":3,"i_lat":-6.132549,"distance":1364,"is_transit":true,"station_id":"KPB","station_name":"Kampung Bandan","line":4,"i_long":106.826365},{"transit":false,"station_id":"AK","distance":4102,"time":9,"is_transit":false,"station_name":"Angke","i_lat":-6.144674,"i_long":106.79867,"line":1},{"i_lat":-6.155215,"i_long":106.800832,"is_transit":true,"transit":true,"station_id":"DU","distance":1230,"station_name":"Duri","time":4,"line":1},{"time":3,"line":5,"i_long":106.788277,"transit":false,"i_lat":-6.162021,"station_name":"Grogol","is_transit":false,"distance":1700,"station_id":"GGL"},{"is_transit":false,"station_id":"PSG","line":5,"station_name":"Pesing","distance":2036,"i_lat":-6.161433,"i_long":106.771379,"transit":false,"time":2},{"station_name":"Taman Kota","time":2,"i_long":106.756522,"i_lat":-6.1587309999999995,"station_id":"TKO","is_transit":false,"line":5,"distance":1614,"transit":false},{"transit":false,"distance":2334,"line":5,"station_name":"Bojongindah","i_long":106.737035,"station_id":"BOI","time":2,"is_transit":false,"i_lat":-6.159876},{"line":5,"station_id":"RW","time":4,"is_transit":false,"i_lat":-6.162758,"transit":false,"station_name":"Rawa Buaya","i_long":106.723064,"distance":1152},{"i_long":106.701612,"i_lat":-6.166068,"line":5,"time":3,"station_name":"Kalideres","station_id":"KDS","is_transit":false,"transit":false,"distance":2504},{"line":5,"transit":false,"distance":2548,"time":3,"station_name":"Poris","is_transit":false,"station_id":"PI","i_long":106.679458,"i_lat":-6.169933},{"transit":false,"i_lat":-6.171811,"time":3,"distance":1834,"station_name":"Batuceper","is_transit":false,"line":5,"i_long":106.665036,"station_id":"BPR"}],[{"i_long":106.792719,"transit":false,"station_name":"Bojonggede","time":0,"station_id":"BJD","line":2,"i_lat":-6.493243,"is_transit":false,"distance":0},{"i_lat":-6.448811,"time":5,"station_id":"CTA","distance":5197,"is_transit":false,"transit":false,"station_name":"Citayam","i_long":106.800298,"line":2},{"i_lat":-6.405256,"distance":5084,"time":6,"line":2,"transit":false,"i_long":106.816926,"is_transit":false,"station_name":"Depok","station_id":"DP"},{"station_name":"Depokbaru","distance":1584,"line":2,"i_long":106.819451,"transit":false,"time":3,"station_id":"DPB","is_transit":false,"i_lat":-6.391065},{"station_name":"Pondok Cina","line":2,"station_id":"POC","distance":2727,"i_long":106.831114,"time":4,"i_lat":-6.369073,"is_transit":false,"transit":false},{"transit":false,"line":2,"i_lat":-6.360749,"i_long":106.831474,"is_transit":false,"time":2,"distance":1109,"station_name":"Univ. Indonesia","station_id":"UI"},{"is_transit":false,"i_lat":-6.339291,"station_name":"Univ. Pancasila","time":3,"station_id":"UP","i_long":106.834175,"line":2,"transit":false,"distance":2264},{"line":2,"station_name":"Lenteng Agung","time":2,"i_long":106.832616,"distance":1029,"i_lat":-6.330363,"transit":false,"is_transit":false,"station_id":"LNA"},{"station_name":"Tanjung Barat","distance":2671,"i_lat":-6.3080680000000005,"i_long":106.838896,"line":2,"transit":false,"is_transit":false,"station_id":"TNT","time":3},{"station_name":"Pasar Minggu","time":4,"i_lat":-6.2842400000000005,"station_id":"PSM","transit":false,"line":2,"is_transit":false,"distance":2820,"i_long":106.843999},{"i_lat":-6.263214,"is_transit":false,"time":2,"transit":false,"i_long":106.851577,"station_id":"PSMB","station_name":"Pasar Minggu Baru","distance":2380,"line":2},{"station_name":"Duren Kalibata","time":2,"i_long":106.85449,"distance":824,"i_lat":-6.255332,"transit":false,"line":2,"station_id":"DRN","is_transit":false},{"station_name":"Cawang","i_long":106.856607,"transit":false,"time":3,"line":2,"station_id":"CW","is_transit":false,"distance":1546,"i_lat":-6.242512},{"station_id":"TEB","transit":false,"distance":1230,"i_lat":-6.226659,"is_transit":false,"time":2,"line":2,"station_name":"Tebet","i_long":106.857948},{"line":2,"time":4,"station_id":"MRI","is_transit":true,"distance":2610,"station_name":"Manggarai","i_long":106.84912,"transit":true,"i_lat":-6.209883},{"station_name":"Matraman","station_id":"MTR","is_transit":false,"time":2,"distance":1275,"line":1,"transit":false,"i_lat":-6.212485,"i_long":106.858896},{"line":1,"transit":true,"time":8,"station_id":"JNG","distance":1377,"station_name":"Jatinegara","is_transit":true,"i_lat":-6.215091,"i_long":106.86807400000001},{"time":2,"i_long":106.861737,"i_lat":-6.209188,"line":11,"station_name":"Pondok Jati","is_transit":false,"transit":false,"distance":1236,"station_id":"POK"},{"distance":1829,"i_long":106.855437,"station_id":"KMT","time":2,"line":11,"is_transit":false,"transit":false,"i_lat":-6.193792,"station_name":"Kramat"},{"distance":973,"is_transit":false,"transit":false,"i_lat":-6.185975,"i_long":106.850107,"line":11,"time":1,"station_name":"Gang Sentiong","station_id":"GST"},{"time":8,"i_lat":-6.174784,"transit":false,"station_id":"PSE","distance":1567,"i_long":106.84368,"station_name":"Pasar Senen","is_transit":false,"line":11},{"time":4,"is_transit":false,"i_lat":-6.161728,"line":11,"transit":false,"station_name":"Kemayoran","station_id":"KMO","i_long":106.839204,"distance":1436},{"distance":1901,"is_transit":false,"station_name":"Rajawali","i_lat":-6.14505,"station_id":"RJW","time":5,"i_long":106.836569,"transit":false,"line":11},{"i_long":106.826365,"line":4,"is_transit":true,"time":3,"transit":true,"distance":1444,"station_id":"KPB","i_lat":-6.132549,"station_name":"Kampung Bandan"},{"line":1,"i_lat":-6.144674,"i_long":106.79867,"station_name":"Angke","distance":4102,"is_transit":false,"time":9,"station_id":"AK","transit":false},{"line":1,"distance":1230,"time":4,"station_id":"DU","station_name":"Duri","i_lat":-6.155215,"is_transit":true,"i_long":106.800832,"transit":true},{"distance":1700,"is_transit":false,"i_lat":-6.162021,"transit":false,"station_name":"Grogol","time":3,"station_id":"GGL","line":5,"i_long":106.788277},{"transit":false,"is_transit":false,"distance":2036,"station_id":"PSG","i_lat":-6.161433,"i_long":106.771379,"line":5,"station_name":"Pesing","time":2},{"is_transit":false,"station_name":"Taman Kota","distance":1614,"i_long":106.756522,"transit":false,"line":5,"time":2,"station_id":"TKO","i_lat":-6.1587309999999995},{"transit":false,"station_name":"Bojongindah","station_id":"BOI","is_transit":false,"distance":2334,"i_lat":-6.159876,"i_long":106.737035,"line":5,"time":2},{"distance":1152,"station_name":"Rawa Buaya","line":5,"station_id":"RW","time":4,"i_long":106.723064,"transit":false,"is_transit":false,"i_lat":-6.162758},{"line":5,"time":3,"is_transit":false,"transit":false,"i_lat":-6.166068,"station_name":"Kalideres","station_id":"KDS","distance":2504,"i_long":106.701612},{"i_long":106.679458,"distance":2548,"station_name":"Poris","i_lat":-6.169933,"transit":false,"time":3,"line":5,"station_id":"PI","is_transit":false},{"station_id":"BPR","line":5,"time":3,"i_lat":-6.171811,"is_transit":false,"transit":false,"station_name":"Batuceper","distance":1834,"i_long":106.665036}]]}