{"data":[[{"is_transit":false,"station_id":"BJD","station_name":"Bojonggede","transit":false,"i_lat":-6.493243,"line":2,"time":0,"i_long":106.792719,"distance":0},{"i_long":106.800298,"station_name":"Citayam","station_id":"CTA","transit":false,"i_lat":-6.448811,"line":2,"time":5,"distance":5197,"is_transit":false},{"station_name":"Depok","transit":false,"i_long":106.816926,"is_transit":false,"i_lat":-6.405256,"line":2,"distance":5084,"station_id":"DP","time":6},{"station_name":"Depokbaru","i_long":106.819451,"distance":1584,"transit":false,"time":3,"line":2,"i_lat":-6.391065,"station_id":"DPB","is_transit":false},{"is_transit":false,"transit":false,"i_long":106.831114,"time":4,"line":2,"distance":2727,"i_lat":-6.369073,"station_name":"Pondok Cina","station_id":"POC"},{"time":2,"distance":1109,"station_name":"Univ. Indonesia","line":2,"station_id":"UI","i_lat":-6.360749,"is_transit":false,"i_long":106.831474,"transit":false},{"time":3,"station_name":"Univ. Pancasila","is_transit":false,"i_long":106.834175,"transit":false,"distance":2264,"station_id":"UP","i_lat":-6.339291,"line":2},{"transit":false,"station_name":"Lenteng Agung","is_transit":false,"i_lat":-6.330363,"i_long":106.832616,"line":2,"station_id":"LNA","time":2,"distance":1029},{"distance":2671,"transit":false,"station_id":"TNT","is_transit":false,"i_lat":-6.3080680000000005,"line":2,"i_long":106.838896,"station_name":"Tanjung Barat","time":3},{"station_name":"Pasar Minggu","is_transit":false,"i_lat":-6.2842400000000005,"distance":2820,"station_id":"PSM","transit":false,"i_long":106.843999,"time":4,"line":2},{"station_name":"Pasar Minggu Baru","distance":2380,"line":2,"transit":false,"i_lat":-6.263214,"time":2,"station_id":"PSMB","is_transit":false,"i_long":106.851577},{"line":2,"station_id":"DRN","station_name":"Duren Kalibata","i_lat":-6.255332,"transit":false,"i_long":106.85449,"distance":824,"time":2,"is_transit":false},{"i_lat":-6.242512,"i_long":106.856607,"is_transit":false,"time":3,"distance":1546,"line":2,"station_id":"CW","transit":false,"station_name":"Cawang"},{"line":2,"time":2,"transit":false,"station_id":"TEB","station_name":"Tebet","distance":1230,"i_lat":-6.226659,"i_long":106.857948,"is_transit":false},{"station_id":"MRI","i_lat":-6.209883,"i_long":106.84912,"station_name":"Manggarai","distance":2610,"is_transit":true,"transit":true,"line":2,"time":4},{"time":4,"i_lat":-6.202263,"transit":false,"distance":3186,"station_id":"SUD","is_transit":false,"station_name":"Sudirman","i_long":106.822649,"line":1},{"distance":280,"i_lat":-6.201433,"is_transit":false,"line":1,"station_name":"Sudirman Baru","station_id":"SUDB","i_long":106.819881,"time":1,"transit":false},{"i_long":106.816351,"line":1,"i_lat":-6.20132,"transit":false,"station_name":"Karet","is_transit":false,"station_id":"KAT","time":1,"distance":471},{"station_name":"Tanah Abang","is_transit":true,"i_long":106.811091,"station_id":"THB","distance":2029,"time":5,"i_lat":-6.185545,"line":1,"transit":true},{"is_transit":false,"transit":false,"i_lat":-6.207404,"i_long":106.79689,"line":6,"time":6,"station_id":"PLM","distance":3191,"station_name":"Palmerah"},{"i_long":106.780334,"i_lat":-6.237242,"distance":3737,"is_transit":false,"transit":false,"line":6,"station_name":"Kebayoran","time":7,"station_id":"KBY"},{"distance":6218,"line":6,"transit":false,"is_transit":false,"i_lat":-6.276362,"i_long":106.74273,"station_name":"Pondokranji","time":8,"station_id":"PDJ"},{"i_lat":-6.288927,"station_name":"Jurangmangu","station_id":"JMU","i_long":106.728916,"time":3,"line":6,"transit":false,"is_transit":false,"distance":2179},{"time":4,"distance":1994,"i_long":106.712277,"transit":false,"is_transit":false,"station_id":"SDM","i_lat":-6.296963,"station_name":"Sudimara","line":6},{"is_transit":false,"time":6,"distance":4566,"i_long":106.675475,"i_lat":-6.314823,"transit":false,"station_id":"RU","station_name":"Rawa Buntu","line":6},{"line":6,"time":4,"distance":2413,"i_long":106.66566,"transit":false,"i_lat":-6.319871,"is_transit":false,"station_id":"SRP","station_name":"Serpong"},{"is_transit":false,"transit":false,"station_name":"Cisauk","distance":1784,"time":4,"i_lat":-6.32484,"station_id":"CSK","i_long":106.640411,"line":3},{"line":3,"i_lat":-6.329547,"station_id":"CC","distance":2519,"is_transit":false,"time":4,"station_name":"Cicayur","i_long":106.617853,"transit":false},{"i_lat":-6.3441410000000005,"distance":5968,"i_long":106.568863,"line":6,"station_name":"Parung Panjang","station_id":"PRP","transit":false,"is_transit":false,"time":8},{"station_name":"Cilejit","i_long":106.508482,"line":3,"distance":7025,"transit":false,"i_lat":-6.354349,"is_transit":false,"station_id":"CJT","time":9},{"time":6,"i_lat":-6.338021,"station_name":"Daru","is_transit":false,"transit":false,"station_id":"DAR","distance":2675,"i_long":106.491338,"line":0}],[{"station_id":"BJD","i_lat":-6.493243,"i_long":106.792719,"is_transit":false,"time":0,"line":2,"station_name":"Bojonggede","transit":false,"distance":0},{"line":2,"time":5,"i_long":106.800298,"distance":5197,"i_lat":-6.448811,"station_name":"Citayam","transit":false,"is_transit":false,"station_id":"CTA"},{"i_long":106.816926,"is_transit":false,"station_id":"DP","i_lat":-6.405256,"station_name":"Depok","transit":false,"time":6,"distance":5084,"line":2},{"i_long":106.819451,"transit":false,"station_id":"DPB","distance":1584,"line":2,"is_transit":false,"station_name":"Depokbaru","i_lat":-6.391065,"time":3},{"i_long":106.831114,"time":4,"line":2,"station_id":"POC","is_transit":false,"distance":2727,"i_lat":-6.369073,"station_name":"Pondok Cina","transit":false},{"transit":false,"time":2,"station_name":"Univ. Indonesia","is_transit":false,"station_id":"UI","i_lat":-6.360749,"i_long":106.831474,"line":2,"distance":1109},{"line":2,"transit":false,"time":3,"station_id":"UP","station_name":"Univ. Pancasila","i_long":106.834175,"is_transit":false,"distance":2264,"i_lat":-6.339291},{"time":2,"station_name":"Lenteng Agung","distance":1029,"line":2,"station_id":"LNA","transit":false,"is_transit":false,"i_long":106.832616,"i_lat":-6.330363},{"station_name":"Tanjung Barat","is_transit":false,"station_id":"TNT","i_lat":-6.3080680000000005,"i_long":106.838896,"line":2,"distance":2671,"transit":false,"time":3},{"i_lat":-6.2842400000000005,"station_id":"PSM","i_long":106.843999,"distance":2820,"is_transit":false,"line":2,"station_name":"Pasar Minggu","transit":false,"time":4},{"transit":false,"i_lat":-6.263214,"line":2,"time":2,"distance":2380,"i_long":106.851577,"station_id":"PSMB","is_transit":false,"station_name":"Pasar Minggu Baru"},{"i_lat":-6.255332,"station_id":"DRN","time":2,"station_name":"Duren Kalibata","transit":false,"line":2,"distance":824,"is_transit":false,"i_long":106.85449},{"station_name":"Cawang","time":3,"distance":1546,"i_lat":-6.242512,"line":2,"is_transit":false,"station_id":"CW","i_long":106.856607,"transit":false},{"time":2,"station_id":"TEB","distance":1230,"line":2,"is_transit":false,"i_lat":-6.226659,"i_long":106.857948,"station_name":"Tebet","transit":false},{"station_id":"MRI","distance":2610,"line":2,"time":4,"station_name":"Manggarai","i_long":106.84912,"transit":false,"is_transit":false,"i_lat":-6.209883},{"distance":1590,"i_lat":-6.198556,"i_long":106.840169,"line":2,"station_name":"Cikini","transit":false,"is_transit":false,"time":4,"station_id":"CKI"},{"time":3,"i_long":106.832183,"transit":false,"distance":1750,"station_name":"Gondangdia","station_id":"GDD","i_lat":-6.186295,"line":2,"is_transit":false},{"time":4,"distance":2015,"i_lat":-6.166716,"i_long":106.828284,"line":2,"transit":false,"station_id":"JUA","station_name":"Juanda","is_transit":false},{"station_id":"SW","is_transit":false,"distance":1149,"i_lat":-6.160725,"line":2,"time":2,"transit":false,"i_long":106.827103,"station_name":"Sawah Besar"},{"time":2,"station_name":"Manggabesar","is_transit":false,"transit":false,"i_lat":-6.149769,"station_id":"MGB","line":2,"distance":906,"i_long":106.82482},{"i_lat":-6.141205,"transit":false,"time":2,"distance":1080,"i_long":106.820901,"station_name":"Jayakarta","is_transit":false,"line":2,"station_id":"JAY"},{"i_lat":-6.137569,"station_id":"JAKK","is_transit":true,"time":4,"station_name":"Jakarta Kota","distance":1264,"i_long":106.812439,"transit":true,"line":2},{"transit":true,"station_name":"Kampung Bandan","is_transit":true,"i_lat":-6.132549,"station_id":"KPB","distance":1364,"line":4,"i_long":106.826365,"time":3},{"i_lat":-6.144674,"is_transit":false,"station_id":"AK","distance":4102,"station_name":"Angke","time":9,"i_long":106.79867,"line":1,"transit":false},{"is_transit":false,"distance":1230,"i_long":106.800832,"line":1,"station_name":"Duri","transit":false,"i_lat":-6.155215,"station_id":"DU","time":4},{"is_transit":true,"i_lat":-6.185545,"line":1,"transit":true,"station_name":"Tanah Abang","i_long":106.811091,"distance":3632,"time":8,"station_id":"THB"},{"station_id":"PLM","i_long":106.79689,"i_lat":-6.207404,"line":6,"distance":3191,"transit":false,"station_name":"Palmerah","is_transit":false,"time":6},{"station_name":"Kebayoran","transit":false,"station_id":"KBY","distance":3737,"i_lat":-6.237242,"is_transit":false,"time":7,"i_long":106.780334,"line":6},{"station_id":"PDJ","line":6,"i_lat":-6.276362,"transit":false,"time":8,"station_name":"Pondokranji","distance":6218,"i_long":106.74273,"is_transit":false},{"station_name":"Jurangmangu","line":6,"transit":false,"station_id":"JMU","distance":2179,"i_lat":-6.288927,"i_long":106.728916,"is_transit":false,"time":3},{"time":4,"i_lat":-6.296963,"station_name":"Sudimara","line":6,"i_long":106.712277,"is_transit":false,"transit":false,"station_id":"SDM","distance":1994},{"transit":false,"i_long":106.675475,"distance":4566,"station_id":"RU","station_name":"Rawa Buntu","i_lat":-6.314823,"is_transit":false,"time":6,"line":6},{"station_name":"Serpong","line":6,"distance":2413,"station_id":"SRP","i_lat":-6.319871,"is_transit":false,"transit":false,"time":4,"i_long":106.66566},{"distance":1784,"i_lat":-6.32484,"i_long":106.640411,"line":3,"is_transit":false,"station_id":"CSK","time":4,"station_name":"Cisauk","transit":false},{"station_name":"Cicayur","i_long":106.617853,"transit":false,"time":4,"station_id":"CC","line":3,"is_transit":false,"distance":2519,"i_lat":-6.329547},{"station_name":"Parung Panjang","transit":false,"i_long":106.568863,"i_lat":-6.3441410000000005,"distance":5968,"station_id":"PRP","is_transit":false,"time":8,"line":6},{"station_id":"CJT","distance":7025,"line":3,"i_lat":-6.354349,"station_name":"Cilejit","time":9,"transit":false,"i_long":106.508482,"is_transit":false},{"station_id":"DAR","is_transit":false,"time":6,"transit":false,"station_name":"Daru","i_long":106.491338,"distance":2675,"i_lat":-6.338021,"line":0}],[{"i_lat":-6.493243,"line":2,"distance":0,"station_name":"Bojonggede","station_id":"BJD","transit":false,"is_transit":false,"i_long":106.792719,"time":0},{"line":2,"time":5,"station_id":"CTA","station_name":"Citayam","is_transit":false,"distance":5197,"i_long":106.800298,"transit":false,"i_lat":-6.448811},{"line":2,"time":6,"distance":5084,"station_name":"Depok","i_lat":-6.405256,"is_transit":false,"station_id":"DP","transit":false,"i_long":106.816926},{"station_name":"Depokbaru","line":2,"i_long":106.819451,"station_id":"DPB","transit":false,"is_transit":false,"i_lat":-6.391065,"time":3,"distance":1584},{"time":4,"i_long":106.831114,"line":2,"station_id":"POC","transit":false,"is_transit":false,"station_name":"Pondok Cina","distance":2727,"i_lat":-6.369073},{"station_name":"Univ. Indonesia","transit":false,"distance":1109,"i_lat":-6.360749,"is_transit":false,"time":2,"station_id":"UI","i_long":106.831474,"line":2},{"is_transit":false,"i_long":106.834175,"time":3,"distance":2264,"station_name":"Univ. Pancasila","station_id":"UP","i_lat":-6.339291,"transit":false,"line":2},{"time":2,"transit":false,"is_transit":false,"station_id":"LNA","i_lat":-6.330363,"station_name":"Lenteng Agung","i_long":106.832616,"distance":1029,"line":2},{"station_id":"TNT","i_lat":-6.3080680000000005,"i_long":106.838896,"is_transit":false,"time":3,"line":2,"distance":2671,"station_name":"Tanjung Barat","transit":false},{"transit":false,"station_name":"Pasar Minggu","i_lat":-6.2842400000000005,"is_transit":false,"distance":2820,"time":4,"i_long":106.843999,"line":2,"station_id":"PSM"},{"station_name":"Pasar Minggu Baru","line":2,"transit":false,"station_id":"PSMB","is_transit":false,"time":2,"i_long":106.851577,"distance":2380,"i_lat":-6.263214},{"transit":false,"distance":824,"i_lat":-6.255332,"i_long":106.85449,"station_name":"Duren Kalibata","station_id":"DRN","time":2,"line":2,"is_transit":false},{"time":3,"station_id":"CW","i_lat":-6.242512,"i_long":106.856607,"distance":1546,"line":2,"is_transit":false,"station_name":"Cawang","transit":false},{"distance":1230,"is_transit":false,"station_id":"TEB","station_name":"Tebet","i_lat":-6.226659,"i_long":106.857948,"line":2,"transit":false,"time":2},{"i_long":106.84912,"line":2,"is_transit":true,"station_name":"Manggarai","time":4,"i_lat":-6.209883,"station_id":"MRI","transit":true,"distance":2610},{"time":2,"station_id":"MTR","line":1,"i_long":106.858896,"transit":false,"i_lat":-6.212485,"is_transit":false,"distance":1275,"station_name":"Matraman"},{"time":8,"line":1,"i_lat":-6.215091,"station_id":"JNG","transit":true,"distance":1377,"station_name":"Jatinegara","is_transit":true,"i_long":106.86807400000001},{"time":2,"line":11,"i_lat":-6.209188,"transit":false,"station_id":"POK","distance":1236,"i_long":106.861737,"station_name":"Pondok Jati","is_transit":false},{"transit":false,"line":11,"is_transit":false,"i_lat":-6.193792,"i_long":106.855437,"station_id":"KMT","distance":1829,"station_name":"Kramat","time":2},{"time":1,"station_name":"Gang Sentiong","i_long":106.850107,"i_lat":-6.185975,"line":11,"is_transit":false,"distance":973,"transit":false,"station_id":"GST"},{"station_id":"PSE","distance":1567,"i_long":106.84368,"line":11,"i_lat":-6.174784,"station_name":"Pasar Senen","transit":false,"is_transit":false,"time":8},{"distance":1436,"i_long":106.839204,"station_name":"Kemayoran","is_transit":false,"time":4,"transit":false,"i_lat":-6.161728,"station_id":"KMO","line":11},{"transit":false,"time":5,"line":11,"i_long":106.836569,"station_id":"RJW","i_lat":-6.14505,"distance":1901,"station_name":"Rajawali","is_transit":false},{"station_id":"KPB","i_lat":-6.132549,"transit":true,"i_long":106.826365,"station_name":"Kampung Bandan","distance":1444,"is_transit":true,"line":4,"time":3},{"i_long":106.79867,"line":1,"transit":false,"station_name":"Angke","is_transit":false,"station_id":"AK","i_lat":-6.144674,"distance":4102,"time":9},{"is_transit":false,"time":4,"transit":false,"i_lat":-6.155215,"station_id":"DU","i_long":106.800832,"line":1,"station_name":"Duri","distance":1230},{"time":8,"station_id":"THB","distance":3632,"i_lat":-6.185545,"line":1,"i_long":106.811091,"transit":true,"is_transit":true,"station_name":"Tanah Abang"},{"time":6,"station_id":"PLM","line":6,"is_transit":false,"i_long":106.79689,"distance":3191,"transit":false,"station_name":"Palmerah","i_lat":-6.207404},{"station_id":"KBY","i_lat":-6.237242,"i_long":106.780334,"transit":false,"station_name":"Kebayoran","distance":3737,"time":7,"is_transit":false,"line":6},{"i_lat":-6.276362,"station_name":"Pondokranji","distance":6218,"transit":false,"i_long":106.74273,"line":6,"time":8,"station_id":"PDJ","is_transit":false},{"transit":false,"time":3,"i_long":106.728916,"is_transit":false,"i_lat":-6.288927,"station_name":"Jurangmangu","station_id":"JMU","distance":2179,"line":6},{"station_name":"Sudimara","i_long":106.712277,"i_lat":-6.296963,"is_transit":false,"time":4,"station_id":"SDM","distance":1994,"transit":false,"line":6},{"time":6,"line":6,"distance":4566,"station_name":"Rawa Buntu","i_long":106.675475,"transit":false,"station_id":"RU","i_lat":-6.314823,"is_transit":false},{"i_lat":-6.319871,"i_long":106.66566,"station_id":"SRP","transit":false,"distance":2413,"line":6,"time":4,"station_name":"Serpong","is_transit":false},{"line":3,"i_lat":-6.32484,"station_id":"CSK","transit":false,"station_name":"Cisauk","is_transit":false,"distance":1784,"i_long":106.640411,"time":4},{"distance":2519,"transit":false,"i_long":106.617853,"station_id":"CC","is_transit":false,"time":4,"i_lat":-6.329547,"line":3,"station_name":"Cicayur"},{"time":8,"line":6,"station_name":"Parung Panjang","i_long":106.568863,"is_transit":false,"distance":5968,"i_lat":-6.3441410000000005,"transit":false,"station_id":"PRP"},{"time":9,"transit":false,"is_transit":false,"i_lat":-6.354349,"i_long":106.508482,"station_name":"Cilejit","station_id":"CJT","line":3,"distance":7025},{"i_lat":-6.338021,"time":6,"line":0,"station_name":"Daru","station_id":"DAR","i_long":106.491338,"is_transit":false,"transit":false,"distance":2675}]]}