{"data":[[{"is_transit":false,"i_long":106.792719,"station_id":"BJD","distance":0,"transit":false,"station_name":"Bojonggede","i_lat":-6.493243,"line":0,"time":0},{"time":5,"station_id":"CTA","i_long":106.800298,"station_name":"Citayam","transit":false,"distance":5197,"is_transit":true,"i_lat":-6.448811,"line":1},{"line":0,"is_transit":false,"transit":false,"i_lat":-6.405256,"station_name":"Depok","station_id":"DP","time":6,"distance":5084,"i_long":106.816926},{"time":3,"i_lat":-6.391065,"i_long":106.819451,"line":0,"is_transit":false,"transit":false,"station_id":"DPB","distance":1584,"station_name":"Depokbaru"},{"distance":2727,"transit":false,"station_name":"Pondok Cina","time":4,"is_transit":false,"i_lat":-6.369073,"line":2,"station_id":"POC","i_long":106.831114},{"i_lat":-6.360749,"transit":false,"station_name":"Univ. Indonesia","i_long":106.831474,"line":2,"is_transit":false,"distance":1109,"time":2,"station_id":"UI"},{"station_id":"UP","station_name":"Univ. Pancasila","distance":2264,"time":3,"line":2,"is_transit":false,"transit":false,"i_long":106.834175,"i_lat":-6.339291},{"line":2,"i_long":106.832616,"is_transit":false,"station_name":"Lenteng Agung","station_id":"LNA","transit":false,"distance":1029,"time":2,"i_lat":-6.330363},{"station_name":"Tanjung Barat","i_long":106.838896,"station_id":"TNT","distance":2671,"transit":false,"line":2,"i_lat":-6.3080680000000005,"is_transit":false,"time":3},{"is_transit":false,"station_id":"PSM","i_long":106.843999,"i_lat":-6.2842400000000005,"line":2,"distance":2820,"station_name":"Pasar Minggu","time":4,"transit":false},{"station_name":"Pasar Minggu Baru","transit":false,"is_transit":false,"i_long":106.851577,"i_lat":-6.263214,"line":2,"station_id":"PSMB","distance":2380,"time":2},{"time":2,"i_long":106.85449,"station_name":"Duren Kalibata","is_transit":false,"line":0,"distance":824,"station_id":"DRN","transit":false,"i_lat":-6.255332},{"line":0,"station_name":"Cawang","i_lat":-6.242512,"time":3,"distance":1546,"i_long":106.856607,"transit":false,"is_transit":false,"station_id":"CW"},{"distance":1230,"transit":false,"i_lat":-6.226659,"line":2,"station_name":"Tebet","time":2,"i_long":106.857948,"station_id":"TEB","is_transit":false},{"is_transit":true,"station_name":"Manggarai","station_id":"MRI","time":4,"line":0,"i_lat":-6.209883,"i_long":106.84912,"transit":true,"distance":2610},{"station_id":"SUD","transit":false,"i_long":106.822649,"line":1,"i_lat":-6.202263,"is_transit":false,"time":4,"station_name":"Sudirman","distance":3186},{"line":1,"transit":false,"i_lat":-6.201433,"time":1,"station_name":"Sudirman Baru","is_transit":false,"distance":280,"station_id":"SUDB","i_long":106.819881},{"station_id":"KAT","transit":false,"i_long":106.816351,"line":1,"distance":471,"time":1,"station_name":"Karet","is_transit":false,"i_lat":-6.20132},{"station_name":"Tanah Abang","time":5,"distance":2029,"is_transit":true,"i_lat":-6.185545,"i_long":106.811091,"transit":false,"station_id":"THB","line":1},{"distance":3632,"i_lat":-6.155215,"i_long":106.800832,"station_name":"Duri","time":8,"line":1,"transit":true,"is_transit":true,"station_id":"DU"},{"distance":1700,"station_id":"GGL","i_lat":-6.162021,"time":3,"is_transit":false,"station_name":"Grogol","i_long":106.788277,"line":5,"transit":false},{"transit":false,"station_id":"PSG","distance":2036,"time":2,"i_long":106.771379,"station_name":"Pesing","is_transit":false,"i_lat":-6.161433,"line":5},{"distance":1614,"i_long":106.756522,"i_lat":-6.1587309999999995,"transit":false,"line":5,"station_id":"TKO","time":2,"is_transit":false,"station_name":"Taman Kota"},{"is_transit":false,"time":2,"line":0,"transit":false,"i_long":106.737035,"station_id":"BOI","distance":2334,"i_lat":-6.159876,"station_name":"Bojongindah"},{"transit":false,"is_transit":false,"time":4,"distance":1152,"i_lat":-6.162758,"line":5,"i_long":106.723064,"station_name":"Rawa Buaya","station_id":"RW"},{"station_id":"KDS","distance":2504,"i_lat":-6.166068,"i_long":106.701612,"is_transit":false,"transit":false,"line":5,"time":3,"station_name":"Kalideres"},{"is_transit":false,"i_lat":-6.169933,"i_long":106.679458,"line":5,"time":3,"distance":2548,"transit":false,"station_name":"Poris","station_id":"PI"},{"station_name":"Batuceper","time":3,"line":0,"i_lat":-6.171811,"station_id":"BPR","distance":1834,"transit":false,"i_long":106.665036,"is_transit":false},{"station_id":"TTI","i_lat":-6.17331,"line":5,"transit":false,"time":3,"distance":2028,"is_transit":false,"i_long":106.64657,"station_name":"Tanah Tinggi"}],[{"distance":0,"transit":false,"station_name":"Bojonggede","station_id":"BJD","is_transit":false,"line":0,"i_lat":-6.493243,"i_long":106.792719,"time":0},{"transit":false,"line":1,"station_name":"Citayam","i_lat":-6.448811,"is_transit":true,"station_id":"CTA","time":5,"distance":5197,"i_long":106.800298},{"transit":false,"station_name":"Depok","i_long":106.816926,"station_id":"DP","time":6,"distance":5084,"is_transit":false,"line":0,"i_lat":-6.405256},{"transit":false,"i_lat":-6.391065,"station_id":"DPB","is_transit":false,"distance":1584,"i_long":106.819451,"line":0,"time":3,"station_name":"Depokbaru"},{"station_id":"POC","is_transit":false,"i_lat":-6.369073,"i_long":106.831114,"time":4,"distance":2727,"line":2,"transit":false,"station_name":"Pondok Cina"},{"time":2,"line":2,"distance":1109,"station_name":"Univ. Indonesia","station_id":"UI","is_transit":false,"i_lat":-6.360749,"i_long":106.831474,"transit":false},{"distance":2264,"transit":false,"i_long":106.834175,"line":2,"station_name":"Univ. Pancasila","is_transit":false,"time":3,"station_id":"UP","i_lat":-6.339291},{"is_transit":false,"line":2,"i_long":106.832616,"station_name":"Lenteng Agung","time":2,"distance":1029,"transit":false,"station_id":"LNA","i_lat":-6.330363},{"station_name":"Tanjung Barat","transit":false,"i_long":106.838896,"time":3,"distance":2671,"i_lat":-6.3080680000000005,"line":2,"is_transit":false,"station_id":"TNT"},{"line":2,"transit":false,"distance":2820,"station_name":"Pasar Minggu","i_long":106.843999,"time":4,"station_id":"PSM","is_transit":false,"i_lat":-6.2842400000000005},{"station_id":"PSMB","station_name":"Pasar Minggu Baru","i_long":106.851577,"distance":2380,"i_lat":-6.263214,"is_transit":false,"time":2,"transit":false,"line":2},{"line":0,"station_name":"Duren Kalibata","i_long":106.85449,"i_lat":-6.255332,"transit":false,"station_id":"DRN","is_transit":false,"time":2,"distance":824},{"transit":false,"time":3,"line":0,"station_id":"CW","distance":1546,"i_lat":-6.242512,"i_long":106.856607,"station_name":"Cawang","is_transit":false},{"distance":1230,"time":2,"station_name":"Tebet","station_id":"TEB","i_lat":-6.226659,"i_long":106.857948,"is_transit":false,"transit":false,"line":2},{"i_lat":-6.209883,"station_name":"Manggarai","transit":true,"time":4,"distance":2610,"i_long":106.84912,"line":0,"is_transit":true,"station_id":"MRI"},{"station_name":"Cikini","station_id":"CKI","is_transit":false,"time":4,"i_lat":-6.198556,"distance":1590,"line":0,"transit":false,"i_long":106.840169},{"station_id":"GDD","i_lat":-6.186295,"transit":false,"distance":1750,"station_name":"Gondangdia","is_transit":false,"i_long":106.832183,"time":3,"line":2},{"time":4,"i_long":106.828284,"station_name":"Juanda","transit":false,"i_lat":-6.166716,"line":2,"station_id":"JUA","is_transit":false,"distance":2015},{"is_transit":false,"distance":1149,"i_lat":-6.160725,"i_long":106.827103,"time":2,"station_name":"Sawah Besar","station_id":"SW","transit":false,"line":2},{"is_transit":false,"station_name":"Manggabesar","time":2,"i_lat":-6.149769,"line":2,"distance":906,"i_long":106.82482,"station_id":"MGB","transit":false},{"station_id":"JAY","transit":false,"distance":1080,"station_name":"Jayakarta","i_long":106.820901,"line":7,"i_lat":-6.141205,"time":2,"is_transit":false},{"station_id":"JAKK","i_lat":-6.137569,"is_transit":true,"station_name":"Jakarta Kota","transit":true,"line":0,"time":4,"distance":1264,"i_long":106.812439},{"transit":false,"i_long":106.826365,"is_transit":true,"i_lat":-6.132549,"time":3,"distance":1364,"line":0,"station_name":"Kampung Bandan","station_id":"KPB"},{"station_name":"Angke","transit":false,"is_transit":false,"distance":4102,"i_lat":-6.144674,"i_long":106.79867,"station_id":"AK","line":0,"time":9},{"station_name":"Duri","is_transit":true,"i_long":106.800832,"transit":true,"distance":1230,"station_id":"DU","i_lat":-6.155215,"line":1,"time":4},{"time":3,"distance":1700,"station_name":"Grogol","i_long":106.788277,"line":5,"station_id":"GGL","is_transit":false,"i_lat":-6.162021,"transit":false},{"station_name":"Pesing","transit":false,"station_id":"PSG","line":5,"distance":2036,"time":2,"is_transit":false,"i_long":106.771379,"i_lat":-6.161433},{"distance":1614,"i_lat":-6.1587309999999995,"station_name":"Taman Kota","station_id":"TKO","line":5,"transit":false,"i_long":106.756522,"is_transit":false,"time":2},{"station_name":"Bojongindah","is_transit":false,"distance":2334,"i_long":106.737035,"i_lat":-6.159876,"time":2,"station_id":"BOI","line":0,"transit":false},{"i_lat":-6.162758,"is_transit":false,"time":4,"distance":1152,"station_name":"Rawa Buaya","station_id":"RW","i_long":106.723064,"transit":false,"line":5},{"station_name":"Kalideres","distance":2504,"is_transit":false,"time":3,"station_id":"KDS","i_long":106.701612,"transit":false,"i_lat":-6.166068,"line":5},{"station_name":"Poris","station_id":"PI","i_long":106.679458,"distance":2548,"i_lat":-6.169933,"time":3,"line":5,"transit":false,"is_transit":false},{"time":3,"transit":false,"line":0,"i_long":106.665036,"i_lat":-6.171811,"station_id":"BPR","is_transit":false,"station_name":"Batuceper","distance":1834},{"is_transit":false,"distance":2028,"transit":false,"station_id":"TTI","i_long":106.64657,"station_name":"Tanah Tinggi","time":3,"line":5,"i_lat":-6.17331}],[{"distance":0,"line":0,"i_lat":-6.493243,"is_transit":false,"time":0,"station_id":"BJD","i_long":106.792719,"transit":false,"station_name":"Bojonggede"},{"i_long":106.800298,"time":5,"transit":false,"station_name":"Citayam","is_transit":true,"line":1,"distance":5197,"station_id":"CTA","i_lat":-6.448811},{"is_transit":false,"station_id":"DP","i_long":106.816926,"line":0,"transit":false,"station_name":"Depok","time":6,"distance":5084,"i_lat":-6.405256},{"station_name":"Depokbaru","i_long":106.819451,"line":0,"transit":false,"station_id":"DPB","i_lat":-6.391065,"is_transit":false,"distance":1584,"time":3},{"distance":2727,"i_lat":-6.369073,"is_transit":false,"station_id":"POC","transit":false,"station_name":"Pondok Cina","time":4,"i_long":106.831114,"line":2},{"station_id":"UI","time":2,"i_long":106.831474,"is_transit":false,"transit":false,"i_lat":-6.360749,"station_name":"Univ. Indonesia","line":2,"distance":1109},{"is_transit":false,"distance":2264,"transit":false,"line":2,"station_name":"Univ. Pancasila","i_lat":-6.339291,"i_long":106.834175,"station_id":"UP","time":3},{"station_id":"LNA","transit":false,"is_transit":false,"time":2,"line":2,"i_long":106.832616,"distance":1029,"i_lat":-6.330363,"station_name":"Lenteng Agung"},{"transit":false,"i_long":106.838896,"station_id":"TNT","time":3,"distance":2671,"station_name":"Tanjung Barat","i_lat":-6.3080680000000005,"is_transit":false,"line":2},{"time":4,"is_transit":false,"line":2,"station_id":"PSM","station_name":"Pasar Minggu","transit":false,"distance":2820,"i_lat":-6.2842400000000005,"i_long":106.843999},{"i_lat":-6.263214,"transit":false,"is_transit":false,"line":2,"time":2,"distance":2380,"i_long":106.851577,"station_name":"Pasar Minggu Baru","station_id":"PSMB"},{"distance":824,"i_long":106.85449,"transit":false,"i_lat":-6.255332,"is_transit":false,"station_name":"Duren Kalibata","line":0,"station_id":"DRN","time":2},{"is_transit":false,"i_lat":-6.242512,"station_id":"CW","distance":1546,"time":3,"station_name":"Cawang","i_long":106.856607,"line":0,"transit":false},{"transit":false,"station_id":"TEB","time":2,"line":2,"distance":1230,"i_long":106.857948,"is_transit":false,"station_name":"Tebet","i_lat":-6.226659},{"transit":true,"distance":2610,"is_transit":true,"i_lat":-6.209883,"line":0,"time":4,"station_id":"MRI","i_long":106.84912,"station_name":"Manggarai"},{"line":1,"is_transit":false,"transit":false,"i_long":106.858896,"station_name":"Matraman","i_lat":-6.212485,"time":2,"station_id":"MTR","distance":1275},{"is_transit":true,"time":8,"i_long":106.86807400000001,"i_lat":-6.215091,"line":0,"transit":true,"distance":1377,"station_name":"Jatinegara","station_id":"JNG"},{"distance":1236,"i_lat":-6.209188,"is_transit":false,"station_id":"POK","transit":false,"time":2,"i_long":106.861737,"station_name":"Pondok Jati","line":11},{"station_id":"KMT","station_name":"Kramat","is_transit":false,"line":11,"i_long":106.855437,"distance":1829,"time":2,"transit":false,"i_lat":-6.193792},{"distance":973,"station_name":"Gang Sentiong","transit":false,"i_long":106.850107,"i_lat":-6.185975,"time":1,"station_id":"GST","line":11,"is_transit":false},{"transit":false,"station_name":"Pasar Senen","is_transit":false,"i_lat":-6.174784,"distance":1567,"time":8,"i_long":106.84368,"station_id":"PSE","line":11},{"i_lat":-6.161728,"is_transit":false,"station_id":"KMO","i_long":106.839204,"station_name":"Kemayoran","transit":false,"time":4,"distance":1436,"line":11},{"line":11,"transit":false,"station_id":"RJW","i_lat":-6.14505,"i_long":106.836569,"distance":1901,"time":5,"station_name":"Rajawali","is_transit":false},{"station_id":"KPB","time":3,"i_long":106.826365,"i_lat":-6.132549,"is_transit":true,"station_name":"Kampung Bandan","distance":1444,"transit":true,"line":0},{"station_name":"Angke","station_id":"AK","time":9,"transit":false,"distance":4102,"i_long":106.79867,"line":0,"is_transit":false,"i_lat":-6.144674},{"i_lat":-6.155215,"distance":1230,"is_transit":true,"station_id":"DU","time":4,"line":1,"transit":true,"i_long":106.800832,"station_name":"Duri"},{"station_name":"Grogol","distance":1700,"i_lat":-6.162021,"is_transit":false,"time":3,"station_id":"GGL","i_long":106.788277,"line":5,"transit":false},{"is_transit":false,"line":5,"i_lat":-6.161433,"time":2,"i_long":106.771379,"station_id":"PSG","distance":2036,"transit":false,"station_name":"Pesing"},{"station_id":"TKO","transit":false,"time":2,"i_lat":-6.1587309999999995,"is_transit":false,"line":5,"distance":1614,"i_long":106.756522,"station_name":"Taman Kota"},{"station_name":"Bojongindah","station_id":"BOI","i_long":106.737035,"transit":false,"time":2,"line":0,"is_transit":false,"i_lat":-6.159876,"distance":2334},{"transit":false,"is_transit":false,"distance":1152,"i_lat":-6.162758,"line":5,"i_long":106.723064,"station_name":"Rawa Buaya","station_id":"RW","time":4},{"i_lat":-6.166068,"station_name":"Kalideres","time":3,"is_transit":false,"line":5,"station_id":"KDS","distance":2504,"i_long":106.701612,"transit":false},{"station_id":"PI","i_long":106.679458,"i_lat":-6.169933,"transit":false,"station_name":"Poris","is_transit":false,"distance":2548,"line":5,"time":3},{"time":3,"i_lat":-6.171811,"station_name":"Batuceper","is_transit":false,"line":0,"transit":false,"i_long":106.665036,"station_id":"BPR","distance":1834},{"line":5,"transit":false,"i_long":106.64657,"is_transit":false,"distance":2028,"time":3,"station_id":"TTI","station_name":"Tanah Tinggi","i_lat":-6.17331}]]}