{"data":[[{"time":0,"distance":0,"transit":false,"station_id":"BJD","i_lat":-6.493243,"i_long":106.792719,"line":0,"is_transit":false,"station_name":"Bojonggede"},{"i_lat":-6.448811,"i_long":106.800298,"is_transit":true,"line":1,"transit":false,"distance":5197,"station_id":"CTA","station_name":"Citayam","time":5},{"time":6,"transit":false,"i_lat":-6.405256,"i_long":106.816926,"station_id":"DP","line":0,"is_transit":false,"distance":5084,"station_name":"Depok"},{"transit":false,"i_long":106.819451,"station_name":"Depokbaru","station_id":"DPB","i_lat":-6.391065,"is_transit":false,"line":0,"time":3,"distance":1584},{"station_name":"Pondok Cina","station_id":"POC","distance":2727,"is_transit":false,"transit":false,"time":4,"line":2,"i_lat":-6.369073,"i_long":106.831114},{"i_lat":-6.360749,"i_long":106.831474,"station_id":"UI","distance":1109,"line":2,"is_transit":false,"time":2,"station_name":"Univ. Indonesia","transit":false},{"station_id":"UP","station_name":"Univ. Pancasila","i_long":106.834175,"is_transit":false,"i_lat":-6.339291,"transit":false,"distance":2264,"line":2,"time":3},{"station_name":"Lenteng Agung","line":2,"distance":1029,"i_lat":-6.330363,"station_id":"LNA","i_long":106.832616,"is_transit":false,"transit":false,"time":2},{"time":3,"transit":false,"station_name":"Tanjung Barat","line":2,"is_transit":false,"station_id":"TNT","distance":2671,"i_lat":-6.3080680000000005,"i_long":106.838896},{"distance":2820,"i_long":106.843999,"line":2,"station_id":"PSM","i_lat":-6.2842400000000005,"station_name":"Pasar Minggu","time":4,"transit":false,"is_transit":false},{"is_transit":false,"transit":false,"i_lat":-6.263214,"i_long":106.851577,"station_id":"PSMB","time":2,"station_name":"Pasar Minggu Baru","distance":2380,"line":2},{"transit":false,"i_long":106.85449,"time":2,"is_transit":false,"station_id":"DRN","line":0,"distance":824,"station_name":"Duren Kalibata","i_lat":-6.255332},{"transit":false,"i_long":106.856607,"line":0,"station_name":"Cawang","i_lat":-6.242512,"distance":1546,"station_id":"CW","time":3,"is_transit":false}]]}