{"data":[[{"station_name":"Bojonggede","is_transit":false,"distance":0,"i_lat":-6.493243,"line":2,"i_long":106.792719,"time":0,"station_id":"BJD","transit":false},{"distance":5197,"transit":false,"station_name":"Citayam","i_lat":-6.448811,"is_transit":false,"time":5,"station_id":"CTA","i_long":106.800298,"line":2},{"distance":5084,"station_id":"DP","transit":false,"time":6,"station_name":"Depok","i_long":106.816926,"is_transit":false,"i_lat":-6.405256,"line":2},{"i_lat":-6.391065,"station_id":"DPB","i_long":106.819451,"is_transit":false,"line":2,"transit":false,"distance":1584,"time":3,"station_name":"Depokbaru"},{"station_name":"Pondok Cina","is_transit":false,"transit":false,"line":2,"distance":2727,"i_lat":-6.369073,"i_long":106.831114,"station_id":"POC","time":4},{"is_transit":false,"line":2,"time":2,"station_id":"UI","station_name":"Univ. Indonesia","i_lat":-6.360749,"i_long":106.831474,"distance":1109,"transit":false},{"station_id":"UP","line":2,"distance":2264,"time":3,"is_transit":false,"i_lat":-6.339291,"i_long":106.834175,"transit":false,"station_name":"Univ. Pancasila"},{"i_lat":-6.330363,"distance":1029,"station_id":"LNA","transit":false,"line":2,"station_name":"Lenteng Agung","is_transit":false,"time":2,"i_long":106.832616},{"transit":false,"is_transit":false,"i_long":106.838896,"station_id":"TNT","distance":2671,"i_lat":-6.3080680000000005,"line":2,"time":3,"station_name":"Tanjung Barat"},{"station_id":"PSM","is_transit":false,"transit":false,"i_long":106.843999,"line":2,"i_lat":-6.2842400000000005,"time":4,"distance":2820,"station_name":"Pasar Minggu"},{"distance":2380,"transit":false,"line":2,"is_transit":false,"station_name":"Pasar Minggu Baru","i_long":106.851577,"station_id":"PSMB","i_lat":-6.263214,"time":2},{"station_name":"Duren Kalibata","time":2,"i_lat":-6.255332,"line":2,"station_id":"DRN","transit":false,"i_long":106.85449,"distance":824,"is_transit":false},{"station_id":"CW","time":3,"is_transit":false,"transit":false,"i_lat":-6.242512,"i_long":106.856607,"station_name":"Cawang","distance":1546,"line":2},{"i_long":106.857948,"i_lat":-6.226659,"transit":false,"distance":1230,"station_id":"TEB","is_transit":false,"time":2,"station_name":"Tebet","line":2},{"line":2,"is_transit":true,"time":4,"station_name":"Manggarai","distance":2610,"i_lat":-6.209883,"station_id":"MRI","transit":true,"i_long":106.84912},{"is_transit":false,"time":2,"i_long":106.858896,"distance":1275,"station_id":"MTR","transit":false,"i_lat":-6.212485,"station_name":"Matraman","line":1},{"station_name":"Jatinegara","i_long":106.86807400000001,"distance":1377,"time":8,"transit":false,"i_lat":-6.215091,"is_transit":false,"line":1,"station_id":"JNG"},{"i_lat":-6.2135,"station_name":"Klender","station_id":"KLD","time":3,"line":1,"i_long":106.899548,"transit":false,"distance":3395,"is_transit":false},{"is_transit":false,"i_long":106.922662,"time":2,"station_id":"BUA","station_name":"Buaran","distance":3100,"transit":false,"line":1,"i_lat":-6.215568},{"i_lat":-6.217455,"is_transit":false,"time":1,"transit":false,"station_name":"Klenderbaru","i_long":106.939679,"line":1,"station_id":"KLDB","distance":1305},{"transit":false,"station_name":"Cakung","distance":1385,"is_transit":false,"time":8,"i_lat":-6.219053,"station_id":"CUK","i_long":106.951283,"line":1}],[{"station_id":"BJD","is_transit":false,"i_lat":-6.493243,"transit":false,"time":0,"i_long":106.792719,"station_name":"Bojonggede","distance":0,"line":2},{"i_long":106.800298,"transit":false,"station_id":"CTA","is_transit":false,"time":5,"station_name":"Citayam","distance":5197,"line":2,"i_lat":-6.448811},{"is_transit":false,"i_long":106.816926,"station_id":"DP","transit":false,"line":2,"time":6,"i_lat":-6.405256,"distance":5084,"station_name":"Depok"},{"i_long":106.819451,"time":3,"station_id":"DPB","station_name":"Depokbaru","distance":1584,"i_lat":-6.391065,"line":2,"is_transit":false,"transit":false},{"i_lat":-6.369073,"is_transit":false,"time":4,"line":2,"station_name":"Pondok Cina","i_long":106.831114,"station_id":"POC","transit":false,"distance":2727},{"i_lat":-6.360749,"transit":false,"distance":1109,"i_long":106.831474,"line":2,"station_id":"UI","time":2,"station_name":"Univ. Indonesia","is_transit":false},{"distance":2264,"time":3,"i_lat":-6.339291,"line":2,"station_name":"Univ. Pancasila","transit":false,"station_id":"UP","i_long":106.834175,"is_transit":false},{"time":2,"station_id":"LNA","i_long":106.832616,"line":2,"distance":1029,"is_transit":false,"i_lat":-6.330363,"transit":false,"station_name":"Lenteng Agung"},{"is_transit":false,"i_lat":-6.3080680000000005,"line":2,"transit":false,"station_name":"Tanjung Barat","station_id":"TNT","i_long":106.838896,"distance":2671,"time":3},{"line":2,"distance":2820,"i_lat":-6.2842400000000005,"is_transit":false,"station_name":"Pasar Minggu","transit":false,"station_id":"PSM","i_long":106.843999,"time":4},{"station_id":"PSMB","line":2,"is_transit":false,"i_lat":-6.263214,"i_long":106.851577,"time":2,"station_name":"Pasar Minggu Baru","transit":false,"distance":2380},{"station_id":"DRN","line":2,"is_transit":false,"i_lat":-6.255332,"time":2,"i_long":106.85449,"distance":824,"transit":false,"station_name":"Duren Kalibata"},{"station_name":"Cawang","is_transit":false,"transit":false,"line":2,"distance":1546,"i_lat":-6.242512,"i_long":106.856607,"station_id":"CW","time":3},{"i_lat":-6.226659,"i_long":106.857948,"transit":false,"distance":1230,"time":2,"station_name":"Tebet","is_transit":false,"line":2,"station_id":"TEB"},{"station_id":"MRI","i_lat":-6.209883,"station_name":"Manggarai","i_long":106.84912,"time":4,"distance":2610,"transit":true,"line":2,"is_transit":true},{"transit":false,"station_name":"Sudirman","i_long":106.822649,"is_transit":false,"station_id":"SUD","distance":3186,"i_lat":-6.202263,"time":4,"line":1},{"station_name":"Sudirman Baru","time":1,"transit":false,"distance":280,"line":1,"station_id":"SUDB","is_transit":false,"i_long":106.819881,"i_lat":-6.201433},{"station_name":"Karet","i_long":106.816351,"station_id":"KAT","time":1,"distance":471,"line":1,"is_transit":false,"transit":false,"i_lat":-6.20132},{"station_id":"THB","i_long":106.811091,"station_name":"Tanah Abang","time":5,"is_transit":false,"distance":2029,"transit":false,"i_lat":-6.185545,"line":1},{"i_lat":-6.155215,"station_id":"DU","station_name":"Duri","time":8,"transit":false,"distance":3632,"line":1,"i_long":106.800832,"is_transit":false},{"station_id":"AK","i_lat":-6.144674,"i_long":106.79867,"time":4,"is_transit":false,"distance":1230,"line":1,"transit":false,"station_name":"Angke"},{"is_transit":true,"i_long":106.826365,"time":9,"station_id":"KPB","distance":4102,"transit":true,"station_name":"Kampung Bandan","i_lat":-6.132549,"line":4},{"is_transit":false,"line":11,"distance":1444,"station_name":"Rajawali","i_long":106.836569,"transit":false,"station_id":"RJW","time":3,"i_lat":-6.14505},{"transit":false,"distance":1901,"station_id":"KMO","time":5,"station_name":"Kemayoran","i_long":106.839204,"i_lat":-6.161728,"line":11,"is_transit":false},{"transit":false,"i_lat":-6.174784,"is_transit":false,"i_long":106.84368,"line":11,"time":4,"station_name":"Pasar Senen","station_id":"PSE","distance":1436},{"is_transit":false,"line":11,"i_lat":-6.185975,"station_name":"Gang Sentiong","i_long":106.850107,"transit":false,"station_id":"GST","distance":1567,"time":8},{"i_lat":-6.193792,"line":11,"station_name":"Kramat","transit":false,"is_transit":false,"station_id":"KMT","i_long":106.855437,"distance":973,"time":1},{"line":11,"i_long":106.861737,"station_name":"Pondok Jati","distance":1829,"transit":false,"is_transit":false,"time":2,"station_id":"POK","i_lat":-6.209188},{"is_transit":true,"distance":1236,"station_id":"JNG","line":1,"i_long":106.86807400000001,"transit":true,"station_name":"Jatinegara","time":9,"i_lat":-6.215091},{"transit":false,"station_name":"Klender","station_id":"KLD","time":3,"i_lat":-6.2135,"line":1,"distance":3395,"i_long":106.899548,"is_transit":false},{"distance":3100,"i_long":106.922662,"i_lat":-6.215568,"station_name":"Buaran","transit":false,"station_id":"BUA","is_transit":false,"time":2,"line":1},{"transit":false,"time":1,"i_lat":-6.217455,"station_name":"Klenderbaru","is_transit":false,"line":1,"distance":1305,"station_id":"KLDB","i_long":106.939679},{"i_lat":-6.219053,"is_transit":false,"distance":1385,"i_long":106.951283,"transit":false,"line":1,"station_id":"CUK","station_name":"Cakung","time":8}],[{"distance":0,"i_lat":-6.493243,"is_transit":false,"i_long":106.792719,"transit":false,"station_id":"BJD","station_name":"Bojonggede","time":0,"line":2},{"time":5,"i_lat":-6.448811,"transit":false,"line":2,"station_id":"CTA","is_transit":false,"distance":5197,"i_long":106.800298,"station_name":"Citayam"},{"transit":false,"station_name":"Depok","i_long":106.816926,"distance":5084,"is_transit":false,"station_id":"DP","time":6,"i_lat":-6.405256,"line":2},{"station_name":"Depokbaru","is_transit":false,"time":3,"distance":1584,"transit":false,"i_long":106.819451,"i_lat":-6.391065,"line":2,"station_id":"DPB"},{"is_transit":false,"time":4,"transit":false,"station_id":"POC","i_lat":-6.369073,"distance":2727,"i_long":106.831114,"station_name":"Pondok Cina","line":2},{"station_name":"Univ. Indonesia","line":2,"i_long":106.831474,"transit":false,"i_lat":-6.360749,"distance":1109,"is_transit":false,"station_id":"UI","time":2},{"line":2,"time":3,"station_id":"UP","distance":2264,"station_name":"Univ. Pancasila","transit":false,"is_transit":false,"i_long":106.834175,"i_lat":-6.339291},{"distance":1029,"i_long":106.832616,"is_transit":false,"station_name":"Lenteng Agung","station_id":"LNA","time":2,"line":2,"i_lat":-6.330363,"transit":false},{"station_name":"Tanjung Barat","i_long":106.838896,"line":2,"i_lat":-6.3080680000000005,"station_id":"TNT","time":3,"distance":2671,"is_transit":false,"transit":false},{"transit":false,"station_id":"PSM","station_name":"Pasar Minggu","is_transit":false,"time":4,"distance":2820,"i_lat":-6.2842400000000005,"i_long":106.843999,"line":2},{"station_id":"PSMB","time":2,"is_transit":false,"transit":false,"line":2,"i_lat":-6.263214,"station_name":"Pasar Minggu Baru","distance":2380,"i_long":106.851577},{"station_name":"Duren Kalibata","transit":false,"time":2,"distance":824,"i_long":106.85449,"is_transit":false,"station_id":"DRN","line":2,"i_lat":-6.255332},{"time":3,"transit":false,"is_transit":false,"station_id":"CW","i_lat":-6.242512,"i_long":106.856607,"line":2,"station_name":"Cawang","distance":1546},{"i_lat":-6.226659,"line":2,"i_long":106.857948,"transit":false,"station_name":"Tebet","station_id":"TEB","distance":1230,"is_transit":false,"time":2},{"i_lat":-6.209883,"is_transit":false,"time":4,"i_long":106.84912,"line":2,"station_id":"MRI","station_name":"Manggarai","transit":false,"distance":2610},{"station_name":"Cikini","is_transit":false,"distance":1590,"line":2,"i_lat":-6.198556,"time":4,"transit":false,"station_id":"CKI","i_long":106.840169},{"i_long":106.832183,"distance":1750,"i_lat":-6.186295,"time":3,"line":2,"transit":false,"station_name":"Gondangdia","is_transit":false,"station_id":"GDD"},{"is_transit":false,"line":2,"i_long":106.828284,"i_lat":-6.166716,"station_name":"Juanda","transit":false,"time":4,"distance":2015,"station_id":"JUA"},{"i_lat":-6.160725,"i_long":106.827103,"station_id":"SW","is_transit":false,"time":2,"transit":false,"distance":1149,"station_name":"Sawah Besar","line":2},{"station_name":"Manggabesar","line":2,"transit":false,"distance":906,"i_long":106.82482,"time":2,"i_lat":-6.149769,"station_id":"MGB","is_transit":false},{"station_name":"Jayakarta","station_id":"JAY","i_lat":-6.141205,"line":2,"i_long":106.820901,"transit":false,"is_transit":false,"time":2,"distance":1080},{"station_name":"Jakarta Kota","is_transit":true,"i_long":106.812439,"line":2,"distance":1264,"transit":true,"i_lat":-6.137569,"station_id":"JAKK","time":4},{"distance":1364,"i_long":106.826365,"station_name":"Kampung Bandan","transit":true,"station_id":"KPB","line":4,"i_lat":-6.132549,"time":3,"is_transit":true},{"line":11,"transit":false,"distance":1444,"station_name":"Rajawali","station_id":"RJW","time":3,"i_lat":-6.14505,"is_transit":false,"i_long":106.836569},{"time":5,"station_name":"Kemayoran","distance":1901,"i_long":106.839204,"is_transit":false,"i_lat":-6.161728,"line":11,"transit":false,"station_id":"KMO"},{"distance":1436,"transit":false,"i_long":106.84368,"time":4,"station_id":"PSE","station_name":"Pasar Senen","is_transit":false,"i_lat":-6.174784,"line":11},{"i_lat":-6.185975,"station_name":"Gang Sentiong","time":8,"line":11,"transit":false,"distance":1567,"is_transit":false,"i_long":106.850107,"station_id":"GST"},{"line":11,"transit":false,"is_transit":false,"station_name":"Kramat","time":1,"station_id":"KMT","i_lat":-6.193792,"distance":973,"i_long":106.855437},{"i_long":106.861737,"time":2,"station_id":"POK","distance":1829,"station_name":"Pondok Jati","line":11,"is_transit":false,"transit":false,"i_lat":-6.209188},{"i_lat":-6.215091,"line":1,"time":9,"transit":true,"station_name":"Jatinegara","is_transit":true,"station_id":"JNG","i_long":106.86807400000001,"distance":1236},{"line":1,"transit":false,"station_id":"KLD","i_lat":-6.2135,"distance":3395,"station_name":"Klender","is_transit":false,"time":3,"i_long":106.899548},{"station_name":"Buaran","i_lat":-6.215568,"is_transit":false,"transit":false,"distance":3100,"time":2,"i_long":106.922662,"station_id":"BUA","line":1},{"line":1,"i_long":106.939679,"transit":false,"station_id":"KLDB","is_transit":false,"distance":1305,"station_name":"Klenderbaru","time":1,"i_lat":-6.217455},{"station_name":"Cakung","transit":false,"distance":1385,"i_long":106.951283,"time":8,"is_transit":false,"line":1,"i_lat":-6.219053,"station_id":"CUK"}]]}