{"data":[[{"time":0,"transit":false,"distance":0,"i_lat":-6.493243,"i_long":106.792719,"station_name":"Bojonggede","line":2,"station_id":"BJD","is_transit":false},{"station_id":"CTA","is_transit":false,"i_lat":-6.448811,"i_long":106.800298,"line":2,"station_name":"Citayam","time":5,"transit":false,"distance":5197},{"transit":false,"distance":5084,"station_name":"Depok","time":6,"is_transit":false,"station_id":"DP","i_long":106.816926,"i_lat":-6.405256,"line":2},{"line":2,"station_id":"DPB","i_lat":-6.391065,"station_name":"Depokbaru","time":3,"i_long":106.819451,"transit":false,"distance":1584,"is_transit":false},{"line":2,"distance":2727,"is_transit":false,"station_name":"Pondok Cina","time":4,"i_long":106.831114,"station_id":"POC","i_lat":-6.369073,"transit":false},{"distance":1109,"is_transit":false,"i_lat":-6.360749,"transit":false,"station_name":"Univ. Indonesia","line":2,"time":2,"i_long":106.831474,"station_id":"UI"},{"i_long":106.834175,"station_id":"UP","i_lat":-6.339291,"distance":2264,"station_name":"Univ. Pancasila","is_transit":false,"line":2,"transit":false,"time":3},{"i_lat":-6.330363,"line":2,"station_name":"Lenteng Agung","transit":false,"is_transit":false,"time":2,"station_id":"LNA","distance":1029,"i_long":106.832616},{"distance":2671,"time":3,"i_lat":-6.3080680000000005,"station_id":"TNT","line":2,"is_transit":false,"transit":false,"station_name":"Tanjung Barat","i_long":106.838896},{"station_id":"PSM","time":4,"transit":false,"station_name":"Pasar Minggu","i_lat":-6.2842400000000005,"i_long":106.843999,"line":2,"distance":2820,"is_transit":false},{"distance":2380,"i_long":106.851577,"station_name":"Pasar Minggu Baru","station_id":"PSMB","time":2,"i_lat":-6.263214,"line":2,"transit":false,"is_transit":false},{"time":2,"distance":824,"i_lat":-6.255332,"station_name":"Duren Kalibata","transit":false,"i_long":106.85449,"station_id":"DRN","line":2,"is_transit":false},{"distance":1546,"line":2,"transit":false,"i_long":106.856607,"time":3,"station_id":"CW","station_name":"Cawang","is_transit":false,"i_lat":-6.242512},{"station_id":"TEB","distance":1230,"i_long":106.857948,"time":2,"transit":false,"i_lat":-6.226659,"is_transit":false,"station_name":"Tebet","line":2},{"station_id":"MRI","station_name":"Manggarai","is_transit":true,"time":4,"i_long":106.84912,"i_lat":-6.209883,"distance":2610,"transit":true,"line":2},{"station_name":"Sudirman","station_id":"SUD","is_transit":false,"transit":false,"i_lat":-6.202263,"line":1,"distance":3186,"i_long":106.822649,"time":4},{"distance":280,"i_lat":-6.201433,"station_name":"Sudirman Baru","time":1,"i_long":106.819881,"line":1,"is_transit":false,"station_id":"SUDB","transit":false},{"is_transit":false,"distance":471,"station_id":"KAT","i_long":106.816351,"time":1,"i_lat":-6.20132,"line":1,"transit":false,"station_name":"Karet"},{"transit":true,"distance":2029,"i_lat":-6.185545,"line":1,"is_transit":true,"time":5,"i_long":106.811091,"station_id":"THB","station_name":"Tanah Abang"},{"station_id":"PLM","i_long":106.79689,"distance":3191,"time":6,"transit":false,"station_name":"Palmerah","line":6,"is_transit":false,"i_lat":-6.207404},{"i_lat":-6.237242,"distance":3737,"time":7,"station_name":"Kebayoran","station_id":"KBY","i_long":106.780334,"is_transit":false,"line":6,"transit":false},{"line":6,"station_id":"PDJ","distance":6218,"is_transit":false,"station_name":"Pondokranji","i_lat":-6.276362,"time":8,"transit":false,"i_long":106.74273},{"station_name":"Jurangmangu","i_lat":-6.288927,"time":3,"distance":2179,"transit":false,"line":6,"is_transit":false,"station_id":"JMU","i_long":106.728916},{"time":4,"is_transit":false,"line":6,"i_long":106.712277,"transit":false,"distance":1994,"station_name":"Sudimara","station_id":"SDM","i_lat":-6.296963},{"time":6,"i_long":106.675475,"station_id":"RU","distance":4566,"transit":false,"line":6,"station_name":"Rawa Buntu","is_transit":false,"i_lat":-6.314823},{"transit":false,"station_name":"Serpong","is_transit":false,"distance":2413,"time":4,"station_id":"SRP","i_lat":-6.319871,"i_long":106.66566,"line":6},{"station_id":"CSK","time":4,"i_long":106.640411,"i_lat":-6.32484,"distance":1784,"line":3,"station_name":"Cisauk","transit":false,"is_transit":false},{"line":3,"i_lat":-6.329547,"transit":false,"station_name":"Cicayur","station_id":"CC","time":4,"is_transit":false,"i_long":106.617853,"distance":2519},{"transit":false,"i_lat":-6.3441410000000005,"station_id":"PRP","i_long":106.568863,"time":8,"distance":5968,"is_transit":false,"line":6,"station_name":"Parung Panjang"},{"transit":false,"distance":7025,"time":9,"station_name":"Cilejit","i_lat":-6.354349,"is_transit":false,"i_long":106.508482,"line":3,"station_id":"CJT"},{"is_transit":false,"station_name":"Daru","station_id":"DAR","transit":false,"time":6,"i_lat":-6.338021,"distance":2675,"i_long":106.491338,"line":0}],[{"transit":false,"station_id":"BJD","i_lat":-6.493243,"i_long":106.792719,"station_name":"Bojonggede","is_transit":false,"time":0,"distance":0,"line":2},{"i_lat":-6.448811,"i_long":106.800298,"line":2,"transit":false,"station_name":"Citayam","distance":5197,"time":5,"station_id":"CTA","is_transit":false},{"distance":5084,"transit":false,"station_name":"Depok","station_id":"DP","time":6,"i_long":106.816926,"is_transit":false,"i_lat":-6.405256,"line":2},{"i_long":106.819451,"distance":1584,"time":3,"i_lat":-6.391065,"transit":false,"line":2,"is_transit":false,"station_name":"Depokbaru","station_id":"DPB"},{"station_id":"POC","i_long":106.831114,"station_name":"Pondok Cina","is_transit":false,"distance":2727,"time":4,"i_lat":-6.369073,"transit":false,"line":2},{"i_lat":-6.360749,"station_id":"UI","is_transit":false,"time":2,"transit":false,"station_name":"Univ. Indonesia","i_long":106.831474,"line":2,"distance":1109},{"is_transit":false,"i_long":106.834175,"i_lat":-6.339291,"station_id":"UP","transit":false,"station_name":"Univ. Pancasila","distance":2264,"time":3,"line":2},{"station_name":"Lenteng Agung","i_long":106.832616,"line":2,"transit":false,"station_id":"LNA","is_transit":false,"time":2,"distance":1029,"i_lat":-6.330363},{"station_name":"Tanjung Barat","time":3,"i_long":106.838896,"i_lat":-6.3080680000000005,"transit":false,"is_transit":false,"line":2,"station_id":"TNT","distance":2671},{"line":2,"station_id":"PSM","i_lat":-6.2842400000000005,"transit":false,"station_name":"Pasar Minggu","is_transit":false,"distance":2820,"time":4,"i_long":106.843999},{"station_name":"Pasar Minggu Baru","time":2,"transit":false,"line":2,"is_transit":false,"i_lat":-6.263214,"distance":2380,"i_long":106.851577,"station_id":"PSMB"},{"distance":824,"i_long":106.85449,"station_name":"Duren Kalibata","station_id":"DRN","line":2,"i_lat":-6.255332,"transit":false,"is_transit":false,"time":2},{"time":3,"distance":1546,"line":2,"transit":false,"is_transit":false,"i_long":106.856607,"i_lat":-6.242512,"station_id":"CW","station_name":"Cawang"},{"time":2,"i_long":106.857948,"distance":1230,"station_name":"Tebet","station_id":"TEB","is_transit":false,"transit":false,"line":2,"i_lat":-6.226659},{"station_id":"MRI","time":4,"distance":2610,"i_long":106.84912,"i_lat":-6.209883,"line":2,"transit":false,"station_name":"Manggarai","is_transit":false},{"station_name":"Cikini","time":4,"i_long":106.840169,"transit":false,"is_transit":false,"station_id":"CKI","distance":1590,"i_lat":-6.198556,"line":2},{"time":3,"transit":false,"station_id":"GDD","distance":1750,"i_lat":-6.186295,"is_transit":false,"i_long":106.832183,"station_name":"Gondangdia","line":2},{"time":4,"distance":2015,"is_transit":false,"line":2,"station_id":"JUA","i_long":106.828284,"station_name":"Juanda","transit":false,"i_lat":-6.166716},{"is_transit":false,"i_long":106.827103,"line":2,"transit":false,"station_name":"Sawah Besar","station_id":"SW","time":2,"i_lat":-6.160725,"distance":1149},{"distance":906,"i_lat":-6.149769,"i_long":106.82482,"line":2,"transit":false,"time":2,"station_name":"Manggabesar","is_transit":false,"station_id":"MGB"},{"station_name":"Jayakarta","distance":1080,"i_long":106.820901,"station_id":"JAY","i_lat":-6.141205,"is_transit":false,"transit":false,"time":2,"line":2},{"station_id":"JAKK","station_name":"Jakarta Kota","time":4,"transit":true,"i_long":106.812439,"line":2,"distance":1264,"i_lat":-6.137569,"is_transit":true},{"station_name":"Kampung Bandan","time":3,"distance":1364,"line":4,"transit":true,"i_long":106.826365,"i_lat":-6.132549,"station_id":"KPB","is_transit":true},{"distance":4102,"i_long":106.79867,"station_name":"Angke","i_lat":-6.144674,"station_id":"AK","is_transit":false,"time":9,"transit":false,"line":1},{"station_name":"Duri","station_id":"DU","distance":1230,"i_long":106.800832,"line":1,"transit":false,"is_transit":false,"time":4,"i_lat":-6.155215},{"distance":3632,"i_lat":-6.185545,"station_id":"THB","line":1,"time":8,"is_transit":true,"transit":true,"station_name":"Tanah Abang","i_long":106.811091},{"i_lat":-6.207404,"distance":3191,"time":6,"i_long":106.79689,"station_name":"Palmerah","is_transit":false,"line":6,"station_id":"PLM","transit":false},{"station_name":"Kebayoran","time":7,"i_long":106.780334,"line":6,"station_id":"KBY","i_lat":-6.237242,"is_transit":false,"distance":3737,"transit":false},{"line":6,"transit":false,"is_transit":false,"station_name":"Pondokranji","station_id":"PDJ","distance":6218,"time":8,"i_long":106.74273,"i_lat":-6.276362},{"is_transit":false,"time":3,"transit":false,"station_id":"JMU","distance":2179,"i_lat":-6.288927,"station_name":"Jurangmangu","line":6,"i_long":106.728916},{"i_lat":-6.296963,"station_name":"Sudimara","line":6,"time":4,"distance":1994,"is_transit":false,"i_long":106.712277,"transit":false,"station_id":"SDM"},{"i_lat":-6.314823,"distance":4566,"transit":false,"station_name":"Rawa Buntu","time":6,"station_id":"RU","line":6,"i_long":106.675475,"is_transit":false},{"i_lat":-6.319871,"line":6,"station_name":"Serpong","transit":false,"is_transit":false,"time":4,"distance":2413,"i_long":106.66566,"station_id":"SRP"},{"station_name":"Cisauk","distance":1784,"is_transit":false,"time":4,"transit":false,"line":3,"i_long":106.640411,"i_lat":-6.32484,"station_id":"CSK"},{"transit":false,"distance":2519,"time":4,"station_name":"Cicayur","line":3,"i_lat":-6.329547,"i_long":106.617853,"station_id":"CC","is_transit":false},{"time":8,"is_transit":false,"line":6,"station_id":"PRP","i_long":106.568863,"i_lat":-6.3441410000000005,"transit":false,"station_name":"Parung Panjang","distance":5968},{"is_transit":false,"i_lat":-6.354349,"distance":7025,"station_name":"Cilejit","line":3,"transit":false,"station_id":"CJT","time":9,"i_long":106.508482},{"distance":2675,"time":6,"station_id":"DAR","is_transit":false,"station_name":"Daru","i_lat":-6.338021,"i_long":106.491338,"line":0,"transit":false}],[{"i_lat":-6.493243,"station_id":"BJD","i_long":106.792719,"distance":0,"transit":false,"time":0,"station_name":"Bojonggede","line":2,"is_transit":false},{"i_long":106.800298,"line":2,"transit":false,"station_name":"Citayam","station_id":"CTA","is_transit":false,"i_lat":-6.448811,"time":5,"distance":5197},{"i_lat":-6.405256,"station_name":"Depok","line":2,"time":6,"distance":5084,"transit":false,"i_long":106.816926,"station_id":"DP","is_transit":false},{"is_transit":false,"i_lat":-6.391065,"station_name":"Depokbaru","time":3,"station_id":"DPB","i_long":106.819451,"line":2,"distance":1584,"transit":false},{"station_name":"Pondok Cina","i_long":106.831114,"distance":2727,"time":4,"transit":false,"station_id":"POC","line":2,"i_lat":-6.369073,"is_transit":false},{"station_id":"UI","station_name":"Univ. Indonesia","is_transit":false,"i_long":106.831474,"time":2,"line":2,"transit":false,"distance":1109,"i_lat":-6.360749},{"transit":false,"i_long":106.834175,"station_id":"UP","distance":2264,"line":2,"station_name":"Univ. Pancasila","time":3,"i_lat":-6.339291,"is_transit":false},{"time":2,"station_name":"Lenteng Agung","transit":false,"i_long":106.832616,"is_transit":false,"station_id":"LNA","distance":1029,"i_lat":-6.330363,"line":2},{"is_transit":false,"time":3,"i_long":106.838896,"distance":2671,"station_name":"Tanjung Barat","i_lat":-6.3080680000000005,"line":2,"station_id":"TNT","transit":false},{"i_long":106.843999,"is_transit":false,"station_name":"Pasar Minggu","distance":2820,"line":2,"station_id":"PSM","time":4,"i_lat":-6.2842400000000005,"transit":false},{"is_transit":false,"i_lat":-6.263214,"i_long":106.851577,"line":2,"transit":false,"station_name":"Pasar Minggu Baru","station_id":"PSMB","time":2,"distance":2380},{"time":2,"station_name":"Duren Kalibata","is_transit":false,"line":2,"distance":824,"transit":false,"i_lat":-6.255332,"station_id":"DRN","i_long":106.85449},{"time":3,"line":2,"station_name":"Cawang","station_id":"CW","i_lat":-6.242512,"i_long":106.856607,"transit":false,"is_transit":false,"distance":1546},{"distance":1230,"station_name":"Tebet","station_id":"TEB","i_long":106.857948,"line":2,"i_lat":-6.226659,"time":2,"transit":false,"is_transit":false},{"i_lat":-6.209883,"transit":true,"line":2,"i_long":106.84912,"time":4,"station_name":"Manggarai","distance":2610,"is_transit":true,"station_id":"MRI"},{"distance":1275,"i_long":106.858896,"is_transit":false,"i_lat":-6.212485,"transit":false,"station_name":"Matraman","time":2,"line":1,"station_id":"MTR"},{"is_transit":true,"transit":true,"i_lat":-6.215091,"station_id":"JNG","line":1,"i_long":106.86807400000001,"distance":1377,"time":8,"station_name":"Jatinegara"},{"transit":false,"distance":1236,"line":11,"station_name":"Pondok Jati","station_id":"POK","is_transit":false,"i_lat":-6.209188,"i_long":106.861737,"time":2},{"i_lat":-6.193792,"is_transit":false,"time":2,"distance":1829,"transit":false,"station_id":"KMT","line":11,"station_name":"Kramat","i_long":106.855437},{"i_lat":-6.185975,"station_id":"GST","line":11,"time":1,"distance":973,"station_name":"Gang Sentiong","transit":false,"i_long":106.850107,"is_transit":false},{"station_name":"Pasar Senen","station_id":"PSE","distance":1567,"line":11,"transit":false,"is_transit":false,"time":8,"i_long":106.84368,"i_lat":-6.174784},{"transit":false,"station_name":"Kemayoran","i_long":106.839204,"i_lat":-6.161728,"station_id":"KMO","time":4,"is_transit":false,"distance":1436,"line":11},{"i_lat":-6.14505,"line":11,"distance":1901,"station_name":"Rajawali","station_id":"RJW","time":5,"is_transit":false,"transit":false,"i_long":106.836569},{"time":3,"distance":1444,"transit":true,"i_long":106.826365,"i_lat":-6.132549,"is_transit":true,"station_name":"Kampung Bandan","line":4,"station_id":"KPB"},{"is_transit":false,"distance":4102,"station_name":"Angke","line":1,"station_id":"AK","time":9,"i_long":106.79867,"transit":false,"i_lat":-6.144674},{"is_transit":false,"transit":false,"time":4,"station_id":"DU","line":1,"distance":1230,"station_name":"Duri","i_lat":-6.155215,"i_long":106.800832},{"station_name":"Tanah Abang","i_long":106.811091,"station_id":"THB","is_transit":true,"time":8,"distance":3632,"line":1,"transit":true,"i_lat":-6.185545},{"i_lat":-6.207404,"transit":false,"time":6,"distance":3191,"is_transit":false,"i_long":106.79689,"line":6,"station_id":"PLM","station_name":"Palmerah"},{"line":6,"time":7,"is_transit":false,"station_id":"KBY","station_name":"Kebayoran","distance":3737,"i_lat":-6.237242,"transit":false,"i_long":106.780334},{"i_lat":-6.276362,"time":8,"transit":false,"station_id":"PDJ","distance":6218,"is_transit":false,"line":6,"station_name":"Pondokranji","i_long":106.74273},{"line":6,"station_id":"JMU","time":3,"station_name":"Jurangmangu","distance":2179,"i_lat":-6.288927,"transit":false,"i_long":106.728916,"is_transit":false},{"time":4,"is_transit":false,"i_lat":-6.296963,"transit":false,"line":6,"station_id":"SDM","station_name":"Sudimara","distance":1994,"i_long":106.712277},{"line":6,"i_lat":-6.314823,"time":6,"transit":false,"station_name":"Rawa Buntu","i_long":106.675475,"distance":4566,"station_id":"RU","is_transit":false},{"distance":2413,"station_name":"Serpong","line":6,"time":4,"transit":false,"i_lat":-6.319871,"station_id":"SRP","is_transit":false,"i_long":106.66566},{"i_lat":-6.32484,"station_id":"CSK","station_name":"Cisauk","transit":false,"is_transit":false,"time":4,"distance":1784,"line":3,"i_long":106.640411},{"is_transit":false,"distance":2519,"i_lat":-6.329547,"station_id":"CC","i_long":106.617853,"transit":false,"line":3,"time":4,"station_name":"Cicayur"},{"is_transit":false,"distance":5968,"station_id":"PRP","i_lat":-6.3441410000000005,"line":6,"i_long":106.568863,"transit":false,"station_name":"Parung Panjang","time":8},{"station_name":"Cilejit","i_lat":-6.354349,"i_long":106.508482,"is_transit":false,"line":3,"transit":false,"station_id":"CJT","time":9,"distance":7025},{"station_name":"Daru","line":0,"is_transit":false,"transit":false,"station_id":"DAR","distance":2675,"i_lat":-6.338021,"time":6,"i_long":106.491338}]]}