{"data":[[{"i_long":106.792719,"is_transit":false,"station_id":"BJD","station_name":"Bojonggede","transit":false,"i_lat":-6.493243,"line":2,"distance":0,"time":0},{"distance":5197,"line":2,"i_lat":-6.448811,"station_id":"CTA","transit":false,"time":5,"is_transit":false,"station_name":"Citayam","i_long":106.800298},{"distance":5084,"is_transit":false,"time":6,"transit":false,"i_lat":-6.405256,"line":2,"station_name":"Depok","i_long":106.816926,"station_id":"DP"},{"station_id":"DPB","transit":false,"distance":1584,"station_name":"Depokbaru","time":3,"i_lat":-6.391065,"is_transit":false,"i_long":106.819451,"line":2},{"time":4,"distance":2727,"station_name":"Pondok Cina","is_transit":false,"i_lat":-6.369073,"transit":false,"i_long":106.831114,"line":2,"station_id":"POC"},{"transit":false,"is_transit":false,"line":2,"time":2,"i_long":106.831474,"i_lat":-6.360749,"station_name":"Univ. Indonesia","distance":1109,"station_id":"UI"},{"station_id":"UP","distance":2264,"station_name":"Univ. Pancasila","line":2,"time":3,"is_transit":false,"transit":false,"i_lat":-6.339291,"i_long":106.834175},{"transit":false,"distance":1029,"i_lat":-6.330363,"line":2,"is_transit":false,"i_long":106.832616,"time":2,"station_id":"LNA","station_name":"Lenteng Agung"},{"i_lat":-6.3080680000000005,"station_id":"TNT","station_name":"Tanjung Barat","transit":false,"i_long":106.838896,"line":2,"time":3,"is_transit":false,"distance":2671},{"line":2,"is_transit":false,"i_lat":-6.2842400000000005,"i_long":106.843999,"station_id":"PSM","transit":false,"station_name":"Pasar Minggu","time":4,"distance":2820},{"station_name":"Pasar Minggu Baru","is_transit":false,"transit":false,"station_id":"PSMB","time":2,"distance":2380,"i_long":106.851577,"line":2,"i_lat":-6.263214},{"is_transit":false,"i_long":106.85449,"time":2,"line":2,"distance":824,"station_name":"Duren Kalibata","station_id":"DRN","transit":false,"i_lat":-6.255332},{"station_name":"Cawang","transit":false,"line":2,"time":3,"distance":1546,"i_lat":-6.242512,"station_id":"CW","is_transit":false,"i_long":106.856607},{"distance":1230,"station_id":"TEB","is_transit":false,"transit":false,"station_name":"Tebet","time":2,"i_long":106.857948,"line":2,"i_lat":-6.226659}]]}