{"data":[[{"station_name":"Bojonggede","station_id":"BJD","time":0,"i_lat":-6.493243,"line":2,"distance":0,"transit":false,"i_long":106.792719,"is_transit":false},{"i_long":106.800298,"transit":false,"time":5,"is_transit":false,"station_name":"Citayam","i_lat":-6.448811,"line":2,"station_id":"CTA","distance":5197},{"i_long":106.816926,"transit":false,"distance":5084,"station_name":"Depok","line":2,"is_transit":false,"time":6,"station_id":"DP","i_lat":-6.405256},{"i_long":106.819451,"is_transit":false,"distance":1584,"i_lat":-6.391065,"transit":false,"station_id":"DPB","line":2,"station_name":"Depokbaru","time":3},{"i_lat":-6.369073,"line":2,"station_id":"POC","is_transit":false,"distance":2727,"transit":false,"station_name":"Pondok Cina","time":4,"i_long":106.831114},{"i_lat":-6.360749,"line":2,"is_transit":false,"time":2,"transit":false,"station_name":"Univ. Indonesia","station_id":"UI","distance":1109,"i_long":106.831474},{"time":3,"station_id":"UP","distance":2264,"station_name":"Univ. Pancasila","i_lat":-6.339291,"is_transit":false,"i_long":106.834175,"line":2,"transit":false},{"time":2,"i_lat":-6.330363,"station_id":"LNA","is_transit":false,"station_name":"Lenteng Agung","distance":1029,"transit":false,"i_long":106.832616,"line":2},{"time":3,"transit":false,"station_id":"TNT","distance":2671,"i_lat":-6.3080680000000005,"i_long":106.838896,"is_transit":false,"station_name":"Tanjung Barat","line":2}]]}