{"data":[[{"transit":false,"time":0,"station_name":"Bojonggede","distance":0,"i_lat":-6.493243,"i_long":106.792719,"line":2,"is_transit":false,"station_id":"BJD"},{"i_lat":-6.448811,"line":2,"transit":false,"station_name":"Citayam","is_transit":false,"time":5,"distance":5197,"i_long":106.800298,"station_id":"CTA"},{"station_name":"Depok","i_long":106.816926,"i_lat":-6.405256,"distance":5084,"station_id":"DP","is_transit":false,"line":2,"time":6,"transit":false},{"i_long":106.819451,"distance":1584,"time":3,"is_transit":false,"line":2,"station_id":"DPB","i_lat":-6.391065,"station_name":"Depokbaru","transit":false},{"line":2,"station_name":"Pondok Cina","transit":false,"i_long":106.831114,"station_id":"POC","distance":2727,"time":4,"i_lat":-6.369073,"is_transit":false},{"transit":false,"time":2,"i_long":106.831474,"line":2,"station_name":"Univ. Indonesia","station_id":"UI","is_transit":false,"distance":1109,"i_lat":-6.360749},{"is_transit":false,"transit":false,"line":2,"i_lat":-6.339291,"time":3,"i_long":106.834175,"station_id":"UP","station_name":"Univ. Pancasila","distance":2264},{"station_name":"Lenteng Agung","time":2,"distance":1029,"is_transit":false,"transit":false,"i_long":106.832616,"i_lat":-6.330363,"station_id":"LNA","line":2},{"i_lat":-6.3080680000000005,"transit":false,"station_name":"Tanjung Barat","distance":2671,"i_long":106.838896,"station_id":"TNT","time":3,"line":2,"is_transit":false},{"i_lat":-6.2842400000000005,"transit":false,"station_id":"PSM","distance":2820,"i_long":106.843999,"is_transit":false,"station_name":"Pasar Minggu","line":2,"time":4},{"transit":false,"station_id":"PSMB","is_transit":false,"time":2,"i_long":106.851577,"station_name":"Pasar Minggu Baru","i_lat":-6.263214,"line":2,"distance":2380},{"transit":false,"time":2,"distance":824,"i_lat":-6.255332,"station_name":"Duren Kalibata","station_id":"DRN","i_long":106.85449,"line":2,"is_transit":false},{"station_name":"Cawang","transit":false,"station_id":"CW","is_transit":false,"time":3,"distance":1546,"i_lat":-6.242512,"i_long":106.856607,"line":2},{"is_transit":false,"transit":false,"distance":1230,"station_name":"Tebet","time":2,"i_long":106.857948,"line":2,"station_id":"TEB","i_lat":-6.226659},{"transit":true,"station_id":"MRI","i_lat":-6.209883,"is_transit":true,"line":2,"distance":2610,"station_name":"Manggarai","i_long":106.84912,"time":4},{"station_name":"Sudirman","is_transit":false,"distance":3186,"i_long":106.822649,"station_id":"SUD","line":1,"transit":false,"i_lat":-6.202263,"time":4},{"transit":false,"i_long":106.819881,"distance":280,"station_name":"Sudirman Baru","station_id":"SUDB","is_transit":false,"time":1,"line":1,"i_lat":-6.201433},{"station_name":"Karet","i_lat":-6.20132,"transit":false,"distance":471,"is_transit":false,"i_long":106.816351,"station_id":"KAT","line":1,"time":1},{"distance":2029,"station_name":"Tanah Abang","is_transit":true,"station_id":"THB","i_lat":-6.185545,"i_long":106.811091,"line":1,"transit":true,"time":5},{"transit":false,"station_name":"Palmerah","is_transit":false,"time":6,"distance":3191,"i_lat":-6.207404,"i_long":106.79689,"station_id":"PLM","line":6},{"line":6,"station_name":"Kebayoran","station_id":"KBY","time":7,"i_lat":-6.237242,"is_transit":false,"distance":3737,"transit":false,"i_long":106.780334},{"i_long":106.74273,"line":6,"is_transit":false,"station_id":"PDJ","distance":6218,"i_lat":-6.276362,"transit":false,"station_name":"Pondokranji","time":8},{"time":3,"station_id":"JMU","is_transit":false,"i_lat":-6.288927,"transit":false,"station_name":"Jurangmangu","distance":2179,"i_long":106.728916,"line":6},{"time":4,"station_name":"Sudimara","i_long":106.712277,"line":6,"is_transit":false,"transit":false,"distance":1994,"station_id":"SDM","i_lat":-6.296963},{"line":6,"station_name":"Rawa Buntu","i_lat":-6.314823,"i_long":106.675475,"transit":false,"time":6,"station_id":"RU","distance":4566,"is_transit":false},{"transit":false,"is_transit":false,"distance":2413,"i_long":106.66566,"i_lat":-6.319871,"station_name":"Serpong","station_id":"SRP","line":6,"time":4},{"line":3,"i_lat":-6.32484,"i_long":106.640411,"station_id":"CSK","is_transit":false,"time":4,"station_name":"Cisauk","distance":1784,"transit":false},{"transit":false,"station_id":"CC","is_transit":false,"station_name":"Cicayur","i_long":106.617853,"distance":2519,"i_lat":-6.329547,"time":4,"line":3},{"time":8,"station_name":"Parung Panjang","transit":false,"station_id":"PRP","distance":5968,"i_lat":-6.3441410000000005,"i_long":106.568863,"line":6,"is_transit":false}],[{"i_lat":-6.493243,"station_id":"BJD","station_name":"Bojonggede","is_transit":false,"i_long":106.792719,"line":2,"transit":false,"distance":0,"time":0},{"station_name":"Citayam","station_id":"CTA","i_long":106.800298,"line":2,"is_transit":false,"time":5,"transit":false,"distance":5197,"i_lat":-6.448811},{"is_transit":false,"station_id":"DP","station_name":"Depok","i_lat":-6.405256,"transit":false,"i_long":106.816926,"line":2,"distance":5084,"time":6},{"is_transit":false,"time":3,"distance":1584,"station_name":"Depokbaru","line":2,"station_id":"DPB","transit":false,"i_lat":-6.391065,"i_long":106.819451},{"is_transit":false,"station_name":"Pondok Cina","i_lat":-6.369073,"line":2,"station_id":"POC","time":4,"distance":2727,"i_long":106.831114,"transit":false},{"station_id":"UI","line":2,"i_lat":-6.360749,"transit":false,"station_name":"Univ. Indonesia","distance":1109,"time":2,"i_long":106.831474,"is_transit":false},{"station_name":"Univ. Pancasila","time":3,"distance":2264,"station_id":"UP","i_lat":-6.339291,"i_long":106.834175,"line":2,"transit":false,"is_transit":false},{"distance":1029,"i_long":106.832616,"transit":false,"line":2,"time":2,"is_transit":false,"station_name":"Lenteng Agung","station_id":"LNA","i_lat":-6.330363},{"is_transit":false,"distance":2671,"i_long":106.838896,"station_id":"TNT","line":2,"transit":false,"station_name":"Tanjung Barat","time":3,"i_lat":-6.3080680000000005},{"is_transit":false,"line":2,"transit":false,"time":4,"station_id":"PSM","distance":2820,"i_long":106.843999,"station_name":"Pasar Minggu","i_lat":-6.2842400000000005},{"transit":false,"station_id":"PSMB","i_lat":-6.263214,"is_transit":false,"line":2,"distance":2380,"time":2,"i_long":106.851577,"station_name":"Pasar Minggu Baru"},{"line":2,"time":2,"i_lat":-6.255332,"transit":false,"station_name":"Duren Kalibata","station_id":"DRN","is_transit":false,"distance":824,"i_long":106.85449},{"station_name":"Cawang","station_id":"CW","i_lat":-6.242512,"i_long":106.856607,"distance":1546,"is_transit":false,"line":2,"transit":false,"time":3},{"station_id":"TEB","transit":false,"i_lat":-6.226659,"i_long":106.857948,"line":2,"station_name":"Tebet","distance":1230,"time":2,"is_transit":false},{"station_name":"Manggarai","transit":false,"is_transit":false,"i_lat":-6.209883,"distance":2610,"time":4,"station_id":"MRI","i_long":106.84912,"line":2},{"transit":false,"station_name":"Cikini","station_id":"CKI","time":4,"line":2,"is_transit":false,"distance":1590,"i_lat":-6.198556,"i_long":106.840169},{"station_name":"Gondangdia","distance":1750,"i_lat":-6.186295,"station_id":"GDD","transit":false,"i_long":106.832183,"is_transit":false,"line":2,"time":3},{"is_transit":false,"i_long":106.828284,"time":4,"i_lat":-6.166716,"transit":false,"distance":2015,"station_name":"Juanda","line":2,"station_id":"JUA"},{"i_lat":-6.160725,"station_name":"Sawah Besar","i_long":106.827103,"transit":false,"time":2,"distance":1149,"line":2,"is_transit":false,"station_id":"SW"},{"i_long":106.82482,"distance":906,"station_id":"MGB","time":2,"station_name":"Manggabesar","is_transit":false,"i_lat":-6.149769,"line":2,"transit":false},{"i_long":106.820901,"time":2,"transit":false,"is_transit":false,"i_lat":-6.141205,"station_id":"JAY","line":2,"station_name":"Jayakarta","distance":1080},{"is_transit":true,"i_long":106.812439,"i_lat":-6.137569,"time":4,"distance":1264,"station_id":"JAKK","transit":true,"line":2,"station_name":"Jakarta Kota"},{"time":3,"line":4,"station_name":"Kampung Bandan","distance":1364,"i_long":106.826365,"is_transit":true,"transit":true,"i_lat":-6.132549,"station_id":"KPB"},{"station_id":"AK","time":9,"station_name":"Angke","transit":false,"is_transit":false,"i_long":106.79867,"line":1,"distance":4102,"i_lat":-6.144674},{"i_long":106.800832,"station_name":"Duri","station_id":"DU","distance":1230,"i_lat":-6.155215,"line":1,"transit":false,"is_transit":false,"time":4},{"transit":true,"i_lat":-6.185545,"is_transit":true,"line":1,"station_name":"Tanah Abang","distance":3632,"i_long":106.811091,"time":8,"station_id":"THB"},{"transit":false,"is_transit":false,"station_name":"Palmerah","time":6,"station_id":"PLM","i_long":106.79689,"i_lat":-6.207404,"line":6,"distance":3191},{"distance":3737,"line":6,"i_long":106.780334,"time":7,"i_lat":-6.237242,"station_id":"KBY","station_name":"Kebayoran","is_transit":false,"transit":false},{"station_id":"PDJ","i_lat":-6.276362,"transit":false,"station_name":"Pondokranji","i_long":106.74273,"distance":6218,"time":8,"line":6,"is_transit":false},{"i_long":106.728916,"is_transit":false,"time":3,"distance":2179,"i_lat":-6.288927,"line":6,"station_id":"JMU","station_name":"Jurangmangu","transit":false},{"distance":1994,"i_long":106.712277,"time":4,"i_lat":-6.296963,"station_id":"SDM","line":6,"is_transit":false,"transit":false,"station_name":"Sudimara"},{"line":6,"station_id":"RU","station_name":"Rawa Buntu","time":6,"i_lat":-6.314823,"is_transit":false,"distance":4566,"i_long":106.675475,"transit":false},{"station_name":"Serpong","time":4,"transit":false,"line":6,"i_lat":-6.319871,"is_transit":false,"station_id":"SRP","i_long":106.66566,"distance":2413},{"time":4,"line":3,"i_long":106.640411,"transit":false,"distance":1784,"station_name":"Cisauk","is_transit":false,"station_id":"CSK","i_lat":-6.32484},{"station_name":"Cicayur","line":3,"is_transit":false,"time":4,"i_long":106.617853,"transit":false,"distance":2519,"station_id":"CC","i_lat":-6.329547},{"station_name":"Parung Panjang","distance":5968,"i_lat":-6.3441410000000005,"is_transit":false,"transit":false,"time":8,"line":6,"station_id":"PRP","i_long":106.568863}],[{"distance":0,"transit":false,"station_name":"Bojonggede","station_id":"BJD","is_transit":false,"time":0,"i_lat":-6.493243,"line":2,"i_long":106.792719},{"distance":5197,"station_name":"Citayam","i_long":106.800298,"time":5,"i_lat":-6.448811,"is_transit":false,"transit":false,"station_id":"CTA","line":2},{"is_transit":false,"line":2,"transit":false,"distance":5084,"i_long":106.816926,"time":6,"station_id":"DP","i_lat":-6.405256,"station_name":"Depok"},{"is_transit":false,"time":3,"i_long":106.819451,"station_id":"DPB","i_lat":-6.391065,"distance":1584,"line":2,"station_name":"Depokbaru","transit":false},{"is_transit":false,"distance":2727,"i_long":106.831114,"station_name":"Pondok Cina","i_lat":-6.369073,"time":4,"line":2,"station_id":"POC","transit":false},{"i_lat":-6.360749,"station_name":"Univ. Indonesia","transit":false,"station_id":"UI","distance":1109,"is_transit":false,"i_long":106.831474,"line":2,"time":2},{"distance":2264,"is_transit":false,"station_name":"Univ. Pancasila","transit":false,"i_long":106.834175,"station_id":"UP","time":3,"i_lat":-6.339291,"line":2},{"i_lat":-6.330363,"line":2,"distance":1029,"station_name":"Lenteng Agung","time":2,"is_transit":false,"station_id":"LNA","i_long":106.832616,"transit":false},{"station_name":"Tanjung Barat","i_long":106.838896,"i_lat":-6.3080680000000005,"line":2,"is_transit":false,"distance":2671,"time":3,"transit":false,"station_id":"TNT"},{"is_transit":false,"i_long":106.843999,"line":2,"station_id":"PSM","time":4,"transit":false,"i_lat":-6.2842400000000005,"distance":2820,"station_name":"Pasar Minggu"},{"station_id":"PSMB","i_long":106.851577,"line":2,"distance":2380,"is_transit":false,"station_name":"Pasar Minggu Baru","transit":false,"time":2,"i_lat":-6.263214},{"transit":false,"i_lat":-6.255332,"i_long":106.85449,"line":2,"distance":824,"station_id":"DRN","time":2,"station_name":"Duren Kalibata","is_transit":false},{"station_name":"Cawang","i_lat":-6.242512,"is_transit":false,"i_long":106.856607,"station_id":"CW","transit":false,"distance":1546,"time":3,"line":2},{"time":2,"i_lat":-6.226659,"line":2,"transit":false,"distance":1230,"station_id":"TEB","i_long":106.857948,"station_name":"Tebet","is_transit":false},{"distance":2610,"line":2,"i_long":106.84912,"i_lat":-6.209883,"transit":true,"station_id":"MRI","time":4,"station_name":"Manggarai","is_transit":true},{"time":2,"station_id":"MTR","station_name":"Matraman","transit":false,"line":1,"distance":1275,"i_long":106.858896,"is_transit":false,"i_lat":-6.212485},{"i_lat":-6.215091,"station_name":"Jatinegara","distance":1377,"line":1,"is_transit":true,"transit":true,"station_id":"JNG","time":8,"i_long":106.86807400000001},{"line":11,"time":2,"transit":false,"station_name":"Pondok Jati","station_id":"POK","is_transit":false,"i_lat":-6.209188,"distance":1236,"i_long":106.861737},{"transit":false,"station_name":"Kramat","time":2,"distance":1829,"i_long":106.855437,"is_transit":false,"line":11,"i_lat":-6.193792,"station_id":"KMT"},{"station_id":"GST","line":11,"distance":973,"time":1,"i_lat":-6.185975,"station_name":"Gang Sentiong","i_long":106.850107,"is_transit":false,"transit":false},{"station_id":"PSE","distance":1567,"is_transit":false,"time":8,"i_long":106.84368,"station_name":"Pasar Senen","transit":false,"line":11,"i_lat":-6.174784},{"transit":false,"time":4,"distance":1436,"i_lat":-6.161728,"is_transit":false,"line":11,"station_name":"Kemayoran","i_long":106.839204,"station_id":"KMO"},{"transit":false,"time":5,"i_long":106.836569,"is_transit":false,"line":11,"station_id":"RJW","i_lat":-6.14505,"distance":1901,"station_name":"Rajawali"},{"transit":true,"line":4,"station_name":"Kampung Bandan","station_id":"KPB","is_transit":true,"time":3,"distance":1444,"i_lat":-6.132549,"i_long":106.826365},{"transit":false,"distance":4102,"station_name":"Angke","is_transit":false,"line":1,"time":9,"station_id":"AK","i_lat":-6.144674,"i_long":106.79867},{"i_long":106.800832,"time":4,"distance":1230,"station_name":"Duri","station_id":"DU","transit":false,"is_transit":false,"i_lat":-6.155215,"line":1},{"time":8,"transit":true,"is_transit":true,"i_lat":-6.185545,"station_name":"Tanah Abang","i_long":106.811091,"station_id":"THB","distance":3632,"line":1},{"i_lat":-6.207404,"station_id":"PLM","transit":false,"i_long":106.79689,"line":6,"distance":3191,"time":6,"is_transit":false,"station_name":"Palmerah"},{"station_id":"KBY","is_transit":false,"i_lat":-6.237242,"transit":false,"line":6,"station_name":"Kebayoran","distance":3737,"time":7,"i_long":106.780334},{"station_name":"Pondokranji","is_transit":false,"i_lat":-6.276362,"transit":false,"station_id":"PDJ","distance":6218,"line":6,"i_long":106.74273,"time":8},{"time":3,"station_name":"Jurangmangu","transit":false,"distance":2179,"i_lat":-6.288927,"line":6,"i_long":106.728916,"is_transit":false,"station_id":"JMU"},{"station_id":"SDM","station_name":"Sudimara","transit":false,"time":4,"is_transit":false,"distance":1994,"i_long":106.712277,"i_lat":-6.296963,"line":6},{"transit":false,"distance":4566,"line":6,"i_lat":-6.314823,"i_long":106.675475,"time":6,"station_name":"Rawa Buntu","is_transit":false,"station_id":"RU"},{"station_id":"SRP","line":6,"station_name":"Serpong","is_transit":false,"i_lat":-6.319871,"transit":false,"distance":2413,"i_long":106.66566,"time":4},{"i_long":106.640411,"line":3,"station_id":"CSK","distance":1784,"i_lat":-6.32484,"station_name":"Cisauk","time":4,"transit":false,"is_transit":false},{"is_transit":false,"station_name":"Cicayur","line":3,"i_long":106.617853,"i_lat":-6.329547,"station_id":"CC","time":4,"transit":false,"distance":2519},{"line":6,"distance":5968,"is_transit":false,"transit":false,"station_name":"Parung Panjang","i_lat":-6.3441410000000005,"time":8,"i_long":106.568863,"station_id":"PRP"}]]}