{"data":[[{"distance":0,"station_id":"BJD","transit":false,"station_name":"Bojonggede","time":0,"i_lat":-6.493243,"i_long":106.792719,"is_transit":false,"line":2},{"transit":false,"i_lat":-6.448811,"distance":5197,"station_id":"CTA","station_name":"Citayam","line":2,"is_transit":false,"time":5,"i_long":106.800298},{"transit":false,"is_transit":false,"time":6,"distance":5084,"i_lat":-6.405256,"i_long":106.816926,"station_name":"Depok","line":2,"station_id":"DP"},{"station_name":"Depokbaru","i_long":106.819451,"time":3,"distance":1584,"is_transit":false,"transit":false,"station_id":"DPB","line":2,"i_lat":-6.391065},{"i_long":106.831114,"is_transit":false,"i_lat":-6.369073,"transit":false,"station_name":"Pondok Cina","time":4,"station_id":"POC","distance":2727,"line":2},{"station_name":"Univ. Indonesia","i_lat":-6.360749,"is_transit":false,"distance":1109,"station_id":"UI","i_long":106.831474,"time":2,"line":2,"transit":false},{"is_transit":false,"i_lat":-6.339291,"i_long":106.834175,"distance":2264,"station_name":"Univ. Pancasila","station_id":"UP","line":2,"transit":false,"time":3},{"station_name":"Lenteng Agung","i_long":106.832616,"line":2,"i_lat":-6.330363,"time":2,"distance":1029,"transit":false,"station_id":"LNA","is_transit":false},{"line":2,"transit":false,"i_lat":-6.3080680000000005,"time":3,"distance":2671,"station_id":"TNT","i_long":106.838896,"station_name":"Tanjung Barat","is_transit":false},{"i_long":106.843999,"line":2,"is_transit":false,"transit":false,"distance":2820,"station_id":"PSM","station_name":"Pasar Minggu","time":4,"i_lat":-6.2842400000000005},{"line":2,"i_lat":-6.263214,"transit":false,"is_transit":false,"time":2,"distance":2380,"station_name":"Pasar Minggu Baru","station_id":"PSMB","i_long":106.851577},{"i_lat":-6.255332,"i_long":106.85449,"station_name":"Duren Kalibata","station_id":"DRN","transit":false,"distance":824,"is_transit":false,"line":2,"time":2},{"line":2,"station_name":"Cawang","transit":false,"i_long":106.856607,"is_transit":false,"station_id":"CW","i_lat":-6.242512,"time":3,"distance":1546},{"station_id":"TEB","transit":false,"is_transit":false,"i_lat":-6.226659,"distance":1230,"i_long":106.857948,"line":2,"time":2,"station_name":"Tebet"},{"station_name":"Manggarai","station_id":"MRI","is_transit":true,"i_lat":-6.209883,"transit":true,"i_long":106.84912,"distance":2610,"time":4,"line":2},{"time":4,"distance":3186,"station_name":"Sudirman","i_long":106.822649,"transit":false,"line":1,"i_lat":-6.202263,"is_transit":false,"station_id":"SUD"},{"i_long":106.819881,"station_name":"Sudirman Baru","transit":false,"is_transit":false,"distance":280,"station_id":"SUDB","i_lat":-6.201433,"time":1,"line":1},{"line":1,"time":1,"i_lat":-6.20132,"i_long":106.816351,"distance":471,"transit":false,"station_name":"Karet","station_id":"KAT","is_transit":false},{"station_name":"Tanah Abang","time":5,"distance":2029,"line":1,"i_lat":-6.185545,"i_long":106.811091,"is_transit":true,"transit":true,"station_id":"THB"},{"station_id":"PLM","station_name":"Palmerah","is_transit":false,"i_lat":-6.207404,"line":6,"time":6,"i_long":106.79689,"transit":false,"distance":3191},{"i_long":106.780334,"distance":3737,"transit":false,"is_transit":false,"time":7,"i_lat":-6.237242,"line":6,"station_id":"KBY","station_name":"Kebayoran"},{"transit":false,"station_id":"PDJ","station_name":"Pondokranji","time":8,"distance":6218,"line":6,"i_lat":-6.276362,"i_long":106.74273,"is_transit":false},{"distance":2179,"station_id":"JMU","transit":false,"time":3,"station_name":"Jurangmangu","is_transit":false,"line":6,"i_lat":-6.288927,"i_long":106.728916},{"station_name":"Sudimara","i_lat":-6.296963,"transit":false,"station_id":"SDM","i_long":106.712277,"line":6,"time":4,"distance":1994,"is_transit":false},{"line":6,"i_lat":-6.314823,"distance":4566,"transit":false,"station_name":"Rawa Buntu","station_id":"RU","is_transit":false,"i_long":106.675475,"time":6},{"station_name":"Serpong","distance":2413,"station_id":"SRP","line":6,"i_lat":-6.319871,"i_long":106.66566,"transit":false,"is_transit":false,"time":4},{"is_transit":false,"distance":1784,"station_name":"Cisauk","time":4,"i_long":106.640411,"i_lat":-6.32484,"station_id":"CSK","line":3,"transit":false},{"i_long":106.617853,"station_name":"Cicayur","i_lat":-6.329547,"line":3,"transit":false,"station_id":"CC","is_transit":false,"time":4,"distance":2519},{"station_id":"PRP","time":8,"distance":5968,"transit":false,"station_name":"Parung Panjang","is_transit":false,"i_lat":-6.3441410000000005,"i_long":106.568863,"line":6},{"transit":false,"distance":7025,"i_lat":-6.354349,"station_id":"CJT","is_transit":false,"i_long":106.508482,"line":3,"station_name":"Cilejit","time":9},{"transit":false,"i_long":106.491338,"station_name":"Daru","distance":2675,"station_id":"DAR","time":6,"i_lat":-6.338021,"is_transit":false,"line":0},{"station_id":"TEJ","station_name":"Tenjo","distance":3902,"transit":false,"time":5,"line":6,"is_transit":false,"i_lat":-6.327251,"i_long":106.460812},{"is_transit":false,"line":6,"i_long":106.425991,"station_id":"TGS","distance":2974,"i_lat":-6.328533,"transit":false,"time":5,"station_name":"Tigaraksa"},{"transit":false,"is_transit":false,"i_lat":-6.33561,"station_name":"Cikoya","station_id":"CKY","time":3,"distance":2651,"line":3,"i_long":106.411216},{"line":6,"i_lat":-6.332307,"is_transit":false,"station_id":"MJ","transit":false,"i_long":106.394373,"station_name":"Maja","time":4,"distance":1853},{"i_long":106.332092,"line":3,"station_name":"Citeras","transit":false,"distance":7293,"time":10,"station_id":"CTR","is_transit":false,"i_lat":-6.334892},{"station_id":"RK","station_name":"Rangkasbitung","is_transit":false,"i_long":106.250396,"line":3,"i_lat":-6.352675,"time":13,"transit":false,"distance":9847}],[{"transit":false,"station_name":"Bojonggede","i_lat":-6.493243,"line":2,"distance":0,"time":0,"i_long":106.792719,"station_id":"BJD","is_transit":false},{"station_name":"Citayam","is_transit":false,"i_long":106.800298,"station_id":"CTA","line":2,"i_lat":-6.448811,"distance":5197,"transit":false,"time":5},{"line":2,"time":6,"transit":false,"i_lat":-6.405256,"is_transit":false,"station_id":"DP","station_name":"Depok","i_long":106.816926,"distance":5084},{"line":2,"station_id":"DPB","is_transit":false,"transit":false,"time":3,"station_name":"Depokbaru","distance":1584,"i_lat":-6.391065,"i_long":106.819451},{"time":4,"is_transit":false,"i_long":106.831114,"station_id":"POC","distance":2727,"transit":false,"station_name":"Pondok Cina","i_lat":-6.369073,"line":2},{"station_name":"Univ. Indonesia","distance":1109,"station_id":"UI","transit":false,"i_long":106.831474,"is_transit":false,"line":2,"time":2,"i_lat":-6.360749},{"time":3,"station_name":"Univ. Pancasila","station_id":"UP","line":2,"transit":false,"is_transit":false,"i_long":106.834175,"distance":2264,"i_lat":-6.339291},{"i_long":106.832616,"station_id":"LNA","i_lat":-6.330363,"is_transit":false,"time":2,"line":2,"station_name":"Lenteng Agung","distance":1029,"transit":false},{"line":2,"time":3,"station_name":"Tanjung Barat","is_transit":false,"i_long":106.838896,"distance":2671,"i_lat":-6.3080680000000005,"transit":false,"station_id":"TNT"},{"station_id":"PSM","station_name":"Pasar Minggu","time":4,"distance":2820,"is_transit":false,"i_lat":-6.2842400000000005,"line":2,"i_long":106.843999,"transit":false},{"line":2,"station_name":"Pasar Minggu Baru","station_id":"PSMB","is_transit":false,"distance":2380,"i_long":106.851577,"time":2,"i_lat":-6.263214,"transit":false},{"i_long":106.85449,"is_transit":false,"distance":824,"station_name":"Duren Kalibata","station_id":"DRN","transit":false,"line":2,"time":2,"i_lat":-6.255332},{"station_name":"Cawang","station_id":"CW","is_transit":false,"distance":1546,"i_long":106.856607,"time":3,"i_lat":-6.242512,"transit":false,"line":2},{"i_lat":-6.226659,"is_transit":false,"station_id":"TEB","transit":false,"time":2,"distance":1230,"line":2,"station_name":"Tebet","i_long":106.857948},{"line":2,"station_id":"MRI","i_lat":-6.209883,"transit":false,"distance":2610,"station_name":"Manggarai","time":4,"i_long":106.84912,"is_transit":false},{"line":2,"i_long":106.840169,"transit":false,"time":4,"distance":1590,"station_id":"CKI","is_transit":false,"i_lat":-6.198556,"station_name":"Cikini"},{"i_long":106.832183,"transit":false,"time":3,"i_lat":-6.186295,"station_id":"GDD","distance":1750,"is_transit":false,"station_name":"Gondangdia","line":2},{"station_id":"JUA","i_lat":-6.166716,"line":2,"i_long":106.828284,"time":4,"transit":false,"station_name":"Juanda","is_transit":false,"distance":2015},{"transit":false,"line":2,"station_id":"SW","i_long":106.827103,"station_name":"Sawah Besar","distance":1149,"i_lat":-6.160725,"is_transit":false,"time":2},{"line":2,"i_long":106.82482,"is_transit":false,"time":2,"transit":false,"station_id":"MGB","distance":906,"i_lat":-6.149769,"station_name":"Manggabesar"},{"transit":false,"i_long":106.820901,"station_id":"JAY","is_transit":false,"time":2,"distance":1080,"line":2,"i_lat":-6.141205,"station_name":"Jayakarta"},{"is_transit":true,"distance":1264,"i_lat":-6.137569,"time":4,"transit":true,"station_id":"JAKK","line":2,"station_name":"Jakarta Kota","i_long":106.812439},{"time":3,"line":4,"i_lat":-6.132549,"station_id":"KPB","station_name":"Kampung Bandan","is_transit":true,"i_long":106.826365,"transit":true,"distance":1364},{"transit":false,"time":9,"station_id":"AK","line":1,"station_name":"Angke","is_transit":false,"i_lat":-6.144674,"i_long":106.79867,"distance":4102},{"line":1,"station_id":"DU","is_transit":false,"distance":1230,"time":4,"transit":false,"station_name":"Duri","i_long":106.800832,"i_lat":-6.155215},{"station_name":"Tanah Abang","station_id":"THB","is_transit":true,"time":8,"i_long":106.811091,"transit":true,"line":1,"distance":3632,"i_lat":-6.185545},{"station_name":"Palmerah","distance":3191,"line":6,"is_transit":false,"station_id":"PLM","transit":false,"time":6,"i_lat":-6.207404,"i_long":106.79689},{"distance":3737,"i_lat":-6.237242,"line":6,"i_long":106.780334,"is_transit":false,"station_name":"Kebayoran","time":7,"transit":false,"station_id":"KBY"},{"is_transit":false,"time":8,"i_long":106.74273,"line":6,"distance":6218,"i_lat":-6.276362,"station_name":"Pondokranji","transit":false,"station_id":"PDJ"},{"transit":false,"station_id":"JMU","station_name":"Jurangmangu","is_transit":false,"time":3,"i_long":106.728916,"i_lat":-6.288927,"line":6,"distance":2179},{"time":4,"transit":false,"line":6,"station_id":"SDM","i_long":106.712277,"is_transit":false,"distance":1994,"i_lat":-6.296963,"station_name":"Sudimara"},{"i_lat":-6.314823,"distance":4566,"is_transit":false,"i_long":106.675475,"station_id":"RU","transit":false,"station_name":"Rawa Buntu","line":6,"time":6},{"station_name":"Serpong","is_transit":false,"distance":2413,"station_id":"SRP","transit":false,"i_long":106.66566,"time":4,"i_lat":-6.319871,"line":6},{"is_transit":false,"distance":1784,"i_lat":-6.32484,"i_long":106.640411,"transit":false,"station_id":"CSK","line":3,"station_name":"Cisauk","time":4},{"transit":false,"station_name":"Cicayur","is_transit":false,"distance":2519,"line":3,"time":4,"i_lat":-6.329547,"station_id":"CC","i_long":106.617853},{"station_name":"Parung Panjang","time":8,"i_long":106.568863,"distance":5968,"station_id":"PRP","transit":false,"is_transit":false,"i_lat":-6.3441410000000005,"line":6},{"station_id":"CJT","i_long":106.508482,"station_name":"Cilejit","time":9,"line":3,"transit":false,"is_transit":false,"distance":7025,"i_lat":-6.354349},{"time":6,"transit":false,"station_name":"Daru","is_transit":false,"i_long":106.491338,"distance":2675,"line":0,"station_id":"DAR","i_lat":-6.338021},{"transit":false,"station_id":"TEJ","is_transit":false,"i_long":106.460812,"station_name":"Tenjo","time":5,"line":6,"distance":3902,"i_lat":-6.327251},{"transit":false,"distance":2974,"i_long":106.425991,"line":6,"station_id":"TGS","station_name":"Tigaraksa","is_transit":false,"i_lat":-6.328533,"time":5},{"line":3,"station_name":"Cikoya","i_lat":-6.33561,"is_transit":false,"transit":false,"distance":2651,"station_id":"CKY","i_long":106.411216,"time":3},{"i_lat":-6.332307,"station_id":"MJ","station_name":"Maja","transit":false,"is_transit":false,"time":4,"distance":1853,"line":6,"i_long":106.394373},{"is_transit":false,"time":10,"i_lat":-6.334892,"station_name":"Citeras","transit":false,"station_id":"CTR","line":3,"distance":7293,"i_long":106.332092},{"time":13,"i_lat":-6.352675,"i_long":106.250396,"line":3,"station_name":"Rangkasbitung","transit":false,"is_transit":false,"station_id":"RK","distance":9847}],[{"distance":0,"station_id":"BJD","transit":false,"i_lat":-6.493243,"station_name":"Bojonggede","is_transit":false,"i_long":106.792719,"time":0,"line":2},{"is_transit":false,"station_id":"CTA","distance":5197,"transit":false,"i_long":106.800298,"line":2,"time":5,"station_name":"Citayam","i_lat":-6.448811},{"distance":5084,"station_id":"DP","station_name":"Depok","i_long":106.816926,"line":2,"time":6,"i_lat":-6.405256,"transit":false,"is_transit":false},{"line":2,"station_name":"Depokbaru","station_id":"DPB","time":3,"transit":false,"is_transit":false,"distance":1584,"i_lat":-6.391065,"i_long":106.819451},{"transit":false,"station_name":"Pondok Cina","is_transit":false,"time":4,"i_long":106.831114,"station_id":"POC","distance":2727,"i_lat":-6.369073,"line":2},{"i_long":106.831474,"i_lat":-6.360749,"distance":1109,"transit":false,"time":2,"station_name":"Univ. Indonesia","is_transit":false,"station_id":"UI","line":2},{"station_name":"Univ. Pancasila","i_lat":-6.339291,"is_transit":false,"station_id":"UP","i_long":106.834175,"time":3,"transit":false,"line":2,"distance":2264},{"line":2,"station_name":"Lenteng Agung","i_lat":-6.330363,"distance":1029,"is_transit":false,"i_long":106.832616,"transit":false,"station_id":"LNA","time":2},{"distance":2671,"transit":false,"station_name":"Tanjung Barat","time":3,"line":2,"station_id":"TNT","i_lat":-6.3080680000000005,"is_transit":false,"i_long":106.838896},{"line":2,"distance":2820,"time":4,"station_id":"PSM","i_lat":-6.2842400000000005,"transit":false,"station_name":"Pasar Minggu","i_long":106.843999,"is_transit":false},{"i_lat":-6.263214,"i_long":106.851577,"line":2,"distance":2380,"is_transit":false,"station_id":"PSMB","time":2,"station_name":"Pasar Minggu Baru","transit":false},{"station_id":"DRN","i_long":106.85449,"transit":false,"distance":824,"is_transit":false,"time":2,"station_name":"Duren Kalibata","i_lat":-6.255332,"line":2},{"line":2,"i_lat":-6.242512,"station_id":"CW","is_transit":false,"time":3,"transit":false,"station_name":"Cawang","distance":1546,"i_long":106.856607},{"station_name":"Tebet","i_long":106.857948,"i_lat":-6.226659,"time":2,"line":2,"station_id":"TEB","is_transit":false,"transit":false,"distance":1230},{"is_transit":true,"distance":2610,"i_long":106.84912,"line":2,"station_id":"MRI","i_lat":-6.209883,"time":4,"station_name":"Manggarai","transit":true},{"is_transit":false,"i_lat":-6.212485,"station_id":"MTR","i_long":106.858896,"transit":false,"time":2,"station_name":"Matraman","distance":1275,"line":1},{"i_lat":-6.215091,"is_transit":true,"i_long":106.86807400000001,"time":8,"station_name":"Jatinegara","line":1,"station_id":"JNG","transit":true,"distance":1377},{"is_transit":false,"transit":false,"station_id":"POK","distance":1236,"line":11,"station_name":"Pondok Jati","i_long":106.861737,"i_lat":-6.209188,"time":2},{"station_id":"KMT","line":11,"station_name":"Kramat","is_transit":false,"transit":false,"time":2,"i_lat":-6.193792,"distance":1829,"i_long":106.855437},{"transit":false,"i_lat":-6.185975,"distance":973,"time":1,"is_transit":false,"station_name":"Gang Sentiong","station_id":"GST","line":11,"i_long":106.850107},{"transit":false,"is_transit":false,"distance":1567,"line":11,"station_name":"Pasar Senen","time":8,"i_long":106.84368,"i_lat":-6.174784,"station_id":"PSE"},{"station_id":"KMO","line":11,"is_transit":false,"transit":false,"station_name":"Kemayoran","distance":1436,"time":4,"i_lat":-6.161728,"i_long":106.839204},{"distance":1901,"transit":false,"is_transit":false,"station_id":"RJW","i_long":106.836569,"time":5,"line":11,"station_name":"Rajawali","i_lat":-6.14505},{"i_long":106.826365,"time":3,"distance":1444,"line":4,"station_name":"Kampung Bandan","i_lat":-6.132549,"is_transit":true,"station_id":"KPB","transit":true},{"distance":4102,"i_lat":-6.144674,"station_id":"AK","is_transit":false,"time":9,"line":1,"transit":false,"station_name":"Angke","i_long":106.79867},{"is_transit":false,"station_id":"DU","i_long":106.800832,"time":4,"distance":1230,"station_name":"Duri","i_lat":-6.155215,"line":1,"transit":false},{"is_transit":true,"station_name":"Tanah Abang","station_id":"THB","distance":3632,"line":1,"time":8,"i_lat":-6.185545,"transit":true,"i_long":106.811091},{"is_transit":false,"station_name":"Palmerah","line":6,"distance":3191,"station_id":"PLM","i_long":106.79689,"transit":false,"time":6,"i_lat":-6.207404},{"station_id":"KBY","time":7,"i_lat":-6.237242,"is_transit":false,"station_name":"Kebayoran","line":6,"transit":false,"i_long":106.780334,"distance":3737},{"time":8,"station_id":"PDJ","is_transit":false,"i_lat":-6.276362,"line":6,"station_name":"Pondokranji","distance":6218,"i_long":106.74273,"transit":false},{"station_id":"JMU","is_transit":false,"time":3,"i_long":106.728916,"i_lat":-6.288927,"line":6,"transit":false,"distance":2179,"station_name":"Jurangmangu"},{"is_transit":false,"distance":1994,"i_lat":-6.296963,"time":4,"transit":false,"station_name":"Sudimara","station_id":"SDM","i_long":106.712277,"line":6},{"station_name":"Rawa Buntu","station_id":"RU","time":6,"is_transit":false,"i_long":106.675475,"distance":4566,"i_lat":-6.314823,"line":6,"transit":false},{"transit":false,"is_transit":false,"i_lat":-6.319871,"station_id":"SRP","time":4,"distance":2413,"station_name":"Serpong","line":6,"i_long":106.66566},{"station_name":"Cisauk","i_long":106.640411,"line":3,"transit":false,"station_id":"CSK","i_lat":-6.32484,"time":4,"distance":1784,"is_transit":false},{"station_id":"CC","distance":2519,"station_name":"Cicayur","i_lat":-6.329547,"i_long":106.617853,"is_transit":false,"line":3,"time":4,"transit":false},{"distance":5968,"line":6,"time":8,"station_id":"PRP","station_name":"Parung Panjang","transit":false,"is_transit":false,"i_lat":-6.3441410000000005,"i_long":106.568863},{"line":3,"is_transit":false,"i_lat":-6.354349,"station_id":"CJT","distance":7025,"i_long":106.508482,"transit":false,"time":9,"station_name":"Cilejit"},{"line":0,"i_lat":-6.338021,"station_name":"Daru","time":6,"transit":false,"is_transit":false,"distance":2675,"i_long":106.491338,"station_id":"DAR"},{"i_lat":-6.327251,"station_id":"TEJ","line":6,"i_long":106.460812,"time":5,"station_name":"Tenjo","distance":3902,"transit":false,"is_transit":false},{"transit":false,"station_id":"TGS","station_name":"Tigaraksa","is_transit":false,"i_long":106.425991,"line":6,"i_lat":-6.328533,"distance":2974,"time":5},{"i_lat":-6.33561,"station_name":"Cikoya","distance":2651,"i_long":106.411216,"station_id":"CKY","time":3,"line":3,"is_transit":false,"transit":false},{"transit":false,"station_id":"MJ","line":6,"station_name":"Maja","is_transit":false,"distance":1853,"i_lat":-6.332307,"i_long":106.394373,"time":4},{"i_long":106.332092,"transit":false,"time":10,"station_id":"CTR","line":3,"i_lat":-6.334892,"is_transit":false,"station_name":"Citeras","distance":7293},{"time":13,"i_long":106.250396,"line":3,"is_transit":false,"station_name":"Rangkasbitung","i_lat":-6.352675,"transit":false,"distance":9847,"station_id":"RK"}]]}