{"data":[[{"is_transit":false,"station_id":"BJD","line":0,"time":0,"i_long":106.792719,"transit":false,"distance":0,"station_name":"Bojonggede","i_lat":-6.493243},{"line":1,"station_name":"Citayam","i_lat":-6.448811,"station_id":"CTA","transit":false,"is_transit":true,"distance":5197,"time":5,"i_long":106.800298},{"is_transit":false,"transit":false,"distance":5084,"i_lat":-6.405256,"time":6,"i_long":106.816926,"line":0,"station_id":"DP","station_name":"Depok"},{"station_id":"DPB","i_lat":-6.391065,"is_transit":false,"time":3,"station_name":"Depokbaru","transit":false,"i_long":106.819451,"distance":1584,"line":0},{"station_name":"Pondok Cina","line":2,"is_transit":false,"i_long":106.831114,"transit":false,"time":4,"i_lat":-6.369073,"station_id":"POC","distance":2727},{"line":2,"i_long":106.831474,"station_name":"Univ. Indonesia","i_lat":-6.360749,"transit":false,"time":2,"is_transit":false,"station_id":"UI","distance":1109},{"transit":false,"station_id":"UP","distance":2264,"station_name":"Univ. Pancasila","i_long":106.834175,"is_transit":false,"time":3,"i_lat":-6.339291,"line":2},{"i_long":106.832616,"is_transit":false,"transit":false,"i_lat":-6.330363,"station_id":"LNA","time":2,"distance":1029,"station_name":"Lenteng Agung","line":2}]]}