{"data":[[{"station_id":"BJD","time":0,"transit":false,"is_transit":false,"i_lat":-6.493243,"i_long":106.792719,"line":0,"station_name":"Bojonggede","distance":0},{"transit":false,"is_transit":true,"distance":5197,"i_lat":-6.448811,"time":5,"i_long":106.800298,"station_id":"CTA","station_name":"Citayam","line":1},{"i_long":106.816926,"is_transit":false,"transit":false,"distance":5084,"time":6,"station_id":"DP","line":0,"station_name":"Depok","i_lat":-6.405256},{"time":3,"station_id":"DPB","distance":1584,"i_lat":-6.391065,"line":0,"station_name":"Depokbaru","is_transit":false,"i_long":106.819451,"transit":false},{"i_lat":-6.369073,"i_long":106.831114,"station_name":"Pondok Cina","distance":2727,"time":4,"station_id":"POC","transit":false,"is_transit":false,"line":2},{"i_long":106.831474,"station_id":"UI","distance":1109,"station_name":"Univ. Indonesia","transit":false,"i_lat":-6.360749,"line":2,"is_transit":false,"time":2},{"transit":false,"station_name":"Univ. Pancasila","distance":2264,"i_long":106.834175,"i_lat":-6.339291,"line":2,"station_id":"UP","time":3,"is_transit":false},{"station_name":"Lenteng Agung","station_id":"LNA","line":2,"distance":1029,"transit":false,"i_long":106.832616,"is_transit":false,"time":2,"i_lat":-6.330363},{"is_transit":false,"distance":2671,"line":2,"i_lat":-6.3080680000000005,"station_name":"Tanjung Barat","station_id":"TNT","transit":false,"i_long":106.838896,"time":3},{"transit":false,"station_id":"PSM","line":2,"station_name":"Pasar Minggu","i_lat":-6.2842400000000005,"i_long":106.843999,"is_transit":false,"time":4,"distance":2820},{"is_transit":false,"time":2,"i_long":106.851577,"line":2,"station_id":"PSMB","distance":2380,"station_name":"Pasar Minggu Baru","transit":false,"i_lat":-6.263214},{"time":2,"distance":824,"line":0,"station_name":"Duren Kalibata","i_long":106.85449,"is_transit":false,"transit":false,"station_id":"DRN","i_lat":-6.255332},{"transit":false,"station_id":"CW","line":0,"is_transit":false,"station_name":"Cawang","time":3,"distance":1546,"i_lat":-6.242512,"i_long":106.856607},{"station_id":"TEB","time":2,"transit":false,"i_long":106.857948,"distance":1230,"line":2,"is_transit":false,"i_lat":-6.226659,"station_name":"Tebet"}]]}