{"data":[[{"i_long":106.792719,"i_lat":-6.493243,"distance":0,"line":0,"time":0,"transit":false,"is_transit":false,"station_name":"Bojonggede","station_id":"BJD"},{"station_name":"Citayam","i_lat":-6.448811,"distance":5197,"is_transit":true,"i_long":106.800298,"line":1,"time":5,"station_id":"CTA","transit":false},{"transit":false,"line":0,"station_name":"Depok","distance":5084,"station_id":"DP","is_transit":false,"i_lat":-6.405256,"time":6,"i_long":106.816926},{"line":0,"i_lat":-6.391065,"transit":false,"time":3,"i_long":106.819451,"distance":1584,"station_name":"Depokbaru","is_transit":false,"station_id":"DPB"},{"transit":false,"is_transit":false,"station_name":"Pondok Cina","time":4,"line":2,"i_lat":-6.369073,"station_id":"POC","distance":2727,"i_long":106.831114},{"is_transit":false,"station_name":"Univ. Indonesia","time":2,"transit":false,"i_lat":-6.360749,"i_long":106.831474,"line":2,"station_id":"UI","distance":1109},{"station_id":"UP","is_transit":false,"i_lat":-6.339291,"i_long":106.834175,"line":2,"time":3,"distance":2264,"station_name":"Univ. Pancasila","transit":false},{"time":2,"transit":false,"i_lat":-6.330363,"line":2,"distance":1029,"i_long":106.832616,"station_name":"Lenteng Agung","station_id":"LNA","is_transit":false},{"i_lat":-6.3080680000000005,"line":2,"station_id":"TNT","distance":2671,"is_transit":false,"i_long":106.838896,"transit":false,"time":3,"station_name":"Tanjung Barat"},{"i_long":106.843999,"i_lat":-6.2842400000000005,"distance":2820,"station_name":"Pasar Minggu","is_transit":false,"time":4,"transit":false,"station_id":"PSM","line":2},{"transit":false,"line":2,"time":2,"distance":2380,"station_id":"PSMB","i_lat":-6.263214,"i_long":106.851577,"station_name":"Pasar Minggu Baru","is_transit":false},{"i_long":106.85449,"station_name":"Duren Kalibata","time":2,"i_lat":-6.255332,"station_id":"DRN","line":0,"is_transit":false,"transit":false,"distance":824},{"i_long":106.856607,"i_lat":-6.242512,"time":3,"line":0,"is_transit":false,"station_name":"Cawang","station_id":"CW","transit":false,"distance":1546},{"is_transit":false,"station_name":"Tebet","transit":false,"i_lat":-6.226659,"distance":1230,"time":2,"i_long":106.857948,"line":2,"station_id":"TEB"},{"transit":true,"line":0,"is_transit":true,"distance":2610,"i_long":106.84912,"station_id":"MRI","time":4,"station_name":"Manggarai","i_lat":-6.209883},{"station_id":"MTR","time":2,"i_long":106.858896,"station_name":"Matraman","line":1,"distance":1275,"i_lat":-6.212485,"transit":false,"is_transit":false},{"station_name":"Jatinegara","distance":1377,"station_id":"JNG","transit":false,"i_long":106.86807400000001,"i_lat":-6.215091,"is_transit":true,"line":0,"time":8},{"station_id":"KLD","time":3,"transit":false,"station_name":"Klender","line":1,"is_transit":false,"distance":3395,"i_lat":-6.2135,"i_long":106.899548},{"station_id":"BUA","line":0,"i_lat":-6.215568,"time":2,"i_long":106.922662,"station_name":"Buaran","distance":3100,"transit":false,"is_transit":false},{"i_long":106.939679,"line":1,"transit":false,"i_lat":-6.217455,"station_id":"KLDB","station_name":"Klenderbaru","distance":1305,"time":1,"is_transit":false},{"station_name":"Cakung","time":8,"transit":false,"is_transit":false,"station_id":"CUK","i_long":106.951283,"line":0,"distance":1385,"i_lat":-6.219053}],[{"line":0,"transit":false,"distance":0,"time":0,"is_transit":false,"station_id":"BJD","i_long":106.792719,"station_name":"Bojonggede","i_lat":-6.493243},{"station_name":"Citayam","time":5,"transit":false,"line":1,"station_id":"CTA","i_lat":-6.448811,"i_long":106.800298,"is_transit":true,"distance":5197},{"station_id":"DP","is_transit":false,"station_name":"Depok","distance":5084,"line":0,"time":6,"i_lat":-6.405256,"i_long":106.816926,"transit":false},{"is_transit":false,"i_lat":-6.391065,"time":3,"station_id":"DPB","station_name":"Depokbaru","line":0,"transit":false,"distance":1584,"i_long":106.819451},{"station_name":"Pondok Cina","distance":2727,"station_id":"POC","i_long":106.831114,"transit":false,"i_lat":-6.369073,"time":4,"line":2,"is_transit":false},{"i_long":106.831474,"is_transit":false,"time":2,"transit":false,"distance":1109,"i_lat":-6.360749,"station_name":"Univ. Indonesia","line":2,"station_id":"UI"},{"station_id":"UP","is_transit":false,"time":3,"i_lat":-6.339291,"line":2,"distance":2264,"i_long":106.834175,"transit":false,"station_name":"Univ. Pancasila"},{"station_id":"LNA","line":2,"distance":1029,"i_long":106.832616,"transit":false,"station_name":"Lenteng Agung","time":2,"i_lat":-6.330363,"is_transit":false},{"distance":2671,"i_lat":-6.3080680000000005,"line":2,"time":3,"is_transit":false,"transit":false,"i_long":106.838896,"station_name":"Tanjung Barat","station_id":"TNT"},{"is_transit":false,"i_lat":-6.2842400000000005,"i_long":106.843999,"station_name":"Pasar Minggu","transit":false,"station_id":"PSM","time":4,"distance":2820,"line":2},{"time":2,"distance":2380,"i_lat":-6.263214,"i_long":106.851577,"transit":false,"line":2,"station_name":"Pasar Minggu Baru","station_id":"PSMB","is_transit":false},{"time":2,"distance":824,"i_lat":-6.255332,"is_transit":false,"station_name":"Duren Kalibata","station_id":"DRN","transit":false,"i_long":106.85449,"line":0},{"i_lat":-6.242512,"is_transit":false,"distance":1546,"line":0,"station_name":"Cawang","station_id":"CW","time":3,"transit":false,"i_long":106.856607},{"station_id":"TEB","time":2,"transit":false,"i_long":106.857948,"i_lat":-6.226659,"is_transit":false,"station_name":"Tebet","distance":1230,"line":2},{"is_transit":true,"i_lat":-6.209883,"station_name":"Manggarai","transit":true,"distance":2610,"i_long":106.84912,"line":0,"time":4,"station_id":"MRI"},{"station_name":"Sudirman","transit":false,"is_transit":false,"station_id":"SUD","line":1,"i_lat":-6.202263,"time":4,"i_long":106.822649,"distance":3186},{"is_transit":false,"transit":false,"distance":280,"station_id":"SUDB","i_lat":-6.201433,"i_long":106.819881,"station_name":"Sudirman Baru","time":1,"line":1},{"distance":471,"time":1,"is_transit":false,"station_name":"Karet","i_long":106.816351,"line":1,"station_id":"KAT","transit":false,"i_lat":-6.20132},{"station_id":"THB","is_transit":true,"station_name":"Tanah Abang","time":5,"distance":2029,"i_lat":-6.185545,"transit":false,"i_long":106.811091,"line":1},{"station_id":"DU","i_lat":-6.155215,"line":1,"distance":3632,"i_long":106.800832,"transit":true,"is_transit":true,"station_name":"Duri","time":8},{"station_id":"AK","transit":false,"time":4,"i_lat":-6.144674,"distance":1230,"is_transit":false,"station_name":"Angke","i_long":106.79867,"line":0},{"i_lat":-6.132549,"transit":true,"i_long":106.826365,"station_name":"Kampung Bandan","is_transit":true,"time":9,"distance":4102,"station_id":"KPB","line":0},{"is_transit":false,"time":3,"transit":false,"line":11,"station_name":"Rajawali","distance":1444,"station_id":"RJW","i_lat":-6.14505,"i_long":106.836569},{"station_name":"Kemayoran","station_id":"KMO","i_lat":-6.161728,"line":11,"i_long":106.839204,"distance":1901,"time":5,"transit":false,"is_transit":false},{"distance":1436,"i_lat":-6.174784,"station_id":"PSE","time":4,"i_long":106.84368,"line":11,"transit":false,"station_name":"Pasar Senen","is_transit":false},{"is_transit":false,"i_lat":-6.185975,"transit":false,"station_name":"Gang Sentiong","distance":1567,"i_long":106.850107,"time":8,"station_id":"GST","line":11},{"distance":973,"line":11,"is_transit":false,"i_long":106.855437,"station_name":"Kramat","i_lat":-6.193792,"transit":false,"station_id":"KMT","time":1},{"station_id":"POK","station_name":"Pondok Jati","i_long":106.861737,"is_transit":false,"distance":1829,"transit":false,"i_lat":-6.209188,"line":11,"time":2},{"station_id":"JNG","line":0,"is_transit":true,"time":9,"station_name":"Jatinegara","distance":1236,"transit":true,"i_lat":-6.215091,"i_long":106.86807400000001},{"i_lat":-6.2135,"station_name":"Klender","is_transit":false,"station_id":"KLD","transit":false,"line":1,"i_long":106.899548,"distance":3395,"time":3},{"time":2,"is_transit":false,"transit":false,"station_name":"Buaran","distance":3100,"i_lat":-6.215568,"station_id":"BUA","i_long":106.922662,"line":0},{"time":1,"is_transit":false,"distance":1305,"i_long":106.939679,"station_id":"KLDB","station_name":"Klenderbaru","transit":false,"i_lat":-6.217455,"line":1},{"station_id":"CUK","time":8,"station_name":"Cakung","distance":1385,"transit":false,"i_lat":-6.219053,"line":0,"is_transit":false,"i_long":106.951283}],[{"time":0,"is_transit":false,"station_name":"Bojonggede","distance":0,"i_long":106.792719,"line":0,"transit":false,"i_lat":-6.493243,"station_id":"BJD"},{"time":5,"is_transit":true,"station_name":"Citayam","station_id":"CTA","transit":false,"i_long":106.800298,"line":1,"i_lat":-6.448811,"distance":5197},{"transit":false,"i_lat":-6.405256,"station_name":"Depok","line":0,"station_id":"DP","i_long":106.816926,"time":6,"is_transit":false,"distance":5084},{"station_name":"Depokbaru","i_lat":-6.391065,"time":3,"distance":1584,"i_long":106.819451,"is_transit":false,"line":0,"transit":false,"station_id":"DPB"},{"line":2,"station_name":"Pondok Cina","distance":2727,"station_id":"POC","transit":false,"time":4,"is_transit":false,"i_lat":-6.369073,"i_long":106.831114},{"station_id":"UI","line":2,"i_lat":-6.360749,"is_transit":false,"transit":false,"distance":1109,"i_long":106.831474,"time":2,"station_name":"Univ. Indonesia"},{"is_transit":false,"station_name":"Univ. Pancasila","time":3,"station_id":"UP","i_lat":-6.339291,"line":2,"transit":false,"distance":2264,"i_long":106.834175},{"station_id":"LNA","i_long":106.832616,"time":2,"transit":false,"is_transit":false,"distance":1029,"line":2,"station_name":"Lenteng Agung","i_lat":-6.330363},{"is_transit":false,"station_name":"Tanjung Barat","i_lat":-6.3080680000000005,"line":2,"i_long":106.838896,"transit":false,"station_id":"TNT","distance":2671,"time":3},{"station_id":"PSM","line":2,"time":4,"station_name":"Pasar Minggu","i_long":106.843999,"transit":false,"i_lat":-6.2842400000000005,"distance":2820,"is_transit":false},{"time":2,"transit":false,"distance":2380,"is_transit":false,"i_lat":-6.263214,"station_id":"PSMB","i_long":106.851577,"line":2,"station_name":"Pasar Minggu Baru"},{"time":2,"is_transit":false,"station_name":"Duren Kalibata","distance":824,"i_lat":-6.255332,"line":0,"transit":false,"station_id":"DRN","i_long":106.85449},{"i_long":106.856607,"i_lat":-6.242512,"time":3,"station_name":"Cawang","is_transit":false,"line":0,"transit":false,"station_id":"CW","distance":1546},{"distance":1230,"is_transit":false,"line":2,"i_lat":-6.226659,"time":2,"station_name":"Tebet","transit":false,"i_long":106.857948,"station_id":"TEB"},{"transit":true,"time":4,"station_name":"Manggarai","i_long":106.84912,"station_id":"MRI","line":0,"distance":2610,"i_lat":-6.209883,"is_transit":true},{"station_id":"CKI","line":0,"distance":1590,"i_lat":-6.198556,"i_long":106.840169,"transit":false,"time":4,"station_name":"Cikini","is_transit":false},{"transit":false,"is_transit":false,"station_name":"Gondangdia","i_lat":-6.186295,"time":3,"distance":1750,"station_id":"GDD","i_long":106.832183,"line":2},{"i_long":106.828284,"time":4,"transit":false,"station_name":"Juanda","line":2,"distance":2015,"is_transit":false,"i_lat":-6.166716,"station_id":"JUA"},{"station_name":"Sawah Besar","time":2,"distance":1149,"station_id":"SW","line":2,"i_lat":-6.160725,"transit":false,"i_long":106.827103,"is_transit":false},{"time":2,"is_transit":false,"station_name":"Manggabesar","station_id":"MGB","i_lat":-6.149769,"line":2,"distance":906,"i_long":106.82482,"transit":false},{"time":2,"distance":1080,"transit":false,"is_transit":false,"i_long":106.820901,"station_name":"Jayakarta","line":7,"i_lat":-6.141205,"station_id":"JAY"},{"time":4,"station_name":"Jakarta Kota","line":0,"transit":true,"is_transit":true,"distance":1264,"i_lat":-6.137569,"station_id":"JAKK","i_long":106.812439},{"distance":1364,"i_lat":-6.132549,"line":0,"transit":true,"station_name":"Kampung Bandan","is_transit":true,"i_long":106.826365,"station_id":"KPB","time":3},{"transit":false,"i_lat":-6.14505,"line":11,"time":3,"station_id":"RJW","station_name":"Rajawali","i_long":106.836569,"distance":1444,"is_transit":false},{"is_transit":false,"transit":false,"time":5,"station_id":"KMO","i_lat":-6.161728,"line":11,"station_name":"Kemayoran","distance":1901,"i_long":106.839204},{"time":4,"is_transit":false,"station_id":"PSE","transit":false,"station_name":"Pasar Senen","i_long":106.84368,"distance":1436,"i_lat":-6.174784,"line":11},{"is_transit":false,"distance":1567,"i_long":106.850107,"line":11,"time":8,"station_id":"GST","station_name":"Gang Sentiong","i_lat":-6.185975,"transit":false},{"station_id":"KMT","transit":false,"line":11,"time":1,"i_lat":-6.193792,"is_transit":false,"i_long":106.855437,"distance":973,"station_name":"Kramat"},{"i_lat":-6.209188,"time":2,"is_transit":false,"station_name":"Pondok Jati","distance":1829,"i_long":106.861737,"station_id":"POK","line":11,"transit":false},{"station_id":"JNG","transit":true,"i_lat":-6.215091,"line":0,"time":9,"station_name":"Jatinegara","is_transit":true,"distance":1236,"i_long":106.86807400000001},{"line":1,"distance":3395,"is_transit":false,"station_id":"KLD","i_long":106.899548,"transit":false,"station_name":"Klender","time":3,"i_lat":-6.2135},{"i_long":106.922662,"i_lat":-6.215568,"transit":false,"distance":3100,"time":2,"is_transit":false,"station_name":"Buaran","station_id":"BUA","line":0},{"i_long":106.939679,"line":1,"distance":1305,"is_transit":false,"station_name":"Klenderbaru","i_lat":-6.217455,"time":1,"transit":false,"station_id":"KLDB"},{"i_lat":-6.219053,"i_long":106.951283,"distance":1385,"time":8,"is_transit":false,"line":0,"transit":false,"station_name":"Cakung","station_id":"CUK"}]]}