{"data":[[{"distance":0,"time":0,"i_long":106.792719,"i_lat":-6.493243,"transit":false,"station_name":"Bojonggede","station_id":"BJD","is_transit":false,"line":2},{"station_id":"CTA","time":5,"transit":false,"i_long":106.800298,"line":2,"is_transit":false,"station_name":"Citayam","i_lat":-6.448811,"distance":5197},{"line":2,"i_long":106.816926,"transit":false,"distance":5084,"station_name":"Depok","station_id":"DP","time":6,"i_lat":-6.405256,"is_transit":false},{"distance":1584,"station_name":"Depokbaru","i_lat":-6.391065,"transit":false,"station_id":"DPB","i_long":106.819451,"time":3,"line":2,"is_transit":false},{"i_long":106.831114,"line":2,"station_id":"POC","i_lat":-6.369073,"transit":false,"station_name":"Pondok Cina","is_transit":false,"distance":2727,"time":4},{"station_name":"Univ. Indonesia","is_transit":false,"i_lat":-6.360749,"i_long":106.831474,"distance":1109,"station_id":"UI","line":2,"transit":false,"time":2},{"time":3,"station_name":"Univ. Pancasila","station_id":"UP","i_long":106.834175,"transit":false,"line":2,"is_transit":false,"i_lat":-6.339291,"distance":2264},{"transit":false,"line":2,"station_id":"LNA","i_long":106.832616,"is_transit":false,"distance":1029,"station_name":"Lenteng Agung","i_lat":-6.330363,"time":2}]]}