{"data":[[{"i_lat":-6.493243,"i_long":106.792719,"distance":0,"station_id":"BJD","is_transit":false,"time":0,"transit":false,"station_name":"Bojonggede","line":2},{"i_lat":-6.448811,"station_name":"Citayam","is_transit":false,"transit":false,"distance":5197,"station_id":"CTA","line":2,"i_long":106.800298,"time":5},{"is_transit":false,"transit":false,"distance":5084,"line":2,"time":6,"station_id":"DP","i_lat":-6.405256,"i_long":106.816926,"station_name":"Depok"},{"station_id":"DPB","time":3,"station_name":"Depokbaru","i_lat":-6.391065,"i_long":106.819451,"is_transit":false,"line":2,"distance":1584,"transit":false},{"station_id":"POC","i_lat":-6.369073,"transit":false,"line":2,"is_transit":false,"i_long":106.831114,"station_name":"Pondok Cina","distance":2727,"time":4},{"station_name":"Univ. Indonesia","distance":1109,"transit":false,"time":2,"i_lat":-6.360749,"station_id":"UI","i_long":106.831474,"line":2,"is_transit":false},{"station_name":"Univ. Pancasila","i_lat":-6.339291,"time":3,"transit":false,"i_long":106.834175,"is_transit":false,"line":2,"distance":2264,"station_id":"UP"},{"line":2,"distance":1029,"station_name":"Lenteng Agung","is_transit":false,"station_id":"LNA","time":2,"i_long":106.832616,"transit":false,"i_lat":-6.330363},{"time":3,"transit":false,"station_name":"Tanjung Barat","i_long":106.838896,"line":2,"distance":2671,"i_lat":-6.3080680000000005,"station_id":"TNT","is_transit":false},{"i_lat":-6.2842400000000005,"transit":false,"distance":2820,"i_long":106.843999,"station_name":"Pasar Minggu","line":2,"time":4,"station_id":"PSM","is_transit":false},{"i_lat":-6.263214,"line":2,"station_name":"Pasar Minggu Baru","time":2,"transit":false,"station_id":"PSMB","i_long":106.851577,"is_transit":false,"distance":2380},{"i_long":106.85449,"line":2,"transit":false,"station_id":"DRN","i_lat":-6.255332,"station_name":"Duren Kalibata","is_transit":false,"time":2,"distance":824},{"i_lat":-6.242512,"station_name":"Cawang","i_long":106.856607,"distance":1546,"is_transit":false,"time":3,"line":2,"station_id":"CW","transit":false},{"transit":false,"distance":1230,"is_transit":false,"station_id":"TEB","station_name":"Tebet","i_long":106.857948,"time":2,"i_lat":-6.226659,"line":2},{"time":4,"transit":true,"i_long":106.84912,"station_id":"MRI","is_transit":true,"i_lat":-6.209883,"station_name":"Manggarai","distance":2610,"line":2},{"distance":3186,"transit":false,"i_long":106.822649,"is_transit":false,"station_id":"SUD","time":4,"station_name":"Sudirman","i_lat":-6.202263,"line":1},{"station_name":"Sudirman Baru","line":1,"station_id":"SUDB","is_transit":false,"transit":false,"time":1,"i_lat":-6.201433,"distance":280,"i_long":106.819881},{"transit":false,"distance":471,"i_long":106.816351,"line":1,"station_id":"KAT","is_transit":false,"i_lat":-6.20132,"station_name":"Karet","time":1},{"i_long":106.811091,"line":1,"transit":false,"station_name":"Tanah Abang","is_transit":false,"time":5,"i_lat":-6.185545,"station_id":"THB","distance":2029},{"time":8,"station_id":"DU","station_name":"Duri","i_lat":-6.155215,"is_transit":true,"distance":3632,"line":1,"i_long":106.800832,"transit":true},{"is_transit":false,"distance":1700,"i_long":106.788277,"i_lat":-6.162021,"station_id":"GGL","line":5,"time":3,"transit":false,"station_name":"Grogol"},{"station_name":"Pesing","i_long":106.771379,"distance":2036,"i_lat":-6.161433,"station_id":"PSG","transit":false,"line":5,"time":2,"is_transit":false},{"i_lat":-6.1587309999999995,"station_name":"Taman Kota","transit":false,"is_transit":false,"line":5,"time":2,"i_long":106.756522,"station_id":"TKO","distance":1614},{"station_id":"BOI","is_transit":false,"line":5,"transit":false,"time":2,"distance":2334,"station_name":"Bojongindah","i_lat":-6.159876,"i_long":106.737035},{"station_name":"Rawa Buaya","i_long":106.723064,"time":4,"station_id":"RW","i_lat":-6.162758,"transit":false,"is_transit":false,"line":5,"distance":1152},{"station_name":"Kalideres","station_id":"KDS","time":3,"distance":2504,"transit":false,"i_long":106.701612,"is_transit":false,"line":5,"i_lat":-6.166068}],[{"station_name":"Bojonggede","time":0,"distance":0,"is_transit":false,"line":2,"station_id":"BJD","i_lat":-6.493243,"i_long":106.792719,"transit":false},{"time":5,"distance":5197,"station_id":"CTA","i_long":106.800298,"station_name":"Citayam","is_transit":false,"transit":false,"i_lat":-6.448811,"line":2},{"line":2,"i_long":106.816926,"time":6,"station_name":"Depok","is_transit":false,"i_lat":-6.405256,"transit":false,"station_id":"DP","distance":5084},{"line":2,"is_transit":false,"distance":1584,"time":3,"station_name":"Depokbaru","i_lat":-6.391065,"i_long":106.819451,"station_id":"DPB","transit":false},{"i_long":106.831114,"distance":2727,"i_lat":-6.369073,"station_id":"POC","time":4,"is_transit":false,"line":2,"station_name":"Pondok Cina","transit":false},{"station_id":"UI","station_name":"Univ. Indonesia","distance":1109,"is_transit":false,"time":2,"i_lat":-6.360749,"line":2,"transit":false,"i_long":106.831474},{"i_long":106.834175,"is_transit":false,"transit":false,"i_lat":-6.339291,"time":3,"distance":2264,"station_name":"Univ. Pancasila","station_id":"UP","line":2},{"time":2,"station_name":"Lenteng Agung","i_lat":-6.330363,"line":2,"distance":1029,"station_id":"LNA","transit":false,"is_transit":false,"i_long":106.832616},{"line":2,"is_transit":false,"i_lat":-6.3080680000000005,"station_id":"TNT","transit":false,"distance":2671,"i_long":106.838896,"station_name":"Tanjung Barat","time":3},{"station_id":"PSM","line":2,"transit":false,"i_long":106.843999,"is_transit":false,"distance":2820,"time":4,"i_lat":-6.2842400000000005,"station_name":"Pasar Minggu"},{"transit":false,"line":2,"i_lat":-6.263214,"distance":2380,"station_name":"Pasar Minggu Baru","station_id":"PSMB","is_transit":false,"time":2,"i_long":106.851577},{"i_lat":-6.255332,"transit":false,"station_name":"Duren Kalibata","station_id":"DRN","is_transit":false,"time":2,"distance":824,"i_long":106.85449,"line":2},{"time":3,"distance":1546,"line":2,"station_id":"CW","transit":false,"i_long":106.856607,"station_name":"Cawang","is_transit":false,"i_lat":-6.242512},{"station_id":"TEB","station_name":"Tebet","distance":1230,"is_transit":false,"i_lat":-6.226659,"time":2,"line":2,"i_long":106.857948,"transit":false},{"distance":2610,"i_lat":-6.209883,"i_long":106.84912,"transit":false,"is_transit":false,"line":2,"time":4,"station_name":"Manggarai","station_id":"MRI"},{"is_transit":false,"line":2,"station_name":"Cikini","i_lat":-6.198556,"time":4,"transit":false,"distance":1590,"station_id":"CKI","i_long":106.840169},{"station_name":"Gondangdia","time":3,"distance":1750,"i_long":106.832183,"transit":false,"is_transit":false,"i_lat":-6.186295,"line":2,"station_id":"GDD"},{"line":2,"station_id":"JUA","distance":2015,"transit":false,"i_lat":-6.166716,"is_transit":false,"time":4,"station_name":"Juanda","i_long":106.828284},{"time":2,"distance":1149,"station_id":"SW","line":2,"i_long":106.827103,"transit":false,"is_transit":false,"station_name":"Sawah Besar","i_lat":-6.160725},{"distance":906,"i_lat":-6.149769,"i_long":106.82482,"line":2,"is_transit":false,"station_id":"MGB","time":2,"station_name":"Manggabesar","transit":false},{"station_name":"Jayakarta","i_long":106.820901,"transit":false,"station_id":"JAY","time":2,"line":2,"is_transit":false,"distance":1080,"i_lat":-6.141205},{"station_name":"Jakarta Kota","transit":true,"i_long":106.812439,"i_lat":-6.137569,"distance":1264,"station_id":"JAKK","is_transit":true,"time":4,"line":2},{"station_id":"KPB","distance":1364,"line":4,"i_lat":-6.132549,"station_name":"Kampung Bandan","time":3,"transit":true,"i_long":106.826365,"is_transit":true},{"station_id":"AK","is_transit":false,"time":9,"transit":false,"station_name":"Angke","i_long":106.79867,"distance":4102,"i_lat":-6.144674,"line":1},{"i_lat":-6.155215,"line":1,"distance":1230,"station_name":"Duri","station_id":"DU","transit":true,"is_transit":true,"i_long":106.800832,"time":4},{"line":5,"time":3,"station_id":"GGL","station_name":"Grogol","is_transit":false,"distance":1700,"i_long":106.788277,"transit":false,"i_lat":-6.162021},{"line":5,"time":2,"distance":2036,"station_name":"Pesing","i_lat":-6.161433,"is_transit":false,"station_id":"PSG","transit":false,"i_long":106.771379},{"station_name":"Taman Kota","line":5,"i_long":106.756522,"station_id":"TKO","transit":false,"is_transit":false,"i_lat":-6.1587309999999995,"time":2,"distance":1614},{"time":2,"i_long":106.737035,"line":5,"station_id":"BOI","transit":false,"is_transit":false,"station_name":"Bojongindah","distance":2334,"i_lat":-6.159876},{"transit":false,"station_name":"Rawa Buaya","distance":1152,"i_lat":-6.162758,"is_transit":false,"station_id":"RW","time":4,"i_long":106.723064,"line":5},{"is_transit":false,"i_long":106.701612,"time":3,"distance":2504,"station_name":"Kalideres","station_id":"KDS","i_lat":-6.166068,"transit":false,"line":5}],[{"time":0,"transit":false,"is_transit":false,"station_id":"BJD","i_lat":-6.493243,"station_name":"Bojonggede","i_long":106.792719,"distance":0,"line":2},{"station_id":"CTA","i_lat":-6.448811,"i_long":106.800298,"is_transit":false,"time":5,"line":2,"distance":5197,"station_name":"Citayam","transit":false},{"transit":false,"station_name":"Depok","i_lat":-6.405256,"is_transit":false,"distance":5084,"time":6,"i_long":106.816926,"line":2,"station_id":"DP"},{"station_name":"Depokbaru","line":2,"transit":false,"station_id":"DPB","is_transit":false,"time":3,"i_long":106.819451,"distance":1584,"i_lat":-6.391065},{"transit":false,"distance":2727,"i_lat":-6.369073,"i_long":106.831114,"station_name":"Pondok Cina","station_id":"POC","time":4,"line":2,"is_transit":false},{"time":2,"station_id":"UI","i_lat":-6.360749,"i_long":106.831474,"distance":1109,"line":2,"is_transit":false,"transit":false,"station_name":"Univ. Indonesia"},{"distance":2264,"is_transit":false,"station_id":"UP","station_name":"Univ. Pancasila","i_lat":-6.339291,"i_long":106.834175,"line":2,"transit":false,"time":3},{"i_long":106.832616,"line":2,"is_transit":false,"station_name":"Lenteng Agung","time":2,"i_lat":-6.330363,"station_id":"LNA","transit":false,"distance":1029},{"station_id":"TNT","time":3,"line":2,"i_long":106.838896,"transit":false,"i_lat":-6.3080680000000005,"is_transit":false,"distance":2671,"station_name":"Tanjung Barat"},{"time":4,"line":2,"i_lat":-6.2842400000000005,"station_id":"PSM","transit":false,"distance":2820,"station_name":"Pasar Minggu","is_transit":false,"i_long":106.843999},{"time":2,"line":2,"i_lat":-6.263214,"transit":false,"station_id":"PSMB","distance":2380,"i_long":106.851577,"station_name":"Pasar Minggu Baru","is_transit":false},{"transit":false,"line":2,"is_transit":false,"i_lat":-6.255332,"i_long":106.85449,"station_id":"DRN","distance":824,"station_name":"Duren Kalibata","time":2},{"time":3,"station_name":"Cawang","i_long":106.856607,"i_lat":-6.242512,"line":2,"is_transit":false,"distance":1546,"transit":false,"station_id":"CW"},{"station_id":"TEB","distance":1230,"i_long":106.857948,"line":2,"i_lat":-6.226659,"station_name":"Tebet","transit":false,"is_transit":false,"time":2},{"distance":2610,"i_long":106.84912,"station_name":"Manggarai","is_transit":true,"time":4,"transit":true,"i_lat":-6.209883,"station_id":"MRI","line":2},{"transit":false,"time":2,"line":1,"i_long":106.858896,"station_id":"MTR","i_lat":-6.212485,"distance":1275,"station_name":"Matraman","is_transit":false},{"station_id":"JNG","i_lat":-6.215091,"transit":true,"i_long":106.86807400000001,"station_name":"Jatinegara","distance":1377,"is_transit":true,"line":1,"time":8},{"is_transit":false,"i_lat":-6.209188,"line":11,"distance":1236,"time":2,"station_id":"POK","station_name":"Pondok Jati","transit":false,"i_long":106.861737},{"i_lat":-6.193792,"is_transit":false,"station_id":"KMT","distance":1829,"station_name":"Kramat","time":2,"line":11,"i_long":106.855437,"transit":false},{"time":1,"is_transit":false,"station_id":"GST","distance":973,"line":11,"transit":false,"i_lat":-6.185975,"i_long":106.850107,"station_name":"Gang Sentiong"},{"i_long":106.84368,"time":8,"transit":false,"station_id":"PSE","is_transit":false,"distance":1567,"i_lat":-6.174784,"station_name":"Pasar Senen","line":11},{"station_id":"KMO","i_lat":-6.161728,"line":11,"transit":false,"station_name":"Kemayoran","distance":1436,"i_long":106.839204,"time":4,"is_transit":false},{"line":11,"station_name":"Rajawali","station_id":"RJW","is_transit":false,"transit":false,"distance":1901,"i_lat":-6.14505,"i_long":106.836569,"time":5},{"i_long":106.826365,"line":4,"is_transit":true,"time":3,"distance":1444,"station_id":"KPB","transit":true,"station_name":"Kampung Bandan","i_lat":-6.132549},{"station_id":"AK","i_lat":-6.144674,"station_name":"Angke","i_long":106.79867,"time":9,"distance":4102,"is_transit":false,"line":1,"transit":false},{"transit":true,"i_lat":-6.155215,"time":4,"distance":1230,"i_long":106.800832,"station_id":"DU","is_transit":true,"line":1,"station_name":"Duri"},{"distance":1700,"line":5,"transit":false,"station_name":"Grogol","i_lat":-6.162021,"station_id":"GGL","i_long":106.788277,"time":3,"is_transit":false},{"time":2,"i_lat":-6.161433,"i_long":106.771379,"station_id":"PSG","line":5,"is_transit":false,"distance":2036,"transit":false,"station_name":"Pesing"},{"transit":false,"distance":1614,"station_id":"TKO","i_long":106.756522,"i_lat":-6.1587309999999995,"is_transit":false,"station_name":"Taman Kota","time":2,"line":5},{"transit":false,"i_long":106.737035,"station_id":"BOI","station_name":"Bojongindah","is_transit":false,"time":2,"i_lat":-6.159876,"distance":2334,"line":5},{"line":5,"time":4,"distance":1152,"transit":false,"station_name":"Rawa Buaya","is_transit":false,"i_long":106.723064,"station_id":"RW","i_lat":-6.162758},{"is_transit":false,"transit":false,"i_long":106.701612,"i_lat":-6.166068,"station_name":"Kalideres","station_id":"KDS","time":3,"distance":2504,"line":5}]]}