{"data":[[{"i_lat":-6.493243,"time":0,"distance":0,"is_transit":false,"transit":false,"i_long":106.792719,"line":0,"station_name":"Bojonggede","station_id":"BJD"},{"line":1,"i_long":106.800298,"time":5,"station_id":"CTA","distance":5197,"transit":false,"station_name":"Citayam","i_lat":-6.448811,"is_transit":true},{"station_id":"DP","time":6,"distance":5084,"i_long":106.816926,"is_transit":false,"transit":false,"i_lat":-6.405256,"line":0,"station_name":"Depok"},{"time":3,"distance":1584,"station_name":"Depokbaru","line":0,"station_id":"DPB","is_transit":false,"transit":false,"i_long":106.819451,"i_lat":-6.391065},{"i_lat":-6.369073,"i_long":106.831114,"distance":2727,"transit":false,"line":2,"time":4,"station_name":"Pondok Cina","station_id":"POC","is_transit":false},{"is_transit":false,"time":2,"station_name":"Univ. Indonesia","distance":1109,"transit":false,"i_long":106.831474,"i_lat":-6.360749,"line":2,"station_id":"UI"},{"station_name":"Univ. Pancasila","i_lat":-6.339291,"station_id":"UP","distance":2264,"time":3,"transit":false,"i_long":106.834175,"line":2,"is_transit":false},{"station_id":"LNA","time":2,"transit":false,"distance":1029,"i_lat":-6.330363,"i_long":106.832616,"line":2,"station_name":"Lenteng Agung","is_transit":false},{"i_long":106.838896,"station_id":"TNT","is_transit":false,"distance":2671,"station_name":"Tanjung Barat","i_lat":-6.3080680000000005,"line":2,"transit":false,"time":3},{"line":2,"distance":2820,"time":4,"station_name":"Pasar Minggu","station_id":"PSM","i_lat":-6.2842400000000005,"i_long":106.843999,"is_transit":false,"transit":false},{"time":2,"i_lat":-6.263214,"i_long":106.851577,"is_transit":false,"station_id":"PSMB","distance":2380,"station_name":"Pasar Minggu Baru","transit":false,"line":2},{"distance":824,"transit":false,"time":2,"station_name":"Duren Kalibata","i_long":106.85449,"line":0,"i_lat":-6.255332,"is_transit":false,"station_id":"DRN"},{"time":3,"station_id":"CW","i_lat":-6.242512,"station_name":"Cawang","transit":false,"distance":1546,"i_long":106.856607,"line":0,"is_transit":false},{"i_lat":-6.226659,"i_long":106.857948,"is_transit":false,"transit":false,"station_name":"Tebet","distance":1230,"station_id":"TEB","time":2,"line":2},{"time":4,"distance":2610,"i_lat":-6.209883,"transit":true,"line":0,"station_id":"MRI","station_name":"Manggarai","i_long":106.84912,"is_transit":true},{"station_id":"SUD","distance":3186,"transit":false,"i_long":106.822649,"station_name":"Sudirman","is_transit":false,"time":4,"line":1,"i_lat":-6.202263},{"distance":280,"station_id":"SUDB","is_transit":false,"i_long":106.819881,"line":1,"station_name":"Sudirman Baru","transit":false,"i_lat":-6.201433,"time":1},{"line":1,"station_id":"KAT","distance":471,"transit":false,"is_transit":false,"time":1,"i_lat":-6.20132,"station_name":"Karet","i_long":106.816351},{"i_long":106.811091,"line":1,"station_id":"THB","station_name":"Tanah Abang","time":5,"distance":2029,"transit":true,"is_transit":true,"i_lat":-6.185545},{"distance":3191,"is_transit":false,"i_lat":-6.207404,"line":6,"station_name":"Palmerah","station_id":"PLM","transit":false,"i_long":106.79689,"time":6},{"i_long":106.780334,"line":6,"station_id":"KBY","distance":3737,"is_transit":false,"time":7,"transit":false,"station_name":"Kebayoran","i_lat":-6.237242},{"i_lat":-6.276362,"time":8,"distance":6218,"transit":false,"is_transit":false,"station_name":"Pondokranji","station_id":"PDJ","i_long":106.74273,"line":6},{"i_lat":-6.288927,"transit":false,"time":3,"station_id":"JMU","is_transit":false,"distance":2179,"i_long":106.728916,"station_name":"Jurangmangu","line":6},{"i_lat":-6.296963,"distance":1994,"time":4,"is_transit":false,"station_name":"Sudimara","transit":false,"station_id":"SDM","i_long":106.712277,"line":6},{"transit":false,"line":6,"station_id":"RU","i_lat":-6.314823,"time":6,"station_name":"Rawa Buntu","i_long":106.675475,"is_transit":false,"distance":4566},{"line":6,"time":4,"i_lat":-6.319871,"station_id":"SRP","is_transit":false,"transit":false,"i_long":106.66566,"distance":2413,"station_name":"Serpong"},{"station_id":"CSK","line":0,"transit":false,"i_lat":-6.32484,"i_long":106.640411,"is_transit":false,"time":4,"distance":1784,"station_name":"Cisauk"},{"transit":false,"line":0,"distance":2519,"i_long":106.617853,"is_transit":false,"station_id":"CC","time":4,"station_name":"Cicayur","i_lat":-6.329547},{"distance":5968,"transit":false,"time":8,"station_name":"Parung Panjang","station_id":"PRP","i_long":106.568863,"line":6,"i_lat":-6.3441410000000005,"is_transit":false},{"line":0,"time":9,"station_name":"Cilejit","i_long":106.508482,"station_id":"CJT","is_transit":false,"distance":7025,"transit":false,"i_lat":-6.354349},{"is_transit":false,"line":0,"transit":false,"station_name":"Daru","distance":2675,"time":6,"station_id":"DAR","i_lat":-6.338021,"i_long":106.491338},{"time":5,"i_lat":-6.327251,"station_name":"Tenjo","transit":false,"is_transit":false,"i_long":106.460812,"station_id":"TEJ","distance":3902,"line":6},{"is_transit":false,"distance":2974,"station_id":"TGS","time":5,"i_long":106.425991,"transit":false,"i_lat":-6.328533,"station_name":"Tigaraksa","line":6},{"is_transit":false,"i_lat":-6.33561,"transit":false,"distance":2651,"i_long":106.411216,"line":0,"station_id":"CKY","station_name":"Cikoya","time":3},{"is_transit":false,"time":4,"distance":1853,"i_lat":-6.332307,"station_name":"Maja","transit":false,"line":6,"i_long":106.394373,"station_id":"MJ"},{"i_lat":-6.334892,"transit":false,"distance":7293,"i_long":106.332092,"station_name":"Citeras","time":10,"station_id":"CTR","line":0,"is_transit":false},{"station_name":"Rangkasbitung","transit":false,"line":0,"distance":9847,"is_transit":true,"station_id":"RK","i_long":106.250396,"i_lat":-6.352675,"time":13}],[{"station_name":"Bojonggede","station_id":"BJD","line":0,"i_lat":-6.493243,"time":0,"distance":0,"is_transit":false,"i_long":106.792719,"transit":false},{"is_transit":true,"i_lat":-6.448811,"station_name":"Citayam","time":5,"transit":false,"station_id":"CTA","line":1,"i_long":106.800298,"distance":5197},{"is_transit":false,"station_name":"Depok","distance":5084,"i_lat":-6.405256,"transit":false,"station_id":"DP","i_long":106.816926,"line":0,"time":6},{"time":3,"station_id":"DPB","is_transit":false,"station_name":"Depokbaru","i_long":106.819451,"line":0,"distance":1584,"i_lat":-6.391065,"transit":false},{"station_name":"Pondok Cina","time":4,"line":2,"i_long":106.831114,"is_transit":false,"transit":false,"i_lat":-6.369073,"station_id":"POC","distance":2727},{"time":2,"is_transit":false,"i_lat":-6.360749,"i_long":106.831474,"station_name":"Univ. Indonesia","line":2,"station_id":"UI","transit":false,"distance":1109},{"time":3,"line":2,"i_long":106.834175,"station_name":"Univ. Pancasila","i_lat":-6.339291,"distance":2264,"is_transit":false,"transit":false,"station_id":"UP"},{"line":2,"transit":false,"i_lat":-6.330363,"distance":1029,"station_name":"Lenteng Agung","station_id":"LNA","time":2,"is_transit":false,"i_long":106.832616},{"time":3,"i_long":106.838896,"station_name":"Tanjung Barat","distance":2671,"station_id":"TNT","transit":false,"i_lat":-6.3080680000000005,"is_transit":false,"line":2},{"i_long":106.843999,"line":2,"time":4,"i_lat":-6.2842400000000005,"is_transit":false,"transit":false,"station_id":"PSM","station_name":"Pasar Minggu","distance":2820},{"i_long":106.851577,"line":2,"transit":false,"time":2,"station_id":"PSMB","is_transit":false,"distance":2380,"station_name":"Pasar Minggu Baru","i_lat":-6.263214},{"station_name":"Duren Kalibata","transit":false,"station_id":"DRN","is_transit":false,"i_long":106.85449,"line":0,"time":2,"distance":824,"i_lat":-6.255332},{"is_transit":false,"station_id":"CW","distance":1546,"station_name":"Cawang","line":0,"i_long":106.856607,"time":3,"transit":false,"i_lat":-6.242512},{"distance":1230,"is_transit":false,"time":2,"station_name":"Tebet","i_long":106.857948,"line":2,"transit":false,"station_id":"TEB","i_lat":-6.226659},{"i_long":106.84912,"distance":2610,"station_id":"MRI","i_lat":-6.209883,"time":4,"line":0,"transit":true,"is_transit":true,"station_name":"Manggarai"},{"i_long":106.840169,"station_id":"CKI","i_lat":-6.198556,"line":0,"transit":false,"is_transit":false,"station_name":"Cikini","time":4,"distance":1590},{"station_name":"Gondangdia","distance":1750,"line":2,"time":3,"i_long":106.832183,"is_transit":false,"station_id":"GDD","transit":false,"i_lat":-6.186295},{"station_name":"Juanda","distance":2015,"is_transit":false,"station_id":"JUA","time":4,"transit":false,"i_lat":-6.166716,"line":2,"i_long":106.828284},{"station_name":"Sawah Besar","station_id":"SW","line":2,"i_lat":-6.160725,"time":2,"i_long":106.827103,"is_transit":false,"transit":false,"distance":1149},{"distance":906,"station_name":"Manggabesar","station_id":"MGB","is_transit":false,"line":2,"i_long":106.82482,"transit":false,"i_lat":-6.149769,"time":2},{"station_name":"Jayakarta","transit":false,"i_lat":-6.141205,"i_long":106.820901,"station_id":"JAY","line":7,"time":2,"distance":1080,"is_transit":false},{"station_id":"JAKK","transit":true,"i_lat":-6.137569,"is_transit":true,"distance":1264,"station_name":"Jakarta Kota","i_long":106.812439,"line":0,"time":4},{"line":0,"time":3,"station_name":"Kampung Bandan","i_lat":-6.132549,"is_transit":true,"distance":1364,"transit":false,"station_id":"KPB","i_long":106.826365},{"is_transit":false,"distance":4102,"station_id":"AK","line":0,"transit":false,"i_long":106.79867,"i_lat":-6.144674,"station_name":"Angke","time":9},{"time":4,"transit":true,"station_id":"DU","i_long":106.800832,"distance":1230,"is_transit":true,"station_name":"Duri","i_lat":-6.155215,"line":1},{"is_transit":true,"time":8,"distance":3632,"station_id":"THB","line":1,"transit":true,"i_long":106.811091,"i_lat":-6.185545,"station_name":"Tanah Abang"},{"time":6,"i_long":106.79689,"line":6,"station_name":"Palmerah","distance":3191,"transit":false,"i_lat":-6.207404,"is_transit":false,"station_id":"PLM"},{"is_transit":false,"transit":false,"station_id":"KBY","distance":3737,"i_lat":-6.237242,"station_name":"Kebayoran","line":6,"time":7,"i_long":106.780334},{"distance":6218,"station_name":"Pondokranji","transit":false,"i_lat":-6.276362,"line":6,"is_transit":false,"i_long":106.74273,"station_id":"PDJ","time":8},{"station_id":"JMU","time":3,"station_name":"Jurangmangu","transit":false,"i_long":106.728916,"line":6,"distance":2179,"is_transit":false,"i_lat":-6.288927},{"station_id":"SDM","time":4,"transit":false,"line":6,"i_lat":-6.296963,"station_name":"Sudimara","i_long":106.712277,"distance":1994,"is_transit":false},{"i_long":106.675475,"line":6,"is_transit":false,"time":6,"station_name":"Rawa Buntu","station_id":"RU","i_lat":-6.314823,"transit":false,"distance":4566},{"station_id":"SRP","time":4,"transit":false,"i_lat":-6.319871,"distance":2413,"i_long":106.66566,"station_name":"Serpong","is_transit":false,"line":6},{"transit":false,"i_lat":-6.32484,"i_long":106.640411,"time":4,"line":0,"station_name":"Cisauk","station_id":"CSK","is_transit":false,"distance":1784},{"time":4,"is_transit":false,"line":0,"i_lat":-6.329547,"distance":2519,"transit":false,"i_long":106.617853,"station_id":"CC","station_name":"Cicayur"},{"station_id":"PRP","distance":5968,"station_name":"Parung Panjang","i_lat":-6.3441410000000005,"is_transit":false,"time":8,"transit":false,"i_long":106.568863,"line":6},{"distance":7025,"i_lat":-6.354349,"station_name":"Cilejit","line":0,"time":9,"station_id":"CJT","is_transit":false,"i_long":106.508482,"transit":false},{"i_long":106.491338,"is_transit":false,"line":0,"distance":2675,"time":6,"transit":false,"i_lat":-6.338021,"station_name":"Daru","station_id":"DAR"},{"i_long":106.460812,"is_transit":false,"distance":3902,"station_id":"TEJ","transit":false,"line":6,"time":5,"i_lat":-6.327251,"station_name":"Tenjo"},{"i_long":106.425991,"i_lat":-6.328533,"distance":2974,"station_id":"TGS","is_transit":false,"transit":false,"line":6,"time":5,"station_name":"Tigaraksa"},{"line":0,"station_id":"CKY","is_transit":false,"i_lat":-6.33561,"time":3,"distance":2651,"station_name":"Cikoya","i_long":106.411216,"transit":false},{"is_transit":false,"i_long":106.394373,"station_id":"MJ","time":4,"line":6,"distance":1853,"station_name":"Maja","transit":false,"i_lat":-6.332307},{"i_long":106.332092,"distance":7293,"station_id":"CTR","is_transit":false,"i_lat":-6.334892,"transit":false,"line":0,"time":10,"station_name":"Citeras"},{"station_id":"RK","transit":false,"distance":9847,"i_long":106.250396,"i_lat":-6.352675,"line":0,"station_name":"Rangkasbitung","is_transit":true,"time":13}],[{"line":0,"time":0,"distance":0,"i_long":106.792719,"station_id":"BJD","i_lat":-6.493243,"station_name":"Bojonggede","is_transit":false,"transit":false},{"station_name":"Citayam","i_lat":-6.448811,"is_transit":true,"i_long":106.800298,"distance":5197,"transit":false,"time":5,"line":1,"station_id":"CTA"},{"line":0,"transit":false,"station_id":"DP","i_long":106.816926,"i_lat":-6.405256,"is_transit":false,"distance":5084,"time":6,"station_name":"Depok"},{"i_long":106.819451,"station_id":"DPB","line":0,"time":3,"station_name":"Depokbaru","i_lat":-6.391065,"is_transit":false,"transit":false,"distance":1584},{"station_id":"POC","transit":false,"is_transit":false,"i_long":106.831114,"time":4,"line":2,"distance":2727,"station_name":"Pondok Cina","i_lat":-6.369073},{"is_transit":false,"time":2,"transit":false,"distance":1109,"i_long":106.831474,"line":2,"station_name":"Univ. Indonesia","i_lat":-6.360749,"station_id":"UI"},{"transit":false,"station_name":"Univ. Pancasila","is_transit":false,"i_long":106.834175,"station_id":"UP","distance":2264,"i_lat":-6.339291,"time":3,"line":2},{"i_lat":-6.330363,"time":2,"transit":false,"i_long":106.832616,"station_name":"Lenteng Agung","distance":1029,"station_id":"LNA","line":2,"is_transit":false},{"is_transit":false,"station_id":"TNT","i_long":106.838896,"i_lat":-6.3080680000000005,"line":2,"transit":false,"distance":2671,"time":3,"station_name":"Tanjung Barat"},{"is_transit":false,"transit":false,"i_lat":-6.2842400000000005,"time":4,"distance":2820,"station_name":"Pasar Minggu","line":2,"station_id":"PSM","i_long":106.843999},{"station_id":"PSMB","i_long":106.851577,"i_lat":-6.263214,"is_transit":false,"transit":false,"time":2,"station_name":"Pasar Minggu Baru","line":2,"distance":2380},{"i_lat":-6.255332,"station_name":"Duren Kalibata","is_transit":false,"time":2,"distance":824,"i_long":106.85449,"transit":false,"station_id":"DRN","line":0},{"i_long":106.856607,"line":0,"station_id":"CW","station_name":"Cawang","i_lat":-6.242512,"is_transit":false,"transit":false,"time":3,"distance":1546},{"line":2,"station_name":"Tebet","station_id":"TEB","is_transit":false,"time":2,"i_long":106.857948,"transit":false,"i_lat":-6.226659,"distance":1230},{"line":0,"distance":2610,"time":4,"is_transit":true,"i_long":106.84912,"station_id":"MRI","station_name":"Manggarai","i_lat":-6.209883,"transit":true},{"distance":1275,"transit":false,"i_long":106.858896,"is_transit":false,"station_name":"Matraman","i_lat":-6.212485,"line":1,"time":2,"station_id":"MTR"},{"i_long":106.86807400000001,"i_lat":-6.215091,"line":0,"distance":1377,"transit":true,"station_id":"JNG","time":8,"station_name":"Jatinegara","is_transit":true},{"distance":1236,"station_id":"POK","i_lat":-6.209188,"line":11,"is_transit":false,"transit":false,"time":2,"station_name":"Pondok Jati","i_long":106.861737},{"time":2,"is_transit":false,"transit":false,"distance":1829,"i_lat":-6.193792,"station_id":"KMT","line":11,"station_name":"Kramat","i_long":106.855437},{"is_transit":false,"transit":false,"station_id":"GST","line":11,"distance":973,"i_lat":-6.185975,"i_long":106.850107,"station_name":"Gang Sentiong","time":1},{"i_long":106.84368,"distance":1567,"station_id":"PSE","transit":false,"line":11,"is_transit":false,"time":8,"station_name":"Pasar Senen","i_lat":-6.174784},{"line":11,"i_long":106.839204,"i_lat":-6.161728,"is_transit":false,"time":4,"station_id":"KMO","distance":1436,"station_name":"Kemayoran","transit":false},{"transit":false,"i_long":106.836569,"station_id":"RJW","line":11,"distance":1901,"station_name":"Rajawali","i_lat":-6.14505,"is_transit":false,"time":5},{"line":0,"i_long":106.826365,"station_id":"KPB","time":3,"transit":true,"i_lat":-6.132549,"is_transit":true,"station_name":"Kampung Bandan","distance":1444},{"transit":false,"is_transit":false,"time":9,"station_id":"AK","distance":4102,"station_name":"Angke","line":0,"i_lat":-6.144674,"i_long":106.79867},{"is_transit":true,"line":1,"station_name":"Duri","station_id":"DU","distance":1230,"i_lat":-6.155215,"time":4,"transit":true,"i_long":106.800832},{"transit":true,"i_lat":-6.185545,"i_long":106.811091,"distance":3632,"station_id":"THB","time":8,"station_name":"Tanah Abang","line":1,"is_transit":true},{"station_name":"Palmerah","is_transit":false,"time":6,"i_long":106.79689,"distance":3191,"station_id":"PLM","i_lat":-6.207404,"transit":false,"line":6},{"transit":false,"i_lat":-6.237242,"line":6,"is_transit":false,"distance":3737,"station_name":"Kebayoran","station_id":"KBY","time":7,"i_long":106.780334},{"is_transit":false,"time":8,"station_name":"Pondokranji","station_id":"PDJ","i_lat":-6.276362,"i_long":106.74273,"line":6,"distance":6218,"transit":false},{"i_long":106.728916,"transit":false,"station_name":"Jurangmangu","i_lat":-6.288927,"time":3,"distance":2179,"line":6,"station_id":"JMU","is_transit":false},{"i_long":106.712277,"station_id":"SDM","is_transit":false,"transit":false,"distance":1994,"line":6,"station_name":"Sudimara","i_lat":-6.296963,"time":4},{"station_id":"RU","station_name":"Rawa Buntu","transit":false,"line":6,"time":6,"distance":4566,"i_lat":-6.314823,"i_long":106.675475,"is_transit":false},{"station_id":"SRP","is_transit":false,"i_lat":-6.319871,"transit":false,"time":4,"distance":2413,"line":6,"i_long":106.66566,"station_name":"Serpong"},{"line":0,"station_name":"Cisauk","is_transit":false,"i_lat":-6.32484,"station_id":"CSK","transit":false,"distance":1784,"time":4,"i_long":106.640411},{"time":4,"i_lat":-6.329547,"is_transit":false,"transit":false,"i_long":106.617853,"station_name":"Cicayur","distance":2519,"line":0,"station_id":"CC"},{"distance":5968,"transit":false,"i_lat":-6.3441410000000005,"i_long":106.568863,"time":8,"line":6,"station_name":"Parung Panjang","is_transit":false,"station_id":"PRP"},{"transit":false,"time":9,"is_transit":false,"i_lat":-6.354349,"station_id":"CJT","station_name":"Cilejit","line":0,"i_long":106.508482,"distance":7025},{"station_id":"DAR","time":6,"is_transit":false,"i_long":106.491338,"transit":false,"line":0,"station_name":"Daru","i_lat":-6.338021,"distance":2675},{"transit":false,"time":5,"is_transit":false,"distance":3902,"i_lat":-6.327251,"station_id":"TEJ","station_name":"Tenjo","i_long":106.460812,"line":6},{"i_lat":-6.328533,"line":6,"transit":false,"is_transit":false,"distance":2974,"time":5,"i_long":106.425991,"station_name":"Tigaraksa","station_id":"TGS"},{"time":3,"i_long":106.411216,"is_transit":false,"station_id":"CKY","distance":2651,"transit":false,"line":0,"station_name":"Cikoya","i_lat":-6.33561},{"station_name":"Maja","i_long":106.394373,"line":6,"distance":1853,"transit":false,"station_id":"MJ","is_transit":false,"time":4,"i_lat":-6.332307},{"transit":false,"i_lat":-6.334892,"is_transit":false,"i_long":106.332092,"distance":7293,"time":10,"station_name":"Citeras","line":0,"station_id":"CTR"},{"i_lat":-6.352675,"time":13,"transit":false,"i_long":106.250396,"is_transit":true,"station_id":"RK","station_name":"Rangkasbitung","distance":9847,"line":0}]]}