{"data":[[{"station_id":"BJD","line":2,"i_lat":-6.493243,"is_transit":false,"transit":false,"time":0,"distance":0,"i_long":106.792719,"station_name":"Bojonggede"},{"transit":false,"distance":5197,"is_transit":false,"station_name":"Citayam","station_id":"CTA","i_lat":-6.448811,"i_long":106.800298,"line":2,"time":5},{"time":6,"distance":5084,"i_long":106.816926,"transit":false,"station_name":"Depok","i_lat":-6.405256,"is_transit":false,"line":2,"station_id":"DP"},{"transit":false,"i_long":106.819451,"station_name":"Depokbaru","distance":1584,"line":2,"time":3,"station_id":"DPB","is_transit":false,"i_lat":-6.391065},{"transit":false,"station_name":"Pondok Cina","time":4,"distance":2727,"i_lat":-6.369073,"station_id":"POC","is_transit":false,"i_long":106.831114,"line":2},{"i_lat":-6.360749,"transit":false,"is_transit":false,"station_id":"UI","distance":1109,"line":2,"time":2,"station_name":"Univ. Indonesia","i_long":106.831474},{"is_transit":false,"line":2,"station_id":"UP","distance":2264,"i_long":106.834175,"time":3,"station_name":"Univ. Pancasila","transit":false,"i_lat":-6.339291},{"i_long":106.832616,"distance":1029,"time":2,"station_id":"LNA","transit":false,"is_transit":false,"i_lat":-6.330363,"line":2,"station_name":"Lenteng Agung"},{"line":2,"transit":false,"time":3,"station_name":"Tanjung Barat","i_lat":-6.3080680000000005,"distance":2671,"is_transit":false,"i_long":106.838896,"station_id":"TNT"},{"distance":2820,"transit":false,"i_lat":-6.2842400000000005,"i_long":106.843999,"line":2,"time":4,"station_id":"PSM","is_transit":false,"station_name":"Pasar Minggu"},{"time":2,"i_lat":-6.263214,"line":2,"is_transit":false,"station_id":"PSMB","station_name":"Pasar Minggu Baru","i_long":106.851577,"distance":2380,"transit":false},{"i_long":106.85449,"transit":false,"time":2,"station_name":"Duren Kalibata","is_transit":false,"i_lat":-6.255332,"station_id":"DRN","distance":824,"line":2},{"i_long":106.856607,"station_name":"Cawang","is_transit":false,"time":3,"distance":1546,"transit":false,"i_lat":-6.242512,"line":2,"station_id":"CW"},{"station_name":"Tebet","transit":false,"line":2,"station_id":"TEB","i_lat":-6.226659,"time":2,"i_long":106.857948,"is_transit":false,"distance":1230},{"time":4,"i_long":106.84912,"distance":2610,"line":2,"station_id":"MRI","i_lat":-6.209883,"transit":true,"station_name":"Manggarai","is_transit":true},{"line":1,"i_lat":-6.212485,"station_name":"Matraman","station_id":"MTR","transit":false,"time":2,"is_transit":false,"i_long":106.858896,"distance":1275},{"distance":1377,"station_name":"Jatinegara","transit":false,"i_long":106.86807400000001,"time":8,"line":1,"i_lat":-6.215091,"is_transit":false,"station_id":"JNG"},{"station_id":"KLD","i_lat":-6.2135,"distance":3395,"i_long":106.899548,"time":3,"line":1,"transit":false,"station_name":"Klender","is_transit":false},{"time":2,"is_transit":false,"transit":false,"distance":3100,"line":1,"station_name":"Buaran","station_id":"BUA","i_long":106.922662,"i_lat":-6.215568},{"i_lat":-6.217455,"station_id":"KLDB","is_transit":false,"i_long":106.939679,"station_name":"Klenderbaru","distance":1305,"transit":false,"time":1,"line":1},{"time":8,"i_lat":-6.219053,"is_transit":false,"distance":1385,"station_id":"CUK","station_name":"Cakung","i_long":106.951283,"line":1,"transit":false},{"i_lat":-6.224515,"is_transit":false,"transit":false,"station_id":"KRI","time":3,"station_name":"Kranji","i_long":106.977657,"line":1,"distance":3097},{"station_id":"BKS","i_long":106.997013,"is_transit":false,"station_name":"Bekasi","line":1,"i_lat":-6.236616,"time":4,"transit":false,"distance":2520}],[{"is_transit":false,"time":0,"i_long":106.792719,"distance":0,"station_id":"BJD","i_lat":-6.493243,"transit":false,"line":2,"station_name":"Bojonggede"},{"is_transit":false,"i_lat":-6.448811,"time":5,"station_name":"Citayam","transit":false,"i_long":106.800298,"distance":5197,"station_id":"CTA","line":2},{"i_long":106.816926,"is_transit":false,"i_lat":-6.405256,"line":2,"time":6,"station_id":"DP","station_name":"Depok","transit":false,"distance":5084},{"transit":false,"time":3,"i_lat":-6.391065,"i_long":106.819451,"is_transit":false,"station_id":"DPB","station_name":"Depokbaru","line":2,"distance":1584},{"line":2,"distance":2727,"transit":false,"is_transit":false,"station_name":"Pondok Cina","i_long":106.831114,"time":4,"i_lat":-6.369073,"station_id":"POC"},{"i_long":106.831474,"transit":false,"is_transit":false,"i_lat":-6.360749,"station_name":"Univ. Indonesia","station_id":"UI","line":2,"time":2,"distance":1109},{"station_id":"UP","station_name":"Univ. Pancasila","i_lat":-6.339291,"i_long":106.834175,"time":3,"line":2,"distance":2264,"transit":false,"is_transit":false},{"station_name":"Lenteng Agung","time":2,"transit":false,"station_id":"LNA","i_lat":-6.330363,"line":2,"is_transit":false,"distance":1029,"i_long":106.832616},{"time":3,"i_lat":-6.3080680000000005,"station_id":"TNT","distance":2671,"i_long":106.838896,"station_name":"Tanjung Barat","line":2,"transit":false,"is_transit":false},{"time":4,"transit":false,"i_lat":-6.2842400000000005,"station_name":"Pasar Minggu","distance":2820,"is_transit":false,"station_id":"PSM","i_long":106.843999,"line":2},{"i_long":106.851577,"transit":false,"time":2,"distance":2380,"station_name":"Pasar Minggu Baru","line":2,"is_transit":false,"station_id":"PSMB","i_lat":-6.263214},{"time":2,"transit":false,"line":2,"is_transit":false,"station_name":"Duren Kalibata","i_lat":-6.255332,"i_long":106.85449,"distance":824,"station_id":"DRN"},{"i_long":106.856607,"is_transit":false,"distance":1546,"i_lat":-6.242512,"time":3,"station_name":"Cawang","station_id":"CW","line":2,"transit":false},{"time":2,"i_long":106.857948,"transit":false,"i_lat":-6.226659,"line":2,"distance":1230,"station_name":"Tebet","station_id":"TEB","is_transit":false},{"station_id":"MRI","time":4,"distance":2610,"station_name":"Manggarai","transit":true,"i_lat":-6.209883,"line":2,"i_long":106.84912,"is_transit":true},{"transit":false,"line":1,"time":4,"i_long":106.822649,"is_transit":false,"distance":3186,"station_name":"Sudirman","i_lat":-6.202263,"station_id":"SUD"},{"station_name":"Sudirman Baru","line":1,"distance":280,"station_id":"SUDB","transit":false,"i_long":106.819881,"is_transit":false,"time":1,"i_lat":-6.201433},{"line":1,"i_long":106.816351,"transit":false,"distance":471,"station_id":"KAT","station_name":"Karet","is_transit":false,"i_lat":-6.20132,"time":1},{"station_name":"Tanah Abang","i_long":106.811091,"i_lat":-6.185545,"transit":false,"distance":2029,"station_id":"THB","line":1,"is_transit":false,"time":5},{"station_name":"Duri","transit":false,"i_lat":-6.155215,"i_long":106.800832,"time":8,"distance":3632,"is_transit":false,"station_id":"DU","line":1},{"station_id":"AK","i_lat":-6.144674,"i_long":106.79867,"transit":false,"is_transit":false,"distance":1230,"station_name":"Angke","line":1,"time":4},{"station_id":"KPB","is_transit":true,"station_name":"Kampung Bandan","line":4,"transit":true,"distance":4102,"time":9,"i_lat":-6.132549,"i_long":106.826365},{"station_id":"RJW","i_long":106.836569,"time":3,"transit":false,"i_lat":-6.14505,"station_name":"Rajawali","distance":1444,"line":11,"is_transit":false},{"is_transit":false,"distance":1901,"station_id":"KMO","i_long":106.839204,"station_name":"Kemayoran","line":11,"i_lat":-6.161728,"time":5,"transit":false},{"i_long":106.84368,"time":4,"station_id":"PSE","is_transit":false,"i_lat":-6.174784,"station_name":"Pasar Senen","line":11,"transit":false,"distance":1436},{"is_transit":false,"station_id":"GST","station_name":"Gang Sentiong","i_long":106.850107,"transit":false,"i_lat":-6.185975,"distance":1567,"line":11,"time":8},{"i_lat":-6.193792,"is_transit":false,"distance":973,"station_name":"Kramat","transit":false,"station_id":"KMT","i_long":106.855437,"line":11,"time":1},{"transit":false,"line":11,"distance":1829,"is_transit":false,"station_id":"POK","i_long":106.861737,"station_name":"Pondok Jati","i_lat":-6.209188,"time":2},{"is_transit":true,"distance":1236,"station_id":"JNG","station_name":"Jatinegara","i_long":106.86807400000001,"time":9,"i_lat":-6.215091,"line":1,"transit":true},{"transit":false,"is_transit":false,"station_name":"Klender","i_lat":-6.2135,"time":3,"distance":3395,"station_id":"KLD","line":1,"i_long":106.899548},{"station_id":"BUA","time":2,"transit":false,"distance":3100,"is_transit":false,"i_lat":-6.215568,"station_name":"Buaran","i_long":106.922662,"line":1},{"distance":1305,"station_id":"KLDB","is_transit":false,"line":1,"time":1,"station_name":"Klenderbaru","transit":false,"i_long":106.939679,"i_lat":-6.217455},{"station_id":"CUK","i_lat":-6.219053,"i_long":106.951283,"time":8,"transit":false,"station_name":"Cakung","line":1,"is_transit":false,"distance":1385},{"station_id":"KRI","i_long":106.977657,"transit":false,"station_name":"Kranji","line":1,"i_lat":-6.224515,"is_transit":false,"time":3,"distance":3097},{"i_lat":-6.236616,"line":1,"time":4,"i_long":106.997013,"is_transit":false,"station_name":"Bekasi","distance":2520,"transit":false,"station_id":"BKS"}],[{"station_name":"Bojonggede","is_transit":false,"station_id":"BJD","transit":false,"i_lat":-6.493243,"line":2,"time":0,"i_long":106.792719,"distance":0},{"transit":false,"station_name":"Citayam","is_transit":false,"station_id":"CTA","i_lat":-6.448811,"i_long":106.800298,"distance":5197,"time":5,"line":2},{"transit":false,"station_id":"DP","i_long":106.816926,"is_transit":false,"time":6,"station_name":"Depok","distance":5084,"line":2,"i_lat":-6.405256},{"time":3,"distance":1584,"station_id":"DPB","line":2,"transit":false,"i_lat":-6.391065,"is_transit":false,"i_long":106.819451,"station_name":"Depokbaru"},{"i_lat":-6.369073,"line":2,"is_transit":false,"time":4,"transit":false,"distance":2727,"station_name":"Pondok Cina","i_long":106.831114,"station_id":"POC"},{"distance":1109,"station_id":"UI","i_lat":-6.360749,"line":2,"station_name":"Univ. Indonesia","time":2,"i_long":106.831474,"is_transit":false,"transit":false},{"station_id":"UP","is_transit":false,"line":2,"station_name":"Univ. Pancasila","i_lat":-6.339291,"transit":false,"distance":2264,"time":3,"i_long":106.834175},{"time":2,"i_lat":-6.330363,"station_name":"Lenteng Agung","i_long":106.832616,"line":2,"station_id":"LNA","is_transit":false,"transit":false,"distance":1029},{"transit":false,"i_lat":-6.3080680000000005,"distance":2671,"time":3,"station_id":"TNT","is_transit":false,"i_long":106.838896,"station_name":"Tanjung Barat","line":2},{"i_long":106.843999,"is_transit":false,"station_id":"PSM","line":2,"time":4,"distance":2820,"transit":false,"i_lat":-6.2842400000000005,"station_name":"Pasar Minggu"},{"transit":false,"i_lat":-6.263214,"line":2,"i_long":106.851577,"station_id":"PSMB","distance":2380,"time":2,"is_transit":false,"station_name":"Pasar Minggu Baru"},{"is_transit":false,"distance":824,"time":2,"station_id":"DRN","station_name":"Duren Kalibata","transit":false,"i_long":106.85449,"i_lat":-6.255332,"line":2},{"station_id":"CW","transit":false,"time":3,"distance":1546,"station_name":"Cawang","is_transit":false,"i_lat":-6.242512,"i_long":106.856607,"line":2},{"transit":false,"station_id":"TEB","i_lat":-6.226659,"is_transit":false,"station_name":"Tebet","line":2,"i_long":106.857948,"distance":1230,"time":2},{"distance":2610,"time":4,"i_long":106.84912,"station_id":"MRI","i_lat":-6.209883,"station_name":"Manggarai","line":2,"is_transit":false,"transit":false},{"is_transit":false,"i_lat":-6.198556,"time":4,"transit":false,"line":2,"distance":1590,"station_id":"CKI","station_name":"Cikini","i_long":106.840169},{"time":3,"is_transit":false,"distance":1750,"transit":false,"station_id":"GDD","station_name":"Gondangdia","i_lat":-6.186295,"i_long":106.832183,"line":2},{"i_long":106.828284,"line":2,"is_transit":false,"station_id":"JUA","i_lat":-6.166716,"station_name":"Juanda","transit":false,"time":4,"distance":2015},{"i_lat":-6.160725,"is_transit":false,"distance":1149,"station_name":"Sawah Besar","station_id":"SW","i_long":106.827103,"transit":false,"line":2,"time":2},{"i_lat":-6.149769,"is_transit":false,"station_name":"Manggabesar","time":2,"distance":906,"station_id":"MGB","i_long":106.82482,"transit":false,"line":2},{"i_lat":-6.141205,"station_name":"Jayakarta","i_long":106.820901,"distance":1080,"is_transit":false,"transit":false,"time":2,"station_id":"JAY","line":2},{"i_long":106.812439,"station_id":"JAKK","i_lat":-6.137569,"time":4,"distance":1264,"transit":true,"is_transit":true,"line":2,"station_name":"Jakarta Kota"},{"station_id":"KPB","time":3,"line":4,"transit":true,"i_long":106.826365,"distance":1364,"is_transit":true,"station_name":"Kampung Bandan","i_lat":-6.132549},{"is_transit":false,"line":11,"station_id":"RJW","station_name":"Rajawali","i_long":106.836569,"time":3,"distance":1444,"transit":false,"i_lat":-6.14505},{"distance":1901,"i_lat":-6.161728,"i_long":106.839204,"line":11,"transit":false,"station_id":"KMO","is_transit":false,"time":5,"station_name":"Kemayoran"},{"line":11,"distance":1436,"i_long":106.84368,"station_name":"Pasar Senen","time":4,"i_lat":-6.174784,"station_id":"PSE","is_transit":false,"transit":false},{"line":11,"time":8,"distance":1567,"station_name":"Gang Sentiong","station_id":"GST","transit":false,"is_transit":false,"i_long":106.850107,"i_lat":-6.185975},{"time":1,"transit":false,"distance":973,"station_id":"KMT","is_transit":false,"i_lat":-6.193792,"i_long":106.855437,"line":11,"station_name":"Kramat"},{"distance":1829,"station_id":"POK","time":2,"station_name":"Pondok Jati","i_lat":-6.209188,"transit":false,"i_long":106.861737,"line":11,"is_transit":false},{"transit":true,"i_long":106.86807400000001,"line":1,"station_name":"Jatinegara","i_lat":-6.215091,"is_transit":true,"station_id":"JNG","distance":1236,"time":9},{"i_lat":-6.2135,"station_name":"Klender","is_transit":false,"time":3,"distance":3395,"line":1,"i_long":106.899548,"transit":false,"station_id":"KLD"},{"station_id":"BUA","distance":3100,"station_name":"Buaran","time":2,"transit":false,"i_long":106.922662,"is_transit":false,"line":1,"i_lat":-6.215568},{"time":1,"station_id":"KLDB","transit":false,"distance":1305,"i_long":106.939679,"is_transit":false,"line":1,"i_lat":-6.217455,"station_name":"Klenderbaru"},{"distance":1385,"station_id":"CUK","station_name":"Cakung","time":8,"transit":false,"i_long":106.951283,"line":1,"i_lat":-6.219053,"is_transit":false},{"transit":false,"is_transit":false,"time":3,"i_lat":-6.224515,"station_name":"Kranji","line":1,"distance":3097,"station_id":"KRI","i_long":106.977657},{"station_name":"Bekasi","transit":false,"i_lat":-6.236616,"time":4,"distance":2520,"is_transit":false,"station_id":"BKS","line":1,"i_long":106.997013}]]}