{"data":[[{"i_long":106.792719,"transit":false,"station_id":"BJD","time":0,"is_transit":false,"station_name":"Bojonggede","line":0,"distance":0,"i_lat":-6.493243},{"i_lat":-6.448811,"distance":5197,"station_name":"Citayam","line":1,"is_transit":true,"station_id":"CTA","time":5,"i_long":106.800298,"transit":false},{"i_long":106.816926,"line":0,"transit":false,"station_id":"DP","time":6,"distance":5084,"is_transit":false,"station_name":"Depok","i_lat":-6.405256},{"transit":false,"distance":1584,"is_transit":false,"time":3,"station_name":"Depokbaru","i_lat":-6.391065,"i_long":106.819451,"line":0,"station_id":"DPB"},{"transit":false,"line":2,"distance":2727,"is_transit":false,"time":4,"i_long":106.831114,"station_name":"Pondok Cina","i_lat":-6.369073,"station_id":"POC"},{"transit":false,"time":2,"station_id":"UI","distance":1109,"line":2,"i_lat":-6.360749,"station_name":"Univ. Indonesia","i_long":106.831474,"is_transit":false},{"is_transit":false,"station_name":"Univ. Pancasila","line":2,"time":3,"transit":false,"i_long":106.834175,"station_id":"UP","distance":2264,"i_lat":-6.339291},{"station_id":"LNA","transit":false,"is_transit":false,"time":2,"distance":1029,"station_name":"Lenteng Agung","i_long":106.832616,"i_lat":-6.330363,"line":2},{"transit":false,"i_lat":-6.3080680000000005,"line":2,"time":3,"is_transit":false,"station_name":"Tanjung Barat","distance":2671,"i_long":106.838896,"station_id":"TNT"},{"time":4,"distance":2820,"station_name":"Pasar Minggu","i_lat":-6.2842400000000005,"line":2,"station_id":"PSM","transit":false,"is_transit":false,"i_long":106.843999}]]}