{"data":[[{"transit":false,"time":0,"i_long":106.792719,"station_name":"Bojonggede","distance":0,"line":2,"i_lat":-6.493243,"is_transit":false,"station_id":"BJD"},{"i_lat":-6.448811,"station_name":"Citayam","i_long":106.800298,"is_transit":false,"line":2,"distance":5197,"station_id":"CTA","transit":false,"time":5},{"time":6,"is_transit":false,"line":2,"transit":false,"station_id":"DP","station_name":"Depok","i_long":106.816926,"i_lat":-6.405256,"distance":5084},{"distance":1584,"time":3,"i_lat":-6.391065,"is_transit":false,"station_id":"DPB","station_name":"Depokbaru","transit":false,"i_long":106.819451,"line":2},{"i_long":106.831114,"line":2,"station_name":"Pondok Cina","i_lat":-6.369073,"is_transit":false,"distance":2727,"station_id":"POC","transit":false,"time":4},{"station_id":"UI","distance":1109,"time":2,"i_lat":-6.360749,"is_transit":false,"i_long":106.831474,"line":2,"station_name":"Univ. Indonesia","transit":false},{"i_lat":-6.339291,"station_name":"Univ. Pancasila","i_long":106.834175,"line":2,"distance":2264,"is_transit":false,"time":3,"transit":false,"station_id":"UP"},{"i_lat":-6.330363,"station_name":"Lenteng Agung","station_id":"LNA","distance":1029,"transit":false,"time":2,"i_long":106.832616,"line":2,"is_transit":false},{"distance":2671,"i_lat":-6.3080680000000005,"line":2,"is_transit":false,"transit":false,"time":3,"station_name":"Tanjung Barat","i_long":106.838896,"station_id":"TNT"},{"distance":2820,"line":2,"i_long":106.843999,"transit":false,"station_name":"Pasar Minggu","is_transit":false,"station_id":"PSM","time":4,"i_lat":-6.2842400000000005},{"station_id":"PSMB","is_transit":false,"i_long":106.851577,"time":2,"transit":false,"station_name":"Pasar Minggu Baru","distance":2380,"line":2,"i_lat":-6.263214},{"station_name":"Duren Kalibata","i_long":106.85449,"distance":824,"time":2,"station_id":"DRN","line":2,"is_transit":false,"transit":false,"i_lat":-6.255332},{"distance":1546,"transit":false,"station_id":"CW","line":2,"i_long":106.856607,"is_transit":false,"time":3,"station_name":"Cawang","i_lat":-6.242512},{"transit":false,"time":2,"i_long":106.857948,"station_id":"TEB","i_lat":-6.226659,"distance":1230,"station_name":"Tebet","is_transit":false,"line":2},{"line":2,"station_name":"Manggarai","transit":true,"i_long":106.84912,"station_id":"MRI","distance":2610,"i_lat":-6.209883,"is_transit":true,"time":4},{"station_id":"SUD","distance":3186,"i_lat":-6.202263,"is_transit":false,"i_long":106.822649,"time":4,"transit":false,"line":1,"station_name":"Sudirman"},{"station_name":"Sudirman Baru","distance":280,"time":1,"station_id":"SUDB","i_lat":-6.201433,"is_transit":false,"transit":false,"i_long":106.819881,"line":1},{"is_transit":false,"station_id":"KAT","station_name":"Karet","distance":471,"time":1,"transit":false,"i_long":106.816351,"i_lat":-6.20132,"line":1},{"station_id":"THB","transit":false,"station_name":"Tanah Abang","distance":2029,"time":5,"is_transit":false,"i_lat":-6.185545,"i_long":106.811091,"line":1}],[{"transit":false,"station_id":"BJD","i_lat":-6.493243,"station_name":"Bojonggede","is_transit":false,"line":2,"i_long":106.792719,"distance":0,"time":0},{"distance":5197,"time":5,"i_long":106.800298,"station_id":"CTA","i_lat":-6.448811,"station_name":"Citayam","line":2,"transit":false,"is_transit":false},{"is_transit":false,"i_lat":-6.405256,"time":6,"transit":false,"line":2,"distance":5084,"station_id":"DP","station_name":"Depok","i_long":106.816926},{"time":3,"station_name":"Depokbaru","station_id":"DPB","distance":1584,"transit":false,"is_transit":false,"i_lat":-6.391065,"i_long":106.819451,"line":2},{"distance":2727,"station_id":"POC","is_transit":false,"i_lat":-6.369073,"transit":false,"station_name":"Pondok Cina","i_long":106.831114,"line":2,"time":4},{"is_transit":false,"time":2,"station_id":"UI","station_name":"Univ. Indonesia","distance":1109,"transit":false,"i_lat":-6.360749,"i_long":106.831474,"line":2},{"transit":false,"distance":2264,"station_id":"UP","is_transit":false,"i_lat":-6.339291,"line":2,"i_long":106.834175,"time":3,"station_name":"Univ. Pancasila"},{"distance":1029,"i_long":106.832616,"i_lat":-6.330363,"time":2,"line":2,"station_name":"Lenteng Agung","is_transit":false,"station_id":"LNA","transit":false},{"is_transit":false,"station_id":"TNT","i_long":106.838896,"i_lat":-6.3080680000000005,"time":3,"distance":2671,"transit":false,"line":2,"station_name":"Tanjung Barat"},{"time":4,"i_lat":-6.2842400000000005,"station_id":"PSM","transit":false,"distance":2820,"station_name":"Pasar Minggu","is_transit":false,"line":2,"i_long":106.843999},{"transit":false,"time":2,"is_transit":false,"i_long":106.851577,"station_id":"PSMB","station_name":"Pasar Minggu Baru","i_lat":-6.263214,"line":2,"distance":2380},{"is_transit":false,"i_long":106.85449,"time":2,"station_name":"Duren Kalibata","line":2,"distance":824,"i_lat":-6.255332,"station_id":"DRN","transit":false},{"time":3,"transit":false,"station_name":"Cawang","line":2,"is_transit":false,"station_id":"CW","distance":1546,"i_lat":-6.242512,"i_long":106.856607},{"i_lat":-6.226659,"line":2,"station_id":"TEB","time":2,"i_long":106.857948,"is_transit":false,"station_name":"Tebet","distance":1230,"transit":false},{"station_id":"MRI","is_transit":false,"i_long":106.84912,"transit":false,"time":4,"i_lat":-6.209883,"station_name":"Manggarai","line":2,"distance":2610},{"station_name":"Cikini","station_id":"CKI","transit":false,"time":4,"is_transit":false,"i_long":106.840169,"distance":1590,"i_lat":-6.198556,"line":2},{"i_lat":-6.186295,"distance":1750,"time":3,"line":2,"is_transit":false,"i_long":106.832183,"station_name":"Gondangdia","station_id":"GDD","transit":false},{"is_transit":false,"distance":2015,"station_name":"Juanda","i_lat":-6.166716,"transit":false,"i_long":106.828284,"station_id":"JUA","line":2,"time":4},{"i_long":106.827103,"line":2,"station_id":"SW","distance":1149,"station_name":"Sawah Besar","transit":false,"time":2,"is_transit":false,"i_lat":-6.160725},{"distance":906,"i_long":106.82482,"i_lat":-6.149769,"line":2,"station_name":"Manggabesar","transit":false,"station_id":"MGB","time":2,"is_transit":false},{"is_transit":false,"distance":1080,"transit":false,"time":2,"station_id":"JAY","station_name":"Jayakarta","i_lat":-6.141205,"i_long":106.820901,"line":2},{"station_name":"Jakarta Kota","distance":1264,"line":2,"time":4,"transit":true,"i_long":106.812439,"is_transit":true,"i_lat":-6.137569,"station_id":"JAKK"},{"station_name":"Kampung Bandan","i_lat":-6.132549,"line":4,"i_long":106.826365,"transit":true,"distance":1364,"station_id":"KPB","is_transit":true,"time":3},{"transit":false,"line":1,"station_id":"AK","distance":4102,"i_lat":-6.144674,"i_long":106.79867,"station_name":"Angke","is_transit":false,"time":9},{"transit":false,"station_id":"DU","distance":1230,"line":1,"time":4,"station_name":"Duri","is_transit":false,"i_lat":-6.155215,"i_long":106.800832},{"station_name":"Tanah Abang","station_id":"THB","time":8,"distance":3632,"transit":false,"is_transit":false,"i_lat":-6.185545,"i_long":106.811091,"line":1}],[{"distance":0,"station_id":"BJD","time":0,"i_lat":-6.493243,"i_long":106.792719,"line":2,"is_transit":false,"transit":false,"station_name":"Bojonggede"},{"i_long":106.800298,"station_name":"Citayam","station_id":"CTA","transit":false,"time":5,"i_lat":-6.448811,"line":2,"distance":5197,"is_transit":false},{"time":6,"i_long":106.816926,"station_name":"Depok","is_transit":false,"station_id":"DP","i_lat":-6.405256,"line":2,"distance":5084,"transit":false},{"line":2,"i_lat":-6.391065,"transit":false,"station_id":"DPB","time":3,"is_transit":false,"station_name":"Depokbaru","distance":1584,"i_long":106.819451},{"transit":false,"distance":2727,"time":4,"i_long":106.831114,"station_name":"Pondok Cina","line":2,"station_id":"POC","is_transit":false,"i_lat":-6.369073},{"i_lat":-6.360749,"station_name":"Univ. Indonesia","transit":false,"is_transit":false,"i_long":106.831474,"line":2,"station_id":"UI","distance":1109,"time":2},{"station_id":"UP","transit":false,"distance":2264,"i_long":106.834175,"time":3,"line":2,"i_lat":-6.339291,"station_name":"Univ. Pancasila","is_transit":false},{"station_name":"Lenteng Agung","time":2,"transit":false,"is_transit":false,"i_long":106.832616,"line":2,"distance":1029,"station_id":"LNA","i_lat":-6.330363},{"station_id":"TNT","transit":false,"i_long":106.838896,"is_transit":false,"i_lat":-6.3080680000000005,"line":2,"station_name":"Tanjung Barat","time":3,"distance":2671},{"distance":2820,"i_lat":-6.2842400000000005,"i_long":106.843999,"line":2,"transit":false,"time":4,"station_name":"Pasar Minggu","station_id":"PSM","is_transit":false},{"station_id":"PSMB","distance":2380,"transit":false,"is_transit":false,"line":2,"i_lat":-6.263214,"time":2,"station_name":"Pasar Minggu Baru","i_long":106.851577},{"i_lat":-6.255332,"distance":824,"time":2,"i_long":106.85449,"transit":false,"line":2,"station_id":"DRN","is_transit":false,"station_name":"Duren Kalibata"},{"station_id":"CW","station_name":"Cawang","i_lat":-6.242512,"is_transit":false,"line":2,"time":3,"transit":false,"i_long":106.856607,"distance":1546},{"distance":1230,"is_transit":false,"i_lat":-6.226659,"station_id":"TEB","transit":false,"time":2,"station_name":"Tebet","i_long":106.857948,"line":2},{"i_lat":-6.209883,"time":4,"station_id":"MRI","station_name":"Manggarai","is_transit":true,"line":2,"distance":2610,"transit":true,"i_long":106.84912},{"station_name":"Matraman","distance":1275,"is_transit":false,"i_lat":-6.212485,"line":1,"station_id":"MTR","transit":false,"i_long":106.858896,"time":2},{"i_lat":-6.215091,"line":1,"transit":true,"station_name":"Jatinegara","station_id":"JNG","distance":1377,"is_transit":true,"time":8,"i_long":106.86807400000001},{"i_long":106.861737,"line":11,"station_name":"Pondok Jati","station_id":"POK","time":2,"i_lat":-6.209188,"transit":false,"is_transit":false,"distance":1236},{"time":2,"i_long":106.855437,"line":11,"is_transit":false,"station_name":"Kramat","i_lat":-6.193792,"transit":false,"distance":1829,"station_id":"KMT"},{"line":11,"distance":973,"i_lat":-6.185975,"is_transit":false,"station_id":"GST","station_name":"Gang Sentiong","time":1,"i_long":106.850107,"transit":false},{"line":11,"station_id":"PSE","transit":false,"is_transit":false,"i_long":106.84368,"distance":1567,"time":8,"station_name":"Pasar Senen","i_lat":-6.174784},{"line":11,"time":4,"station_id":"KMO","i_long":106.839204,"station_name":"Kemayoran","i_lat":-6.161728,"distance":1436,"transit":false,"is_transit":false},{"station_name":"Rajawali","line":11,"distance":1901,"is_transit":false,"station_id":"RJW","time":5,"i_lat":-6.14505,"transit":false,"i_long":106.836569},{"transit":true,"station_id":"KPB","station_name":"Kampung Bandan","is_transit":true,"i_lat":-6.132549,"distance":1444,"time":3,"i_long":106.826365,"line":4},{"transit":false,"is_transit":false,"station_name":"Angke","i_lat":-6.144674,"time":9,"line":1,"distance":4102,"i_long":106.79867,"station_id":"AK"},{"transit":false,"time":4,"i_long":106.800832,"station_id":"DU","is_transit":false,"line":1,"distance":1230,"i_lat":-6.155215,"station_name":"Duri"},{"line":1,"station_name":"Tanah Abang","transit":false,"distance":3632,"i_lat":-6.185545,"time":8,"i_long":106.811091,"is_transit":false,"station_id":"THB"}]]}