{"data":[[{"station_id":"BJD","is_transit":false,"time":0,"i_lat":-6.493243,"i_long":106.792719,"transit":false,"line":2,"station_name":"Bojonggede","distance":0},{"i_long":106.800298,"line":2,"transit":false,"station_id":"CTA","is_transit":false,"i_lat":-6.448811,"time":5,"station_name":"Citayam","distance":5197},{"station_id":"DP","time":6,"station_name":"Depok","i_lat":-6.405256,"is_transit":false,"i_long":106.816926,"transit":false,"line":2,"distance":5084},{"station_name":"Depokbaru","is_transit":false,"time":3,"transit":false,"i_long":106.819451,"i_lat":-6.391065,"line":2,"distance":1584,"station_id":"DPB"},{"time":4,"i_lat":-6.369073,"line":2,"is_transit":false,"station_name":"Pondok Cina","transit":false,"i_long":106.831114,"station_id":"POC","distance":2727},{"distance":1109,"i_long":106.831474,"station_name":"Univ. Indonesia","is_transit":false,"transit":false,"i_lat":-6.360749,"line":2,"station_id":"UI","time":2},{"transit":false,"station_name":"Univ. Pancasila","time":3,"i_long":106.834175,"is_transit":false,"i_lat":-6.339291,"station_id":"UP","distance":2264,"line":2},{"transit":false,"station_name":"Lenteng Agung","time":2,"distance":1029,"is_transit":false,"i_lat":-6.330363,"station_id":"LNA","i_long":106.832616,"line":2},{"i_lat":-6.3080680000000005,"station_id":"TNT","distance":2671,"station_name":"Tanjung Barat","transit":false,"i_long":106.838896,"line":2,"is_transit":false,"time":3},{"transit":false,"time":4,"i_long":106.843999,"distance":2820,"i_lat":-6.2842400000000005,"station_name":"Pasar Minggu","is_transit":false,"station_id":"PSM","line":2},{"is_transit":false,"i_lat":-6.263214,"station_name":"Pasar Minggu Baru","time":2,"line":2,"station_id":"PSMB","distance":2380,"transit":false,"i_long":106.851577},{"transit":false,"time":2,"i_lat":-6.255332,"station_id":"DRN","is_transit":false,"i_long":106.85449,"station_name":"Duren Kalibata","distance":824,"line":2},{"i_lat":-6.242512,"distance":1546,"i_long":106.856607,"line":2,"station_id":"CW","station_name":"Cawang","time":3,"is_transit":false,"transit":false},{"station_id":"TEB","i_lat":-6.226659,"time":2,"station_name":"Tebet","distance":1230,"transit":false,"i_long":106.857948,"is_transit":false,"line":2}]]}