{"data":[[{"i_long":106.792719,"transit":false,"i_lat":-6.493243,"is_transit":false,"station_name":"Bojonggede","station_id":"BJD","time":0,"distance":0,"line":2},{"line":2,"i_lat":-6.448811,"is_transit":false,"distance":5197,"station_id":"CTA","transit":false,"time":5,"i_long":106.800298,"station_name":"Citayam"},{"i_long":106.816926,"station_id":"DP","i_lat":-6.405256,"time":6,"line":2,"is_transit":false,"station_name":"Depok","transit":false,"distance":5084},{"time":3,"is_transit":false,"line":2,"i_lat":-6.391065,"distance":1584,"station_name":"Depokbaru","station_id":"DPB","transit":false,"i_long":106.819451},{"i_lat":-6.369073,"station_id":"POC","transit":false,"distance":2727,"line":2,"i_long":106.831114,"station_name":"Pondok Cina","is_transit":false,"time":4},{"is_transit":false,"station_name":"Univ. Indonesia","i_lat":-6.360749,"transit":false,"distance":1109,"line":2,"station_id":"UI","i_long":106.831474,"time":2},{"i_long":106.834175,"distance":2264,"transit":false,"station_name":"Univ. Pancasila","is_transit":false,"station_id":"UP","time":3,"i_lat":-6.339291,"line":2},{"transit":false,"station_id":"LNA","station_name":"Lenteng Agung","is_transit":false,"distance":1029,"i_lat":-6.330363,"i_long":106.832616,"line":2,"time":2},{"station_name":"Tanjung Barat","i_lat":-6.3080680000000005,"transit":false,"is_transit":false,"distance":2671,"station_id":"TNT","i_long":106.838896,"line":2,"time":3},{"distance":2820,"i_long":106.843999,"line":2,"transit":false,"i_lat":-6.2842400000000005,"station_name":"Pasar Minggu","station_id":"PSM","time":4,"is_transit":false},{"transit":false,"station_name":"Pasar Minggu Baru","time":2,"i_long":106.851577,"station_id":"PSMB","is_transit":false,"distance":2380,"i_lat":-6.263214,"line":2},{"is_transit":false,"distance":824,"line":2,"station_name":"Duren Kalibata","i_lat":-6.255332,"station_id":"DRN","time":2,"transit":false,"i_long":106.85449},{"station_name":"Cawang","time":3,"distance":1546,"i_lat":-6.242512,"line":2,"station_id":"CW","i_long":106.856607,"transit":false,"is_transit":false}]]}