{"data":[[{"distance":0,"i_lat":-6.493243,"is_transit":false,"transit":false,"i_long":106.792719,"line":2,"time":0,"station_id":"BJD","station_name":"Bojonggede"},{"station_id":"CTA","is_transit":false,"time":5,"station_name":"Citayam","transit":false,"distance":5197,"line":2,"i_long":106.800298,"i_lat":-6.448811},{"station_name":"Depok","station_id":"DP","time":6,"transit":false,"i_lat":-6.405256,"line":2,"is_transit":false,"i_long":106.816926,"distance":5084},{"station_id":"DPB","is_transit":false,"time":3,"station_name":"Depokbaru","i_long":106.819451,"transit":false,"i_lat":-6.391065,"line":2,"distance":1584},{"station_name":"Pondok Cina","line":2,"is_transit":false,"distance":2727,"time":4,"station_id":"POC","i_lat":-6.369073,"i_long":106.831114,"transit":false},{"distance":1109,"time":2,"line":2,"i_lat":-6.360749,"station_id":"UI","station_name":"Univ. Indonesia","transit":false,"is_transit":false,"i_long":106.831474},{"transit":false,"i_lat":-6.339291,"distance":2264,"station_id":"UP","line":2,"i_long":106.834175,"station_name":"Univ. Pancasila","is_transit":false,"time":3},{"transit":false,"is_transit":false,"i_long":106.832616,"distance":1029,"line":2,"time":2,"i_lat":-6.330363,"station_name":"Lenteng Agung","station_id":"LNA"},{"transit":false,"is_transit":false,"i_lat":-6.3080680000000005,"line":2,"distance":2671,"time":3,"station_id":"TNT","i_long":106.838896,"station_name":"Tanjung Barat"},{"station_id":"PSM","line":2,"i_long":106.843999,"i_lat":-6.2842400000000005,"time":4,"station_name":"Pasar Minggu","transit":false,"distance":2820,"is_transit":false},{"line":2,"transit":false,"is_transit":false,"time":2,"i_lat":-6.263214,"distance":2380,"station_id":"PSMB","i_long":106.851577,"station_name":"Pasar Minggu Baru"},{"distance":824,"i_long":106.85449,"line":2,"time":2,"station_id":"DRN","transit":false,"i_lat":-6.255332,"station_name":"Duren Kalibata","is_transit":false},{"line":2,"time":3,"i_lat":-6.242512,"is_transit":false,"distance":1546,"station_id":"CW","station_name":"Cawang","transit":false,"i_long":106.856607}]]}