{"data":[[{"station_id":"BJD","time":0,"transit":false,"is_transit":false,"distance":0,"i_long":106.792719,"i_lat":-6.493243,"line":2,"station_name":"Bojonggede"},{"i_lat":-6.448811,"station_id":"CTA","station_name":"Citayam","is_transit":false,"line":2,"distance":5197,"i_long":106.800298,"time":5,"transit":false},{"transit":false,"distance":5084,"is_transit":false,"i_long":106.816926,"line":2,"station_id":"DP","i_lat":-6.405256,"station_name":"Depok","time":6},{"is_transit":false,"time":3,"transit":false,"distance":1584,"i_lat":-6.391065,"line":2,"station_name":"Depokbaru","station_id":"DPB","i_long":106.819451},{"i_lat":-6.369073,"is_transit":false,"transit":false,"station_id":"POC","station_name":"Pondok Cina","time":4,"distance":2727,"i_long":106.831114,"line":2},{"is_transit":false,"time":2,"i_long":106.831474,"distance":1109,"i_lat":-6.360749,"station_id":"UI","transit":false,"station_name":"Univ. Indonesia","line":2},{"station_name":"Univ. Pancasila","i_lat":-6.339291,"is_transit":false,"line":2,"transit":false,"time":3,"station_id":"UP","distance":2264,"i_long":106.834175},{"is_transit":false,"line":2,"i_long":106.832616,"time":2,"distance":1029,"i_lat":-6.330363,"transit":false,"station_id":"LNA","station_name":"Lenteng Agung"},{"transit":false,"i_lat":-6.3080680000000005,"line":2,"distance":2671,"station_id":"TNT","is_transit":false,"time":3,"i_long":106.838896,"station_name":"Tanjung Barat"},{"i_long":106.843999,"line":2,"transit":false,"distance":2820,"time":4,"station_id":"PSM","i_lat":-6.2842400000000005,"station_name":"Pasar Minggu","is_transit":false},{"time":2,"station_name":"Pasar Minggu Baru","line":2,"i_long":106.851577,"i_lat":-6.263214,"is_transit":false,"station_id":"PSMB","distance":2380,"transit":false},{"i_long":106.85449,"line":2,"station_name":"Duren Kalibata","distance":824,"i_lat":-6.255332,"is_transit":false,"time":2,"station_id":"DRN","transit":false},{"line":2,"i_lat":-6.242512,"i_long":106.856607,"transit":false,"is_transit":false,"time":3,"station_name":"Cawang","distance":1546,"station_id":"CW"},{"i_lat":-6.226659,"i_long":106.857948,"transit":false,"is_transit":false,"time":2,"station_id":"TEB","station_name":"Tebet","line":2,"distance":1230},{"i_lat":-6.209883,"i_long":106.84912,"time":4,"distance":2610,"station_id":"MRI","is_transit":true,"line":2,"transit":true,"station_name":"Manggarai"},{"transit":false,"distance":1275,"line":1,"i_lat":-6.212485,"station_name":"Matraman","is_transit":false,"time":2,"station_id":"MTR","i_long":106.858896},{"station_name":"Jatinegara","transit":false,"is_transit":false,"time":8,"distance":1377,"i_long":106.86807400000001,"i_lat":-6.215091,"line":1,"station_id":"JNG"},{"i_long":106.899548,"line":1,"station_name":"Klender","transit":false,"distance":3395,"is_transit":false,"station_id":"KLD","time":3,"i_lat":-6.2135},{"line":1,"station_id":"BUA","i_lat":-6.215568,"distance":3100,"i_long":106.922662,"is_transit":false,"transit":false,"station_name":"Buaran","time":2},{"station_name":"Klenderbaru","transit":false,"is_transit":false,"line":1,"station_id":"KLDB","time":1,"i_lat":-6.217455,"distance":1305,"i_long":106.939679},{"station_id":"CUK","line":1,"i_lat":-6.219053,"station_name":"Cakung","i_long":106.951283,"transit":false,"distance":1385,"is_transit":false,"time":8},{"is_transit":false,"station_id":"KRI","distance":3097,"line":1,"i_long":106.977657,"transit":false,"time":3,"i_lat":-6.224515,"station_name":"Kranji"},{"i_lat":-6.236616,"distance":2520,"i_long":106.997013,"transit":false,"station_id":"BKS","is_transit":false,"line":1,"station_name":"Bekasi","time":4}],[{"i_long":106.792719,"time":0,"line":2,"transit":false,"i_lat":-6.493243,"station_id":"BJD","station_name":"Bojonggede","is_transit":false,"distance":0},{"line":2,"i_long":106.800298,"is_transit":false,"station_id":"CTA","station_name":"Citayam","i_lat":-6.448811,"distance":5197,"transit":false,"time":5},{"distance":5084,"station_id":"DP","station_name":"Depok","time":6,"i_long":106.816926,"is_transit":false,"i_lat":-6.405256,"transit":false,"line":2},{"is_transit":false,"time":3,"transit":false,"i_long":106.819451,"distance":1584,"station_name":"Depokbaru","station_id":"DPB","i_lat":-6.391065,"line":2},{"station_name":"Pondok Cina","station_id":"POC","distance":2727,"i_lat":-6.369073,"is_transit":false,"transit":false,"time":4,"i_long":106.831114,"line":2},{"distance":1109,"time":2,"station_id":"UI","station_name":"Univ. Indonesia","i_lat":-6.360749,"i_long":106.831474,"transit":false,"line":2,"is_transit":false},{"line":2,"is_transit":false,"transit":false,"station_id":"UP","i_lat":-6.339291,"station_name":"Univ. Pancasila","distance":2264,"time":3,"i_long":106.834175},{"station_id":"LNA","time":2,"i_long":106.832616,"transit":false,"line":2,"distance":1029,"station_name":"Lenteng Agung","is_transit":false,"i_lat":-6.330363},{"station_id":"TNT","i_lat":-6.3080680000000005,"line":2,"station_name":"Tanjung Barat","is_transit":false,"i_long":106.838896,"transit":false,"time":3,"distance":2671},{"is_transit":false,"time":4,"line":2,"i_lat":-6.2842400000000005,"transit":false,"station_name":"Pasar Minggu","i_long":106.843999,"station_id":"PSM","distance":2820},{"station_id":"PSMB","is_transit":false,"time":2,"transit":false,"i_long":106.851577,"distance":2380,"line":2,"i_lat":-6.263214,"station_name":"Pasar Minggu Baru"},{"i_long":106.85449,"station_id":"DRN","i_lat":-6.255332,"line":2,"transit":false,"is_transit":false,"time":2,"distance":824,"station_name":"Duren Kalibata"},{"line":2,"transit":false,"time":3,"distance":1546,"is_transit":false,"i_lat":-6.242512,"station_name":"Cawang","station_id":"CW","i_long":106.856607},{"i_long":106.857948,"station_name":"Tebet","line":2,"time":2,"distance":1230,"station_id":"TEB","transit":false,"is_transit":false,"i_lat":-6.226659},{"i_long":106.84912,"line":2,"is_transit":true,"time":4,"transit":true,"i_lat":-6.209883,"station_name":"Manggarai","distance":2610,"station_id":"MRI"},{"is_transit":false,"line":1,"transit":false,"i_long":106.822649,"station_id":"SUD","time":4,"i_lat":-6.202263,"station_name":"Sudirman","distance":3186},{"i_long":106.819881,"distance":280,"transit":false,"is_transit":false,"i_lat":-6.201433,"time":1,"station_name":"Sudirman Baru","line":1,"station_id":"SUDB"},{"transit":false,"i_long":106.816351,"station_id":"KAT","time":1,"i_lat":-6.20132,"is_transit":false,"distance":471,"station_name":"Karet","line":1},{"is_transit":false,"i_lat":-6.185545,"time":5,"i_long":106.811091,"distance":2029,"station_name":"Tanah Abang","station_id":"THB","transit":false,"line":1},{"station_name":"Duri","distance":3632,"is_transit":false,"i_lat":-6.155215,"i_long":106.800832,"transit":false,"line":1,"station_id":"DU","time":8},{"distance":1230,"time":4,"station_id":"AK","transit":false,"station_name":"Angke","is_transit":false,"i_long":106.79867,"line":1,"i_lat":-6.144674},{"station_id":"KPB","transit":true,"line":4,"time":9,"i_long":106.826365,"station_name":"Kampung Bandan","is_transit":true,"i_lat":-6.132549,"distance":4102},{"time":3,"i_long":106.836569,"is_transit":false,"line":11,"station_id":"RJW","station_name":"Rajawali","transit":false,"i_lat":-6.14505,"distance":1444},{"time":5,"i_lat":-6.161728,"distance":1901,"station_id":"KMO","station_name":"Kemayoran","transit":false,"line":11,"i_long":106.839204,"is_transit":false},{"i_lat":-6.174784,"i_long":106.84368,"distance":1436,"station_id":"PSE","line":11,"station_name":"Pasar Senen","is_transit":false,"time":4,"transit":false},{"line":11,"distance":1567,"transit":false,"is_transit":false,"i_lat":-6.185975,"station_name":"Gang Sentiong","station_id":"GST","time":8,"i_long":106.850107},{"i_lat":-6.193792,"transit":false,"station_name":"Kramat","line":11,"distance":973,"i_long":106.855437,"time":1,"station_id":"KMT","is_transit":false},{"is_transit":false,"i_lat":-6.209188,"transit":false,"time":2,"station_name":"Pondok Jati","i_long":106.861737,"line":11,"station_id":"POK","distance":1829},{"distance":1236,"line":1,"transit":true,"time":9,"is_transit":true,"i_long":106.86807400000001,"station_id":"JNG","i_lat":-6.215091,"station_name":"Jatinegara"},{"station_name":"Klender","line":1,"transit":false,"i_long":106.899548,"is_transit":false,"distance":3395,"i_lat":-6.2135,"station_id":"KLD","time":3},{"is_transit":false,"time":2,"i_long":106.922662,"transit":false,"i_lat":-6.215568,"line":1,"distance":3100,"station_name":"Buaran","station_id":"BUA"},{"transit":false,"i_lat":-6.217455,"i_long":106.939679,"time":1,"station_id":"KLDB","is_transit":false,"line":1,"station_name":"Klenderbaru","distance":1305},{"station_name":"Cakung","station_id":"CUK","is_transit":false,"time":8,"distance":1385,"i_lat":-6.219053,"i_long":106.951283,"line":1,"transit":false},{"transit":false,"station_id":"KRI","is_transit":false,"time":3,"i_long":106.977657,"distance":3097,"i_lat":-6.224515,"station_name":"Kranji","line":1},{"i_lat":-6.236616,"is_transit":false,"distance":2520,"station_id":"BKS","line":1,"i_long":106.997013,"station_name":"Bekasi","transit":false,"time":4}],[{"distance":0,"transit":false,"line":2,"time":0,"is_transit":false,"station_id":"BJD","i_lat":-6.493243,"station_name":"Bojonggede","i_long":106.792719},{"station_name":"Citayam","is_transit":false,"line":2,"distance":5197,"i_lat":-6.448811,"i_long":106.800298,"station_id":"CTA","transit":false,"time":5},{"station_name":"Depok","i_long":106.816926,"is_transit":false,"line":2,"time":6,"transit":false,"i_lat":-6.405256,"station_id":"DP","distance":5084},{"station_name":"Depokbaru","station_id":"DPB","line":2,"distance":1584,"time":3,"i_lat":-6.391065,"is_transit":false,"transit":false,"i_long":106.819451},{"line":2,"station_name":"Pondok Cina","transit":false,"is_transit":false,"distance":2727,"time":4,"i_long":106.831114,"station_id":"POC","i_lat":-6.369073},{"time":2,"station_id":"UI","distance":1109,"is_transit":false,"station_name":"Univ. Indonesia","i_long":106.831474,"line":2,"i_lat":-6.360749,"transit":false},{"time":3,"station_id":"UP","transit":false,"i_long":106.834175,"station_name":"Univ. Pancasila","distance":2264,"line":2,"is_transit":false,"i_lat":-6.339291},{"i_lat":-6.330363,"station_name":"Lenteng Agung","time":2,"transit":false,"distance":1029,"i_long":106.832616,"line":2,"station_id":"LNA","is_transit":false},{"transit":false,"line":2,"i_lat":-6.3080680000000005,"station_name":"Tanjung Barat","i_long":106.838896,"is_transit":false,"station_id":"TNT","distance":2671,"time":3},{"is_transit":false,"station_id":"PSM","distance":2820,"i_lat":-6.2842400000000005,"line":2,"transit":false,"station_name":"Pasar Minggu","i_long":106.843999,"time":4},{"is_transit":false,"station_name":"Pasar Minggu Baru","i_lat":-6.263214,"transit":false,"i_long":106.851577,"station_id":"PSMB","time":2,"distance":2380,"line":2},{"distance":824,"station_name":"Duren Kalibata","is_transit":false,"time":2,"i_lat":-6.255332,"i_long":106.85449,"transit":false,"station_id":"DRN","line":2},{"is_transit":false,"line":2,"station_id":"CW","time":3,"i_long":106.856607,"distance":1546,"transit":false,"station_name":"Cawang","i_lat":-6.242512},{"station_name":"Tebet","is_transit":false,"i_lat":-6.226659,"line":2,"i_long":106.857948,"station_id":"TEB","time":2,"transit":false,"distance":1230},{"is_transit":false,"station_name":"Manggarai","transit":false,"i_lat":-6.209883,"distance":2610,"station_id":"MRI","i_long":106.84912,"time":4,"line":2},{"distance":1590,"station_name":"Cikini","is_transit":false,"i_long":106.840169,"i_lat":-6.198556,"station_id":"CKI","transit":false,"time":4,"line":2},{"is_transit":false,"time":3,"station_name":"Gondangdia","line":2,"station_id":"GDD","distance":1750,"i_lat":-6.186295,"i_long":106.832183,"transit":false},{"i_lat":-6.166716,"station_name":"Juanda","i_long":106.828284,"line":2,"is_transit":false,"transit":false,"station_id":"JUA","distance":2015,"time":4},{"line":2,"i_lat":-6.160725,"is_transit":false,"time":2,"station_id":"SW","station_name":"Sawah Besar","transit":false,"i_long":106.827103,"distance":1149},{"distance":906,"station_id":"MGB","station_name":"Manggabesar","transit":false,"line":2,"is_transit":false,"time":2,"i_long":106.82482,"i_lat":-6.149769},{"transit":false,"time":2,"i_long":106.820901,"i_lat":-6.141205,"distance":1080,"is_transit":false,"station_id":"JAY","line":2,"station_name":"Jayakarta"},{"is_transit":true,"station_id":"JAKK","line":2,"station_name":"Jakarta Kota","i_lat":-6.137569,"time":4,"distance":1264,"i_long":106.812439,"transit":true},{"line":4,"station_name":"Kampung Bandan","i_lat":-6.132549,"transit":true,"distance":1364,"i_long":106.826365,"station_id":"KPB","is_transit":true,"time":3},{"station_name":"Rajawali","distance":1444,"line":11,"i_long":106.836569,"time":3,"station_id":"RJW","transit":false,"i_lat":-6.14505,"is_transit":false},{"station_name":"Kemayoran","transit":false,"is_transit":false,"time":5,"i_long":106.839204,"i_lat":-6.161728,"distance":1901,"station_id":"KMO","line":11},{"i_lat":-6.174784,"station_id":"PSE","distance":1436,"transit":false,"station_name":"Pasar Senen","is_transit":false,"time":4,"i_long":106.84368,"line":11},{"line":11,"distance":1567,"i_long":106.850107,"is_transit":false,"station_id":"GST","i_lat":-6.185975,"station_name":"Gang Sentiong","time":8,"transit":false},{"i_long":106.855437,"line":11,"time":1,"station_id":"KMT","distance":973,"is_transit":false,"station_name":"Kramat","i_lat":-6.193792,"transit":false},{"distance":1829,"station_name":"Pondok Jati","line":11,"i_lat":-6.209188,"station_id":"POK","is_transit":false,"i_long":106.861737,"time":2,"transit":false},{"is_transit":true,"station_id":"JNG","transit":true,"time":9,"i_lat":-6.215091,"station_name":"Jatinegara","i_long":106.86807400000001,"distance":1236,"line":1},{"time":3,"distance":3395,"i_lat":-6.2135,"station_id":"KLD","transit":false,"station_name":"Klender","line":1,"is_transit":false,"i_long":106.899548},{"time":2,"distance":3100,"station_id":"BUA","transit":false,"station_name":"Buaran","i_long":106.922662,"is_transit":false,"line":1,"i_lat":-6.215568},{"transit":false,"i_lat":-6.217455,"i_long":106.939679,"is_transit":false,"distance":1305,"time":1,"station_name":"Klenderbaru","line":1,"station_id":"KLDB"},{"is_transit":false,"station_id":"CUK","transit":false,"i_long":106.951283,"station_name":"Cakung","i_lat":-6.219053,"line":1,"time":8,"distance":1385},{"i_long":106.977657,"station_id":"KRI","time":3,"i_lat":-6.224515,"station_name":"Kranji","transit":false,"distance":3097,"is_transit":false,"line":1},{"transit":false,"station_id":"BKS","i_long":106.997013,"i_lat":-6.236616,"is_transit":false,"distance":2520,"time":4,"line":1,"station_name":"Bekasi"}]]}