{"data":[[{"line":0,"time":0,"station_name":"Bojonggede","station_id":"BJD","transit":false,"i_lat":-6.493243,"is_transit":false,"i_long":106.792719,"distance":0},{"station_id":"CTA","distance":5197,"station_name":"Citayam","line":1,"is_transit":true,"time":5,"i_long":106.800298,"i_lat":-6.448811,"transit":false},{"distance":5084,"station_id":"DP","transit":false,"line":0,"station_name":"Depok","i_lat":-6.405256,"time":6,"i_long":106.816926,"is_transit":false},{"line":0,"station_name":"Depokbaru","transit":false,"i_long":106.819451,"distance":1584,"is_transit":false,"station_id":"DPB","time":3,"i_lat":-6.391065},{"station_name":"Pondok Cina","line":2,"i_lat":-6.369073,"distance":2727,"station_id":"POC","transit":false,"is_transit":false,"time":4,"i_long":106.831114},{"line":2,"distance":1109,"station_name":"Univ. Indonesia","time":2,"is_transit":false,"station_id":"UI","i_lat":-6.360749,"transit":false,"i_long":106.831474},{"is_transit":false,"time":3,"transit":false,"station_id":"UP","station_name":"Univ. Pancasila","i_lat":-6.339291,"distance":2264,"i_long":106.834175,"line":2},{"station_id":"LNA","i_lat":-6.330363,"line":2,"is_transit":false,"transit":false,"i_long":106.832616,"distance":1029,"station_name":"Lenteng Agung","time":2},{"time":3,"transit":false,"i_long":106.838896,"station_id":"TNT","line":2,"distance":2671,"station_name":"Tanjung Barat","is_transit":false,"i_lat":-6.3080680000000005},{"i_lat":-6.2842400000000005,"time":4,"station_name":"Pasar Minggu","station_id":"PSM","transit":false,"i_long":106.843999,"is_transit":false,"distance":2820,"line":2},{"i_lat":-6.263214,"is_transit":false,"station_name":"Pasar Minggu Baru","station_id":"PSMB","line":2,"transit":false,"time":2,"i_long":106.851577,"distance":2380},{"is_transit":false,"time":2,"transit":false,"i_long":106.85449,"line":0,"i_lat":-6.255332,"station_name":"Duren Kalibata","distance":824,"station_id":"DRN"},{"i_long":106.856607,"i_lat":-6.242512,"station_name":"Cawang","is_transit":false,"time":3,"station_id":"CW","line":0,"distance":1546,"transit":false},{"is_transit":false,"station_name":"Tebet","distance":1230,"station_id":"TEB","transit":false,"i_long":106.857948,"time":2,"line":2,"i_lat":-6.226659},{"transit":true,"line":0,"station_id":"MRI","i_long":106.84912,"distance":2610,"is_transit":true,"station_name":"Manggarai","time":4,"i_lat":-6.209883},{"transit":false,"line":1,"time":4,"is_transit":false,"station_id":"SUD","distance":3186,"i_lat":-6.202263,"station_name":"Sudirman","i_long":106.822649},{"station_name":"Sudirman Baru","i_long":106.819881,"station_id":"SUDB","transit":false,"distance":280,"line":1,"is_transit":false,"i_lat":-6.201433,"time":1},{"line":1,"transit":false,"is_transit":false,"i_lat":-6.20132,"distance":471,"station_name":"Karet","i_long":106.816351,"station_id":"KAT","time":1},{"is_transit":true,"distance":2029,"station_id":"THB","line":1,"station_name":"Tanah Abang","i_long":106.811091,"i_lat":-6.185545,"time":5,"transit":false},{"i_lat":-6.155215,"transit":true,"line":1,"is_transit":true,"time":8,"i_long":106.800832,"distance":3632,"station_name":"Duri","station_id":"DU"},{"i_lat":-6.162021,"i_long":106.788277,"transit":false,"line":5,"is_transit":false,"distance":1700,"station_name":"Grogol","time":3,"station_id":"GGL"},{"i_long":106.771379,"line":5,"is_transit":false,"i_lat":-6.161433,"station_id":"PSG","distance":2036,"station_name":"Pesing","time":2,"transit":false},{"line":5,"transit":false,"distance":1614,"is_transit":false,"time":2,"i_lat":-6.1587309999999995,"station_name":"Taman Kota","i_long":106.756522,"station_id":"TKO"},{"distance":2334,"is_transit":false,"station_name":"Bojongindah","time":2,"station_id":"BOI","i_lat":-6.159876,"transit":false,"i_long":106.737035,"line":0},{"is_transit":false,"station_id":"RW","i_lat":-6.162758,"transit":false,"line":5,"station_name":"Rawa Buaya","distance":1152,"time":4,"i_long":106.723064},{"i_lat":-6.166068,"is_transit":false,"line":5,"station_id":"KDS","transit":false,"i_long":106.701612,"distance":2504,"station_name":"Kalideres","time":3},{"transit":false,"station_name":"Poris","is_transit":false,"i_long":106.679458,"station_id":"PI","line":5,"i_lat":-6.169933,"distance":2548,"time":3},{"transit":false,"i_lat":-6.171811,"i_long":106.665036,"time":3,"distance":1834,"station_name":"Batuceper","line":0,"is_transit":false,"station_id":"BPR"}],[{"is_transit":false,"i_long":106.792719,"i_lat":-6.493243,"station_id":"BJD","line":0,"station_name":"Bojonggede","time":0,"transit":false,"distance":0},{"line":1,"transit":false,"station_name":"Citayam","time":5,"distance":5197,"i_long":106.800298,"is_transit":true,"station_id":"CTA","i_lat":-6.448811},{"i_long":106.816926,"station_id":"DP","station_name":"Depok","time":6,"is_transit":false,"distance":5084,"i_lat":-6.405256,"transit":false,"line":0},{"station_name":"Depokbaru","distance":1584,"station_id":"DPB","i_long":106.819451,"time":3,"transit":false,"is_transit":false,"i_lat":-6.391065,"line":0},{"is_transit":false,"i_lat":-6.369073,"i_long":106.831114,"distance":2727,"station_name":"Pondok Cina","time":4,"line":2,"transit":false,"station_id":"POC"},{"is_transit":false,"transit":false,"i_long":106.831474,"line":2,"station_name":"Univ. Indonesia","i_lat":-6.360749,"distance":1109,"time":2,"station_id":"UI"},{"i_lat":-6.339291,"time":3,"line":2,"distance":2264,"i_long":106.834175,"is_transit":false,"station_name":"Univ. Pancasila","transit":false,"station_id":"UP"},{"i_lat":-6.330363,"i_long":106.832616,"station_id":"LNA","time":2,"distance":1029,"transit":false,"is_transit":false,"station_name":"Lenteng Agung","line":2},{"i_long":106.838896,"is_transit":false,"station_name":"Tanjung Barat","line":2,"station_id":"TNT","distance":2671,"i_lat":-6.3080680000000005,"time":3,"transit":false},{"distance":2820,"transit":false,"station_id":"PSM","i_lat":-6.2842400000000005,"time":4,"i_long":106.843999,"line":2,"is_transit":false,"station_name":"Pasar Minggu"},{"time":2,"i_lat":-6.263214,"i_long":106.851577,"line":2,"station_name":"Pasar Minggu Baru","distance":2380,"transit":false,"is_transit":false,"station_id":"PSMB"},{"is_transit":false,"time":2,"transit":false,"distance":824,"station_name":"Duren Kalibata","station_id":"DRN","i_lat":-6.255332,"line":0,"i_long":106.85449},{"time":3,"i_lat":-6.242512,"is_transit":false,"i_long":106.856607,"station_id":"CW","line":0,"transit":false,"distance":1546,"station_name":"Cawang"},{"is_transit":false,"distance":1230,"time":2,"line":2,"station_id":"TEB","i_long":106.857948,"station_name":"Tebet","i_lat":-6.226659,"transit":false},{"time":4,"transit":true,"station_name":"Manggarai","distance":2610,"line":0,"i_lat":-6.209883,"is_transit":true,"station_id":"MRI","i_long":106.84912},{"station_id":"CKI","i_long":106.840169,"is_transit":false,"station_name":"Cikini","time":4,"line":0,"i_lat":-6.198556,"transit":false,"distance":1590},{"transit":false,"station_name":"Gondangdia","time":3,"i_long":106.832183,"i_lat":-6.186295,"is_transit":false,"distance":1750,"station_id":"GDD","line":2},{"transit":false,"line":2,"i_long":106.828284,"station_name":"Juanda","station_id":"JUA","distance":2015,"time":4,"is_transit":false,"i_lat":-6.166716},{"transit":false,"i_long":106.827103,"distance":1149,"time":2,"i_lat":-6.160725,"is_transit":false,"station_name":"Sawah Besar","station_id":"SW","line":2},{"transit":false,"is_transit":false,"station_name":"Manggabesar","line":2,"distance":906,"station_id":"MGB","time":2,"i_long":106.82482,"i_lat":-6.149769},{"station_id":"JAY","is_transit":false,"i_long":106.820901,"distance":1080,"line":7,"i_lat":-6.141205,"station_name":"Jayakarta","transit":false,"time":2},{"line":0,"is_transit":true,"transit":true,"i_long":106.812439,"time":4,"distance":1264,"station_id":"JAKK","station_name":"Jakarta Kota","i_lat":-6.137569},{"line":0,"transit":false,"is_transit":true,"i_lat":-6.132549,"i_long":106.826365,"distance":1364,"time":3,"station_id":"KPB","station_name":"Kampung Bandan"},{"station_name":"Angke","time":9,"i_lat":-6.144674,"i_long":106.79867,"line":0,"transit":false,"is_transit":false,"station_id":"AK","distance":4102},{"time":4,"transit":true,"i_lat":-6.155215,"line":1,"is_transit":true,"distance":1230,"station_name":"Duri","i_long":106.800832,"station_id":"DU"},{"time":3,"transit":false,"line":5,"station_name":"Grogol","i_lat":-6.162021,"is_transit":false,"i_long":106.788277,"station_id":"GGL","distance":1700},{"i_long":106.771379,"is_transit":false,"transit":false,"distance":2036,"station_name":"Pesing","station_id":"PSG","line":5,"time":2,"i_lat":-6.161433},{"time":2,"station_id":"TKO","station_name":"Taman Kota","transit":false,"i_long":106.756522,"distance":1614,"line":5,"is_transit":false,"i_lat":-6.1587309999999995},{"transit":false,"i_long":106.737035,"i_lat":-6.159876,"time":2,"distance":2334,"is_transit":false,"line":0,"station_name":"Bojongindah","station_id":"BOI"},{"time":4,"distance":1152,"station_id":"RW","station_name":"Rawa Buaya","is_transit":false,"transit":false,"line":5,"i_lat":-6.162758,"i_long":106.723064},{"station_name":"Kalideres","distance":2504,"time":3,"is_transit":false,"station_id":"KDS","i_lat":-6.166068,"transit":false,"i_long":106.701612,"line":5},{"station_name":"Poris","distance":2548,"i_lat":-6.169933,"line":5,"is_transit":false,"transit":false,"station_id":"PI","i_long":106.679458,"time":3},{"station_name":"Batuceper","i_long":106.665036,"is_transit":false,"distance":1834,"station_id":"BPR","transit":false,"time":3,"i_lat":-6.171811,"line":0}],[{"line":0,"station_name":"Bojonggede","is_transit":false,"transit":false,"station_id":"BJD","time":0,"i_long":106.792719,"i_lat":-6.493243,"distance":0},{"is_transit":true,"station_id":"CTA","i_long":106.800298,"transit":false,"distance":5197,"i_lat":-6.448811,"station_name":"Citayam","time":5,"line":1},{"time":6,"i_long":106.816926,"transit":false,"is_transit":false,"distance":5084,"station_id":"DP","line":0,"i_lat":-6.405256,"station_name":"Depok"},{"line":0,"station_name":"Depokbaru","i_lat":-6.391065,"i_long":106.819451,"transit":false,"distance":1584,"is_transit":false,"time":3,"station_id":"DPB"},{"i_lat":-6.369073,"station_name":"Pondok Cina","distance":2727,"time":4,"station_id":"POC","transit":false,"line":2,"i_long":106.831114,"is_transit":false},{"transit":false,"line":2,"distance":1109,"i_lat":-6.360749,"is_transit":false,"i_long":106.831474,"station_name":"Univ. Indonesia","station_id":"UI","time":2},{"station_name":"Univ. Pancasila","is_transit":false,"line":2,"i_long":106.834175,"transit":false,"i_lat":-6.339291,"distance":2264,"station_id":"UP","time":3},{"is_transit":false,"station_name":"Lenteng Agung","time":2,"station_id":"LNA","transit":false,"distance":1029,"line":2,"i_lat":-6.330363,"i_long":106.832616},{"distance":2671,"station_name":"Tanjung Barat","i_long":106.838896,"station_id":"TNT","is_transit":false,"time":3,"transit":false,"i_lat":-6.3080680000000005,"line":2},{"i_long":106.843999,"time":4,"is_transit":false,"station_name":"Pasar Minggu","station_id":"PSM","line":2,"distance":2820,"transit":false,"i_lat":-6.2842400000000005},{"line":2,"i_lat":-6.263214,"is_transit":false,"time":2,"station_name":"Pasar Minggu Baru","transit":false,"distance":2380,"station_id":"PSMB","i_long":106.851577},{"i_lat":-6.255332,"i_long":106.85449,"distance":824,"station_name":"Duren Kalibata","is_transit":false,"transit":false,"time":2,"station_id":"DRN","line":0},{"transit":false,"distance":1546,"station_name":"Cawang","station_id":"CW","i_long":106.856607,"i_lat":-6.242512,"line":0,"is_transit":false,"time":3},{"time":2,"is_transit":false,"transit":false,"i_long":106.857948,"station_name":"Tebet","distance":1230,"i_lat":-6.226659,"station_id":"TEB","line":2},{"distance":2610,"station_name":"Manggarai","transit":true,"i_lat":-6.209883,"station_id":"MRI","time":4,"i_long":106.84912,"line":0,"is_transit":true},{"distance":1275,"transit":false,"station_id":"MTR","i_long":106.858896,"station_name":"Matraman","line":1,"i_lat":-6.212485,"is_transit":false,"time":2},{"is_transit":true,"transit":true,"station_id":"JNG","distance":1377,"i_lat":-6.215091,"station_name":"Jatinegara","i_long":106.86807400000001,"line":0,"time":8},{"i_lat":-6.209188,"time":2,"line":11,"station_name":"Pondok Jati","i_long":106.861737,"distance":1236,"is_transit":false,"station_id":"POK","transit":false},{"transit":false,"i_lat":-6.193792,"station_name":"Kramat","is_transit":false,"distance":1829,"station_id":"KMT","time":2,"i_long":106.855437,"line":11},{"line":11,"distance":973,"i_long":106.850107,"i_lat":-6.185975,"is_transit":false,"time":1,"transit":false,"station_name":"Gang Sentiong","station_id":"GST"},{"is_transit":false,"i_lat":-6.174784,"distance":1567,"transit":false,"i_long":106.84368,"line":11,"station_id":"PSE","station_name":"Pasar Senen","time":8},{"i_lat":-6.161728,"station_name":"Kemayoran","time":4,"is_transit":false,"transit":false,"station_id":"KMO","distance":1436,"line":11,"i_long":106.839204},{"i_long":106.836569,"distance":1901,"is_transit":false,"station_name":"Rajawali","time":5,"line":11,"i_lat":-6.14505,"station_id":"RJW","transit":false},{"station_name":"Kampung Bandan","distance":1444,"transit":true,"i_lat":-6.132549,"time":3,"line":0,"is_transit":true,"station_id":"KPB","i_long":106.826365},{"station_name":"Angke","distance":4102,"time":9,"station_id":"AK","is_transit":false,"transit":false,"line":0,"i_lat":-6.144674,"i_long":106.79867},{"i_lat":-6.155215,"is_transit":true,"station_name":"Duri","distance":1230,"line":1,"transit":true,"i_long":106.800832,"station_id":"DU","time":4},{"is_transit":false,"i_lat":-6.162021,"distance":1700,"i_long":106.788277,"station_name":"Grogol","time":3,"station_id":"GGL","line":5,"transit":false},{"i_lat":-6.161433,"line":5,"station_name":"Pesing","time":2,"i_long":106.771379,"distance":2036,"transit":false,"is_transit":false,"station_id":"PSG"},{"transit":false,"time":2,"distance":1614,"station_name":"Taman Kota","station_id":"TKO","line":5,"i_long":106.756522,"i_lat":-6.1587309999999995,"is_transit":false},{"distance":2334,"time":2,"i_lat":-6.159876,"is_transit":false,"transit":false,"line":0,"station_name":"Bojongindah","station_id":"BOI","i_long":106.737035},{"is_transit":false,"station_name":"Rawa Buaya","line":5,"transit":false,"i_long":106.723064,"time":4,"station_id":"RW","i_lat":-6.162758,"distance":1152},{"time":3,"i_lat":-6.166068,"i_long":106.701612,"distance":2504,"is_transit":false,"line":5,"transit":false,"station_id":"KDS","station_name":"Kalideres"},{"i_long":106.679458,"station_id":"PI","is_transit":false,"line":5,"distance":2548,"time":3,"transit":false,"station_name":"Poris","i_lat":-6.169933},{"station_name":"Batuceper","line":0,"distance":1834,"station_id":"BPR","time":3,"transit":false,"i_lat":-6.171811,"is_transit":false,"i_long":106.665036}]]}