{"data":[[{"transit":false,"station_id":"BJD","is_transit":false,"distance":0,"i_lat":-6.493243,"station_name":"Bojonggede","i_long":106.792719,"line":2,"time":0},{"i_long":106.800298,"i_lat":-6.448811,"station_id":"CTA","is_transit":false,"time":5,"distance":5197,"line":2,"transit":false,"station_name":"Citayam"},{"line":2,"is_transit":false,"distance":5084,"transit":false,"time":6,"station_name":"Depok","station_id":"DP","i_lat":-6.405256,"i_long":106.816926},{"i_lat":-6.391065,"time":3,"station_name":"Depokbaru","station_id":"DPB","transit":false,"line":2,"is_transit":false,"distance":1584,"i_long":106.819451},{"transit":false,"i_lat":-6.369073,"station_name":"Pondok Cina","is_transit":false,"time":4,"distance":2727,"station_id":"POC","line":2,"i_long":106.831114},{"distance":1109,"is_transit":false,"station_id":"UI","time":2,"transit":false,"station_name":"Univ. Indonesia","i_long":106.831474,"i_lat":-6.360749,"line":2},{"distance":2264,"station_name":"Univ. Pancasila","station_id":"UP","time":3,"transit":false,"is_transit":false,"i_long":106.834175,"i_lat":-6.339291,"line":2},{"i_long":106.832616,"i_lat":-6.330363,"station_name":"Lenteng Agung","line":2,"is_transit":false,"transit":false,"station_id":"LNA","time":2,"distance":1029},{"station_name":"Tanjung Barat","line":2,"distance":2671,"transit":false,"station_id":"TNT","i_lat":-6.3080680000000005,"i_long":106.838896,"is_transit":false,"time":3},{"station_name":"Pasar Minggu","station_id":"PSM","i_lat":-6.2842400000000005,"transit":false,"time":4,"i_long":106.843999,"line":2,"distance":2820,"is_transit":false},{"line":2,"station_id":"PSMB","i_lat":-6.263214,"time":2,"transit":false,"is_transit":false,"distance":2380,"station_name":"Pasar Minggu Baru","i_long":106.851577},{"line":2,"is_transit":false,"station_name":"Duren Kalibata","i_lat":-6.255332,"station_id":"DRN","time":2,"transit":false,"distance":824,"i_long":106.85449},{"distance":1546,"line":2,"station_id":"CW","time":3,"transit":false,"station_name":"Cawang","i_lat":-6.242512,"is_transit":false,"i_long":106.856607},{"i_long":106.857948,"line":2,"i_lat":-6.226659,"transit":false,"time":2,"station_name":"Tebet","station_id":"TEB","is_transit":false,"distance":1230},{"distance":2610,"line":2,"transit":true,"station_id":"MRI","time":4,"station_name":"Manggarai","i_lat":-6.209883,"i_long":106.84912,"is_transit":true},{"distance":3186,"is_transit":false,"i_lat":-6.202263,"i_long":106.822649,"line":1,"transit":false,"time":4,"station_name":"Sudirman","station_id":"SUD"},{"station_id":"SUDB","station_name":"Sudirman Baru","distance":280,"time":1,"i_long":106.819881,"transit":false,"is_transit":false,"i_lat":-6.201433,"line":1},{"i_long":106.816351,"station_name":"Karet","line":1,"is_transit":false,"i_lat":-6.20132,"transit":false,"station_id":"KAT","time":1,"distance":471},{"i_long":106.811091,"i_lat":-6.185545,"distance":2029,"transit":false,"station_id":"THB","is_transit":false,"line":1,"station_name":"Tanah Abang","time":5},{"distance":3632,"transit":false,"i_long":106.800832,"line":1,"station_id":"DU","is_transit":false,"i_lat":-6.155215,"station_name":"Duri","time":8},{"distance":1230,"station_name":"Angke","is_transit":false,"time":4,"station_id":"AK","i_long":106.79867,"i_lat":-6.144674,"line":1,"transit":false},{"i_long":106.826365,"station_id":"KPB","station_name":"Kampung Bandan","is_transit":true,"time":9,"distance":4102,"line":4,"transit":true,"i_lat":-6.132549},{"is_transit":false,"distance":2185,"transit":false,"i_lat":-6.128023,"i_long":106.84464,"time":4,"line":4,"station_id":"AC","station_name":"Ancol"}],[{"i_long":106.792719,"is_transit":false,"distance":0,"line":2,"time":0,"station_id":"BJD","i_lat":-6.493243,"transit":false,"station_name":"Bojonggede"},{"station_name":"Citayam","station_id":"CTA","is_transit":false,"i_lat":-6.448811,"line":2,"i_long":106.800298,"distance":5197,"time":5,"transit":false},{"i_lat":-6.405256,"i_long":106.816926,"line":2,"time":6,"transit":false,"station_name":"Depok","station_id":"DP","distance":5084,"is_transit":false},{"is_transit":false,"station_id":"DPB","distance":1584,"time":3,"station_name":"Depokbaru","i_lat":-6.391065,"transit":false,"line":2,"i_long":106.819451},{"time":4,"is_transit":false,"station_id":"POC","transit":false,"station_name":"Pondok Cina","line":2,"distance":2727,"i_lat":-6.369073,"i_long":106.831114},{"station_name":"Univ. Indonesia","i_lat":-6.360749,"is_transit":false,"distance":1109,"station_id":"UI","time":2,"line":2,"transit":false,"i_long":106.831474},{"distance":2264,"time":3,"i_long":106.834175,"is_transit":false,"station_id":"UP","station_name":"Univ. Pancasila","transit":false,"line":2,"i_lat":-6.339291},{"i_long":106.832616,"time":2,"transit":false,"station_id":"LNA","is_transit":false,"line":2,"i_lat":-6.330363,"distance":1029,"station_name":"Lenteng Agung"},{"i_lat":-6.3080680000000005,"line":2,"station_id":"TNT","distance":2671,"is_transit":false,"time":3,"transit":false,"station_name":"Tanjung Barat","i_long":106.838896},{"line":2,"is_transit":false,"distance":2820,"i_lat":-6.2842400000000005,"i_long":106.843999,"transit":false,"station_name":"Pasar Minggu","station_id":"PSM","time":4},{"i_lat":-6.263214,"line":2,"time":2,"i_long":106.851577,"transit":false,"station_id":"PSMB","station_name":"Pasar Minggu Baru","is_transit":false,"distance":2380},{"i_lat":-6.255332,"station_id":"DRN","distance":824,"line":2,"i_long":106.85449,"station_name":"Duren Kalibata","time":2,"is_transit":false,"transit":false},{"transit":false,"station_name":"Cawang","time":3,"distance":1546,"line":2,"station_id":"CW","i_long":106.856607,"i_lat":-6.242512,"is_transit":false},{"transit":false,"i_lat":-6.226659,"station_name":"Tebet","station_id":"TEB","is_transit":false,"i_long":106.857948,"distance":1230,"line":2,"time":2},{"distance":2610,"station_name":"Manggarai","is_transit":false,"i_long":106.84912,"i_lat":-6.209883,"transit":false,"station_id":"MRI","time":4,"line":2},{"line":2,"transit":false,"station_id":"CKI","time":4,"is_transit":false,"i_long":106.840169,"station_name":"Cikini","distance":1590,"i_lat":-6.198556},{"is_transit":false,"time":3,"station_name":"Gondangdia","i_lat":-6.186295,"distance":1750,"station_id":"GDD","line":2,"i_long":106.832183,"transit":false},{"is_transit":false,"transit":false,"distance":2015,"time":4,"station_id":"JUA","line":2,"i_long":106.828284,"i_lat":-6.166716,"station_name":"Juanda"},{"is_transit":false,"i_lat":-6.160725,"i_long":106.827103,"transit":false,"time":2,"station_name":"Sawah Besar","line":2,"station_id":"SW","distance":1149},{"distance":906,"i_lat":-6.149769,"station_id":"MGB","line":2,"station_name":"Manggabesar","i_long":106.82482,"is_transit":false,"transit":false,"time":2},{"i_long":106.820901,"time":2,"distance":1080,"station_id":"JAY","i_lat":-6.141205,"transit":false,"is_transit":false,"station_name":"Jayakarta","line":2},{"transit":true,"line":2,"station_id":"JAKK","i_lat":-6.137569,"time":4,"station_name":"Jakarta Kota","i_long":106.812439,"is_transit":true,"distance":1264},{"i_lat":-6.132549,"station_name":"Kampung Bandan","is_transit":true,"station_id":"KPB","distance":1364,"line":4,"i_long":106.826365,"transit":true,"time":3},{"i_long":106.84464,"time":4,"transit":false,"station_name":"Ancol","is_transit":false,"line":4,"station_id":"AC","distance":2185,"i_lat":-6.128023}],[{"is_transit":false,"station_id":"BJD","distance":0,"transit":false,"i_long":106.792719,"i_lat":-6.493243,"line":2,"station_name":"Bojonggede","time":0},{"station_id":"CTA","time":5,"i_lat":-6.448811,"transit":false,"i_long":106.800298,"line":2,"distance":5197,"is_transit":false,"station_name":"Citayam"},{"station_name":"Depok","station_id":"DP","is_transit":false,"line":2,"transit":false,"time":6,"distance":5084,"i_long":106.816926,"i_lat":-6.405256},{"i_lat":-6.391065,"distance":1584,"transit":false,"station_id":"DPB","time":3,"station_name":"Depokbaru","i_long":106.819451,"line":2,"is_transit":false},{"station_id":"POC","i_long":106.831114,"station_name":"Pondok Cina","distance":2727,"line":2,"time":4,"is_transit":false,"transit":false,"i_lat":-6.369073},{"line":2,"time":2,"distance":1109,"station_id":"UI","station_name":"Univ. Indonesia","is_transit":false,"i_long":106.831474,"transit":false,"i_lat":-6.360749},{"distance":2264,"transit":false,"i_long":106.834175,"i_lat":-6.339291,"time":3,"is_transit":false,"station_id":"UP","line":2,"station_name":"Univ. Pancasila"},{"time":2,"station_name":"Lenteng Agung","station_id":"LNA","i_long":106.832616,"is_transit":false,"distance":1029,"i_lat":-6.330363,"transit":false,"line":2},{"time":3,"i_long":106.838896,"transit":false,"is_transit":false,"i_lat":-6.3080680000000005,"line":2,"station_name":"Tanjung Barat","station_id":"TNT","distance":2671},{"i_long":106.843999,"transit":false,"line":2,"station_name":"Pasar Minggu","i_lat":-6.2842400000000005,"station_id":"PSM","distance":2820,"is_transit":false,"time":4},{"distance":2380,"time":2,"station_id":"PSMB","is_transit":false,"line":2,"station_name":"Pasar Minggu Baru","i_lat":-6.263214,"transit":false,"i_long":106.851577},{"distance":824,"station_id":"DRN","transit":false,"is_transit":false,"station_name":"Duren Kalibata","i_long":106.85449,"line":2,"i_lat":-6.255332,"time":2},{"transit":false,"i_long":106.856607,"time":3,"is_transit":false,"line":2,"station_id":"CW","distance":1546,"i_lat":-6.242512,"station_name":"Cawang"},{"station_id":"TEB","i_lat":-6.226659,"line":2,"transit":false,"station_name":"Tebet","distance":1230,"i_long":106.857948,"time":2,"is_transit":false},{"is_transit":true,"i_lat":-6.209883,"station_name":"Manggarai","time":4,"i_long":106.84912,"distance":2610,"station_id":"MRI","transit":true,"line":2},{"is_transit":false,"transit":false,"station_id":"MTR","i_lat":-6.212485,"station_name":"Matraman","line":1,"i_long":106.858896,"distance":1275,"time":2},{"i_long":106.86807400000001,"station_id":"JNG","time":8,"station_name":"Jatinegara","is_transit":true,"i_lat":-6.215091,"transit":true,"distance":1377,"line":1},{"distance":1236,"station_name":"Pondok Jati","line":11,"i_lat":-6.209188,"i_long":106.861737,"station_id":"POK","is_transit":false,"transit":false,"time":2},{"i_long":106.855437,"line":11,"transit":false,"i_lat":-6.193792,"station_id":"KMT","distance":1829,"time":2,"station_name":"Kramat","is_transit":false},{"i_lat":-6.185975,"station_name":"Gang Sentiong","time":1,"distance":973,"i_long":106.850107,"line":11,"station_id":"GST","transit":false,"is_transit":false},{"time":8,"transit":false,"is_transit":false,"i_long":106.84368,"distance":1567,"station_id":"PSE","i_lat":-6.174784,"line":11,"station_name":"Pasar Senen"},{"transit":false,"station_id":"KMO","time":4,"i_long":106.839204,"station_name":"Kemayoran","is_transit":false,"i_lat":-6.161728,"distance":1436,"line":11},{"station_id":"RJW","i_lat":-6.14505,"is_transit":false,"time":5,"transit":false,"distance":1901,"line":11,"station_name":"Rajawali","i_long":106.836569},{"is_transit":true,"station_name":"Kampung Bandan","transit":true,"i_lat":-6.132549,"line":4,"time":3,"station_id":"KPB","distance":1444,"i_long":106.826365},{"i_lat":-6.128023,"distance":2185,"line":4,"station_name":"Ancol","station_id":"AC","i_long":106.84464,"is_transit":false,"transit":false,"time":4}]]}