{"data":[[{"transit":false,"station_name":"Bojonggede","is_transit":false,"distance":0,"i_long":106.792719,"line":2,"i_lat":-6.493243,"station_id":"BJD","time":0},{"line":2,"transit":false,"station_name":"Citayam","i_long":106.800298,"distance":5197,"is_transit":false,"i_lat":-6.448811,"time":5,"station_id":"CTA"},{"transit":false,"station_name":"Depok","time":6,"station_id":"DP","is_transit":false,"distance":5084,"i_long":106.816926,"line":2,"i_lat":-6.405256},{"distance":1584,"station_id":"DPB","is_transit":false,"station_name":"Depokbaru","time":3,"line":2,"i_lat":-6.391065,"i_long":106.819451,"transit":false},{"distance":2727,"line":2,"time":4,"station_id":"POC","i_long":106.831114,"station_name":"Pondok Cina","i_lat":-6.369073,"is_transit":false,"transit":false},{"i_lat":-6.360749,"station_id":"UI","distance":1109,"i_long":106.831474,"transit":false,"station_name":"Univ. Indonesia","is_transit":false,"time":2,"line":2},{"station_name":"Univ. Pancasila","station_id":"UP","i_long":106.834175,"i_lat":-6.339291,"line":2,"is_transit":false,"distance":2264,"time":3,"transit":false},{"i_long":106.832616,"station_id":"LNA","i_lat":-6.330363,"station_name":"Lenteng Agung","time":2,"distance":1029,"line":2,"transit":false,"is_transit":false},{"line":2,"transit":false,"station_name":"Tanjung Barat","i_long":106.838896,"time":3,"station_id":"TNT","is_transit":false,"distance":2671,"i_lat":-6.3080680000000005},{"transit":false,"station_id":"PSM","station_name":"Pasar Minggu","time":4,"distance":2820,"i_lat":-6.2842400000000005,"is_transit":false,"i_long":106.843999,"line":2},{"is_transit":false,"distance":2380,"i_lat":-6.263214,"time":2,"station_name":"Pasar Minggu Baru","line":2,"station_id":"PSMB","i_long":106.851577,"transit":false},{"line":2,"i_long":106.85449,"station_name":"Duren Kalibata","is_transit":false,"i_lat":-6.255332,"time":2,"distance":824,"station_id":"DRN","transit":false},{"distance":1546,"station_id":"CW","line":2,"transit":false,"i_lat":-6.242512,"station_name":"Cawang","time":3,"is_transit":false,"i_long":106.856607},{"station_name":"Tebet","i_lat":-6.226659,"distance":1230,"i_long":106.857948,"station_id":"TEB","line":2,"is_transit":false,"time":2,"transit":false},{"line":2,"i_long":106.84912,"transit":true,"station_name":"Manggarai","time":4,"station_id":"MRI","distance":2610,"i_lat":-6.209883,"is_transit":true},{"station_name":"Sudirman","transit":false,"i_long":106.822649,"distance":3186,"line":1,"time":4,"is_transit":false,"i_lat":-6.202263,"station_id":"SUD"},{"i_long":106.819881,"distance":280,"i_lat":-6.201433,"transit":false,"station_name":"Sudirman Baru","station_id":"SUDB","is_transit":false,"time":1,"line":1},{"transit":false,"is_transit":false,"line":1,"i_long":106.816351,"station_id":"KAT","time":1,"i_lat":-6.20132,"station_name":"Karet","distance":471},{"distance":2029,"station_id":"THB","is_transit":true,"i_lat":-6.185545,"i_long":106.811091,"line":1,"station_name":"Tanah Abang","time":5,"transit":true},{"is_transit":false,"i_long":106.79689,"station_id":"PLM","time":6,"i_lat":-6.207404,"distance":3191,"transit":false,"station_name":"Palmerah","line":6},{"i_long":106.780334,"transit":false,"line":6,"station_id":"KBY","is_transit":false,"distance":3737,"station_name":"Kebayoran","time":7,"i_lat":-6.237242},{"line":6,"station_name":"Pondokranji","time":8,"i_lat":-6.276362,"station_id":"PDJ","distance":6218,"transit":false,"i_long":106.74273,"is_transit":false},{"i_long":106.728916,"line":6,"station_name":"Jurangmangu","distance":2179,"is_transit":false,"time":3,"station_id":"JMU","i_lat":-6.288927,"transit":false},{"time":4,"i_long":106.712277,"is_transit":false,"line":6,"station_name":"Sudimara","station_id":"SDM","distance":1994,"transit":false,"i_lat":-6.296963},{"is_transit":false,"line":6,"transit":false,"station_name":"Rawa Buntu","distance":4566,"i_long":106.675475,"time":6,"i_lat":-6.314823,"station_id":"RU"},{"station_id":"SRP","i_long":106.66566,"line":6,"is_transit":false,"transit":false,"station_name":"Serpong","time":4,"i_lat":-6.319871,"distance":2413},{"time":4,"i_lat":-6.32484,"i_long":106.640411,"distance":1784,"line":3,"is_transit":false,"transit":false,"station_id":"CSK","station_name":"Cisauk"},{"time":4,"station_name":"Cicayur","line":3,"i_lat":-6.329547,"station_id":"CC","distance":2519,"transit":false,"is_transit":false,"i_long":106.617853},{"time":8,"i_lat":-6.3441410000000005,"i_long":106.568863,"is_transit":false,"station_name":"Parung Panjang","transit":false,"distance":5968,"line":6,"station_id":"PRP"},{"station_id":"CJT","i_long":106.508482,"station_name":"Cilejit","i_lat":-6.354349,"distance":7025,"line":3,"time":9,"is_transit":false,"transit":false},{"distance":2675,"station_name":"Daru","time":6,"station_id":"DAR","is_transit":false,"i_long":106.491338,"line":0,"transit":false,"i_lat":-6.338021},{"station_name":"Tenjo","station_id":"TEJ","i_lat":-6.327251,"transit":false,"time":5,"is_transit":false,"distance":3902,"i_long":106.460812,"line":6},{"station_id":"TGS","time":5,"is_transit":false,"station_name":"Tigaraksa","line":6,"distance":2974,"transit":false,"i_lat":-6.328533,"i_long":106.425991},{"station_id":"CKY","time":3,"is_transit":false,"station_name":"Cikoya","i_long":106.411216,"line":3,"distance":2651,"transit":false,"i_lat":-6.33561},{"station_id":"MJ","i_lat":-6.332307,"station_name":"Maja","time":4,"i_long":106.394373,"is_transit":false,"transit":false,"line":6,"distance":1853},{"is_transit":false,"distance":7293,"station_name":"Citeras","i_long":106.332092,"i_lat":-6.334892,"time":10,"transit":false,"line":3,"station_id":"CTR"},{"distance":9847,"i_long":106.250396,"line":3,"is_transit":false,"i_lat":-6.352675,"station_name":"Rangkasbitung","transit":false,"time":13,"station_id":"RK"}],[{"line":2,"i_long":106.792719,"station_id":"BJD","transit":false,"time":0,"i_lat":-6.493243,"distance":0,"station_name":"Bojonggede","is_transit":false},{"station_name":"Citayam","time":5,"i_long":106.800298,"is_transit":false,"transit":false,"distance":5197,"i_lat":-6.448811,"station_id":"CTA","line":2},{"is_transit":false,"distance":5084,"i_lat":-6.405256,"transit":false,"station_name":"Depok","i_long":106.816926,"time":6,"station_id":"DP","line":2},{"time":3,"transit":false,"station_id":"DPB","station_name":"Depokbaru","i_lat":-6.391065,"i_long":106.819451,"distance":1584,"is_transit":false,"line":2},{"time":4,"transit":false,"station_id":"POC","is_transit":false,"station_name":"Pondok Cina","distance":2727,"i_lat":-6.369073,"i_long":106.831114,"line":2},{"time":2,"distance":1109,"line":2,"is_transit":false,"station_id":"UI","station_name":"Univ. Indonesia","transit":false,"i_lat":-6.360749,"i_long":106.831474},{"i_lat":-6.339291,"station_name":"Univ. Pancasila","is_transit":false,"time":3,"i_long":106.834175,"station_id":"UP","transit":false,"line":2,"distance":2264},{"station_id":"LNA","is_transit":false,"time":2,"transit":false,"distance":1029,"i_lat":-6.330363,"i_long":106.832616,"line":2,"station_name":"Lenteng Agung"},{"i_long":106.838896,"station_name":"Tanjung Barat","time":3,"distance":2671,"station_id":"TNT","is_transit":false,"line":2,"transit":false,"i_lat":-6.3080680000000005},{"distance":2820,"is_transit":false,"i_lat":-6.2842400000000005,"transit":false,"station_name":"Pasar Minggu","time":4,"line":2,"i_long":106.843999,"station_id":"PSM"},{"station_id":"PSMB","station_name":"Pasar Minggu Baru","distance":2380,"i_lat":-6.263214,"transit":false,"time":2,"is_transit":false,"line":2,"i_long":106.851577},{"line":2,"i_lat":-6.255332,"station_name":"Duren Kalibata","time":2,"station_id":"DRN","is_transit":false,"i_long":106.85449,"distance":824,"transit":false},{"station_name":"Cawang","is_transit":false,"i_lat":-6.242512,"i_long":106.856607,"transit":false,"time":3,"distance":1546,"line":2,"station_id":"CW"},{"i_lat":-6.226659,"i_long":106.857948,"transit":false,"time":2,"station_id":"TEB","line":2,"station_name":"Tebet","is_transit":false,"distance":1230},{"station_name":"Manggarai","is_transit":false,"i_long":106.84912,"line":2,"distance":2610,"time":4,"station_id":"MRI","i_lat":-6.209883,"transit":false},{"is_transit":false,"station_id":"CKI","line":2,"transit":false,"station_name":"Cikini","distance":1590,"time":4,"i_lat":-6.198556,"i_long":106.840169},{"line":2,"distance":1750,"station_id":"GDD","i_long":106.832183,"time":3,"transit":false,"station_name":"Gondangdia","i_lat":-6.186295,"is_transit":false},{"time":4,"i_lat":-6.166716,"i_long":106.828284,"transit":false,"line":2,"distance":2015,"station_id":"JUA","station_name":"Juanda","is_transit":false},{"station_id":"SW","station_name":"Sawah Besar","distance":1149,"is_transit":false,"time":2,"transit":false,"i_lat":-6.160725,"i_long":106.827103,"line":2},{"transit":false,"station_id":"MGB","station_name":"Manggabesar","i_long":106.82482,"i_lat":-6.149769,"distance":906,"time":2,"is_transit":false,"line":2},{"station_id":"JAY","time":2,"i_lat":-6.141205,"transit":false,"distance":1080,"i_long":106.820901,"is_transit":false,"line":2,"station_name":"Jayakarta"},{"station_id":"JAKK","station_name":"Jakarta Kota","is_transit":true,"i_long":106.812439,"time":4,"line":2,"i_lat":-6.137569,"transit":true,"distance":1264},{"i_lat":-6.132549,"distance":1364,"station_id":"KPB","is_transit":true,"station_name":"Kampung Bandan","transit":true,"line":4,"time":3,"i_long":106.826365},{"i_lat":-6.144674,"transit":false,"station_id":"AK","i_long":106.79867,"line":1,"station_name":"Angke","distance":4102,"time":9,"is_transit":false},{"transit":false,"time":4,"station_id":"DU","i_long":106.800832,"line":1,"station_name":"Duri","is_transit":false,"distance":1230,"i_lat":-6.155215},{"line":1,"station_name":"Tanah Abang","transit":true,"time":8,"station_id":"THB","is_transit":true,"distance":3632,"i_long":106.811091,"i_lat":-6.185545},{"i_lat":-6.207404,"transit":false,"station_name":"Palmerah","distance":3191,"time":6,"line":6,"i_long":106.79689,"station_id":"PLM","is_transit":false},{"distance":3737,"i_lat":-6.237242,"transit":false,"station_name":"Kebayoran","line":6,"station_id":"KBY","time":7,"is_transit":false,"i_long":106.780334},{"transit":false,"distance":6218,"i_lat":-6.276362,"time":8,"i_long":106.74273,"line":6,"station_id":"PDJ","station_name":"Pondokranji","is_transit":false},{"is_transit":false,"time":3,"line":6,"transit":false,"i_lat":-6.288927,"station_id":"JMU","station_name":"Jurangmangu","i_long":106.728916,"distance":2179},{"time":4,"station_id":"SDM","i_lat":-6.296963,"line":6,"i_long":106.712277,"distance":1994,"transit":false,"station_name":"Sudimara","is_transit":false},{"i_lat":-6.314823,"distance":4566,"time":6,"station_id":"RU","transit":false,"is_transit":false,"line":6,"i_long":106.675475,"station_name":"Rawa Buntu"},{"transit":false,"i_lat":-6.319871,"station_name":"Serpong","time":4,"i_long":106.66566,"distance":2413,"is_transit":false,"line":6,"station_id":"SRP"},{"station_name":"Cisauk","i_long":106.640411,"i_lat":-6.32484,"line":3,"station_id":"CSK","distance":1784,"is_transit":false,"time":4,"transit":false},{"i_long":106.617853,"distance":2519,"line":3,"i_lat":-6.329547,"station_name":"Cicayur","time":4,"is_transit":false,"transit":false,"station_id":"CC"},{"i_long":106.568863,"station_name":"Parung Panjang","time":8,"line":6,"station_id":"PRP","distance":5968,"is_transit":false,"transit":false,"i_lat":-6.3441410000000005},{"line":3,"i_long":106.508482,"distance":7025,"station_name":"Cilejit","is_transit":false,"transit":false,"time":9,"station_id":"CJT","i_lat":-6.354349},{"time":6,"transit":false,"station_id":"DAR","station_name":"Daru","is_transit":false,"i_lat":-6.338021,"line":0,"distance":2675,"i_long":106.491338},{"station_id":"TEJ","transit":false,"i_lat":-6.327251,"i_long":106.460812,"station_name":"Tenjo","distance":3902,"is_transit":false,"line":6,"time":5},{"i_lat":-6.328533,"distance":2974,"time":5,"station_name":"Tigaraksa","i_long":106.425991,"transit":false,"line":6,"station_id":"TGS","is_transit":false},{"line":3,"distance":2651,"transit":false,"time":3,"i_lat":-6.33561,"station_id":"CKY","station_name":"Cikoya","is_transit":false,"i_long":106.411216},{"is_transit":false,"transit":false,"time":4,"station_name":"Maja","station_id":"MJ","i_long":106.394373,"distance":1853,"line":6,"i_lat":-6.332307},{"distance":7293,"is_transit":false,"i_lat":-6.334892,"transit":false,"i_long":106.332092,"line":3,"station_id":"CTR","time":10,"station_name":"Citeras"},{"line":3,"is_transit":false,"time":13,"distance":9847,"i_long":106.250396,"transit":false,"station_name":"Rangkasbitung","station_id":"RK","i_lat":-6.352675}],[{"line":2,"station_id":"BJD","is_transit":false,"i_long":106.792719,"time":0,"transit":false,"distance":0,"station_name":"Bojonggede","i_lat":-6.493243},{"transit":false,"i_long":106.800298,"station_id":"CTA","i_lat":-6.448811,"is_transit":false,"line":2,"station_name":"Citayam","time":5,"distance":5197},{"time":6,"station_name":"Depok","i_long":106.816926,"line":2,"transit":false,"is_transit":false,"distance":5084,"station_id":"DP","i_lat":-6.405256},{"transit":false,"station_name":"Depokbaru","distance":1584,"line":2,"i_lat":-6.391065,"station_id":"DPB","i_long":106.819451,"is_transit":false,"time":3},{"line":2,"station_name":"Pondok Cina","transit":false,"time":4,"station_id":"POC","i_lat":-6.369073,"i_long":106.831114,"is_transit":false,"distance":2727},{"station_id":"UI","is_transit":false,"transit":false,"distance":1109,"i_lat":-6.360749,"time":2,"line":2,"station_name":"Univ. Indonesia","i_long":106.831474},{"transit":false,"distance":2264,"is_transit":false,"time":3,"i_lat":-6.339291,"i_long":106.834175,"station_name":"Univ. Pancasila","station_id":"UP","line":2},{"is_transit":false,"i_long":106.832616,"time":2,"line":2,"station_id":"LNA","i_lat":-6.330363,"distance":1029,"station_name":"Lenteng Agung","transit":false},{"i_lat":-6.3080680000000005,"distance":2671,"transit":false,"i_long":106.838896,"line":2,"station_name":"Tanjung Barat","time":3,"station_id":"TNT","is_transit":false},{"is_transit":false,"distance":2820,"time":4,"station_name":"Pasar Minggu","transit":false,"line":2,"station_id":"PSM","i_lat":-6.2842400000000005,"i_long":106.843999},{"time":2,"station_name":"Pasar Minggu Baru","i_long":106.851577,"station_id":"PSMB","distance":2380,"is_transit":false,"transit":false,"i_lat":-6.263214,"line":2},{"transit":false,"time":2,"station_name":"Duren Kalibata","station_id":"DRN","i_lat":-6.255332,"i_long":106.85449,"is_transit":false,"line":2,"distance":824},{"i_lat":-6.242512,"is_transit":false,"station_name":"Cawang","time":3,"transit":false,"distance":1546,"station_id":"CW","i_long":106.856607,"line":2},{"transit":false,"i_long":106.857948,"is_transit":false,"i_lat":-6.226659,"station_name":"Tebet","distance":1230,"time":2,"line":2,"station_id":"TEB"},{"is_transit":true,"transit":true,"time":4,"station_id":"MRI","distance":2610,"station_name":"Manggarai","i_long":106.84912,"line":2,"i_lat":-6.209883},{"station_id":"MTR","is_transit":false,"distance":1275,"station_name":"Matraman","i_lat":-6.212485,"i_long":106.858896,"transit":false,"time":2,"line":1},{"i_long":106.86807400000001,"station_name":"Jatinegara","i_lat":-6.215091,"is_transit":true,"line":1,"transit":true,"time":8,"distance":1377,"station_id":"JNG"},{"distance":1236,"station_id":"POK","is_transit":false,"i_long":106.861737,"i_lat":-6.209188,"station_name":"Pondok Jati","line":11,"time":2,"transit":false},{"i_long":106.855437,"station_name":"Kramat","time":2,"i_lat":-6.193792,"line":11,"transit":false,"station_id":"KMT","is_transit":false,"distance":1829},{"i_long":106.850107,"time":1,"is_transit":false,"transit":false,"line":11,"station_id":"GST","distance":973,"station_name":"Gang Sentiong","i_lat":-6.185975},{"station_name":"Pasar Senen","line":11,"transit":false,"i_lat":-6.174784,"distance":1567,"i_long":106.84368,"station_id":"PSE","is_transit":false,"time":8},{"distance":1436,"line":11,"i_lat":-6.161728,"station_name":"Kemayoran","transit":false,"i_long":106.839204,"station_id":"KMO","is_transit":false,"time":4},{"station_id":"RJW","is_transit":false,"transit":false,"line":11,"i_long":106.836569,"time":5,"station_name":"Rajawali","distance":1901,"i_lat":-6.14505},{"transit":true,"line":4,"distance":1444,"station_name":"Kampung Bandan","time":3,"station_id":"KPB","i_lat":-6.132549,"is_transit":true,"i_long":106.826365},{"i_lat":-6.144674,"is_transit":false,"station_name":"Angke","distance":4102,"station_id":"AK","i_long":106.79867,"line":1,"time":9,"transit":false},{"distance":1230,"time":4,"station_name":"Duri","station_id":"DU","is_transit":false,"line":1,"transit":false,"i_long":106.800832,"i_lat":-6.155215},{"time":8,"station_id":"THB","i_long":106.811091,"i_lat":-6.185545,"distance":3632,"transit":true,"station_name":"Tanah Abang","is_transit":true,"line":1},{"is_transit":false,"station_id":"PLM","line":6,"distance":3191,"i_long":106.79689,"transit":false,"station_name":"Palmerah","time":6,"i_lat":-6.207404},{"line":6,"distance":3737,"station_name":"Kebayoran","i_lat":-6.237242,"transit":false,"is_transit":false,"i_long":106.780334,"station_id":"KBY","time":7},{"distance":6218,"i_lat":-6.276362,"line":6,"time":8,"transit":false,"station_id":"PDJ","is_transit":false,"i_long":106.74273,"station_name":"Pondokranji"},{"i_long":106.728916,"i_lat":-6.288927,"line":6,"station_name":"Jurangmangu","transit":false,"distance":2179,"station_id":"JMU","time":3,"is_transit":false},{"distance":1994,"time":4,"is_transit":false,"i_lat":-6.296963,"i_long":106.712277,"line":6,"transit":false,"station_name":"Sudimara","station_id":"SDM"},{"transit":false,"time":6,"distance":4566,"is_transit":false,"i_lat":-6.314823,"station_name":"Rawa Buntu","line":6,"station_id":"RU","i_long":106.675475},{"time":4,"station_id":"SRP","station_name":"Serpong","is_transit":false,"i_long":106.66566,"distance":2413,"transit":false,"i_lat":-6.319871,"line":6},{"i_long":106.640411,"distance":1784,"time":4,"station_id":"CSK","line":3,"is_transit":false,"i_lat":-6.32484,"transit":false,"station_name":"Cisauk"},{"distance":2519,"time":4,"station_id":"CC","is_transit":false,"line":3,"station_name":"Cicayur","i_lat":-6.329547,"i_long":106.617853,"transit":false},{"transit":false,"station_id":"PRP","is_transit":false,"i_lat":-6.3441410000000005,"line":6,"distance":5968,"i_long":106.568863,"station_name":"Parung Panjang","time":8},{"transit":false,"station_name":"Cilejit","distance":7025,"time":9,"i_lat":-6.354349,"station_id":"CJT","is_transit":false,"i_long":106.508482,"line":3},{"distance":2675,"transit":false,"time":6,"station_id":"DAR","station_name":"Daru","i_lat":-6.338021,"i_long":106.491338,"line":0,"is_transit":false},{"time":5,"transit":false,"is_transit":false,"i_long":106.460812,"line":6,"station_name":"Tenjo","station_id":"TEJ","i_lat":-6.327251,"distance":3902},{"station_name":"Tigaraksa","distance":2974,"time":5,"transit":false,"is_transit":false,"station_id":"TGS","i_long":106.425991,"line":6,"i_lat":-6.328533},{"station_id":"CKY","i_lat":-6.33561,"transit":false,"time":3,"is_transit":false,"distance":2651,"i_long":106.411216,"station_name":"Cikoya","line":3},{"station_name":"Maja","i_lat":-6.332307,"i_long":106.394373,"time":4,"station_id":"MJ","is_transit":false,"transit":false,"distance":1853,"line":6},{"i_long":106.332092,"station_id":"CTR","station_name":"Citeras","time":10,"i_lat":-6.334892,"line":3,"transit":false,"distance":7293,"is_transit":false},{"station_id":"RK","time":13,"is_transit":false,"transit":false,"i_lat":-6.352675,"line":3,"distance":9847,"station_name":"Rangkasbitung","i_long":106.250396}]]}