{"data":[[{"is_transit":false,"distance":0,"i_long":106.792719,"time":0,"i_lat":-6.493243,"transit":false,"station_name":"Bojonggede","line":0,"station_id":"BJD"},{"is_transit":true,"line":1,"station_name":"Citayam","i_long":106.800298,"i_lat":-6.448811,"time":5,"transit":false,"station_id":"CTA","distance":5197},{"time":6,"station_id":"DP","is_transit":false,"distance":5084,"station_name":"Depok","i_long":106.816926,"line":0,"transit":false,"i_lat":-6.405256},{"station_name":"Depokbaru","time":3,"is_transit":false,"station_id":"DPB","i_long":106.819451,"i_lat":-6.391065,"line":0,"distance":1584,"transit":false},{"i_lat":-6.369073,"station_id":"POC","time":4,"is_transit":false,"distance":2727,"i_long":106.831114,"line":2,"station_name":"Pondok Cina","transit":false},{"station_name":"Univ. Indonesia","line":2,"time":2,"transit":false,"station_id":"UI","i_long":106.831474,"is_transit":false,"i_lat":-6.360749,"distance":1109},{"station_id":"UP","time":3,"is_transit":false,"station_name":"Univ. Pancasila","i_lat":-6.339291,"i_long":106.834175,"line":2,"distance":2264,"transit":false},{"line":2,"is_transit":false,"distance":1029,"i_lat":-6.330363,"station_name":"Lenteng Agung","time":2,"station_id":"LNA","transit":false,"i_long":106.832616},{"i_lat":-6.3080680000000005,"is_transit":false,"i_long":106.838896,"station_id":"TNT","time":3,"line":2,"transit":false,"distance":2671,"station_name":"Tanjung Barat"},{"line":2,"distance":2820,"i_long":106.843999,"time":4,"is_transit":false,"transit":false,"i_lat":-6.2842400000000005,"station_name":"Pasar Minggu","station_id":"PSM"},{"station_id":"PSMB","is_transit":false,"time":2,"distance":2380,"i_lat":-6.263214,"station_name":"Pasar Minggu Baru","i_long":106.851577,"line":2,"transit":false},{"i_lat":-6.255332,"i_long":106.85449,"distance":824,"line":0,"station_id":"DRN","time":2,"station_name":"Duren Kalibata","transit":false,"is_transit":false},{"i_lat":-6.242512,"time":3,"station_id":"CW","transit":false,"line":0,"i_long":106.856607,"station_name":"Cawang","is_transit":false,"distance":1546},{"is_transit":false,"station_id":"TEB","distance":1230,"transit":false,"station_name":"Tebet","time":2,"i_lat":-6.226659,"line":2,"i_long":106.857948},{"distance":2610,"station_name":"Manggarai","time":4,"station_id":"MRI","i_long":106.84912,"is_transit":true,"i_lat":-6.209883,"line":0,"transit":true},{"is_transit":false,"i_long":106.822649,"i_lat":-6.202263,"line":1,"time":4,"station_id":"SUD","transit":false,"station_name":"Sudirman","distance":3186},{"distance":280,"time":1,"station_id":"SUDB","station_name":"Sudirman Baru","i_long":106.819881,"line":1,"is_transit":false,"transit":false,"i_lat":-6.201433},{"station_name":"Karet","time":1,"station_id":"KAT","line":1,"transit":false,"is_transit":false,"i_lat":-6.20132,"distance":471,"i_long":106.816351},{"line":1,"distance":2029,"is_transit":true,"time":5,"station_name":"Tanah Abang","i_lat":-6.185545,"i_long":106.811091,"station_id":"THB","transit":false},{"i_lat":-6.155215,"is_transit":true,"i_long":106.800832,"line":1,"transit":true,"time":8,"station_name":"Duri","distance":3632,"station_id":"DU"},{"line":0,"station_name":"Angke","distance":1230,"time":4,"station_id":"AK","i_lat":-6.144674,"is_transit":false,"transit":false,"i_long":106.79867},{"i_lat":-6.132549,"time":9,"transit":true,"station_name":"Kampung Bandan","station_id":"KPB","is_transit":true,"distance":4102,"i_long":106.826365,"line":0},{"transit":false,"is_transit":false,"distance":1444,"i_long":106.836569,"time":3,"station_id":"RJW","station_name":"Rajawali","i_lat":-6.14505,"line":11}],[{"transit":false,"distance":0,"is_transit":false,"station_name":"Bojonggede","i_long":106.792719,"line":0,"i_lat":-6.493243,"time":0,"station_id":"BJD"},{"station_id":"CTA","distance":5197,"transit":false,"time":5,"i_long":106.800298,"line":1,"i_lat":-6.448811,"is_transit":true,"station_name":"Citayam"},{"i_long":106.816926,"station_name":"Depok","station_id":"DP","time":6,"line":0,"is_transit":false,"distance":5084,"transit":false,"i_lat":-6.405256},{"distance":1584,"transit":false,"time":3,"i_lat":-6.391065,"station_name":"Depokbaru","line":0,"station_id":"DPB","is_transit":false,"i_long":106.819451},{"distance":2727,"i_long":106.831114,"transit":false,"line":2,"station_id":"POC","time":4,"is_transit":false,"station_name":"Pondok Cina","i_lat":-6.369073},{"i_lat":-6.360749,"i_long":106.831474,"line":2,"is_transit":false,"station_id":"UI","time":2,"distance":1109,"transit":false,"station_name":"Univ. Indonesia"},{"line":2,"time":3,"station_id":"UP","transit":false,"distance":2264,"is_transit":false,"station_name":"Univ. Pancasila","i_lat":-6.339291,"i_long":106.834175},{"transit":false,"station_id":"LNA","is_transit":false,"distance":1029,"time":2,"station_name":"Lenteng Agung","i_long":106.832616,"line":2,"i_lat":-6.330363},{"transit":false,"is_transit":false,"time":3,"station_name":"Tanjung Barat","distance":2671,"i_long":106.838896,"i_lat":-6.3080680000000005,"station_id":"TNT","line":2},{"time":4,"transit":false,"i_long":106.843999,"station_name":"Pasar Minggu","station_id":"PSM","line":2,"is_transit":false,"distance":2820,"i_lat":-6.2842400000000005},{"station_name":"Pasar Minggu Baru","station_id":"PSMB","line":2,"time":2,"distance":2380,"is_transit":false,"transit":false,"i_long":106.851577,"i_lat":-6.263214},{"transit":false,"distance":824,"station_name":"Duren Kalibata","i_lat":-6.255332,"i_long":106.85449,"is_transit":false,"line":0,"time":2,"station_id":"DRN"},{"i_long":106.856607,"transit":false,"i_lat":-6.242512,"station_id":"CW","time":3,"station_name":"Cawang","line":0,"distance":1546,"is_transit":false},{"station_name":"Tebet","station_id":"TEB","time":2,"line":2,"is_transit":false,"transit":false,"i_long":106.857948,"i_lat":-6.226659,"distance":1230},{"i_long":106.84912,"distance":2610,"station_id":"MRI","i_lat":-6.209883,"station_name":"Manggarai","is_transit":true,"time":4,"line":0,"transit":true},{"transit":false,"station_id":"MTR","station_name":"Matraman","is_transit":false,"i_lat":-6.212485,"distance":1275,"time":2,"i_long":106.858896,"line":1},{"transit":true,"i_long":106.86807400000001,"i_lat":-6.215091,"distance":1377,"station_name":"Jatinegara","time":8,"station_id":"JNG","is_transit":true,"line":0},{"distance":1236,"i_lat":-6.209188,"i_long":106.861737,"is_transit":false,"time":2,"station_id":"POK","line":11,"station_name":"Pondok Jati","transit":false},{"station_id":"KMT","station_name":"Kramat","is_transit":false,"i_long":106.855437,"time":2,"distance":1829,"i_lat":-6.193792,"line":11,"transit":false},{"distance":973,"i_lat":-6.185975,"i_long":106.850107,"line":11,"is_transit":false,"station_name":"Gang Sentiong","time":1,"station_id":"GST","transit":false},{"is_transit":false,"line":11,"station_name":"Pasar Senen","i_long":106.84368,"transit":false,"time":8,"distance":1567,"i_lat":-6.174784,"station_id":"PSE"},{"transit":false,"station_name":"Kemayoran","is_transit":false,"i_lat":-6.161728,"distance":1436,"station_id":"KMO","i_long":106.839204,"line":11,"time":4},{"station_name":"Rajawali","time":5,"transit":false,"i_lat":-6.14505,"i_long":106.836569,"station_id":"RJW","is_transit":false,"line":11,"distance":1901}],[{"i_lat":-6.493243,"line":0,"distance":0,"transit":false,"i_long":106.792719,"is_transit":false,"time":0,"station_id":"BJD","station_name":"Bojonggede"},{"distance":5197,"is_transit":true,"i_lat":-6.448811,"time":5,"transit":false,"station_id":"CTA","i_long":106.800298,"line":1,"station_name":"Citayam"},{"time":6,"line":0,"station_id":"DP","is_transit":false,"transit":false,"distance":5084,"i_long":106.816926,"station_name":"Depok","i_lat":-6.405256},{"time":3,"station_name":"Depokbaru","transit":false,"line":0,"is_transit":false,"distance":1584,"i_lat":-6.391065,"i_long":106.819451,"station_id":"DPB"},{"i_lat":-6.369073,"is_transit":false,"distance":2727,"station_id":"POC","station_name":"Pondok Cina","i_long":106.831114,"transit":false,"time":4,"line":2},{"i_lat":-6.360749,"distance":1109,"station_name":"Univ. Indonesia","line":2,"i_long":106.831474,"station_id":"UI","is_transit":false,"time":2,"transit":false},{"distance":2264,"i_lat":-6.339291,"time":3,"station_id":"UP","transit":false,"line":2,"is_transit":false,"station_name":"Univ. Pancasila","i_long":106.834175},{"station_name":"Lenteng Agung","i_lat":-6.330363,"i_long":106.832616,"time":2,"is_transit":false,"distance":1029,"station_id":"LNA","transit":false,"line":2},{"distance":2671,"i_long":106.838896,"is_transit":false,"station_name":"Tanjung Barat","time":3,"transit":false,"station_id":"TNT","i_lat":-6.3080680000000005,"line":2},{"time":4,"distance":2820,"i_lat":-6.2842400000000005,"station_name":"Pasar Minggu","transit":false,"i_long":106.843999,"station_id":"PSM","line":2,"is_transit":false},{"i_lat":-6.263214,"i_long":106.851577,"station_name":"Pasar Minggu Baru","transit":false,"line":2,"time":2,"is_transit":false,"distance":2380,"station_id":"PSMB"},{"station_id":"DRN","is_transit":false,"time":2,"transit":false,"i_lat":-6.255332,"station_name":"Duren Kalibata","i_long":106.85449,"line":0,"distance":824},{"i_long":106.856607,"line":0,"is_transit":false,"transit":false,"station_name":"Cawang","time":3,"station_id":"CW","distance":1546,"i_lat":-6.242512},{"i_lat":-6.226659,"station_name":"Tebet","i_long":106.857948,"line":2,"is_transit":false,"station_id":"TEB","time":2,"transit":false,"distance":1230},{"time":4,"is_transit":true,"distance":2610,"station_id":"MRI","station_name":"Manggarai","transit":true,"i_lat":-6.209883,"i_long":106.84912,"line":0},{"i_lat":-6.198556,"i_long":106.840169,"line":0,"station_id":"CKI","is_transit":false,"station_name":"Cikini","transit":false,"time":4,"distance":1590},{"i_lat":-6.186295,"i_long":106.832183,"station_id":"GDD","distance":1750,"time":3,"line":2,"is_transit":false,"station_name":"Gondangdia","transit":false},{"station_name":"Juanda","line":2,"is_transit":false,"station_id":"JUA","distance":2015,"i_lat":-6.166716,"i_long":106.828284,"time":4,"transit":false},{"i_long":106.827103,"distance":1149,"transit":false,"i_lat":-6.160725,"is_transit":false,"station_name":"Sawah Besar","station_id":"SW","time":2,"line":2},{"i_lat":-6.149769,"i_long":106.82482,"is_transit":false,"time":2,"distance":906,"transit":false,"line":2,"station_id":"MGB","station_name":"Manggabesar"},{"time":2,"transit":false,"i_lat":-6.141205,"is_transit":false,"station_id":"JAY","station_name":"Jayakarta","i_long":106.820901,"distance":1080,"line":7},{"time":4,"i_long":106.812439,"i_lat":-6.137569,"distance":1264,"station_name":"Jakarta Kota","transit":true,"line":0,"station_id":"JAKK","is_transit":true},{"time":3,"i_lat":-6.132549,"station_name":"Kampung Bandan","i_long":106.826365,"line":0,"is_transit":true,"distance":1364,"transit":true,"station_id":"KPB"},{"distance":1444,"time":3,"transit":false,"i_lat":-6.14505,"line":11,"i_long":106.836569,"station_id":"RJW","is_transit":false,"station_name":"Rajawali"}]]}