{"data":[[{"station_id":"BJD","i_long":106.792719,"time":0,"transit":false,"is_transit":false,"line":2,"i_lat":-6.493243,"station_name":"Bojonggede","distance":0},{"distance":5197,"i_long":106.800298,"i_lat":-6.448811,"is_transit":false,"station_name":"Citayam","time":5,"station_id":"CTA","line":2,"transit":false},{"i_long":106.816926,"line":2,"distance":5084,"i_lat":-6.405256,"station_name":"Depok","time":6,"transit":false,"is_transit":false,"station_id":"DP"},{"line":2,"time":3,"station_id":"DPB","i_lat":-6.391065,"is_transit":false,"station_name":"Depokbaru","transit":false,"distance":1584,"i_long":106.819451},{"station_id":"POC","transit":false,"is_transit":false,"distance":2727,"i_long":106.831114,"i_lat":-6.369073,"station_name":"Pondok Cina","time":4,"line":2},{"time":2,"station_id":"UI","line":2,"station_name":"Univ. Indonesia","transit":false,"i_lat":-6.360749,"i_long":106.831474,"distance":1109,"is_transit":false}]]}