{"data":[[{"i_lat":-6.493243,"station_name":"Bojonggede","distance":0,"i_long":106.792719,"transit":false,"station_id":"BJD","time":0,"line":2,"is_transit":false},{"distance":5197,"station_name":"Citayam","time":5,"transit":false,"station_id":"CTA","i_lat":-6.448811,"line":2,"is_transit":false,"i_long":106.800298},{"line":2,"transit":false,"time":6,"distance":5084,"i_long":106.816926,"station_id":"DP","station_name":"Depok","is_transit":false,"i_lat":-6.405256},{"station_name":"Depokbaru","line":2,"transit":false,"time":3,"distance":1584,"i_lat":-6.391065,"is_transit":false,"i_long":106.819451,"station_id":"DPB"},{"line":2,"is_transit":false,"time":4,"transit":false,"station_id":"POC","i_long":106.831114,"station_name":"Pondok Cina","i_lat":-6.369073,"distance":2727},{"i_lat":-6.360749,"line":2,"station_id":"UI","distance":1109,"transit":false,"time":2,"station_name":"Univ. Indonesia","is_transit":false,"i_long":106.831474},{"line":2,"is_transit":false,"i_long":106.834175,"distance":2264,"i_lat":-6.339291,"station_name":"Univ. Pancasila","station_id":"UP","transit":false,"time":3},{"station_name":"Lenteng Agung","line":2,"i_long":106.832616,"transit":false,"distance":1029,"is_transit":false,"station_id":"LNA","i_lat":-6.330363,"time":2},{"distance":2671,"i_lat":-6.3080680000000005,"station_id":"TNT","station_name":"Tanjung Barat","is_transit":false,"i_long":106.838896,"line":2,"time":3,"transit":false},{"i_long":106.843999,"i_lat":-6.2842400000000005,"station_name":"Pasar Minggu","station_id":"PSM","line":2,"is_transit":false,"transit":false,"distance":2820,"time":4},{"i_lat":-6.263214,"distance":2380,"station_name":"Pasar Minggu Baru","line":2,"is_transit":false,"i_long":106.851577,"station_id":"PSMB","time":2,"transit":false},{"station_name":"Duren Kalibata","i_long":106.85449,"station_id":"DRN","distance":824,"i_lat":-6.255332,"time":2,"transit":false,"line":2,"is_transit":false},{"distance":1546,"i_lat":-6.242512,"transit":false,"is_transit":false,"time":3,"station_id":"CW","station_name":"Cawang","i_long":106.856607,"line":2},{"i_lat":-6.226659,"distance":1230,"i_long":106.857948,"station_name":"Tebet","station_id":"TEB","transit":false,"is_transit":false,"line":2,"time":2},{"distance":2610,"i_lat":-6.209883,"transit":true,"time":4,"station_name":"Manggarai","station_id":"MRI","line":2,"is_transit":true,"i_long":106.84912},{"distance":3186,"i_long":106.822649,"i_lat":-6.202263,"transit":false,"station_id":"SUD","station_name":"Sudirman","is_transit":false,"line":1,"time":4},{"line":1,"station_id":"SUDB","time":1,"station_name":"Sudirman Baru","is_transit":false,"transit":false,"i_long":106.819881,"distance":280,"i_lat":-6.201433},{"distance":471,"is_transit":false,"station_name":"Karet","time":1,"line":1,"i_lat":-6.20132,"transit":false,"i_long":106.816351,"station_id":"KAT"},{"line":1,"distance":2029,"transit":true,"time":5,"i_lat":-6.185545,"is_transit":true,"station_id":"THB","station_name":"Tanah Abang","i_long":106.811091},{"transit":false,"station_name":"Palmerah","i_lat":-6.207404,"i_long":106.79689,"is_transit":false,"station_id":"PLM","line":6,"time":6,"distance":3191},{"time":7,"i_long":106.780334,"station_name":"Kebayoran","distance":3737,"i_lat":-6.237242,"transit":false,"line":6,"station_id":"KBY","is_transit":false},{"distance":6218,"is_transit":false,"transit":false,"time":8,"i_lat":-6.276362,"station_id":"PDJ","station_name":"Pondokranji","i_long":106.74273,"line":6},{"is_transit":false,"transit":false,"distance":2179,"station_id":"JMU","line":6,"time":3,"station_name":"Jurangmangu","i_lat":-6.288927,"i_long":106.728916},{"transit":false,"i_lat":-6.296963,"line":6,"time":4,"station_name":"Sudimara","is_transit":false,"distance":1994,"i_long":106.712277,"station_id":"SDM"},{"transit":false,"i_lat":-6.314823,"i_long":106.675475,"is_transit":false,"distance":4566,"station_name":"Rawa Buntu","station_id":"RU","time":6,"line":6},{"i_lat":-6.319871,"line":6,"distance":2413,"i_long":106.66566,"station_id":"SRP","is_transit":false,"transit":false,"station_name":"Serpong","time":4},{"station_name":"Cisauk","time":4,"transit":false,"is_transit":false,"i_long":106.640411,"distance":1784,"i_lat":-6.32484,"station_id":"CSK","line":3},{"is_transit":false,"station_name":"Cicayur","i_long":106.617853,"station_id":"CC","time":4,"transit":false,"distance":2519,"i_lat":-6.329547,"line":3},{"is_transit":false,"distance":5968,"i_long":106.568863,"station_id":"PRP","i_lat":-6.3441410000000005,"line":6,"time":8,"station_name":"Parung Panjang","transit":false},{"station_id":"CJT","i_long":106.508482,"line":3,"transit":false,"time":9,"station_name":"Cilejit","distance":7025,"i_lat":-6.354349,"is_transit":false},{"i_long":106.491338,"time":6,"is_transit":false,"transit":false,"station_id":"DAR","distance":2675,"i_lat":-6.338021,"station_name":"Daru","line":0}],[{"transit":false,"is_transit":false,"station_id":"BJD","line":2,"i_long":106.792719,"time":0,"i_lat":-6.493243,"station_name":"Bojonggede","distance":0},{"distance":5197,"is_transit":false,"i_lat":-6.448811,"time":5,"station_id":"CTA","i_long":106.800298,"station_name":"Citayam","transit":false,"line":2},{"distance":5084,"station_id":"DP","i_long":106.816926,"transit":false,"time":6,"is_transit":false,"station_name":"Depok","line":2,"i_lat":-6.405256},{"line":2,"i_lat":-6.391065,"is_transit":false,"transit":false,"station_id":"DPB","station_name":"Depokbaru","time":3,"distance":1584,"i_long":106.819451},{"station_id":"POC","distance":2727,"time":4,"transit":false,"station_name":"Pondok Cina","i_long":106.831114,"line":2,"is_transit":false,"i_lat":-6.369073},{"i_lat":-6.360749,"station_name":"Univ. Indonesia","is_transit":false,"transit":false,"station_id":"UI","time":2,"distance":1109,"i_long":106.831474,"line":2},{"transit":false,"distance":2264,"i_lat":-6.339291,"station_name":"Univ. Pancasila","station_id":"UP","is_transit":false,"time":3,"i_long":106.834175,"line":2},{"time":2,"station_id":"LNA","distance":1029,"is_transit":false,"i_lat":-6.330363,"i_long":106.832616,"line":2,"transit":false,"station_name":"Lenteng Agung"},{"time":3,"distance":2671,"is_transit":false,"station_name":"Tanjung Barat","station_id":"TNT","i_long":106.838896,"transit":false,"i_lat":-6.3080680000000005,"line":2},{"is_transit":false,"transit":false,"line":2,"i_lat":-6.2842400000000005,"time":4,"station_name":"Pasar Minggu","distance":2820,"station_id":"PSM","i_long":106.843999},{"is_transit":false,"distance":2380,"time":2,"station_name":"Pasar Minggu Baru","i_lat":-6.263214,"transit":false,"i_long":106.851577,"station_id":"PSMB","line":2},{"is_transit":false,"transit":false,"line":2,"station_id":"DRN","station_name":"Duren Kalibata","distance":824,"i_lat":-6.255332,"i_long":106.85449,"time":2},{"time":3,"is_transit":false,"station_name":"Cawang","distance":1546,"i_lat":-6.242512,"transit":false,"station_id":"CW","i_long":106.856607,"line":2},{"distance":1230,"time":2,"station_id":"TEB","i_long":106.857948,"station_name":"Tebet","line":2,"transit":false,"is_transit":false,"i_lat":-6.226659},{"station_id":"MRI","is_transit":false,"i_lat":-6.209883,"transit":false,"station_name":"Manggarai","time":4,"distance":2610,"i_long":106.84912,"line":2},{"transit":false,"station_name":"Cikini","distance":1590,"i_long":106.840169,"time":4,"is_transit":false,"station_id":"CKI","line":2,"i_lat":-6.198556},{"i_long":106.832183,"distance":1750,"line":2,"time":3,"is_transit":false,"station_name":"Gondangdia","transit":false,"i_lat":-6.186295,"station_id":"GDD"},{"i_long":106.828284,"i_lat":-6.166716,"time":4,"station_id":"JUA","station_name":"Juanda","is_transit":false,"distance":2015,"transit":false,"line":2},{"i_lat":-6.160725,"station_id":"SW","station_name":"Sawah Besar","distance":1149,"line":2,"time":2,"is_transit":false,"transit":false,"i_long":106.827103},{"line":2,"time":2,"station_id":"MGB","is_transit":false,"transit":false,"i_lat":-6.149769,"station_name":"Manggabesar","i_long":106.82482,"distance":906},{"is_transit":false,"i_long":106.820901,"transit":false,"distance":1080,"station_name":"Jayakarta","i_lat":-6.141205,"time":2,"line":2,"station_id":"JAY"},{"time":4,"line":2,"i_long":106.812439,"distance":1264,"i_lat":-6.137569,"station_name":"Jakarta Kota","station_id":"JAKK","transit":true,"is_transit":true},{"is_transit":true,"distance":1364,"time":3,"station_id":"KPB","transit":true,"station_name":"Kampung Bandan","i_long":106.826365,"i_lat":-6.132549,"line":4},{"i_long":106.79867,"i_lat":-6.144674,"transit":false,"line":1,"distance":4102,"station_name":"Angke","is_transit":false,"station_id":"AK","time":9},{"line":1,"i_lat":-6.155215,"i_long":106.800832,"transit":false,"is_transit":false,"time":4,"station_id":"DU","station_name":"Duri","distance":1230},{"is_transit":true,"time":8,"line":1,"distance":3632,"i_long":106.811091,"transit":true,"station_id":"THB","i_lat":-6.185545,"station_name":"Tanah Abang"},{"distance":3191,"i_long":106.79689,"i_lat":-6.207404,"is_transit":false,"line":6,"transit":false,"time":6,"station_id":"PLM","station_name":"Palmerah"},{"station_id":"KBY","distance":3737,"i_lat":-6.237242,"time":7,"transit":false,"is_transit":false,"station_name":"Kebayoran","i_long":106.780334,"line":6},{"transit":false,"is_transit":false,"i_long":106.74273,"station_id":"PDJ","distance":6218,"i_lat":-6.276362,"station_name":"Pondokranji","line":6,"time":8},{"time":3,"transit":false,"line":6,"is_transit":false,"distance":2179,"station_name":"Jurangmangu","i_long":106.728916,"station_id":"JMU","i_lat":-6.288927},{"station_name":"Sudimara","i_long":106.712277,"station_id":"SDM","distance":1994,"line":6,"is_transit":false,"i_lat":-6.296963,"transit":false,"time":4},{"line":6,"i_lat":-6.314823,"is_transit":false,"station_id":"RU","transit":false,"i_long":106.675475,"time":6,"station_name":"Rawa Buntu","distance":4566},{"is_transit":false,"line":6,"i_lat":-6.319871,"distance":2413,"time":4,"station_id":"SRP","transit":false,"station_name":"Serpong","i_long":106.66566},{"is_transit":false,"time":4,"i_long":106.640411,"line":3,"transit":false,"i_lat":-6.32484,"station_id":"CSK","station_name":"Cisauk","distance":1784},{"distance":2519,"transit":false,"time":4,"station_id":"CC","station_name":"Cicayur","i_long":106.617853,"i_lat":-6.329547,"is_transit":false,"line":3},{"is_transit":false,"distance":5968,"i_long":106.568863,"line":6,"transit":false,"station_name":"Parung Panjang","time":8,"i_lat":-6.3441410000000005,"station_id":"PRP"},{"transit":false,"is_transit":false,"station_id":"CJT","i_lat":-6.354349,"time":9,"i_long":106.508482,"distance":7025,"station_name":"Cilejit","line":3},{"i_long":106.491338,"distance":2675,"line":0,"is_transit":false,"transit":false,"time":6,"station_id":"DAR","station_name":"Daru","i_lat":-6.338021}],[{"line":2,"is_transit":false,"i_long":106.792719,"station_name":"Bojonggede","i_lat":-6.493243,"station_id":"BJD","transit":false,"time":0,"distance":0},{"station_name":"Citayam","transit":false,"is_transit":false,"time":5,"i_lat":-6.448811,"station_id":"CTA","distance":5197,"i_long":106.800298,"line":2},{"i_lat":-6.405256,"station_id":"DP","i_long":106.816926,"transit":false,"time":6,"is_transit":false,"distance":5084,"line":2,"station_name":"Depok"},{"distance":1584,"i_lat":-6.391065,"station_name":"Depokbaru","is_transit":false,"line":2,"station_id":"DPB","time":3,"i_long":106.819451,"transit":false},{"distance":2727,"station_id":"POC","transit":false,"i_long":106.831114,"i_lat":-6.369073,"is_transit":false,"line":2,"station_name":"Pondok Cina","time":4},{"station_name":"Univ. Indonesia","time":2,"distance":1109,"i_lat":-6.360749,"transit":false,"is_transit":false,"line":2,"i_long":106.831474,"station_id":"UI"},{"station_id":"UP","i_long":106.834175,"distance":2264,"i_lat":-6.339291,"time":3,"line":2,"station_name":"Univ. Pancasila","transit":false,"is_transit":false},{"station_name":"Lenteng Agung","i_lat":-6.330363,"time":2,"is_transit":false,"transit":false,"station_id":"LNA","i_long":106.832616,"line":2,"distance":1029},{"transit":false,"time":3,"i_lat":-6.3080680000000005,"distance":2671,"station_id":"TNT","is_transit":false,"i_long":106.838896,"line":2,"station_name":"Tanjung Barat"},{"time":4,"distance":2820,"is_transit":false,"station_id":"PSM","line":2,"transit":false,"station_name":"Pasar Minggu","i_lat":-6.2842400000000005,"i_long":106.843999},{"station_name":"Pasar Minggu Baru","station_id":"PSMB","i_long":106.851577,"is_transit":false,"line":2,"time":2,"i_lat":-6.263214,"transit":false,"distance":2380},{"line":2,"is_transit":false,"i_long":106.85449,"transit":false,"station_id":"DRN","i_lat":-6.255332,"station_name":"Duren Kalibata","distance":824,"time":2},{"is_transit":false,"distance":1546,"line":2,"i_lat":-6.242512,"transit":false,"time":3,"station_id":"CW","i_long":106.856607,"station_name":"Cawang"},{"time":2,"i_lat":-6.226659,"station_id":"TEB","line":2,"i_long":106.857948,"distance":1230,"station_name":"Tebet","is_transit":false,"transit":false},{"distance":2610,"i_long":106.84912,"station_name":"Manggarai","i_lat":-6.209883,"time":4,"is_transit":true,"line":2,"transit":true,"station_id":"MRI"},{"is_transit":false,"time":2,"line":1,"station_id":"MTR","transit":false,"distance":1275,"station_name":"Matraman","i_lat":-6.212485,"i_long":106.858896},{"station_id":"JNG","transit":true,"time":8,"i_lat":-6.215091,"i_long":106.86807400000001,"station_name":"Jatinegara","line":1,"is_transit":true,"distance":1377},{"time":2,"distance":1236,"station_name":"Pondok Jati","i_lat":-6.209188,"line":11,"station_id":"POK","i_long":106.861737,"is_transit":false,"transit":false},{"i_lat":-6.193792,"time":2,"i_long":106.855437,"transit":false,"line":11,"station_name":"Kramat","distance":1829,"station_id":"KMT","is_transit":false},{"station_name":"Gang Sentiong","distance":973,"station_id":"GST","i_lat":-6.185975,"is_transit":false,"transit":false,"i_long":106.850107,"line":11,"time":1},{"i_lat":-6.174784,"i_long":106.84368,"line":11,"transit":false,"station_name":"Pasar Senen","is_transit":false,"time":8,"station_id":"PSE","distance":1567},{"station_id":"KMO","i_lat":-6.161728,"transit":false,"distance":1436,"time":4,"is_transit":false,"line":11,"station_name":"Kemayoran","i_long":106.839204},{"line":11,"station_id":"RJW","transit":false,"i_long":106.836569,"time":5,"distance":1901,"is_transit":false,"i_lat":-6.14505,"station_name":"Rajawali"},{"station_name":"Kampung Bandan","transit":true,"station_id":"KPB","distance":1444,"i_long":106.826365,"i_lat":-6.132549,"time":3,"line":4,"is_transit":true},{"station_id":"AK","i_long":106.79867,"is_transit":false,"station_name":"Angke","i_lat":-6.144674,"transit":false,"time":9,"distance":4102,"line":1},{"station_id":"DU","line":1,"distance":1230,"i_long":106.800832,"is_transit":false,"station_name":"Duri","transit":false,"time":4,"i_lat":-6.155215},{"is_transit":true,"transit":true,"station_id":"THB","station_name":"Tanah Abang","line":1,"distance":3632,"time":8,"i_long":106.811091,"i_lat":-6.185545},{"station_name":"Palmerah","transit":false,"time":6,"distance":3191,"i_long":106.79689,"station_id":"PLM","line":6,"is_transit":false,"i_lat":-6.207404},{"station_id":"KBY","station_name":"Kebayoran","i_lat":-6.237242,"is_transit":false,"distance":3737,"line":6,"i_long":106.780334,"time":7,"transit":false},{"transit":false,"station_id":"PDJ","is_transit":false,"distance":6218,"i_long":106.74273,"station_name":"Pondokranji","i_lat":-6.276362,"time":8,"line":6},{"is_transit":false,"i_long":106.728916,"station_id":"JMU","i_lat":-6.288927,"distance":2179,"line":6,"station_name":"Jurangmangu","transit":false,"time":3},{"station_id":"SDM","station_name":"Sudimara","i_long":106.712277,"is_transit":false,"i_lat":-6.296963,"line":6,"transit":false,"distance":1994,"time":4},{"station_name":"Rawa Buntu","distance":4566,"i_long":106.675475,"transit":false,"line":6,"is_transit":false,"i_lat":-6.314823,"station_id":"RU","time":6},{"station_id":"SRP","station_name":"Serpong","time":4,"i_long":106.66566,"distance":2413,"i_lat":-6.319871,"line":6,"transit":false,"is_transit":false},{"i_long":106.640411,"distance":1784,"line":3,"station_name":"Cisauk","is_transit":false,"time":4,"transit":false,"i_lat":-6.32484,"station_id":"CSK"},{"i_lat":-6.329547,"distance":2519,"i_long":106.617853,"station_name":"Cicayur","is_transit":false,"transit":false,"line":3,"time":4,"station_id":"CC"},{"station_name":"Parung Panjang","is_transit":false,"i_lat":-6.3441410000000005,"station_id":"PRP","i_long":106.568863,"time":8,"transit":false,"distance":5968,"line":6},{"station_name":"Cilejit","is_transit":false,"i_lat":-6.354349,"i_long":106.508482,"distance":7025,"time":9,"line":3,"station_id":"CJT","transit":false},{"transit":false,"i_lat":-6.338021,"distance":2675,"time":6,"i_long":106.491338,"is_transit":false,"line":0,"station_id":"DAR","station_name":"Daru"}]]}