{"data":[[{"time":0,"station_name":"Bojonggede","station_id":"BJD","is_transit":false,"distance":0,"i_lat":-6.493243,"line":2,"i_long":106.792719,"transit":false},{"time":5,"distance":5197,"is_transit":false,"transit":false,"i_long":106.800298,"line":2,"station_name":"Citayam","i_lat":-6.448811,"station_id":"CTA"},{"transit":false,"station_id":"DP","distance":5084,"i_lat":-6.405256,"i_long":106.816926,"station_name":"Depok","line":2,"is_transit":false,"time":6},{"transit":false,"distance":1584,"station_name":"Depokbaru","line":2,"is_transit":false,"i_long":106.819451,"time":3,"i_lat":-6.391065,"station_id":"DPB"},{"line":2,"distance":2727,"is_transit":false,"time":4,"i_lat":-6.369073,"station_id":"POC","i_long":106.831114,"station_name":"Pondok Cina","transit":false},{"i_lat":-6.360749,"station_id":"UI","i_long":106.831474,"line":2,"is_transit":false,"distance":1109,"transit":false,"station_name":"Univ. Indonesia","time":2},{"time":3,"station_name":"Univ. Pancasila","transit":false,"station_id":"UP","is_transit":false,"line":2,"i_lat":-6.339291,"distance":2264,"i_long":106.834175},{"is_transit":false,"station_id":"LNA","station_name":"Lenteng Agung","time":2,"distance":1029,"i_long":106.832616,"line":2,"i_lat":-6.330363,"transit":false},{"time":3,"distance":2671,"is_transit":false,"transit":false,"i_lat":-6.3080680000000005,"line":2,"i_long":106.838896,"station_name":"Tanjung Barat","station_id":"TNT"},{"station_name":"Pasar Minggu","line":2,"distance":2820,"is_transit":false,"station_id":"PSM","transit":false,"i_lat":-6.2842400000000005,"i_long":106.843999,"time":4},{"time":2,"transit":false,"station_name":"Pasar Minggu Baru","i_lat":-6.263214,"i_long":106.851577,"station_id":"PSMB","line":2,"is_transit":false,"distance":2380},{"i_long":106.85449,"transit":false,"station_id":"DRN","distance":824,"station_name":"Duren Kalibata","i_lat":-6.255332,"line":2,"is_transit":false,"time":2},{"line":2,"station_id":"CW","distance":1546,"is_transit":false,"station_name":"Cawang","i_lat":-6.242512,"time":3,"i_long":106.856607,"transit":false},{"transit":false,"station_name":"Tebet","time":2,"line":2,"is_transit":false,"station_id":"TEB","i_long":106.857948,"i_lat":-6.226659,"distance":1230},{"is_transit":true,"time":4,"line":2,"station_name":"Manggarai","i_lat":-6.209883,"station_id":"MRI","transit":true,"i_long":106.84912,"distance":2610},{"transit":false,"time":4,"station_id":"SUD","is_transit":false,"distance":3186,"i_lat":-6.202263,"i_long":106.822649,"station_name":"Sudirman","line":1},{"line":1,"i_long":106.819881,"transit":false,"station_id":"SUDB","distance":280,"station_name":"Sudirman Baru","time":1,"is_transit":false,"i_lat":-6.201433},{"distance":471,"line":1,"i_lat":-6.20132,"transit":false,"is_transit":false,"time":1,"station_name":"Karet","station_id":"KAT","i_long":106.816351},{"station_name":"Tanah Abang","distance":2029,"station_id":"THB","time":5,"is_transit":false,"i_lat":-6.185545,"i_long":106.811091,"line":1,"transit":false},{"station_id":"DU","distance":3632,"station_name":"Duri","i_lat":-6.155215,"line":1,"is_transit":true,"transit":true,"time":8,"i_long":106.800832},{"transit":false,"is_transit":false,"distance":1700,"i_lat":-6.162021,"i_long":106.788277,"line":5,"station_name":"Grogol","station_id":"GGL","time":3},{"transit":false,"station_name":"Pesing","time":2,"i_long":106.771379,"distance":2036,"line":5,"station_id":"PSG","is_transit":false,"i_lat":-6.161433},{"is_transit":false,"transit":false,"i_lat":-6.1587309999999995,"station_name":"Taman Kota","station_id":"TKO","line":5,"i_long":106.756522,"distance":1614,"time":2},{"transit":false,"station_id":"BOI","i_lat":-6.159876,"distance":2334,"i_long":106.737035,"line":5,"time":2,"station_name":"Bojongindah","is_transit":false},{"time":4,"station_name":"Rawa Buaya","station_id":"RW","line":5,"i_long":106.723064,"i_lat":-6.162758,"distance":1152,"is_transit":false,"transit":false},{"i_lat":-6.166068,"transit":false,"i_long":106.701612,"time":3,"station_id":"KDS","line":5,"station_name":"Kalideres","is_transit":false,"distance":2504},{"station_name":"Poris","is_transit":false,"distance":2548,"time":3,"i_long":106.679458,"line":5,"transit":false,"i_lat":-6.169933,"station_id":"PI"},{"transit":false,"station_name":"Batuceper","i_lat":-6.171811,"time":3,"station_id":"BPR","is_transit":false,"line":5,"distance":1834,"i_long":106.665036},{"station_name":"Tanah Tinggi","is_transit":false,"distance":2028,"transit":false,"station_id":"TTI","i_long":106.64657,"time":3,"i_lat":-6.17331,"line":5}],[{"station_name":"Bojonggede","i_long":106.792719,"time":0,"line":2,"transit":false,"is_transit":false,"i_lat":-6.493243,"distance":0,"station_id":"BJD"},{"line":2,"i_lat":-6.448811,"time":5,"station_id":"CTA","station_name":"Citayam","distance":5197,"i_long":106.800298,"is_transit":false,"transit":false},{"distance":5084,"i_lat":-6.405256,"station_name":"Depok","i_long":106.816926,"is_transit":false,"line":2,"station_id":"DP","time":6,"transit":false},{"station_name":"Depokbaru","time":3,"distance":1584,"station_id":"DPB","i_long":106.819451,"i_lat":-6.391065,"transit":false,"line":2,"is_transit":false},{"distance":2727,"i_lat":-6.369073,"i_long":106.831114,"time":4,"transit":false,"is_transit":false,"line":2,"station_id":"POC","station_name":"Pondok Cina"},{"i_long":106.831474,"transit":false,"i_lat":-6.360749,"station_id":"UI","distance":1109,"time":2,"station_name":"Univ. Indonesia","line":2,"is_transit":false},{"station_id":"UP","transit":false,"station_name":"Univ. Pancasila","time":3,"is_transit":false,"distance":2264,"i_long":106.834175,"i_lat":-6.339291,"line":2},{"station_name":"Lenteng Agung","transit":false,"i_lat":-6.330363,"line":2,"time":2,"station_id":"LNA","i_long":106.832616,"is_transit":false,"distance":1029},{"transit":false,"i_lat":-6.3080680000000005,"line":2,"station_id":"TNT","station_name":"Tanjung Barat","time":3,"is_transit":false,"i_long":106.838896,"distance":2671},{"transit":false,"line":2,"is_transit":false,"station_id":"PSM","station_name":"Pasar Minggu","distance":2820,"i_lat":-6.2842400000000005,"time":4,"i_long":106.843999},{"time":2,"transit":false,"i_lat":-6.263214,"line":2,"distance":2380,"station_name":"Pasar Minggu Baru","station_id":"PSMB","i_long":106.851577,"is_transit":false},{"station_id":"DRN","transit":false,"i_lat":-6.255332,"line":2,"i_long":106.85449,"distance":824,"is_transit":false,"time":2,"station_name":"Duren Kalibata"},{"time":3,"is_transit":false,"station_id":"CW","station_name":"Cawang","i_lat":-6.242512,"i_long":106.856607,"line":2,"distance":1546,"transit":false},{"distance":1230,"i_lat":-6.226659,"transit":false,"i_long":106.857948,"line":2,"time":2,"station_id":"TEB","is_transit":false,"station_name":"Tebet"},{"station_id":"MRI","transit":false,"station_name":"Manggarai","is_transit":false,"i_lat":-6.209883,"i_long":106.84912,"line":2,"distance":2610,"time":4},{"distance":1590,"station_name":"Cikini","is_transit":false,"i_lat":-6.198556,"i_long":106.840169,"line":2,"transit":false,"time":4,"station_id":"CKI"},{"i_long":106.832183,"station_id":"GDD","i_lat":-6.186295,"distance":1750,"is_transit":false,"line":2,"transit":false,"station_name":"Gondangdia","time":3},{"station_id":"JUA","transit":false,"line":2,"time":4,"distance":2015,"i_lat":-6.166716,"i_long":106.828284,"station_name":"Juanda","is_transit":false},{"transit":false,"is_transit":false,"i_lat":-6.160725,"i_long":106.827103,"station_name":"Sawah Besar","station_id":"SW","distance":1149,"time":2,"line":2},{"time":2,"i_long":106.82482,"is_transit":false,"i_lat":-6.149769,"station_id":"MGB","line":2,"transit":false,"distance":906,"station_name":"Manggabesar"},{"station_name":"Jayakarta","i_long":106.820901,"station_id":"JAY","is_transit":false,"time":2,"distance":1080,"i_lat":-6.141205,"line":2,"transit":false},{"station_id":"JAKK","i_lat":-6.137569,"distance":1264,"time":4,"line":2,"transit":true,"is_transit":true,"station_name":"Jakarta Kota","i_long":106.812439},{"station_name":"Kampung Bandan","is_transit":true,"distance":1364,"line":4,"transit":true,"i_long":106.826365,"time":3,"station_id":"KPB","i_lat":-6.132549},{"transit":false,"is_transit":false,"station_name":"Angke","time":9,"station_id":"AK","line":1,"i_lat":-6.144674,"i_long":106.79867,"distance":4102},{"i_long":106.800832,"distance":1230,"transit":true,"time":4,"i_lat":-6.155215,"line":1,"station_name":"Duri","is_transit":true,"station_id":"DU"},{"distance":1700,"station_name":"Grogol","time":3,"transit":false,"is_transit":false,"station_id":"GGL","i_long":106.788277,"i_lat":-6.162021,"line":5},{"distance":2036,"is_transit":false,"station_name":"Pesing","i_lat":-6.161433,"i_long":106.771379,"transit":false,"time":2,"station_id":"PSG","line":5},{"time":2,"distance":1614,"line":5,"i_lat":-6.1587309999999995,"station_name":"Taman Kota","transit":false,"station_id":"TKO","is_transit":false,"i_long":106.756522},{"distance":2334,"station_name":"Bojongindah","transit":false,"station_id":"BOI","i_lat":-6.159876,"is_transit":false,"time":2,"line":5,"i_long":106.737035},{"transit":false,"station_name":"Rawa Buaya","time":4,"is_transit":false,"distance":1152,"station_id":"RW","i_lat":-6.162758,"line":5,"i_long":106.723064},{"line":5,"station_name":"Kalideres","time":3,"i_long":106.701612,"transit":false,"is_transit":false,"station_id":"KDS","i_lat":-6.166068,"distance":2504},{"i_long":106.679458,"line":5,"station_id":"PI","distance":2548,"transit":false,"is_transit":false,"i_lat":-6.169933,"time":3,"station_name":"Poris"},{"line":5,"i_long":106.665036,"is_transit":false,"time":3,"transit":false,"station_id":"BPR","station_name":"Batuceper","i_lat":-6.171811,"distance":1834},{"transit":false,"i_lat":-6.17331,"line":5,"is_transit":false,"station_name":"Tanah Tinggi","i_long":106.64657,"time":3,"distance":2028,"station_id":"TTI"}],[{"i_long":106.792719,"is_transit":false,"distance":0,"line":2,"transit":false,"time":0,"station_id":"BJD","station_name":"Bojonggede","i_lat":-6.493243},{"station_name":"Citayam","line":2,"time":5,"i_long":106.800298,"is_transit":false,"i_lat":-6.448811,"transit":false,"station_id":"CTA","distance":5197},{"line":2,"i_lat":-6.405256,"transit":false,"is_transit":false,"station_name":"Depok","station_id":"DP","time":6,"distance":5084,"i_long":106.816926},{"station_name":"Depokbaru","station_id":"DPB","i_lat":-6.391065,"is_transit":false,"transit":false,"time":3,"line":2,"i_long":106.819451,"distance":1584},{"transit":false,"distance":2727,"station_name":"Pondok Cina","i_long":106.831114,"station_id":"POC","time":4,"is_transit":false,"i_lat":-6.369073,"line":2},{"transit":false,"time":2,"is_transit":false,"line":2,"station_id":"UI","i_long":106.831474,"station_name":"Univ. Indonesia","distance":1109,"i_lat":-6.360749},{"line":2,"station_id":"UP","i_lat":-6.339291,"transit":false,"distance":2264,"time":3,"station_name":"Univ. Pancasila","i_long":106.834175,"is_transit":false},{"station_id":"LNA","i_long":106.832616,"station_name":"Lenteng Agung","transit":false,"distance":1029,"line":2,"i_lat":-6.330363,"is_transit":false,"time":2},{"time":3,"distance":2671,"i_long":106.838896,"transit":false,"station_name":"Tanjung Barat","is_transit":false,"line":2,"station_id":"TNT","i_lat":-6.3080680000000005},{"is_transit":false,"i_lat":-6.2842400000000005,"distance":2820,"i_long":106.843999,"station_name":"Pasar Minggu","time":4,"line":2,"station_id":"PSM","transit":false},{"i_long":106.851577,"line":2,"time":2,"station_id":"PSMB","i_lat":-6.263214,"distance":2380,"transit":false,"station_name":"Pasar Minggu Baru","is_transit":false},{"station_id":"DRN","transit":false,"time":2,"distance":824,"i_lat":-6.255332,"station_name":"Duren Kalibata","is_transit":false,"i_long":106.85449,"line":2},{"line":2,"is_transit":false,"station_name":"Cawang","distance":1546,"station_id":"CW","i_lat":-6.242512,"time":3,"i_long":106.856607,"transit":false},{"distance":1230,"transit":false,"line":2,"i_lat":-6.226659,"station_name":"Tebet","time":2,"is_transit":false,"station_id":"TEB","i_long":106.857948},{"transit":true,"time":4,"i_lat":-6.209883,"station_name":"Manggarai","distance":2610,"i_long":106.84912,"is_transit":true,"line":2,"station_id":"MRI"},{"transit":false,"i_long":106.858896,"is_transit":false,"station_name":"Matraman","station_id":"MTR","distance":1275,"time":2,"line":1,"i_lat":-6.212485},{"is_transit":true,"transit":true,"time":8,"station_name":"Jatinegara","station_id":"JNG","distance":1377,"line":1,"i_lat":-6.215091,"i_long":106.86807400000001},{"station_name":"Pondok Jati","time":2,"station_id":"POK","transit":false,"i_long":106.861737,"line":11,"distance":1236,"i_lat":-6.209188,"is_transit":false},{"line":11,"time":2,"i_long":106.855437,"transit":false,"i_lat":-6.193792,"is_transit":false,"distance":1829,"station_name":"Kramat","station_id":"KMT"},{"transit":false,"i_long":106.850107,"i_lat":-6.185975,"line":11,"distance":973,"station_name":"Gang Sentiong","station_id":"GST","time":1,"is_transit":false},{"time":8,"transit":false,"station_id":"PSE","station_name":"Pasar Senen","i_lat":-6.174784,"i_long":106.84368,"line":11,"distance":1567,"is_transit":false},{"distance":1436,"transit":false,"i_long":106.839204,"time":4,"station_id":"KMO","is_transit":false,"line":11,"i_lat":-6.161728,"station_name":"Kemayoran"},{"distance":1901,"station_name":"Rajawali","i_lat":-6.14505,"station_id":"RJW","is_transit":false,"i_long":106.836569,"time":5,"transit":false,"line":11},{"is_transit":true,"station_name":"Kampung Bandan","station_id":"KPB","time":3,"i_long":106.826365,"line":4,"transit":true,"i_lat":-6.132549,"distance":1444},{"i_long":106.79867,"station_id":"AK","line":1,"i_lat":-6.144674,"time":9,"is_transit":false,"distance":4102,"transit":false,"station_name":"Angke"},{"transit":true,"station_id":"DU","is_transit":true,"i_long":106.800832,"distance":1230,"i_lat":-6.155215,"line":1,"time":4,"station_name":"Duri"},{"station_id":"GGL","distance":1700,"transit":false,"station_name":"Grogol","time":3,"i_long":106.788277,"i_lat":-6.162021,"line":5,"is_transit":false},{"station_name":"Pesing","distance":2036,"time":2,"i_long":106.771379,"station_id":"PSG","is_transit":false,"line":5,"transit":false,"i_lat":-6.161433},{"i_lat":-6.1587309999999995,"is_transit":false,"transit":false,"station_name":"Taman Kota","distance":1614,"i_long":106.756522,"time":2,"line":5,"station_id":"TKO"},{"station_name":"Bojongindah","i_lat":-6.159876,"line":5,"distance":2334,"transit":false,"is_transit":false,"time":2,"station_id":"BOI","i_long":106.737035},{"time":4,"i_long":106.723064,"station_id":"RW","line":5,"i_lat":-6.162758,"transit":false,"station_name":"Rawa Buaya","distance":1152,"is_transit":false},{"station_id":"KDS","is_transit":false,"distance":2504,"station_name":"Kalideres","time":3,"i_long":106.701612,"transit":false,"line":5,"i_lat":-6.166068},{"line":5,"i_long":106.679458,"station_name":"Poris","station_id":"PI","is_transit":false,"distance":2548,"time":3,"i_lat":-6.169933,"transit":false},{"is_transit":false,"time":3,"transit":false,"i_lat":-6.171811,"i_long":106.665036,"line":5,"station_id":"BPR","station_name":"Batuceper","distance":1834},{"transit":false,"time":3,"line":5,"station_id":"TTI","i_long":106.64657,"distance":2028,"station_name":"Tanah Tinggi","is_transit":false,"i_lat":-6.17331}]]}