{"data":[[{"time":0,"station_id":"BJD","station_name":"Bojonggede","is_transit":false,"i_long":106.792719,"i_lat":-6.493243,"distance":0,"transit":false,"line":2},{"station_id":"CTA","station_name":"Citayam","distance":5197,"line":2,"i_lat":-6.448811,"time":5,"i_long":106.800298,"transit":false,"is_transit":false},{"station_name":"Depok","is_transit":false,"time":6,"station_id":"DP","i_long":106.816926,"line":2,"distance":5084,"i_lat":-6.405256,"transit":false},{"is_transit":false,"time":3,"i_lat":-6.391065,"station_id":"DPB","transit":false,"station_name":"Depokbaru","i_long":106.819451,"distance":1584,"line":2},{"station_id":"POC","station_name":"Pondok Cina","is_transit":false,"distance":2727,"line":2,"i_lat":-6.369073,"transit":false,"time":4,"i_long":106.831114},{"distance":1109,"station_name":"Univ. Indonesia","transit":false,"is_transit":false,"i_lat":-6.360749,"i_long":106.831474,"line":2,"time":2,"station_id":"UI"},{"distance":2264,"time":3,"is_transit":false,"station_id":"UP","station_name":"Univ. Pancasila","i_lat":-6.339291,"i_long":106.834175,"line":2,"transit":false},{"transit":false,"i_lat":-6.330363,"station_name":"Lenteng Agung","distance":1029,"time":2,"line":2,"station_id":"LNA","i_long":106.832616,"is_transit":false},{"is_transit":false,"station_name":"Tanjung Barat","distance":2671,"station_id":"TNT","i_lat":-6.3080680000000005,"line":2,"transit":false,"time":3,"i_long":106.838896},{"i_long":106.843999,"transit":false,"distance":2820,"i_lat":-6.2842400000000005,"station_id":"PSM","line":2,"is_transit":false,"station_name":"Pasar Minggu","time":4},{"is_transit":false,"i_long":106.851577,"distance":2380,"transit":false,"station_name":"Pasar Minggu Baru","time":2,"station_id":"PSMB","i_lat":-6.263214,"line":2},{"time":2,"transit":false,"line":2,"station_id":"DRN","i_lat":-6.255332,"is_transit":false,"distance":824,"station_name":"Duren Kalibata","i_long":106.85449},{"i_lat":-6.242512,"is_transit":false,"line":2,"i_long":106.856607,"time":3,"distance":1546,"station_name":"Cawang","station_id":"CW","transit":false},{"line":2,"transit":false,"station_id":"TEB","distance":1230,"is_transit":false,"station_name":"Tebet","time":2,"i_lat":-6.226659,"i_long":106.857948},{"time":4,"station_id":"MRI","station_name":"Manggarai","transit":false,"i_long":106.84912,"distance":2610,"line":2,"i_lat":-6.209883,"is_transit":false},{"i_long":106.840169,"line":2,"time":4,"station_name":"Cikini","is_transit":false,"station_id":"CKI","transit":false,"distance":1590,"i_lat":-6.198556},{"distance":1750,"i_lat":-6.186295,"station_name":"Gondangdia","i_long":106.832183,"line":2,"station_id":"GDD","is_transit":false,"transit":false,"time":3},{"station_name":"Juanda","i_lat":-6.166716,"line":2,"transit":false,"is_transit":false,"time":4,"distance":2015,"station_id":"JUA","i_long":106.828284},{"distance":1149,"i_long":106.827103,"transit":false,"time":2,"station_id":"SW","line":2,"station_name":"Sawah Besar","i_lat":-6.160725,"is_transit":false},{"station_name":"Manggabesar","station_id":"MGB","is_transit":false,"time":2,"line":2,"transit":false,"distance":906,"i_lat":-6.149769,"i_long":106.82482},{"i_long":106.820901,"station_id":"JAY","is_transit":false,"i_lat":-6.141205,"time":2,"transit":false,"station_name":"Jayakarta","distance":1080,"line":2}],[{"time":0,"station_id":"BJD","line":2,"distance":0,"i_lat":-6.493243,"i_long":106.792719,"station_name":"Bojonggede","is_transit":false,"transit":false},{"i_long":106.800298,"i_lat":-6.448811,"is_transit":false,"distance":5197,"time":5,"station_name":"Citayam","station_id":"CTA","line":2,"transit":false},{"is_transit":false,"station_id":"DP","transit":false,"distance":5084,"i_lat":-6.405256,"line":2,"station_name":"Depok","time":6,"i_long":106.816926},{"is_transit":false,"transit":false,"i_lat":-6.391065,"i_long":106.819451,"line":2,"station_id":"DPB","distance":1584,"time":3,"station_name":"Depokbaru"},{"i_long":106.831114,"time":4,"i_lat":-6.369073,"station_name":"Pondok Cina","transit":false,"is_transit":false,"distance":2727,"station_id":"POC","line":2},{"station_id":"UI","distance":1109,"station_name":"Univ. Indonesia","transit":false,"is_transit":false,"line":2,"i_long":106.831474,"time":2,"i_lat":-6.360749},{"transit":false,"time":3,"distance":2264,"is_transit":false,"line":2,"station_name":"Univ. Pancasila","i_lat":-6.339291,"station_id":"UP","i_long":106.834175},{"station_id":"LNA","i_lat":-6.330363,"station_name":"Lenteng Agung","is_transit":false,"i_long":106.832616,"time":2,"line":2,"distance":1029,"transit":false},{"station_name":"Tanjung Barat","i_lat":-6.3080680000000005,"station_id":"TNT","line":2,"distance":2671,"time":3,"is_transit":false,"transit":false,"i_long":106.838896},{"time":4,"i_long":106.843999,"is_transit":false,"i_lat":-6.2842400000000005,"station_id":"PSM","station_name":"Pasar Minggu","line":2,"transit":false,"distance":2820},{"station_id":"PSMB","station_name":"Pasar Minggu Baru","i_lat":-6.263214,"line":2,"is_transit":false,"distance":2380,"time":2,"transit":false,"i_long":106.851577},{"transit":false,"station_id":"DRN","is_transit":false,"i_lat":-6.255332,"station_name":"Duren Kalibata","distance":824,"i_long":106.85449,"line":2,"time":2},{"i_long":106.856607,"is_transit":false,"line":2,"distance":1546,"station_id":"CW","i_lat":-6.242512,"time":3,"transit":false,"station_name":"Cawang"},{"transit":false,"distance":1230,"station_name":"Tebet","is_transit":false,"i_lat":-6.226659,"line":2,"time":2,"station_id":"TEB","i_long":106.857948},{"distance":2610,"time":4,"line":2,"transit":true,"station_name":"Manggarai","i_lat":-6.209883,"i_long":106.84912,"is_transit":true,"station_id":"MRI"},{"time":4,"station_name":"Sudirman","transit":false,"i_lat":-6.202263,"i_long":106.822649,"distance":3186,"station_id":"SUD","line":1,"is_transit":false},{"is_transit":false,"transit":false,"station_name":"Sudirman Baru","distance":280,"i_long":106.819881,"time":1,"i_lat":-6.201433,"line":1,"station_id":"SUDB"},{"distance":471,"i_lat":-6.20132,"i_long":106.816351,"line":1,"station_id":"KAT","station_name":"Karet","is_transit":false,"time":1,"transit":false},{"transit":false,"station_name":"Tanah Abang","is_transit":false,"i_long":106.811091,"station_id":"THB","line":1,"i_lat":-6.185545,"distance":2029,"time":5},{"transit":false,"distance":3632,"i_lat":-6.155215,"time":8,"i_long":106.800832,"line":1,"station_name":"Duri","station_id":"DU","is_transit":false},{"time":4,"distance":1230,"station_name":"Angke","i_lat":-6.144674,"i_long":106.79867,"transit":false,"is_transit":false,"line":1,"station_id":"AK"},{"is_transit":true,"i_long":106.826365,"transit":true,"station_id":"KPB","station_name":"Kampung Bandan","line":4,"time":9,"i_lat":-6.132549,"distance":4102},{"i_long":106.812439,"time":3,"distance":1364,"transit":true,"line":2,"station_id":"JAKK","station_name":"Jakarta Kota","is_transit":true,"i_lat":-6.137569},{"time":4,"is_transit":false,"transit":false,"distance":1264,"i_lat":-6.141205,"station_id":"JAY","station_name":"Jayakarta","i_long":106.820901,"line":2}],[{"transit":false,"i_long":106.792719,"i_lat":-6.493243,"distance":0,"line":2,"is_transit":false,"station_id":"BJD","time":0,"station_name":"Bojonggede"},{"i_lat":-6.448811,"line":2,"transit":false,"distance":5197,"time":5,"is_transit":false,"i_long":106.800298,"station_name":"Citayam","station_id":"CTA"},{"i_long":106.816926,"i_lat":-6.405256,"is_transit":false,"line":2,"station_id":"DP","transit":false,"time":6,"distance":5084,"station_name":"Depok"},{"line":2,"distance":1584,"is_transit":false,"i_lat":-6.391065,"station_id":"DPB","time":3,"station_name":"Depokbaru","transit":false,"i_long":106.819451},{"distance":2727,"station_id":"POC","i_lat":-6.369073,"transit":false,"station_name":"Pondok Cina","i_long":106.831114,"line":2,"time":4,"is_transit":false},{"i_lat":-6.360749,"distance":1109,"time":2,"line":2,"transit":false,"station_id":"UI","station_name":"Univ. Indonesia","i_long":106.831474,"is_transit":false},{"time":3,"station_id":"UP","transit":false,"distance":2264,"line":2,"i_lat":-6.339291,"i_long":106.834175,"station_name":"Univ. Pancasila","is_transit":false},{"is_transit":false,"line":2,"station_id":"LNA","distance":1029,"station_name":"Lenteng Agung","i_lat":-6.330363,"transit":false,"i_long":106.832616,"time":2},{"i_long":106.838896,"transit":false,"station_id":"TNT","station_name":"Tanjung Barat","distance":2671,"is_transit":false,"i_lat":-6.3080680000000005,"line":2,"time":3},{"line":2,"i_lat":-6.2842400000000005,"transit":false,"i_long":106.843999,"time":4,"distance":2820,"station_id":"PSM","station_name":"Pasar Minggu","is_transit":false},{"transit":false,"is_transit":false,"station_name":"Pasar Minggu Baru","i_long":106.851577,"station_id":"PSMB","i_lat":-6.263214,"distance":2380,"line":2,"time":2},{"is_transit":false,"time":2,"station_id":"DRN","station_name":"Duren Kalibata","transit":false,"line":2,"i_long":106.85449,"distance":824,"i_lat":-6.255332},{"i_long":106.856607,"time":3,"is_transit":false,"distance":1546,"i_lat":-6.242512,"station_name":"Cawang","transit":false,"station_id":"CW","line":2},{"distance":1230,"line":2,"i_long":106.857948,"station_id":"TEB","is_transit":false,"station_name":"Tebet","time":2,"transit":false,"i_lat":-6.226659},{"distance":2610,"is_transit":true,"transit":true,"station_id":"MRI","i_long":106.84912,"i_lat":-6.209883,"time":4,"station_name":"Manggarai","line":2},{"station_name":"Matraman","i_lat":-6.212485,"station_id":"MTR","i_long":106.858896,"time":2,"transit":false,"distance":1275,"is_transit":false,"line":1},{"station_name":"Jatinegara","is_transit":true,"i_long":106.86807400000001,"station_id":"JNG","time":8,"distance":1377,"transit":true,"i_lat":-6.215091,"line":1},{"is_transit":false,"transit":false,"distance":1236,"i_lat":-6.209188,"time":2,"i_long":106.861737,"station_id":"POK","line":11,"station_name":"Pondok Jati"},{"i_long":106.855437,"is_transit":false,"line":11,"station_id":"KMT","transit":false,"distance":1829,"time":2,"station_name":"Kramat","i_lat":-6.193792},{"station_id":"GST","time":1,"line":11,"is_transit":false,"station_name":"Gang Sentiong","transit":false,"i_lat":-6.185975,"distance":973,"i_long":106.850107},{"time":8,"distance":1567,"transit":false,"station_id":"PSE","i_long":106.84368,"station_name":"Pasar Senen","is_transit":false,"i_lat":-6.174784,"line":11},{"station_id":"KMO","station_name":"Kemayoran","time":4,"line":11,"i_long":106.839204,"transit":false,"is_transit":false,"i_lat":-6.161728,"distance":1436},{"time":5,"station_name":"Rajawali","station_id":"RJW","is_transit":false,"transit":false,"i_lat":-6.14505,"distance":1901,"i_long":106.836569,"line":11},{"station_name":"Kampung Bandan","i_long":106.826365,"distance":1444,"time":3,"i_lat":-6.132549,"is_transit":true,"station_id":"KPB","line":4,"transit":true},{"time":3,"station_id":"JAKK","station_name":"Jakarta Kota","transit":true,"distance":1364,"i_lat":-6.137569,"is_transit":true,"line":2,"i_long":106.812439},{"is_transit":false,"distance":1264,"i_lat":-6.141205,"transit":false,"time":4,"station_id":"JAY","i_long":106.820901,"line":2,"station_name":"Jayakarta"}]]}