{"data":[[{"distance":0,"i_lat":-6.493243,"line":2,"station_name":"Bojonggede","i_long":106.792719,"time":0,"transit":false,"is_transit":false,"station_id":"BJD"},{"distance":5197,"i_long":106.800298,"is_transit":false,"station_name":"Citayam","transit":false,"time":5,"line":2,"i_lat":-6.448811,"station_id":"CTA"},{"is_transit":false,"distance":5084,"i_lat":-6.405256,"time":6,"transit":false,"station_name":"Depok","line":2,"i_long":106.816926,"station_id":"DP"},{"i_long":106.819451,"is_transit":false,"line":2,"station_id":"DPB","distance":1584,"time":3,"station_name":"Depokbaru","i_lat":-6.391065,"transit":false},{"i_long":106.831114,"time":4,"station_name":"Pondok Cina","station_id":"POC","transit":false,"is_transit":false,"distance":2727,"i_lat":-6.369073,"line":2},{"i_lat":-6.360749,"station_name":"Univ. Indonesia","time":2,"station_id":"UI","is_transit":false,"distance":1109,"transit":false,"i_long":106.831474,"line":2}]]}