{"data":[[{"distance":0,"i_long":106.792719,"is_transit":false,"station_name":"Bojonggede","time":0,"line":2,"i_lat":-6.493243,"transit":false,"station_id":"BJD"},{"is_transit":false,"transit":false,"i_lat":-6.448811,"i_long":106.800298,"time":5,"station_id":"CTA","station_name":"Citayam","distance":5197,"line":2},{"time":6,"station_name":"Depok","i_lat":-6.405256,"station_id":"DP","i_long":106.816926,"distance":5084,"line":2,"transit":false,"is_transit":false},{"time":3,"i_lat":-6.391065,"transit":false,"distance":1584,"station_id":"DPB","is_transit":false,"i_long":106.819451,"station_name":"Depokbaru","line":2},{"distance":2727,"is_transit":false,"time":4,"i_long":106.831114,"station_id":"POC","line":2,"i_lat":-6.369073,"station_name":"Pondok Cina","transit":false},{"transit":false,"station_id":"UI","station_name":"Univ. Indonesia","i_long":106.831474,"i_lat":-6.360749,"distance":1109,"line":2,"time":2,"is_transit":false},{"i_long":106.834175,"transit":false,"i_lat":-6.339291,"time":3,"station_id":"UP","line":2,"station_name":"Univ. Pancasila","is_transit":false,"distance":2264},{"distance":1029,"transit":false,"station_id":"LNA","is_transit":false,"line":2,"i_lat":-6.330363,"i_long":106.832616,"time":2,"station_name":"Lenteng Agung"},{"time":3,"i_lat":-6.3080680000000005,"line":2,"station_id":"TNT","distance":2671,"station_name":"Tanjung Barat","i_long":106.838896,"is_transit":false,"transit":false},{"i_lat":-6.2842400000000005,"station_id":"PSM","station_name":"Pasar Minggu","time":4,"transit":false,"i_long":106.843999,"line":2,"distance":2820,"is_transit":false},{"line":2,"time":2,"station_id":"PSMB","transit":false,"i_lat":-6.263214,"is_transit":false,"i_long":106.851577,"distance":2380,"station_name":"Pasar Minggu Baru"},{"i_lat":-6.255332,"distance":824,"i_long":106.85449,"is_transit":false,"station_id":"DRN","line":2,"transit":false,"station_name":"Duren Kalibata","time":2},{"station_name":"Cawang","line":2,"transit":false,"time":3,"distance":1546,"is_transit":false,"i_long":106.856607,"station_id":"CW","i_lat":-6.242512},{"station_name":"Tebet","line":2,"i_lat":-6.226659,"i_long":106.857948,"time":2,"is_transit":false,"station_id":"TEB","transit":false,"distance":1230},{"i_long":106.84912,"station_id":"MRI","station_name":"Manggarai","line":2,"distance":2610,"transit":true,"time":4,"is_transit":true,"i_lat":-6.209883},{"station_id":"MTR","i_long":106.858896,"station_name":"Matraman","distance":1275,"line":1,"i_lat":-6.212485,"is_transit":false,"transit":false,"time":2},{"station_name":"Jatinegara","transit":true,"i_long":106.86807400000001,"is_transit":true,"i_lat":-6.215091,"station_id":"JNG","distance":1377,"time":8,"line":1},{"transit":false,"i_long":106.861737,"i_lat":-6.209188,"line":11,"distance":1236,"station_name":"Pondok Jati","time":2,"is_transit":false,"station_id":"POK"},{"station_id":"KMT","station_name":"Kramat","transit":false,"line":11,"distance":1829,"time":2,"i_lat":-6.193792,"i_long":106.855437,"is_transit":false},{"station_name":"Gang Sentiong","station_id":"GST","is_transit":false,"line":11,"time":1,"transit":false,"i_lat":-6.185975,"i_long":106.850107,"distance":973},{"transit":false,"time":8,"is_transit":false,"station_id":"PSE","i_lat":-6.174784,"station_name":"Pasar Senen","distance":1567,"line":11,"i_long":106.84368},{"time":4,"station_id":"KMO","distance":1436,"transit":false,"line":11,"station_name":"Kemayoran","i_lat":-6.161728,"i_long":106.839204,"is_transit":false},{"distance":1901,"time":5,"i_lat":-6.14505,"transit":false,"is_transit":false,"station_id":"RJW","i_long":106.836569,"line":11,"station_name":"Rajawali"}],[{"station_name":"Bojonggede","time":0,"i_long":106.792719,"is_transit":false,"distance":0,"transit":false,"i_lat":-6.493243,"line":2,"station_id":"BJD"},{"is_transit":false,"transit":false,"i_long":106.800298,"i_lat":-6.448811,"distance":5197,"station_id":"CTA","line":2,"time":5,"station_name":"Citayam"},{"line":2,"i_long":106.816926,"distance":5084,"station_name":"Depok","is_transit":false,"transit":false,"time":6,"i_lat":-6.405256,"station_id":"DP"},{"transit":false,"i_lat":-6.391065,"station_id":"DPB","is_transit":false,"line":2,"station_name":"Depokbaru","i_long":106.819451,"distance":1584,"time":3},{"time":4,"i_long":106.831114,"line":2,"transit":false,"station_name":"Pondok Cina","is_transit":false,"distance":2727,"station_id":"POC","i_lat":-6.369073},{"transit":false,"time":2,"i_long":106.831474,"distance":1109,"line":2,"station_name":"Univ. Indonesia","is_transit":false,"station_id":"UI","i_lat":-6.360749},{"i_lat":-6.339291,"line":2,"time":3,"is_transit":false,"station_name":"Univ. Pancasila","i_long":106.834175,"distance":2264,"station_id":"UP","transit":false},{"time":2,"i_long":106.832616,"line":2,"i_lat":-6.330363,"is_transit":false,"station_name":"Lenteng Agung","transit":false,"distance":1029,"station_id":"LNA"},{"line":2,"station_name":"Tanjung Barat","time":3,"i_long":106.838896,"transit":false,"i_lat":-6.3080680000000005,"station_id":"TNT","is_transit":false,"distance":2671},{"is_transit":false,"i_long":106.843999,"station_id":"PSM","line":2,"transit":false,"i_lat":-6.2842400000000005,"distance":2820,"station_name":"Pasar Minggu","time":4},{"time":2,"line":2,"transit":false,"station_id":"PSMB","i_lat":-6.263214,"is_transit":false,"i_long":106.851577,"station_name":"Pasar Minggu Baru","distance":2380},{"station_name":"Duren Kalibata","i_long":106.85449,"transit":false,"is_transit":false,"time":2,"distance":824,"i_lat":-6.255332,"line":2,"station_id":"DRN"},{"station_name":"Cawang","line":2,"is_transit":false,"transit":false,"i_long":106.856607,"distance":1546,"time":3,"station_id":"CW","i_lat":-6.242512},{"distance":1230,"line":2,"is_transit":false,"transit":false,"i_long":106.857948,"i_lat":-6.226659,"time":2,"station_id":"TEB","station_name":"Tebet"},{"transit":true,"station_id":"MRI","i_long":106.84912,"time":4,"station_name":"Manggarai","i_lat":-6.209883,"is_transit":true,"distance":2610,"line":2},{"distance":3186,"station_id":"SUD","time":4,"i_long":106.822649,"line":1,"station_name":"Sudirman","i_lat":-6.202263,"transit":false,"is_transit":false},{"i_lat":-6.201433,"station_name":"Sudirman Baru","time":1,"is_transit":false,"transit":false,"line":1,"distance":280,"station_id":"SUDB","i_long":106.819881},{"time":1,"station_id":"KAT","i_long":106.816351,"line":1,"transit":false,"station_name":"Karet","distance":471,"is_transit":false,"i_lat":-6.20132},{"distance":2029,"i_lat":-6.185545,"time":5,"station_id":"THB","line":1,"transit":false,"i_long":106.811091,"is_transit":false,"station_name":"Tanah Abang"},{"station_id":"DU","station_name":"Duri","distance":3632,"i_lat":-6.155215,"line":1,"is_transit":false,"i_long":106.800832,"transit":false,"time":8},{"i_long":106.79867,"is_transit":false,"station_name":"Angke","line":1,"transit":false,"time":4,"distance":1230,"i_lat":-6.144674,"station_id":"AK"},{"i_long":106.826365,"i_lat":-6.132549,"is_transit":true,"time":9,"distance":4102,"station_name":"Kampung Bandan","line":4,"transit":true,"station_id":"KPB"},{"i_lat":-6.14505,"time":3,"station_name":"Rajawali","transit":false,"is_transit":false,"station_id":"RJW","distance":1444,"i_long":106.836569,"line":11}],[{"i_lat":-6.493243,"distance":0,"station_id":"BJD","time":0,"i_long":106.792719,"line":2,"transit":false,"station_name":"Bojonggede","is_transit":false},{"i_long":106.800298,"distance":5197,"line":2,"is_transit":false,"transit":false,"i_lat":-6.448811,"time":5,"station_name":"Citayam","station_id":"CTA"},{"time":6,"is_transit":false,"station_name":"Depok","i_lat":-6.405256,"station_id":"DP","distance":5084,"transit":false,"i_long":106.816926,"line":2},{"distance":1584,"time":3,"i_long":106.819451,"is_transit":false,"i_lat":-6.391065,"station_id":"DPB","transit":false,"line":2,"station_name":"Depokbaru"},{"is_transit":false,"station_name":"Pondok Cina","station_id":"POC","i_lat":-6.369073,"i_long":106.831114,"time":4,"transit":false,"line":2,"distance":2727},{"i_lat":-6.360749,"station_id":"UI","station_name":"Univ. Indonesia","i_long":106.831474,"is_transit":false,"line":2,"distance":1109,"transit":false,"time":2},{"line":2,"station_id":"UP","distance":2264,"i_lat":-6.339291,"transit":false,"time":3,"is_transit":false,"i_long":106.834175,"station_name":"Univ. Pancasila"},{"is_transit":false,"line":2,"i_lat":-6.330363,"station_id":"LNA","time":2,"station_name":"Lenteng Agung","distance":1029,"transit":false,"i_long":106.832616},{"time":3,"station_name":"Tanjung Barat","is_transit":false,"transit":false,"station_id":"TNT","distance":2671,"i_long":106.838896,"line":2,"i_lat":-6.3080680000000005},{"station_id":"PSM","station_name":"Pasar Minggu","i_lat":-6.2842400000000005,"i_long":106.843999,"line":2,"is_transit":false,"distance":2820,"transit":false,"time":4},{"i_long":106.851577,"i_lat":-6.263214,"station_name":"Pasar Minggu Baru","distance":2380,"time":2,"station_id":"PSMB","transit":false,"line":2,"is_transit":false},{"i_lat":-6.255332,"distance":824,"i_long":106.85449,"station_name":"Duren Kalibata","station_id":"DRN","time":2,"transit":false,"line":2,"is_transit":false},{"is_transit":false,"i_long":106.856607,"transit":false,"i_lat":-6.242512,"time":3,"station_name":"Cawang","distance":1546,"line":2,"station_id":"CW"},{"station_id":"TEB","station_name":"Tebet","is_transit":false,"i_lat":-6.226659,"i_long":106.857948,"line":2,"transit":false,"time":2,"distance":1230},{"line":2,"transit":false,"station_id":"MRI","i_long":106.84912,"is_transit":false,"time":4,"station_name":"Manggarai","distance":2610,"i_lat":-6.209883},{"is_transit":false,"station_name":"Cikini","line":2,"station_id":"CKI","transit":false,"i_lat":-6.198556,"distance":1590,"i_long":106.840169,"time":4},{"i_lat":-6.186295,"time":3,"transit":false,"station_id":"GDD","distance":1750,"i_long":106.832183,"line":2,"is_transit":false,"station_name":"Gondangdia"},{"i_lat":-6.166716,"i_long":106.828284,"distance":2015,"time":4,"station_id":"JUA","station_name":"Juanda","transit":false,"is_transit":false,"line":2},{"i_lat":-6.160725,"line":2,"is_transit":false,"station_id":"SW","time":2,"i_long":106.827103,"transit":false,"distance":1149,"station_name":"Sawah Besar"},{"is_transit":false,"station_name":"Manggabesar","station_id":"MGB","time":2,"line":2,"distance":906,"i_long":106.82482,"transit":false,"i_lat":-6.149769},{"is_transit":false,"station_id":"JAY","i_lat":-6.141205,"transit":false,"station_name":"Jayakarta","distance":1080,"i_long":106.820901,"time":2,"line":2},{"station_id":"JAKK","transit":true,"distance":1264,"time":4,"station_name":"Jakarta Kota","i_lat":-6.137569,"is_transit":true,"i_long":106.812439,"line":2},{"station_id":"KPB","is_transit":true,"time":3,"station_name":"Kampung Bandan","i_long":106.826365,"transit":true,"i_lat":-6.132549,"line":4,"distance":1364},{"line":11,"time":3,"i_lat":-6.14505,"is_transit":false,"station_name":"Rajawali","distance":1444,"i_long":106.836569,"transit":false,"station_id":"RJW"}]]}