{"data":[[{"i_lat":-6.493243,"i_long":106.792719,"time":0,"transit":false,"station_name":"Bojonggede","station_id":"BJD","line":0,"distance":0,"is_transit":false},{"is_transit":true,"time":5,"station_name":"Citayam","i_lat":-6.448811,"i_long":106.800298,"distance":5197,"line":1,"transit":false,"station_id":"CTA"},{"distance":5084,"time":6,"i_lat":-6.405256,"i_long":106.816926,"line":0,"is_transit":false,"station_name":"Depok","station_id":"DP","transit":false},{"i_long":106.819451,"transit":false,"i_lat":-6.391065,"station_id":"DPB","is_transit":false,"line":0,"station_name":"Depokbaru","distance":1584,"time":3},{"i_long":106.831114,"time":4,"i_lat":-6.369073,"station_id":"POC","station_name":"Pondok Cina","distance":2727,"line":2,"is_transit":false,"transit":false},{"station_id":"UI","distance":1109,"i_lat":-6.360749,"transit":false,"station_name":"Univ. Indonesia","line":2,"i_long":106.831474,"time":2,"is_transit":false},{"i_lat":-6.339291,"is_transit":false,"line":2,"station_id":"UP","station_name":"Univ. Pancasila","distance":2264,"transit":false,"i_long":106.834175,"time":3},{"distance":1029,"line":2,"station_id":"LNA","i_lat":-6.330363,"time":2,"station_name":"Lenteng Agung","i_long":106.832616,"transit":false,"is_transit":false},{"time":3,"i_lat":-6.3080680000000005,"i_long":106.838896,"station_id":"TNT","station_name":"Tanjung Barat","distance":2671,"line":2,"transit":false,"is_transit":false},{"line":2,"station_name":"Pasar Minggu","station_id":"PSM","transit":false,"is_transit":false,"i_lat":-6.2842400000000005,"distance":2820,"i_long":106.843999,"time":4},{"i_lat":-6.263214,"station_name":"Pasar Minggu Baru","distance":2380,"station_id":"PSMB","i_long":106.851577,"is_transit":false,"time":2,"transit":false,"line":2},{"station_id":"DRN","time":2,"is_transit":false,"transit":false,"station_name":"Duren Kalibata","distance":824,"i_long":106.85449,"i_lat":-6.255332,"line":0},{"line":0,"distance":1546,"station_name":"Cawang","i_lat":-6.242512,"i_long":106.856607,"time":3,"transit":false,"is_transit":false,"station_id":"CW"},{"is_transit":false,"transit":false,"i_lat":-6.226659,"distance":1230,"station_name":"Tebet","station_id":"TEB","i_long":106.857948,"time":2,"line":2},{"i_lat":-6.209883,"i_long":106.84912,"line":0,"transit":true,"station_name":"Manggarai","station_id":"MRI","is_transit":true,"distance":2610,"time":4},{"is_transit":false,"station_id":"MTR","transit":false,"station_name":"Matraman","i_long":106.858896,"line":1,"distance":1275,"time":2,"i_lat":-6.212485},{"is_transit":true,"station_id":"JNG","station_name":"Jatinegara","i_long":106.86807400000001,"i_lat":-6.215091,"line":0,"transit":false,"distance":1377,"time":8},{"is_transit":false,"i_long":106.899548,"line":1,"station_id":"KLD","time":3,"distance":3395,"transit":false,"i_lat":-6.2135,"station_name":"Klender"},{"is_transit":false,"time":2,"transit":false,"i_lat":-6.215568,"i_long":106.922662,"line":0,"distance":3100,"station_id":"BUA","station_name":"Buaran"},{"time":1,"station_id":"KLDB","station_name":"Klenderbaru","line":1,"i_lat":-6.217455,"is_transit":false,"distance":1305,"transit":false,"i_long":106.939679},{"station_name":"Cakung","transit":false,"time":8,"distance":1385,"is_transit":false,"station_id":"CUK","i_long":106.951283,"i_lat":-6.219053,"line":0},{"transit":false,"station_name":"Kranji","station_id":"KRI","line":1,"distance":3097,"is_transit":false,"i_lat":-6.224515,"i_long":106.977657,"time":3},{"station_name":"Bekasi","transit":false,"distance":2520,"line":0,"station_id":"BKS","i_long":106.997013,"is_transit":false,"i_lat":-6.236616,"time":4}],[{"station_id":"BJD","i_long":106.792719,"line":0,"i_lat":-6.493243,"is_transit":false,"time":0,"station_name":"Bojonggede","transit":false,"distance":0},{"line":1,"is_transit":true,"i_lat":-6.448811,"transit":false,"i_long":106.800298,"station_id":"CTA","time":5,"distance":5197,"station_name":"Citayam"},{"is_transit":false,"time":6,"station_name":"Depok","distance":5084,"i_long":106.816926,"i_lat":-6.405256,"transit":false,"station_id":"DP","line":0},{"transit":false,"is_transit":false,"distance":1584,"time":3,"i_long":106.819451,"station_name":"Depokbaru","station_id":"DPB","i_lat":-6.391065,"line":0},{"line":2,"station_name":"Pondok Cina","station_id":"POC","i_lat":-6.369073,"is_transit":false,"distance":2727,"transit":false,"time":4,"i_long":106.831114},{"station_id":"UI","transit":false,"line":2,"i_lat":-6.360749,"time":2,"is_transit":false,"station_name":"Univ. Indonesia","i_long":106.831474,"distance":1109},{"i_lat":-6.339291,"transit":false,"time":3,"station_id":"UP","station_name":"Univ. Pancasila","line":2,"is_transit":false,"distance":2264,"i_long":106.834175},{"station_id":"LNA","i_lat":-6.330363,"line":2,"time":2,"transit":false,"i_long":106.832616,"station_name":"Lenteng Agung","distance":1029,"is_transit":false},{"distance":2671,"i_lat":-6.3080680000000005,"transit":false,"time":3,"station_name":"Tanjung Barat","is_transit":false,"i_long":106.838896,"line":2,"station_id":"TNT"},{"transit":false,"is_transit":false,"distance":2820,"station_id":"PSM","station_name":"Pasar Minggu","time":4,"i_long":106.843999,"line":2,"i_lat":-6.2842400000000005},{"station_name":"Pasar Minggu Baru","distance":2380,"time":2,"i_long":106.851577,"line":2,"station_id":"PSMB","i_lat":-6.263214,"is_transit":false,"transit":false},{"line":0,"station_name":"Duren Kalibata","transit":false,"is_transit":false,"i_long":106.85449,"time":2,"distance":824,"station_id":"DRN","i_lat":-6.255332},{"transit":false,"station_id":"CW","i_long":106.856607,"i_lat":-6.242512,"is_transit":false,"time":3,"station_name":"Cawang","line":0,"distance":1546},{"station_id":"TEB","is_transit":false,"station_name":"Tebet","distance":1230,"line":2,"i_lat":-6.226659,"time":2,"i_long":106.857948,"transit":false},{"i_lat":-6.209883,"station_name":"Manggarai","i_long":106.84912,"is_transit":true,"station_id":"MRI","time":4,"transit":true,"distance":2610,"line":0},{"distance":3186,"station_id":"SUD","station_name":"Sudirman","transit":false,"time":4,"i_long":106.822649,"line":1,"is_transit":false,"i_lat":-6.202263},{"line":1,"transit":false,"i_lat":-6.201433,"station_id":"SUDB","is_transit":false,"time":1,"station_name":"Sudirman Baru","i_long":106.819881,"distance":280},{"line":1,"time":1,"is_transit":false,"station_id":"KAT","distance":471,"station_name":"Karet","i_long":106.816351,"i_lat":-6.20132,"transit":false},{"station_id":"THB","station_name":"Tanah Abang","distance":2029,"line":1,"time":5,"transit":false,"i_lat":-6.185545,"is_transit":true,"i_long":106.811091},{"transit":true,"distance":3632,"station_name":"Duri","i_long":106.800832,"is_transit":true,"station_id":"DU","i_lat":-6.155215,"time":8,"line":1},{"i_long":106.79867,"time":4,"station_name":"Angke","i_lat":-6.144674,"line":0,"station_id":"AK","is_transit":false,"distance":1230,"transit":false},{"station_name":"Kampung Bandan","transit":true,"distance":4102,"i_lat":-6.132549,"line":0,"i_long":106.826365,"is_transit":true,"station_id":"KPB","time":9},{"station_id":"RJW","distance":1444,"time":3,"transit":false,"line":11,"station_name":"Rajawali","i_lat":-6.14505,"is_transit":false,"i_long":106.836569},{"transit":false,"station_name":"Kemayoran","station_id":"KMO","i_long":106.839204,"is_transit":false,"i_lat":-6.161728,"line":11,"distance":1901,"time":5},{"i_long":106.84368,"is_transit":false,"i_lat":-6.174784,"transit":false,"station_id":"PSE","line":11,"distance":1436,"station_name":"Pasar Senen","time":4},{"transit":false,"station_id":"GST","is_transit":false,"time":8,"station_name":"Gang Sentiong","i_long":106.850107,"line":11,"distance":1567,"i_lat":-6.185975},{"station_name":"Kramat","line":11,"i_lat":-6.193792,"is_transit":false,"distance":973,"transit":false,"i_long":106.855437,"station_id":"KMT","time":1},{"i_lat":-6.209188,"time":2,"transit":false,"is_transit":false,"distance":1829,"station_id":"POK","station_name":"Pondok Jati","i_long":106.861737,"line":11},{"time":9,"i_long":106.86807400000001,"distance":1236,"transit":true,"is_transit":true,"station_id":"JNG","station_name":"Jatinegara","i_lat":-6.215091,"line":0},{"station_name":"Klender","transit":false,"i_lat":-6.2135,"line":1,"time":3,"i_long":106.899548,"distance":3395,"station_id":"KLD","is_transit":false},{"i_lat":-6.215568,"time":2,"i_long":106.922662,"station_name":"Buaran","station_id":"BUA","is_transit":false,"distance":3100,"transit":false,"line":0},{"transit":false,"i_long":106.939679,"time":1,"is_transit":false,"distance":1305,"station_name":"Klenderbaru","i_lat":-6.217455,"station_id":"KLDB","line":1},{"is_transit":false,"time":8,"transit":false,"line":0,"station_id":"CUK","distance":1385,"station_name":"Cakung","i_long":106.951283,"i_lat":-6.219053},{"is_transit":false,"i_long":106.977657,"line":1,"station_id":"KRI","time":3,"i_lat":-6.224515,"distance":3097,"transit":false,"station_name":"Kranji"},{"i_lat":-6.236616,"i_long":106.997013,"line":0,"distance":2520,"time":4,"station_name":"Bekasi","transit":false,"is_transit":false,"station_id":"BKS"}],[{"transit":false,"is_transit":false,"line":0,"time":0,"station_id":"BJD","i_lat":-6.493243,"station_name":"Bojonggede","i_long":106.792719,"distance":0},{"is_transit":true,"station_name":"Citayam","line":1,"transit":false,"time":5,"station_id":"CTA","i_long":106.800298,"i_lat":-6.448811,"distance":5197},{"is_transit":false,"distance":5084,"i_long":106.816926,"line":0,"i_lat":-6.405256,"station_id":"DP","transit":false,"time":6,"station_name":"Depok"},{"distance":1584,"line":0,"i_lat":-6.391065,"is_transit":false,"station_id":"DPB","transit":false,"time":3,"station_name":"Depokbaru","i_long":106.819451},{"is_transit":false,"line":2,"station_name":"Pondok Cina","i_lat":-6.369073,"distance":2727,"station_id":"POC","i_long":106.831114,"transit":false,"time":4},{"i_long":106.831474,"time":2,"distance":1109,"is_transit":false,"station_name":"Univ. Indonesia","i_lat":-6.360749,"station_id":"UI","transit":false,"line":2},{"distance":2264,"station_name":"Univ. Pancasila","transit":false,"line":2,"i_lat":-6.339291,"time":3,"station_id":"UP","i_long":106.834175,"is_transit":false},{"i_long":106.832616,"distance":1029,"station_id":"LNA","time":2,"transit":false,"station_name":"Lenteng Agung","line":2,"is_transit":false,"i_lat":-6.330363},{"i_long":106.838896,"station_name":"Tanjung Barat","station_id":"TNT","distance":2671,"is_transit":false,"line":2,"time":3,"transit":false,"i_lat":-6.3080680000000005},{"distance":2820,"i_lat":-6.2842400000000005,"i_long":106.843999,"line":2,"station_name":"Pasar Minggu","transit":false,"time":4,"station_id":"PSM","is_transit":false},{"i_lat":-6.263214,"line":2,"time":2,"i_long":106.851577,"station_id":"PSMB","distance":2380,"is_transit":false,"station_name":"Pasar Minggu Baru","transit":false},{"station_name":"Duren Kalibata","transit":false,"distance":824,"is_transit":false,"i_long":106.85449,"station_id":"DRN","i_lat":-6.255332,"line":0,"time":2},{"station_id":"CW","transit":false,"i_long":106.856607,"distance":1546,"station_name":"Cawang","i_lat":-6.242512,"line":0,"is_transit":false,"time":3},{"line":2,"time":2,"i_lat":-6.226659,"transit":false,"distance":1230,"station_name":"Tebet","i_long":106.857948,"is_transit":false,"station_id":"TEB"},{"time":4,"transit":true,"line":0,"distance":2610,"station_id":"MRI","station_name":"Manggarai","i_lat":-6.209883,"is_transit":true,"i_long":106.84912},{"time":4,"i_lat":-6.198556,"is_transit":false,"station_name":"Cikini","station_id":"CKI","transit":false,"i_long":106.840169,"distance":1590,"line":0},{"i_long":106.832183,"is_transit":false,"line":2,"transit":false,"time":3,"i_lat":-6.186295,"station_name":"Gondangdia","station_id":"GDD","distance":1750},{"line":2,"station_name":"Juanda","time":4,"is_transit":false,"distance":2015,"station_id":"JUA","transit":false,"i_lat":-6.166716,"i_long":106.828284},{"station_name":"Sawah Besar","line":2,"station_id":"SW","time":2,"is_transit":false,"distance":1149,"i_lat":-6.160725,"transit":false,"i_long":106.827103},{"station_name":"Manggabesar","distance":906,"is_transit":false,"time":2,"i_lat":-6.149769,"station_id":"MGB","line":2,"transit":false,"i_long":106.82482},{"station_name":"Jayakarta","station_id":"JAY","i_lat":-6.141205,"i_long":106.820901,"line":7,"is_transit":false,"transit":false,"distance":1080,"time":2},{"distance":1264,"time":4,"station_name":"Jakarta Kota","line":0,"transit":true,"i_long":106.812439,"station_id":"JAKK","i_lat":-6.137569,"is_transit":true},{"time":3,"station_id":"KPB","station_name":"Kampung Bandan","distance":1364,"is_transit":true,"i_lat":-6.132549,"i_long":106.826365,"line":0,"transit":true},{"distance":1444,"station_id":"RJW","time":3,"i_long":106.836569,"transit":false,"i_lat":-6.14505,"line":11,"station_name":"Rajawali","is_transit":false},{"station_name":"Kemayoran","i_long":106.839204,"station_id":"KMO","distance":1901,"line":11,"is_transit":false,"transit":false,"i_lat":-6.161728,"time":5},{"is_transit":false,"distance":1436,"transit":false,"time":4,"i_lat":-6.174784,"i_long":106.84368,"line":11,"station_id":"PSE","station_name":"Pasar Senen"},{"station_id":"GST","station_name":"Gang Sentiong","distance":1567,"transit":false,"i_lat":-6.185975,"i_long":106.850107,"time":8,"line":11,"is_transit":false},{"line":11,"station_id":"KMT","transit":false,"time":1,"station_name":"Kramat","i_lat":-6.193792,"is_transit":false,"distance":973,"i_long":106.855437},{"distance":1829,"transit":false,"is_transit":false,"station_name":"Pondok Jati","i_lat":-6.209188,"i_long":106.861737,"line":11,"station_id":"POK","time":2},{"distance":1236,"time":9,"station_id":"JNG","line":0,"i_lat":-6.215091,"station_name":"Jatinegara","transit":true,"is_transit":true,"i_long":106.86807400000001},{"time":3,"station_name":"Klender","line":1,"i_lat":-6.2135,"is_transit":false,"i_long":106.899548,"distance":3395,"transit":false,"station_id":"KLD"},{"is_transit":false,"i_lat":-6.215568,"line":0,"station_id":"BUA","i_long":106.922662,"time":2,"station_name":"Buaran","transit":false,"distance":3100},{"distance":1305,"time":1,"station_name":"Klenderbaru","transit":false,"i_long":106.939679,"line":1,"station_id":"KLDB","is_transit":false,"i_lat":-6.217455},{"line":0,"is_transit":false,"distance":1385,"time":8,"station_id":"CUK","station_name":"Cakung","i_lat":-6.219053,"transit":false,"i_long":106.951283},{"i_lat":-6.224515,"station_name":"Kranji","i_long":106.977657,"is_transit":false,"distance":3097,"station_id":"KRI","time":3,"line":1,"transit":false},{"time":4,"station_id":"BKS","line":0,"is_transit":false,"i_long":106.997013,"distance":2520,"station_name":"Bekasi","transit":false,"i_lat":-6.236616}]]}