{"data":[[{"distance":0,"line":2,"is_transit":false,"transit":false,"i_lat":-6.493243,"i_long":106.792719,"time":0,"station_name":"Bojonggede","station_id":"BJD"},{"i_lat":-6.448811,"is_transit":false,"distance":5197,"transit":false,"i_long":106.800298,"line":2,"time":5,"station_name":"Citayam","station_id":"CTA"},{"is_transit":false,"time":6,"station_name":"Depok","transit":false,"station_id":"DP","i_lat":-6.405256,"distance":5084,"i_long":106.816926,"line":2},{"station_name":"Depokbaru","station_id":"DPB","time":3,"is_transit":false,"distance":1584,"i_lat":-6.391065,"i_long":106.819451,"line":2,"transit":false},{"time":4,"line":2,"is_transit":false,"transit":false,"distance":2727,"i_lat":-6.369073,"station_id":"POC","station_name":"Pondok Cina","i_long":106.831114},{"is_transit":false,"distance":1109,"i_long":106.831474,"transit":false,"station_name":"Univ. Indonesia","line":2,"i_lat":-6.360749,"time":2,"station_id":"UI"},{"station_name":"Univ. Pancasila","transit":false,"station_id":"UP","time":3,"distance":2264,"i_long":106.834175,"line":2,"i_lat":-6.339291,"is_transit":false},{"is_transit":false,"transit":false,"i_lat":-6.330363,"time":2,"line":2,"station_name":"Lenteng Agung","i_long":106.832616,"distance":1029,"station_id":"LNA"},{"transit":false,"i_long":106.838896,"is_transit":false,"station_id":"TNT","time":3,"i_lat":-6.3080680000000005,"line":2,"distance":2671,"station_name":"Tanjung Barat"},{"i_long":106.843999,"i_lat":-6.2842400000000005,"station_name":"Pasar Minggu","time":4,"line":2,"is_transit":false,"distance":2820,"transit":false,"station_id":"PSM"}]]}