{"data":[[{"station_name":"Bojonggede","station_id":"BJD","distance":0,"i_lat":-6.493243,"line":2,"time":0,"is_transit":false,"i_long":106.792719,"transit":false},{"line":2,"station_id":"CTA","i_lat":-6.448811,"time":5,"distance":5197,"transit":false,"i_long":106.800298,"is_transit":false,"station_name":"Citayam"},{"station_id":"DP","distance":5084,"line":2,"station_name":"Depok","transit":false,"i_lat":-6.405256,"time":6,"is_transit":false,"i_long":106.816926},{"distance":1584,"is_transit":false,"station_name":"Depokbaru","time":3,"i_long":106.819451,"i_lat":-6.391065,"transit":false,"line":2,"station_id":"DPB"},{"station_id":"POC","distance":2727,"i_lat":-6.369073,"station_name":"Pondok Cina","transit":false,"time":4,"line":2,"is_transit":false,"i_long":106.831114},{"station_name":"Univ. Indonesia","i_lat":-6.360749,"is_transit":false,"station_id":"UI","time":2,"transit":false,"i_long":106.831474,"line":2,"distance":1109},{"time":3,"i_long":106.834175,"distance":2264,"i_lat":-6.339291,"line":2,"transit":false,"is_transit":false,"station_name":"Univ. Pancasila","station_id":"UP"},{"i_lat":-6.330363,"distance":1029,"i_long":106.832616,"transit":false,"station_id":"LNA","time":2,"line":2,"is_transit":false,"station_name":"Lenteng Agung"},{"is_transit":false,"i_long":106.838896,"line":2,"transit":false,"time":3,"station_name":"Tanjung Barat","station_id":"TNT","distance":2671,"i_lat":-6.3080680000000005}]]}