{"data":[[{"i_lat":-6.493243,"i_long":106.792719,"time":0,"distance":0,"station_name":"Bojonggede","transit":false,"station_id":"BJD","line":0,"is_transit":false},{"transit":false,"line":1,"time":5,"station_name":"Citayam","is_transit":true,"distance":5197,"i_long":106.800298,"i_lat":-6.448811,"station_id":"CTA"},{"time":6,"is_transit":false,"i_lat":-6.405256,"distance":5084,"station_id":"DP","station_name":"Depok","line":0,"i_long":106.816926,"transit":false},{"is_transit":false,"line":0,"station_id":"DPB","transit":false,"i_lat":-6.391065,"station_name":"Depokbaru","distance":1584,"i_long":106.819451,"time":3},{"station_name":"Pondok Cina","is_transit":false,"line":2,"distance":2727,"station_id":"POC","transit":false,"i_long":106.831114,"i_lat":-6.369073,"time":4},{"i_lat":-6.360749,"time":2,"station_name":"Univ. Indonesia","distance":1109,"station_id":"UI","line":2,"transit":false,"i_long":106.831474,"is_transit":false},{"i_long":106.834175,"transit":false,"time":3,"station_id":"UP","distance":2264,"i_lat":-6.339291,"line":2,"station_name":"Univ. Pancasila","is_transit":false},{"station_id":"LNA","time":2,"line":2,"is_transit":false,"station_name":"Lenteng Agung","transit":false,"i_long":106.832616,"i_lat":-6.330363,"distance":1029},{"station_id":"TNT","distance":2671,"transit":false,"station_name":"Tanjung Barat","is_transit":false,"i_lat":-6.3080680000000005,"i_long":106.838896,"time":3,"line":2},{"station_name":"Pasar Minggu","transit":false,"time":4,"is_transit":false,"i_lat":-6.2842400000000005,"i_long":106.843999,"station_id":"PSM","distance":2820,"line":2},{"transit":false,"station_id":"PSMB","i_long":106.851577,"station_name":"Pasar Minggu Baru","time":2,"line":2,"i_lat":-6.263214,"is_transit":false,"distance":2380},{"transit":false,"station_id":"DRN","is_transit":false,"line":0,"station_name":"Duren Kalibata","time":2,"distance":824,"i_lat":-6.255332,"i_long":106.85449},{"time":3,"is_transit":false,"station_id":"CW","station_name":"Cawang","transit":false,"line":0,"distance":1546,"i_long":106.856607,"i_lat":-6.242512},{"i_long":106.857948,"i_lat":-6.226659,"is_transit":false,"line":2,"station_id":"TEB","time":2,"transit":false,"station_name":"Tebet","distance":1230},{"time":4,"station_id":"MRI","i_lat":-6.209883,"transit":true,"is_transit":true,"line":0,"i_long":106.84912,"station_name":"Manggarai","distance":2610},{"is_transit":false,"i_long":106.858896,"time":2,"station_id":"MTR","station_name":"Matraman","i_lat":-6.212485,"line":1,"distance":1275,"transit":false},{"i_long":106.86807400000001,"line":0,"station_id":"JNG","distance":1377,"is_transit":true,"i_lat":-6.215091,"transit":false,"station_name":"Jatinegara","time":8},{"station_name":"Klender","is_transit":false,"distance":3395,"station_id":"KLD","time":3,"transit":false,"i_lat":-6.2135,"i_long":106.899548,"line":1},{"i_long":106.922662,"transit":false,"distance":3100,"i_lat":-6.215568,"station_id":"BUA","is_transit":false,"station_name":"Buaran","time":2,"line":0},{"line":1,"transit":false,"i_lat":-6.217455,"i_long":106.939679,"is_transit":false,"station_id":"KLDB","station_name":"Klenderbaru","time":1,"distance":1305},{"station_name":"Cakung","i_long":106.951283,"distance":1385,"transit":false,"station_id":"CUK","time":8,"is_transit":false,"line":0,"i_lat":-6.219053},{"time":3,"distance":3097,"station_id":"KRI","transit":false,"line":1,"i_lat":-6.224515,"is_transit":false,"station_name":"Kranji","i_long":106.977657},{"time":4,"distance":2520,"transit":false,"station_id":"BKS","i_long":106.997013,"line":0,"station_name":"Bekasi","is_transit":false,"i_lat":-6.236616},{"is_transit":false,"transit":false,"station_name":"Bekasi Timur","distance":2368,"time":2,"i_lat":-6.248029,"i_long":107.016735,"line":0,"station_id":"BKST"},{"transit":false,"line":1,"is_transit":false,"time":7,"i_lat":-6.258864,"station_name":"Tambun","distance":4460,"i_long":107.055722,"station_id":"TB"}],[{"line":0,"time":0,"station_id":"BJD","station_name":"Bojonggede","distance":0,"i_lat":-6.493243,"is_transit":false,"transit":false,"i_long":106.792719},{"distance":5197,"i_long":106.800298,"is_transit":true,"time":5,"i_lat":-6.448811,"station_name":"Citayam","line":1,"transit":false,"station_id":"CTA"},{"i_long":106.816926,"is_transit":false,"time":6,"transit":false,"station_id":"DP","station_name":"Depok","i_lat":-6.405256,"distance":5084,"line":0},{"distance":1584,"time":3,"i_long":106.819451,"is_transit":false,"line":0,"station_name":"Depokbaru","transit":false,"station_id":"DPB","i_lat":-6.391065},{"i_lat":-6.369073,"station_name":"Pondok Cina","i_long":106.831114,"transit":false,"line":2,"station_id":"POC","time":4,"distance":2727,"is_transit":false},{"is_transit":false,"line":2,"station_id":"UI","i_lat":-6.360749,"time":2,"i_long":106.831474,"station_name":"Univ. Indonesia","distance":1109,"transit":false},{"time":3,"is_transit":false,"station_id":"UP","i_long":106.834175,"i_lat":-6.339291,"line":2,"station_name":"Univ. Pancasila","distance":2264,"transit":false},{"i_long":106.832616,"distance":1029,"station_name":"Lenteng Agung","i_lat":-6.330363,"station_id":"LNA","time":2,"transit":false,"line":2,"is_transit":false},{"i_lat":-6.3080680000000005,"i_long":106.838896,"distance":2671,"station_name":"Tanjung Barat","station_id":"TNT","transit":false,"time":3,"line":2,"is_transit":false},{"station_name":"Pasar Minggu","i_lat":-6.2842400000000005,"station_id":"PSM","time":4,"distance":2820,"i_long":106.843999,"is_transit":false,"transit":false,"line":2},{"distance":2380,"station_name":"Pasar Minggu Baru","transit":false,"i_lat":-6.263214,"line":2,"station_id":"PSMB","i_long":106.851577,"time":2,"is_transit":false},{"station_name":"Duren Kalibata","is_transit":false,"time":2,"i_lat":-6.255332,"station_id":"DRN","distance":824,"i_long":106.85449,"line":0,"transit":false},{"time":3,"i_lat":-6.242512,"station_name":"Cawang","transit":false,"station_id":"CW","is_transit":false,"distance":1546,"line":0,"i_long":106.856607},{"station_name":"Tebet","i_lat":-6.226659,"station_id":"TEB","i_long":106.857948,"distance":1230,"transit":false,"is_transit":false,"line":2,"time":2},{"i_lat":-6.209883,"i_long":106.84912,"line":0,"station_id":"MRI","time":4,"station_name":"Manggarai","is_transit":true,"distance":2610,"transit":true},{"is_transit":false,"i_lat":-6.202263,"station_id":"SUD","station_name":"Sudirman","line":1,"transit":false,"time":4,"distance":3186,"i_long":106.822649},{"i_long":106.819881,"station_id":"SUDB","line":1,"transit":false,"station_name":"Sudirman Baru","is_transit":false,"i_lat":-6.201433,"distance":280,"time":1},{"transit":false,"time":1,"distance":471,"i_lat":-6.20132,"line":1,"is_transit":false,"station_id":"KAT","station_name":"Karet","i_long":106.816351},{"i_lat":-6.185545,"time":5,"transit":false,"station_name":"Tanah Abang","station_id":"THB","distance":2029,"i_long":106.811091,"is_transit":true,"line":1},{"station_id":"DU","station_name":"Duri","transit":true,"i_long":106.800832,"i_lat":-6.155215,"is_transit":true,"line":1,"distance":3632,"time":8},{"is_transit":false,"i_long":106.79867,"station_name":"Angke","transit":false,"station_id":"AK","time":4,"line":0,"i_lat":-6.144674,"distance":1230},{"time":9,"i_long":106.826365,"is_transit":true,"transit":true,"station_name":"Kampung Bandan","distance":4102,"line":0,"station_id":"KPB","i_lat":-6.132549},{"is_transit":false,"distance":1444,"line":11,"time":3,"station_name":"Rajawali","station_id":"RJW","transit":false,"i_lat":-6.14505,"i_long":106.836569},{"station_id":"KMO","time":5,"is_transit":false,"transit":false,"i_lat":-6.161728,"station_name":"Kemayoran","i_long":106.839204,"distance":1901,"line":11},{"station_name":"Pasar Senen","transit":false,"line":11,"i_lat":-6.174784,"station_id":"PSE","distance":1436,"time":4,"is_transit":false,"i_long":106.84368},{"time":8,"transit":false,"distance":1567,"i_long":106.850107,"is_transit":false,"i_lat":-6.185975,"station_name":"Gang Sentiong","line":11,"station_id":"GST"},{"station_name":"Kramat","i_lat":-6.193792,"distance":973,"is_transit":false,"time":1,"transit":false,"line":11,"station_id":"KMT","i_long":106.855437},{"station_name":"Pondok Jati","line":11,"is_transit":false,"i_long":106.861737,"station_id":"POK","time":2,"distance":1829,"transit":false,"i_lat":-6.209188},{"transit":true,"line":0,"i_long":106.86807400000001,"i_lat":-6.215091,"distance":1236,"station_name":"Jatinegara","station_id":"JNG","is_transit":true,"time":9},{"line":1,"is_transit":false,"i_lat":-6.2135,"transit":false,"station_id":"KLD","station_name":"Klender","i_long":106.899548,"time":3,"distance":3395},{"line":0,"station_name":"Buaran","is_transit":false,"i_long":106.922662,"station_id":"BUA","distance":3100,"i_lat":-6.215568,"transit":false,"time":2},{"i_long":106.939679,"station_id":"KLDB","line":1,"is_transit":false,"station_name":"Klenderbaru","transit":false,"time":1,"distance":1305,"i_lat":-6.217455},{"time":8,"station_name":"Cakung","distance":1385,"i_lat":-6.219053,"transit":false,"i_long":106.951283,"line":0,"station_id":"CUK","is_transit":false},{"time":3,"station_name":"Kranji","station_id":"KRI","is_transit":false,"transit":false,"i_lat":-6.224515,"i_long":106.977657,"distance":3097,"line":1},{"is_transit":false,"time":4,"station_id":"BKS","distance":2520,"transit":false,"line":0,"station_name":"Bekasi","i_long":106.997013,"i_lat":-6.236616},{"distance":2368,"is_transit":false,"transit":false,"i_lat":-6.248029,"i_long":107.016735,"line":0,"station_id":"BKST","station_name":"Bekasi Timur","time":2},{"i_lat":-6.258864,"station_name":"Tambun","distance":4460,"is_transit":false,"time":7,"transit":false,"station_id":"TB","i_long":107.055722,"line":1}],[{"station_name":"Bojonggede","transit":false,"line":0,"time":0,"i_lat":-6.493243,"is_transit":false,"distance":0,"i_long":106.792719,"station_id":"BJD"},{"i_lat":-6.448811,"line":1,"time":5,"station_id":"CTA","i_long":106.800298,"is_transit":true,"station_name":"Citayam","distance":5197,"transit":false},{"is_transit":false,"distance":5084,"station_id":"DP","transit":false,"i_long":106.816926,"i_lat":-6.405256,"station_name":"Depok","time":6,"line":0},{"station_name":"Depokbaru","distance":1584,"i_long":106.819451,"i_lat":-6.391065,"line":0,"station_id":"DPB","time":3,"is_transit":false,"transit":false},{"station_name":"Pondok Cina","is_transit":false,"time":4,"line":2,"station_id":"POC","transit":false,"distance":2727,"i_lat":-6.369073,"i_long":106.831114},{"transit":false,"distance":1109,"is_transit":false,"station_name":"Univ. Indonesia","line":2,"time":2,"i_long":106.831474,"i_lat":-6.360749,"station_id":"UI"},{"time":3,"i_long":106.834175,"line":2,"distance":2264,"station_id":"UP","station_name":"Univ. Pancasila","is_transit":false,"i_lat":-6.339291,"transit":false},{"distance":1029,"station_name":"Lenteng Agung","time":2,"i_lat":-6.330363,"i_long":106.832616,"transit":false,"is_transit":false,"line":2,"station_id":"LNA"},{"i_long":106.838896,"is_transit":false,"i_lat":-6.3080680000000005,"distance":2671,"station_name":"Tanjung Barat","line":2,"station_id":"TNT","time":3,"transit":false},{"station_name":"Pasar Minggu","station_id":"PSM","i_lat":-6.2842400000000005,"line":2,"is_transit":false,"transit":false,"i_long":106.843999,"time":4,"distance":2820},{"is_transit":false,"line":2,"station_name":"Pasar Minggu Baru","i_long":106.851577,"station_id":"PSMB","transit":false,"distance":2380,"time":2,"i_lat":-6.263214},{"line":0,"time":2,"is_transit":false,"station_name":"Duren Kalibata","i_lat":-6.255332,"station_id":"DRN","i_long":106.85449,"distance":824,"transit":false},{"station_name":"Cawang","station_id":"CW","time":3,"distance":1546,"i_lat":-6.242512,"is_transit":false,"i_long":106.856607,"transit":false,"line":0},{"time":2,"distance":1230,"station_name":"Tebet","transit":false,"line":2,"is_transit":false,"i_lat":-6.226659,"i_long":106.857948,"station_id":"TEB"},{"i_long":106.84912,"is_transit":true,"transit":true,"i_lat":-6.209883,"line":0,"time":4,"station_id":"MRI","station_name":"Manggarai","distance":2610},{"is_transit":false,"transit":false,"line":0,"i_lat":-6.198556,"station_id":"CKI","distance":1590,"i_long":106.840169,"time":4,"station_name":"Cikini"},{"transit":false,"i_long":106.832183,"station_id":"GDD","i_lat":-6.186295,"is_transit":false,"line":2,"station_name":"Gondangdia","time":3,"distance":1750},{"time":4,"is_transit":false,"distance":2015,"line":2,"transit":false,"i_lat":-6.166716,"station_name":"Juanda","station_id":"JUA","i_long":106.828284},{"transit":false,"line":2,"is_transit":false,"i_long":106.827103,"time":2,"i_lat":-6.160725,"station_id":"SW","station_name":"Sawah Besar","distance":1149},{"time":2,"station_name":"Manggabesar","is_transit":false,"i_lat":-6.149769,"station_id":"MGB","line":2,"distance":906,"transit":false,"i_long":106.82482},{"i_lat":-6.141205,"time":2,"transit":false,"is_transit":false,"station_id":"JAY","i_long":106.820901,"station_name":"Jayakarta","line":7,"distance":1080},{"line":0,"time":4,"station_id":"JAKK","transit":true,"is_transit":true,"i_lat":-6.137569,"i_long":106.812439,"distance":1264,"station_name":"Jakarta Kota"},{"station_name":"Kampung Bandan","i_long":106.826365,"is_transit":true,"station_id":"KPB","transit":true,"time":3,"i_lat":-6.132549,"distance":1364,"line":0},{"transit":false,"i_long":106.836569,"station_name":"Rajawali","time":3,"line":11,"distance":1444,"i_lat":-6.14505,"station_id":"RJW","is_transit":false},{"i_lat":-6.161728,"station_id":"KMO","i_long":106.839204,"is_transit":false,"line":11,"time":5,"station_name":"Kemayoran","distance":1901,"transit":false},{"i_lat":-6.174784,"time":4,"transit":false,"i_long":106.84368,"distance":1436,"station_id":"PSE","station_name":"Pasar Senen","line":11,"is_transit":false},{"station_name":"Gang Sentiong","distance":1567,"i_lat":-6.185975,"station_id":"GST","time":8,"transit":false,"line":11,"i_long":106.850107,"is_transit":false},{"station_name":"Kramat","i_long":106.855437,"is_transit":false,"transit":false,"station_id":"KMT","distance":973,"line":11,"time":1,"i_lat":-6.193792},{"is_transit":false,"transit":false,"distance":1829,"station_id":"POK","i_long":106.861737,"line":11,"station_name":"Pondok Jati","time":2,"i_lat":-6.209188},{"line":0,"station_name":"Jatinegara","distance":1236,"station_id":"JNG","time":9,"transit":true,"i_long":106.86807400000001,"is_transit":true,"i_lat":-6.215091},{"is_transit":false,"time":3,"i_lat":-6.2135,"station_id":"KLD","i_long":106.899548,"transit":false,"station_name":"Klender","distance":3395,"line":1},{"i_long":106.922662,"station_id":"BUA","is_transit":false,"i_lat":-6.215568,"time":2,"transit":false,"station_name":"Buaran","line":0,"distance":3100},{"is_transit":false,"line":1,"transit":false,"station_name":"Klenderbaru","i_lat":-6.217455,"i_long":106.939679,"time":1,"distance":1305,"station_id":"KLDB"},{"is_transit":false,"transit":false,"i_lat":-6.219053,"line":0,"distance":1385,"station_name":"Cakung","time":8,"i_long":106.951283,"station_id":"CUK"},{"time":3,"station_id":"KRI","transit":false,"station_name":"Kranji","i_lat":-6.224515,"i_long":106.977657,"distance":3097,"is_transit":false,"line":1},{"station_id":"BKS","distance":2520,"line":0,"transit":false,"station_name":"Bekasi","is_transit":false,"i_lat":-6.236616,"i_long":106.997013,"time":4},{"is_transit":false,"i_lat":-6.248029,"station_name":"Bekasi Timur","i_long":107.016735,"time":2,"distance":2368,"transit":false,"station_id":"BKST","line":0},{"i_long":107.055722,"station_id":"TB","distance":4460,"station_name":"Tambun","transit":false,"line":1,"is_transit":false,"time":7,"i_lat":-6.258864}]]}