{"data":[[{"time":0,"is_transit":false,"line":2,"transit":false,"station_id":"BJD","distance":0,"station_name":"Bojonggede","i_lat":-6.493243,"i_long":106.792719},{"line":2,"station_name":"Citayam","distance":5197,"transit":false,"time":5,"station_id":"CTA","is_transit":false,"i_lat":-6.448811,"i_long":106.800298},{"station_id":"DP","is_transit":false,"distance":5084,"line":2,"i_lat":-6.405256,"i_long":106.816926,"station_name":"Depok","time":6,"transit":false},{"i_lat":-6.391065,"time":3,"line":2,"distance":1584,"station_name":"Depokbaru","i_long":106.819451,"station_id":"DPB","transit":false,"is_transit":false},{"station_name":"Pondok Cina","transit":false,"is_transit":false,"line":2,"distance":2727,"i_lat":-6.369073,"time":4,"station_id":"POC","i_long":106.831114},{"distance":1109,"is_transit":false,"i_lat":-6.360749,"station_id":"UI","i_long":106.831474,"line":2,"time":2,"transit":false,"station_name":"Univ. Indonesia"},{"distance":2264,"i_long":106.834175,"transit":false,"i_lat":-6.339291,"time":3,"station_name":"Univ. Pancasila","line":2,"is_transit":false,"station_id":"UP"},{"station_name":"Lenteng Agung","i_long":106.832616,"distance":1029,"line":2,"time":2,"transit":false,"i_lat":-6.330363,"is_transit":false,"station_id":"LNA"},{"line":2,"is_transit":false,"transit":false,"station_id":"TNT","station_name":"Tanjung Barat","i_long":106.838896,"time":3,"distance":2671,"i_lat":-6.3080680000000005},{"line":2,"station_name":"Pasar Minggu","i_lat":-6.2842400000000005,"distance":2820,"station_id":"PSM","time":4,"i_long":106.843999,"transit":false,"is_transit":false},{"distance":2380,"i_lat":-6.263214,"time":2,"transit":false,"i_long":106.851577,"station_name":"Pasar Minggu Baru","is_transit":false,"line":2,"station_id":"PSMB"},{"i_long":106.85449,"line":2,"distance":824,"i_lat":-6.255332,"time":2,"station_id":"DRN","station_name":"Duren Kalibata","transit":false,"is_transit":false},{"transit":false,"station_id":"CW","is_transit":false,"i_lat":-6.242512,"time":3,"line":2,"station_name":"Cawang","distance":1546,"i_long":106.856607},{"i_lat":-6.226659,"line":2,"distance":1230,"i_long":106.857948,"station_name":"Tebet","time":2,"is_transit":false,"station_id":"TEB","transit":false},{"transit":true,"line":2,"station_name":"Manggarai","is_transit":true,"time":4,"station_id":"MRI","i_long":106.84912,"i_lat":-6.209883,"distance":2610},{"station_id":"SUD","transit":false,"i_lat":-6.202263,"i_long":106.822649,"time":4,"is_transit":false,"line":1,"distance":3186,"station_name":"Sudirman"},{"i_lat":-6.201433,"i_long":106.819881,"line":1,"station_name":"Sudirman Baru","is_transit":false,"time":1,"station_id":"SUDB","distance":280,"transit":false},{"time":1,"station_id":"KAT","is_transit":false,"i_lat":-6.20132,"transit":false,"i_long":106.816351,"station_name":"Karet","distance":471,"line":1},{"time":5,"station_id":"THB","i_long":106.811091,"line":1,"distance":2029,"station_name":"Tanah Abang","is_transit":false,"transit":false,"i_lat":-6.185545}],[{"line":2,"station_name":"Bojonggede","station_id":"BJD","distance":0,"is_transit":false,"i_long":106.792719,"transit":false,"time":0,"i_lat":-6.493243},{"is_transit":false,"i_lat":-6.448811,"line":2,"i_long":106.800298,"time":5,"distance":5197,"station_id":"CTA","transit":false,"station_name":"Citayam"},{"transit":false,"is_transit":false,"station_name":"Depok","i_lat":-6.405256,"time":6,"line":2,"distance":5084,"i_long":106.816926,"station_id":"DP"},{"time":3,"station_id":"DPB","i_long":106.819451,"line":2,"transit":false,"distance":1584,"station_name":"Depokbaru","is_transit":false,"i_lat":-6.391065},{"distance":2727,"i_lat":-6.369073,"time":4,"station_id":"POC","line":2,"transit":false,"i_long":106.831114,"is_transit":false,"station_name":"Pondok Cina"},{"station_id":"UI","distance":1109,"station_name":"Univ. Indonesia","i_lat":-6.360749,"line":2,"is_transit":false,"i_long":106.831474,"transit":false,"time":2},{"i_long":106.834175,"is_transit":false,"station_name":"Univ. Pancasila","line":2,"transit":false,"time":3,"distance":2264,"i_lat":-6.339291,"station_id":"UP"},{"i_long":106.832616,"i_lat":-6.330363,"is_transit":false,"time":2,"distance":1029,"station_name":"Lenteng Agung","line":2,"transit":false,"station_id":"LNA"},{"i_lat":-6.3080680000000005,"time":3,"station_name":"Tanjung Barat","transit":false,"is_transit":false,"station_id":"TNT","distance":2671,"i_long":106.838896,"line":2},{"i_lat":-6.2842400000000005,"station_id":"PSM","distance":2820,"time":4,"i_long":106.843999,"line":2,"transit":false,"station_name":"Pasar Minggu","is_transit":false},{"i_long":106.851577,"distance":2380,"line":2,"is_transit":false,"transit":false,"i_lat":-6.263214,"time":2,"station_name":"Pasar Minggu Baru","station_id":"PSMB"},{"time":2,"is_transit":false,"station_name":"Duren Kalibata","i_lat":-6.255332,"station_id":"DRN","distance":824,"transit":false,"i_long":106.85449,"line":2},{"station_name":"Cawang","time":3,"i_long":106.856607,"is_transit":false,"i_lat":-6.242512,"station_id":"CW","transit":false,"line":2,"distance":1546},{"is_transit":false,"station_name":"Tebet","station_id":"TEB","i_lat":-6.226659,"i_long":106.857948,"time":2,"transit":false,"line":2,"distance":1230},{"i_lat":-6.209883,"station_id":"MRI","station_name":"Manggarai","i_long":106.84912,"is_transit":false,"line":2,"distance":2610,"transit":false,"time":4},{"line":2,"station_id":"CKI","distance":1590,"i_lat":-6.198556,"transit":false,"time":4,"is_transit":false,"i_long":106.840169,"station_name":"Cikini"},{"is_transit":false,"line":2,"i_lat":-6.186295,"station_id":"GDD","time":3,"distance":1750,"station_name":"Gondangdia","transit":false,"i_long":106.832183},{"station_id":"JUA","distance":2015,"i_lat":-6.166716,"is_transit":false,"transit":false,"time":4,"i_long":106.828284,"station_name":"Juanda","line":2},{"station_name":"Sawah Besar","i_long":106.827103,"distance":1149,"line":2,"station_id":"SW","is_transit":false,"time":2,"transit":false,"i_lat":-6.160725},{"station_id":"MGB","distance":906,"is_transit":false,"station_name":"Manggabesar","i_lat":-6.149769,"time":2,"i_long":106.82482,"line":2,"transit":false},{"i_long":106.820901,"station_name":"Jayakarta","distance":1080,"i_lat":-6.141205,"transit":false,"station_id":"JAY","time":2,"is_transit":false,"line":2},{"station_id":"JAKK","distance":1264,"is_transit":true,"line":2,"station_name":"Jakarta Kota","transit":true,"time":4,"i_long":106.812439,"i_lat":-6.137569},{"station_name":"Kampung Bandan","time":3,"distance":1364,"i_lat":-6.132549,"station_id":"KPB","is_transit":true,"i_long":106.826365,"transit":true,"line":4},{"distance":4102,"line":1,"station_id":"AK","i_long":106.79867,"station_name":"Angke","i_lat":-6.144674,"time":9,"transit":false,"is_transit":false},{"distance":1230,"transit":false,"station_name":"Duri","time":4,"line":1,"i_lat":-6.155215,"i_long":106.800832,"is_transit":false,"station_id":"DU"},{"distance":3632,"line":1,"transit":false,"i_long":106.811091,"station_name":"Tanah Abang","station_id":"THB","time":8,"i_lat":-6.185545,"is_transit":false}],[{"i_lat":-6.493243,"i_long":106.792719,"distance":0,"time":0,"station_id":"BJD","station_name":"Bojonggede","transit":false,"is_transit":false,"line":2},{"i_lat":-6.448811,"line":2,"is_transit":false,"station_id":"CTA","time":5,"i_long":106.800298,"transit":false,"distance":5197,"station_name":"Citayam"},{"is_transit":false,"station_id":"DP","station_name":"Depok","time":6,"line":2,"distance":5084,"i_long":106.816926,"transit":false,"i_lat":-6.405256},{"is_transit":false,"station_id":"DPB","i_lat":-6.391065,"transit":false,"distance":1584,"station_name":"Depokbaru","i_long":106.819451,"time":3,"line":2},{"station_id":"POC","transit":false,"distance":2727,"time":4,"station_name":"Pondok Cina","i_lat":-6.369073,"is_transit":false,"i_long":106.831114,"line":2},{"station_id":"UI","is_transit":false,"time":2,"station_name":"Univ. Indonesia","i_long":106.831474,"transit":false,"i_lat":-6.360749,"line":2,"distance":1109},{"line":2,"time":3,"i_lat":-6.339291,"is_transit":false,"station_name":"Univ. Pancasila","distance":2264,"i_long":106.834175,"station_id":"UP","transit":false},{"i_long":106.832616,"i_lat":-6.330363,"line":2,"time":2,"is_transit":false,"distance":1029,"station_name":"Lenteng Agung","station_id":"LNA","transit":false},{"station_name":"Tanjung Barat","i_long":106.838896,"is_transit":false,"i_lat":-6.3080680000000005,"time":3,"distance":2671,"transit":false,"station_id":"TNT","line":2},{"is_transit":false,"i_long":106.843999,"distance":2820,"line":2,"station_id":"PSM","station_name":"Pasar Minggu","i_lat":-6.2842400000000005,"transit":false,"time":4},{"time":2,"is_transit":false,"station_name":"Pasar Minggu Baru","i_long":106.851577,"distance":2380,"i_lat":-6.263214,"transit":false,"line":2,"station_id":"PSMB"},{"i_lat":-6.255332,"line":2,"i_long":106.85449,"time":2,"station_id":"DRN","distance":824,"is_transit":false,"station_name":"Duren Kalibata","transit":false},{"station_name":"Cawang","is_transit":false,"i_lat":-6.242512,"i_long":106.856607,"transit":false,"time":3,"station_id":"CW","line":2,"distance":1546},{"station_id":"TEB","is_transit":false,"station_name":"Tebet","i_long":106.857948,"line":2,"time":2,"transit":false,"i_lat":-6.226659,"distance":1230},{"is_transit":true,"i_long":106.84912,"time":4,"station_id":"MRI","transit":true,"line":2,"station_name":"Manggarai","distance":2610,"i_lat":-6.209883},{"station_id":"MTR","time":2,"is_transit":false,"i_long":106.858896,"station_name":"Matraman","transit":false,"distance":1275,"line":1,"i_lat":-6.212485},{"distance":1377,"i_long":106.86807400000001,"station_id":"JNG","time":8,"line":1,"station_name":"Jatinegara","is_transit":true,"transit":true,"i_lat":-6.215091},{"time":2,"station_name":"Pondok Jati","distance":1236,"station_id":"POK","is_transit":false,"transit":false,"i_long":106.861737,"i_lat":-6.209188,"line":11},{"transit":false,"i_long":106.855437,"station_id":"KMT","line":11,"i_lat":-6.193792,"distance":1829,"station_name":"Kramat","time":2,"is_transit":false},{"is_transit":false,"station_name":"Gang Sentiong","distance":973,"transit":false,"i_lat":-6.185975,"i_long":106.850107,"line":11,"time":1,"station_id":"GST"},{"i_long":106.84368,"transit":false,"distance":1567,"time":8,"station_id":"PSE","is_transit":false,"line":11,"station_name":"Pasar Senen","i_lat":-6.174784},{"i_lat":-6.161728,"line":11,"distance":1436,"transit":false,"station_name":"Kemayoran","time":4,"is_transit":false,"i_long":106.839204,"station_id":"KMO"},{"i_long":106.836569,"line":11,"time":5,"is_transit":false,"station_name":"Rajawali","i_lat":-6.14505,"distance":1901,"station_id":"RJW","transit":false},{"i_lat":-6.132549,"line":4,"time":3,"station_id":"KPB","station_name":"Kampung Bandan","transit":true,"i_long":106.826365,"distance":1444,"is_transit":true},{"time":9,"line":1,"station_name":"Angke","is_transit":false,"i_lat":-6.144674,"station_id":"AK","distance":4102,"i_long":106.79867,"transit":false},{"line":1,"time":4,"station_id":"DU","i_long":106.800832,"distance":1230,"station_name":"Duri","i_lat":-6.155215,"is_transit":false,"transit":false},{"line":1,"station_id":"THB","distance":3632,"time":8,"is_transit":false,"station_name":"Tanah Abang","i_lat":-6.185545,"i_long":106.811091,"transit":false}]]}