{"data":[[{"distance":0,"station_name":"Bojonggede","is_transit":false,"line":2,"i_lat":-6.493243,"transit":false,"station_id":"BJD","i_long":106.792719,"time":0},{"distance":5197,"i_lat":-6.448811,"i_long":106.800298,"station_name":"Citayam","line":2,"transit":false,"is_transit":false,"time":5,"station_id":"CTA"},{"transit":false,"is_transit":false,"i_lat":-6.405256,"time":6,"i_long":106.816926,"distance":5084,"line":2,"station_name":"Depok","station_id":"DP"},{"is_transit":false,"i_lat":-6.391065,"time":3,"transit":false,"station_name":"Depokbaru","i_long":106.819451,"station_id":"DPB","distance":1584,"line":2},{"is_transit":false,"line":2,"station_name":"Pondok Cina","transit":false,"i_long":106.831114,"time":4,"station_id":"POC","i_lat":-6.369073,"distance":2727},{"station_id":"UI","station_name":"Univ. Indonesia","is_transit":false,"distance":1109,"i_long":106.831474,"line":2,"transit":false,"time":2,"i_lat":-6.360749},{"line":2,"i_lat":-6.339291,"time":3,"i_long":106.834175,"transit":false,"distance":2264,"station_name":"Univ. Pancasila","station_id":"UP","is_transit":false},{"transit":false,"station_name":"Lenteng Agung","station_id":"LNA","time":2,"distance":1029,"i_lat":-6.330363,"i_long":106.832616,"line":2,"is_transit":false},{"time":3,"station_name":"Tanjung Barat","station_id":"TNT","distance":2671,"is_transit":false,"i_long":106.838896,"transit":false,"line":2,"i_lat":-6.3080680000000005},{"i_lat":-6.2842400000000005,"i_long":106.843999,"transit":false,"line":2,"station_name":"Pasar Minggu","station_id":"PSM","is_transit":false,"distance":2820,"time":4},{"station_name":"Pasar Minggu Baru","transit":false,"station_id":"PSMB","i_long":106.851577,"distance":2380,"time":2,"i_lat":-6.263214,"line":2,"is_transit":false},{"line":2,"station_name":"Duren Kalibata","time":2,"station_id":"DRN","i_lat":-6.255332,"is_transit":false,"transit":false,"distance":824,"i_long":106.85449},{"station_name":"Cawang","station_id":"CW","is_transit":false,"line":2,"transit":false,"i_long":106.856607,"time":3,"distance":1546,"i_lat":-6.242512},{"time":2,"distance":1230,"i_long":106.857948,"is_transit":false,"transit":false,"i_lat":-6.226659,"station_name":"Tebet","station_id":"TEB","line":2},{"distance":2610,"time":4,"line":2,"i_long":106.84912,"i_lat":-6.209883,"transit":true,"is_transit":true,"station_name":"Manggarai","station_id":"MRI"},{"transit":false,"i_long":106.822649,"distance":3186,"line":1,"is_transit":false,"station_id":"SUD","station_name":"Sudirman","time":4,"i_lat":-6.202263},{"distance":280,"time":1,"is_transit":false,"i_long":106.819881,"transit":false,"i_lat":-6.201433,"station_name":"Sudirman Baru","station_id":"SUDB","line":1},{"station_id":"KAT","i_lat":-6.20132,"i_long":106.816351,"station_name":"Karet","time":1,"line":1,"transit":false,"is_transit":false,"distance":471},{"transit":false,"station_name":"Tanah Abang","station_id":"THB","time":5,"line":1,"is_transit":false,"distance":2029,"i_long":106.811091,"i_lat":-6.185545}],[{"distance":0,"is_transit":false,"time":0,"i_lat":-6.493243,"station_name":"Bojonggede","line":2,"i_long":106.792719,"station_id":"BJD","transit":false},{"time":5,"transit":false,"distance":5197,"line":2,"station_id":"CTA","i_lat":-6.448811,"station_name":"Citayam","is_transit":false,"i_long":106.800298},{"transit":false,"i_long":106.816926,"station_name":"Depok","is_transit":false,"line":2,"time":6,"station_id":"DP","i_lat":-6.405256,"distance":5084},{"station_id":"DPB","i_long":106.819451,"i_lat":-6.391065,"station_name":"Depokbaru","time":3,"line":2,"transit":false,"distance":1584,"is_transit":false},{"time":4,"i_long":106.831114,"distance":2727,"line":2,"transit":false,"is_transit":false,"station_id":"POC","i_lat":-6.369073,"station_name":"Pondok Cina"},{"transit":false,"station_name":"Univ. Indonesia","line":2,"time":2,"station_id":"UI","is_transit":false,"distance":1109,"i_long":106.831474,"i_lat":-6.360749},{"station_id":"UP","time":3,"line":2,"is_transit":false,"i_lat":-6.339291,"i_long":106.834175,"transit":false,"station_name":"Univ. Pancasila","distance":2264},{"station_name":"Lenteng Agung","i_long":106.832616,"transit":false,"distance":1029,"is_transit":false,"i_lat":-6.330363,"station_id":"LNA","time":2,"line":2},{"line":2,"i_lat":-6.3080680000000005,"station_id":"TNT","is_transit":false,"station_name":"Tanjung Barat","distance":2671,"transit":false,"time":3,"i_long":106.838896},{"line":2,"transit":false,"station_id":"PSM","is_transit":false,"distance":2820,"i_lat":-6.2842400000000005,"time":4,"i_long":106.843999,"station_name":"Pasar Minggu"},{"station_name":"Pasar Minggu Baru","station_id":"PSMB","i_long":106.851577,"transit":false,"is_transit":false,"time":2,"line":2,"distance":2380,"i_lat":-6.263214},{"transit":false,"i_long":106.85449,"station_name":"Duren Kalibata","station_id":"DRN","is_transit":false,"time":2,"line":2,"distance":824,"i_lat":-6.255332},{"i_lat":-6.242512,"station_id":"CW","distance":1546,"transit":false,"station_name":"Cawang","is_transit":false,"time":3,"i_long":106.856607,"line":2},{"transit":false,"station_id":"TEB","distance":1230,"is_transit":false,"station_name":"Tebet","i_lat":-6.226659,"i_long":106.857948,"line":2,"time":2},{"distance":2610,"time":4,"i_lat":-6.209883,"station_id":"MRI","i_long":106.84912,"is_transit":false,"station_name":"Manggarai","line":2,"transit":false},{"time":4,"i_lat":-6.198556,"line":2,"transit":false,"station_id":"CKI","i_long":106.840169,"distance":1590,"station_name":"Cikini","is_transit":false},{"distance":1750,"line":2,"i_long":106.832183,"station_name":"Gondangdia","time":3,"i_lat":-6.186295,"transit":false,"station_id":"GDD","is_transit":false},{"time":4,"distance":2015,"is_transit":false,"i_lat":-6.166716,"transit":false,"station_name":"Juanda","station_id":"JUA","line":2,"i_long":106.828284},{"time":2,"transit":false,"station_id":"SW","distance":1149,"i_long":106.827103,"i_lat":-6.160725,"line":2,"is_transit":false,"station_name":"Sawah Besar"},{"distance":906,"station_name":"Manggabesar","time":2,"is_transit":false,"station_id":"MGB","i_lat":-6.149769,"i_long":106.82482,"line":2,"transit":false},{"line":2,"distance":1080,"station_name":"Jayakarta","station_id":"JAY","is_transit":false,"i_lat":-6.141205,"transit":false,"time":2,"i_long":106.820901},{"distance":1264,"line":2,"transit":true,"is_transit":true,"station_id":"JAKK","station_name":"Jakarta Kota","i_long":106.812439,"time":4,"i_lat":-6.137569},{"station_id":"KPB","line":4,"transit":true,"time":3,"station_name":"Kampung Bandan","i_lat":-6.132549,"is_transit":true,"distance":1364,"i_long":106.826365},{"distance":4102,"transit":false,"station_name":"Angke","i_long":106.79867,"is_transit":false,"line":1,"station_id":"AK","i_lat":-6.144674,"time":9},{"line":1,"is_transit":false,"station_name":"Duri","i_lat":-6.155215,"transit":false,"distance":1230,"station_id":"DU","i_long":106.800832,"time":4},{"time":8,"transit":false,"distance":3632,"is_transit":false,"i_lat":-6.185545,"i_long":106.811091,"station_id":"THB","line":1,"station_name":"Tanah Abang"}],[{"time":0,"transit":false,"i_long":106.792719,"line":2,"distance":0,"is_transit":false,"station_id":"BJD","i_lat":-6.493243,"station_name":"Bojonggede"},{"station_name":"Citayam","distance":5197,"i_lat":-6.448811,"is_transit":false,"line":2,"station_id":"CTA","transit":false,"time":5,"i_long":106.800298},{"i_lat":-6.405256,"line":2,"transit":false,"station_id":"DP","is_transit":false,"i_long":106.816926,"time":6,"station_name":"Depok","distance":5084},{"i_lat":-6.391065,"station_id":"DPB","distance":1584,"i_long":106.819451,"time":3,"is_transit":false,"line":2,"transit":false,"station_name":"Depokbaru"},{"station_name":"Pondok Cina","distance":2727,"is_transit":false,"transit":false,"line":2,"i_lat":-6.369073,"i_long":106.831114,"time":4,"station_id":"POC"},{"transit":false,"i_long":106.831474,"is_transit":false,"station_name":"Univ. Indonesia","distance":1109,"line":2,"time":2,"i_lat":-6.360749,"station_id":"UI"},{"is_transit":false,"time":3,"station_id":"UP","i_lat":-6.339291,"distance":2264,"line":2,"i_long":106.834175,"transit":false,"station_name":"Univ. Pancasila"},{"line":2,"time":2,"station_name":"Lenteng Agung","is_transit":false,"distance":1029,"i_lat":-6.330363,"transit":false,"station_id":"LNA","i_long":106.832616},{"station_name":"Tanjung Barat","i_long":106.838896,"i_lat":-6.3080680000000005,"is_transit":false,"time":3,"transit":false,"station_id":"TNT","distance":2671,"line":2},{"i_long":106.843999,"time":4,"is_transit":false,"station_name":"Pasar Minggu","transit":false,"station_id":"PSM","line":2,"i_lat":-6.2842400000000005,"distance":2820},{"is_transit":false,"station_name":"Pasar Minggu Baru","station_id":"PSMB","transit":false,"time":2,"i_lat":-6.263214,"distance":2380,"i_long":106.851577,"line":2},{"is_transit":false,"station_id":"DRN","i_lat":-6.255332,"time":2,"distance":824,"i_long":106.85449,"transit":false,"line":2,"station_name":"Duren Kalibata"},{"time":3,"transit":false,"line":2,"station_id":"CW","i_long":106.856607,"is_transit":false,"i_lat":-6.242512,"distance":1546,"station_name":"Cawang"},{"i_long":106.857948,"is_transit":false,"transit":false,"distance":1230,"time":2,"line":2,"station_name":"Tebet","station_id":"TEB","i_lat":-6.226659},{"is_transit":true,"transit":true,"i_long":106.84912,"line":2,"i_lat":-6.209883,"station_name":"Manggarai","station_id":"MRI","time":4,"distance":2610},{"transit":false,"distance":1275,"line":1,"station_name":"Matraman","is_transit":false,"i_long":106.858896,"station_id":"MTR","i_lat":-6.212485,"time":2},{"i_long":106.86807400000001,"station_name":"Jatinegara","distance":1377,"is_transit":true,"transit":true,"time":8,"i_lat":-6.215091,"line":1,"station_id":"JNG"},{"station_name":"Pondok Jati","station_id":"POK","i_long":106.861737,"time":2,"distance":1236,"line":11,"transit":false,"i_lat":-6.209188,"is_transit":false},{"i_long":106.855437,"i_lat":-6.193792,"distance":1829,"station_name":"Kramat","station_id":"KMT","time":2,"line":11,"transit":false,"is_transit":false},{"is_transit":false,"line":11,"distance":973,"station_id":"GST","i_long":106.850107,"i_lat":-6.185975,"transit":false,"station_name":"Gang Sentiong","time":1},{"line":11,"station_id":"PSE","transit":false,"i_lat":-6.174784,"is_transit":false,"i_long":106.84368,"station_name":"Pasar Senen","distance":1567,"time":8},{"station_name":"Kemayoran","time":4,"station_id":"KMO","distance":1436,"i_long":106.839204,"is_transit":false,"line":11,"transit":false,"i_lat":-6.161728},{"distance":1901,"i_long":106.836569,"time":5,"station_id":"RJW","i_lat":-6.14505,"line":11,"is_transit":false,"transit":false,"station_name":"Rajawali"},{"line":4,"station_id":"KPB","transit":true,"is_transit":true,"distance":1444,"i_lat":-6.132549,"i_long":106.826365,"time":3,"station_name":"Kampung Bandan"},{"transit":false,"i_long":106.79867,"station_name":"Angke","station_id":"AK","is_transit":false,"line":1,"time":9,"distance":4102,"i_lat":-6.144674},{"time":4,"is_transit":false,"transit":false,"line":1,"i_long":106.800832,"distance":1230,"i_lat":-6.155215,"station_id":"DU","station_name":"Duri"},{"line":1,"distance":3632,"station_name":"Tanah Abang","i_lat":-6.185545,"station_id":"THB","transit":false,"i_long":106.811091,"is_transit":false,"time":8}]]}