{"data":[[{"is_transit":false,"time":0,"line":0,"transit":false,"distance":0,"station_name":"Bojonggede","i_lat":-6.493243,"i_long":106.792719,"station_id":"BJD"},{"time":5,"distance":5197,"station_id":"CTA","is_transit":true,"station_name":"Citayam","i_lat":-6.448811,"i_long":106.800298,"line":1,"transit":false},{"i_lat":-6.405256,"time":6,"station_name":"Depok","transit":false,"i_long":106.816926,"station_id":"DP","is_transit":false,"distance":5084,"line":0},{"i_lat":-6.391065,"transit":false,"distance":1584,"i_long":106.819451,"time":3,"station_id":"DPB","line":0,"is_transit":false,"station_name":"Depokbaru"},{"station_id":"POC","is_transit":false,"distance":2727,"i_long":106.831114,"time":4,"line":2,"transit":false,"i_lat":-6.369073,"station_name":"Pondok Cina"},{"is_transit":false,"station_id":"UI","transit":false,"time":2,"i_lat":-6.360749,"i_long":106.831474,"station_name":"Univ. Indonesia","line":2,"distance":1109},{"is_transit":false,"time":3,"transit":false,"i_long":106.834175,"distance":2264,"station_id":"UP","station_name":"Univ. Pancasila","i_lat":-6.339291,"line":2},{"time":2,"distance":1029,"is_transit":false,"i_lat":-6.330363,"station_name":"Lenteng Agung","station_id":"LNA","transit":false,"i_long":106.832616,"line":2},{"distance":2671,"station_name":"Tanjung Barat","line":2,"i_long":106.838896,"transit":false,"is_transit":false,"station_id":"TNT","time":3,"i_lat":-6.3080680000000005},{"is_transit":false,"time":4,"station_name":"Pasar Minggu","station_id":"PSM","i_lat":-6.2842400000000005,"transit":false,"line":2,"i_long":106.843999,"distance":2820},{"i_long":106.851577,"line":2,"is_transit":false,"time":2,"i_lat":-6.263214,"transit":false,"distance":2380,"station_id":"PSMB","station_name":"Pasar Minggu Baru"},{"time":2,"distance":824,"station_name":"Duren Kalibata","transit":false,"i_lat":-6.255332,"i_long":106.85449,"is_transit":false,"line":0,"station_id":"DRN"},{"i_long":106.856607,"is_transit":false,"distance":1546,"station_name":"Cawang","line":0,"transit":false,"time":3,"station_id":"CW","i_lat":-6.242512},{"distance":1230,"i_lat":-6.226659,"station_name":"Tebet","transit":false,"i_long":106.857948,"is_transit":false,"station_id":"TEB","line":2,"time":2},{"station_id":"MRI","line":0,"distance":2610,"time":4,"station_name":"Manggarai","transit":true,"is_transit":true,"i_lat":-6.209883,"i_long":106.84912},{"is_transit":false,"transit":false,"i_long":106.822649,"time":4,"i_lat":-6.202263,"station_id":"SUD","station_name":"Sudirman","line":1,"distance":3186},{"distance":280,"station_id":"SUDB","is_transit":false,"i_lat":-6.201433,"i_long":106.819881,"line":1,"time":1,"transit":false,"station_name":"Sudirman Baru"},{"station_id":"KAT","station_name":"Karet","line":1,"i_lat":-6.20132,"time":1,"distance":471,"is_transit":false,"transit":false,"i_long":106.816351},{"distance":2029,"station_id":"THB","station_name":"Tanah Abang","transit":true,"line":1,"i_lat":-6.185545,"is_transit":true,"time":5,"i_long":106.811091},{"i_lat":-6.207404,"i_long":106.79689,"transit":false,"station_name":"Palmerah","line":6,"time":6,"distance":3191,"station_id":"PLM","is_transit":false},{"station_id":"KBY","is_transit":false,"line":6,"transit":false,"time":7,"i_long":106.780334,"distance":3737,"station_name":"Kebayoran","i_lat":-6.237242},{"time":8,"transit":false,"station_name":"Pondokranji","station_id":"PDJ","distance":6218,"i_lat":-6.276362,"line":6,"i_long":106.74273,"is_transit":false},{"distance":2179,"i_long":106.728916,"time":3,"station_name":"Jurangmangu","station_id":"JMU","i_lat":-6.288927,"is_transit":false,"transit":false,"line":6},{"i_lat":-6.296963,"is_transit":false,"time":4,"distance":1994,"i_long":106.712277,"transit":false,"line":6,"station_id":"SDM","station_name":"Sudimara"},{"i_lat":-6.314823,"line":6,"time":6,"i_long":106.675475,"station_name":"Rawa Buntu","station_id":"RU","distance":4566,"transit":false,"is_transit":false},{"station_id":"SRP","station_name":"Serpong","transit":false,"i_long":106.66566,"distance":2413,"is_transit":false,"time":4,"i_lat":-6.319871,"line":6},{"line":0,"time":4,"station_id":"CSK","i_lat":-6.32484,"i_long":106.640411,"transit":false,"distance":1784,"is_transit":false,"station_name":"Cisauk"},{"is_transit":false,"transit":false,"i_lat":-6.329547,"i_long":106.617853,"station_id":"CC","distance":2519,"station_name":"Cicayur","time":4,"line":0},{"station_name":"Parung Panjang","time":8,"i_long":106.568863,"line":6,"station_id":"PRP","i_lat":-6.3441410000000005,"transit":false,"distance":5968,"is_transit":false},{"station_id":"CJT","i_long":106.508482,"station_name":"Cilejit","distance":7025,"is_transit":false,"time":9,"transit":false,"i_lat":-6.354349,"line":0},{"station_id":"DAR","transit":false,"time":6,"i_lat":-6.338021,"distance":2675,"station_name":"Daru","i_long":106.491338,"is_transit":false,"line":0}],[{"transit":false,"i_long":106.792719,"is_transit":false,"distance":0,"time":0,"line":0,"station_id":"BJD","i_lat":-6.493243,"station_name":"Bojonggede"},{"station_id":"CTA","station_name":"Citayam","i_lat":-6.448811,"i_long":106.800298,"is_transit":true,"distance":5197,"line":1,"time":5,"transit":false},{"station_id":"DP","i_long":106.816926,"transit":false,"line":0,"time":6,"i_lat":-6.405256,"is_transit":false,"distance":5084,"station_name":"Depok"},{"line":0,"station_id":"DPB","i_lat":-6.391065,"station_name":"Depokbaru","is_transit":false,"transit":false,"i_long":106.819451,"time":3,"distance":1584},{"line":2,"station_name":"Pondok Cina","station_id":"POC","time":4,"is_transit":false,"i_lat":-6.369073,"i_long":106.831114,"transit":false,"distance":2727},{"i_lat":-6.360749,"station_name":"Univ. Indonesia","time":2,"station_id":"UI","line":2,"transit":false,"is_transit":false,"i_long":106.831474,"distance":1109},{"i_lat":-6.339291,"distance":2264,"station_id":"UP","time":3,"transit":false,"line":2,"is_transit":false,"station_name":"Univ. Pancasila","i_long":106.834175},{"is_transit":false,"distance":1029,"station_id":"LNA","station_name":"Lenteng Agung","transit":false,"time":2,"i_long":106.832616,"line":2,"i_lat":-6.330363},{"station_id":"TNT","station_name":"Tanjung Barat","i_long":106.838896,"is_transit":false,"i_lat":-6.3080680000000005,"time":3,"distance":2671,"transit":false,"line":2},{"is_transit":false,"distance":2820,"i_long":106.843999,"station_id":"PSM","time":4,"station_name":"Pasar Minggu","line":2,"transit":false,"i_lat":-6.2842400000000005},{"station_name":"Pasar Minggu Baru","i_lat":-6.263214,"transit":false,"line":2,"time":2,"distance":2380,"is_transit":false,"i_long":106.851577,"station_id":"PSMB"},{"line":0,"time":2,"distance":824,"station_name":"Duren Kalibata","i_long":106.85449,"station_id":"DRN","transit":false,"i_lat":-6.255332,"is_transit":false},{"time":3,"transit":false,"i_long":106.856607,"station_name":"Cawang","distance":1546,"i_lat":-6.242512,"is_transit":false,"line":0,"station_id":"CW"},{"is_transit":false,"line":2,"i_long":106.857948,"transit":false,"distance":1230,"station_id":"TEB","time":2,"station_name":"Tebet","i_lat":-6.226659},{"time":4,"station_name":"Manggarai","is_transit":true,"i_long":106.84912,"distance":2610,"station_id":"MRI","i_lat":-6.209883,"line":0,"transit":true},{"i_lat":-6.198556,"i_long":106.840169,"station_id":"CKI","is_transit":false,"time":4,"distance":1590,"station_name":"Cikini","transit":false,"line":0},{"i_long":106.832183,"line":2,"distance":1750,"time":3,"is_transit":false,"station_name":"Gondangdia","station_id":"GDD","transit":false,"i_lat":-6.186295},{"station_id":"JUA","i_long":106.828284,"transit":false,"is_transit":false,"line":2,"time":4,"distance":2015,"station_name":"Juanda","i_lat":-6.166716},{"station_id":"SW","transit":false,"line":2,"i_lat":-6.160725,"is_transit":false,"i_long":106.827103,"station_name":"Sawah Besar","distance":1149,"time":2},{"time":2,"distance":906,"i_lat":-6.149769,"line":2,"transit":false,"i_long":106.82482,"is_transit":false,"station_id":"MGB","station_name":"Manggabesar"},{"transit":false,"station_name":"Jayakarta","is_transit":false,"station_id":"JAY","i_lat":-6.141205,"time":2,"i_long":106.820901,"line":7,"distance":1080},{"is_transit":true,"i_long":106.812439,"line":0,"time":4,"transit":true,"i_lat":-6.137569,"station_id":"JAKK","station_name":"Jakarta Kota","distance":1264},{"line":0,"i_lat":-6.132549,"is_transit":true,"distance":1364,"i_long":106.826365,"station_name":"Kampung Bandan","station_id":"KPB","transit":false,"time":3},{"station_id":"AK","is_transit":false,"station_name":"Angke","i_long":106.79867,"line":0,"i_lat":-6.144674,"transit":false,"time":9,"distance":4102},{"i_lat":-6.155215,"i_long":106.800832,"line":1,"is_transit":true,"time":4,"transit":true,"distance":1230,"station_name":"Duri","station_id":"DU"},{"distance":3632,"station_id":"THB","i_long":106.811091,"i_lat":-6.185545,"is_transit":true,"transit":true,"line":1,"station_name":"Tanah Abang","time":8},{"station_id":"PLM","is_transit":false,"station_name":"Palmerah","transit":false,"line":6,"distance":3191,"i_lat":-6.207404,"time":6,"i_long":106.79689},{"station_name":"Kebayoran","i_long":106.780334,"distance":3737,"is_transit":false,"i_lat":-6.237242,"line":6,"station_id":"KBY","transit":false,"time":7},{"station_id":"PDJ","line":6,"is_transit":false,"time":8,"transit":false,"i_lat":-6.276362,"i_long":106.74273,"distance":6218,"station_name":"Pondokranji"},{"station_name":"Jurangmangu","transit":false,"i_long":106.728916,"i_lat":-6.288927,"is_transit":false,"station_id":"JMU","distance":2179,"line":6,"time":3},{"is_transit":false,"i_lat":-6.296963,"i_long":106.712277,"time":4,"station_id":"SDM","line":6,"distance":1994,"station_name":"Sudimara","transit":false},{"line":6,"station_name":"Rawa Buntu","distance":4566,"i_long":106.675475,"station_id":"RU","transit":false,"is_transit":false,"time":6,"i_lat":-6.314823},{"transit":false,"i_lat":-6.319871,"i_long":106.66566,"distance":2413,"line":6,"station_name":"Serpong","station_id":"SRP","is_transit":false,"time":4},{"station_id":"CSK","line":0,"i_lat":-6.32484,"is_transit":false,"time":4,"station_name":"Cisauk","i_long":106.640411,"distance":1784,"transit":false},{"station_id":"CC","time":4,"distance":2519,"i_lat":-6.329547,"transit":false,"i_long":106.617853,"is_transit":false,"line":0,"station_name":"Cicayur"},{"i_long":106.568863,"station_id":"PRP","time":8,"line":6,"distance":5968,"station_name":"Parung Panjang","transit":false,"is_transit":false,"i_lat":-6.3441410000000005},{"time":9,"i_lat":-6.354349,"is_transit":false,"line":0,"station_id":"CJT","station_name":"Cilejit","transit":false,"i_long":106.508482,"distance":7025},{"i_lat":-6.338021,"i_long":106.491338,"is_transit":false,"line":0,"station_name":"Daru","station_id":"DAR","time":6,"transit":false,"distance":2675}],[{"line":0,"i_lat":-6.493243,"transit":false,"time":0,"distance":0,"station_name":"Bojonggede","station_id":"BJD","i_long":106.792719,"is_transit":false},{"i_long":106.800298,"is_transit":true,"distance":5197,"transit":false,"i_lat":-6.448811,"station_id":"CTA","time":5,"line":1,"station_name":"Citayam"},{"station_name":"Depok","transit":false,"station_id":"DP","time":6,"distance":5084,"i_lat":-6.405256,"is_transit":false,"line":0,"i_long":106.816926},{"station_name":"Depokbaru","line":0,"time":3,"distance":1584,"station_id":"DPB","is_transit":false,"transit":false,"i_lat":-6.391065,"i_long":106.819451},{"transit":false,"station_id":"POC","i_lat":-6.369073,"distance":2727,"time":4,"is_transit":false,"station_name":"Pondok Cina","i_long":106.831114,"line":2},{"time":2,"station_name":"Univ. Indonesia","line":2,"distance":1109,"transit":false,"i_lat":-6.360749,"i_long":106.831474,"is_transit":false,"station_id":"UI"},{"is_transit":false,"i_lat":-6.339291,"i_long":106.834175,"time":3,"line":2,"station_name":"Univ. Pancasila","transit":false,"distance":2264,"station_id":"UP"},{"transit":false,"distance":1029,"i_lat":-6.330363,"line":2,"station_id":"LNA","i_long":106.832616,"is_transit":false,"station_name":"Lenteng Agung","time":2},{"station_name":"Tanjung Barat","i_lat":-6.3080680000000005,"is_transit":false,"distance":2671,"transit":false,"line":2,"time":3,"i_long":106.838896,"station_id":"TNT"},{"transit":false,"station_id":"PSM","time":4,"i_long":106.843999,"line":2,"i_lat":-6.2842400000000005,"is_transit":false,"distance":2820,"station_name":"Pasar Minggu"},{"i_lat":-6.263214,"transit":false,"station_name":"Pasar Minggu Baru","line":2,"time":2,"station_id":"PSMB","distance":2380,"i_long":106.851577,"is_transit":false},{"is_transit":false,"time":2,"distance":824,"station_id":"DRN","station_name":"Duren Kalibata","i_lat":-6.255332,"i_long":106.85449,"line":0,"transit":false},{"i_lat":-6.242512,"line":0,"i_long":106.856607,"station_id":"CW","station_name":"Cawang","time":3,"transit":false,"is_transit":false,"distance":1546},{"station_id":"TEB","is_transit":false,"station_name":"Tebet","i_long":106.857948,"i_lat":-6.226659,"transit":false,"line":2,"time":2,"distance":1230},{"transit":true,"i_lat":-6.209883,"line":0,"time":4,"distance":2610,"station_name":"Manggarai","station_id":"MRI","is_transit":true,"i_long":106.84912},{"station_name":"Matraman","station_id":"MTR","i_lat":-6.212485,"transit":false,"distance":1275,"time":2,"i_long":106.858896,"line":1,"is_transit":false},{"transit":true,"distance":1377,"i_long":106.86807400000001,"station_name":"Jatinegara","is_transit":true,"line":0,"time":8,"station_id":"JNG","i_lat":-6.215091},{"is_transit":false,"i_lat":-6.209188,"distance":1236,"time":2,"line":11,"station_name":"Pondok Jati","i_long":106.861737,"transit":false,"station_id":"POK"},{"is_transit":false,"distance":1829,"transit":false,"station_name":"Kramat","time":2,"line":11,"i_lat":-6.193792,"i_long":106.855437,"station_id":"KMT"},{"time":1,"line":11,"distance":973,"i_lat":-6.185975,"is_transit":false,"transit":false,"i_long":106.850107,"station_id":"GST","station_name":"Gang Sentiong"},{"time":8,"is_transit":false,"i_lat":-6.174784,"i_long":106.84368,"line":11,"transit":false,"station_id":"PSE","distance":1567,"station_name":"Pasar Senen"},{"station_name":"Kemayoran","i_lat":-6.161728,"time":4,"line":11,"transit":false,"is_transit":false,"i_long":106.839204,"station_id":"KMO","distance":1436},{"line":11,"is_transit":false,"distance":1901,"transit":false,"i_lat":-6.14505,"station_name":"Rajawali","i_long":106.836569,"time":5,"station_id":"RJW"},{"distance":1444,"station_name":"Kampung Bandan","i_long":106.826365,"station_id":"KPB","line":0,"time":3,"i_lat":-6.132549,"is_transit":true,"transit":true},{"station_name":"Angke","station_id":"AK","distance":4102,"is_transit":false,"time":9,"i_lat":-6.144674,"transit":false,"line":0,"i_long":106.79867},{"is_transit":true,"transit":true,"i_long":106.800832,"distance":1230,"station_name":"Duri","i_lat":-6.155215,"time":4,"station_id":"DU","line":1},{"station_name":"Tanah Abang","line":1,"is_transit":true,"transit":true,"i_lat":-6.185545,"time":8,"i_long":106.811091,"station_id":"THB","distance":3632},{"station_name":"Palmerah","time":6,"is_transit":false,"distance":3191,"i_lat":-6.207404,"i_long":106.79689,"line":6,"transit":false,"station_id":"PLM"},{"i_lat":-6.237242,"station_id":"KBY","i_long":106.780334,"transit":false,"is_transit":false,"distance":3737,"station_name":"Kebayoran","time":7,"line":6},{"line":6,"i_long":106.74273,"i_lat":-6.276362,"is_transit":false,"distance":6218,"transit":false,"station_id":"PDJ","station_name":"Pondokranji","time":8},{"time":3,"i_lat":-6.288927,"distance":2179,"station_name":"Jurangmangu","is_transit":false,"transit":false,"i_long":106.728916,"line":6,"station_id":"JMU"},{"i_lat":-6.296963,"station_name":"Sudimara","station_id":"SDM","is_transit":false,"time":4,"distance":1994,"i_long":106.712277,"transit":false,"line":6},{"transit":false,"i_lat":-6.314823,"station_id":"RU","time":6,"line":6,"is_transit":false,"station_name":"Rawa Buntu","distance":4566,"i_long":106.675475},{"i_long":106.66566,"station_name":"Serpong","is_transit":false,"transit":false,"distance":2413,"i_lat":-6.319871,"line":6,"time":4,"station_id":"SRP"},{"station_id":"CSK","distance":1784,"transit":false,"i_lat":-6.32484,"is_transit":false,"time":4,"station_name":"Cisauk","i_long":106.640411,"line":0},{"station_name":"Cicayur","i_lat":-6.329547,"transit":false,"i_long":106.617853,"time":4,"line":0,"distance":2519,"station_id":"CC","is_transit":false},{"i_long":106.568863,"distance":5968,"line":6,"station_name":"Parung Panjang","station_id":"PRP","is_transit":false,"transit":false,"time":8,"i_lat":-6.3441410000000005},{"distance":7025,"line":0,"transit":false,"is_transit":false,"i_lat":-6.354349,"time":9,"station_name":"Cilejit","i_long":106.508482,"station_id":"CJT"},{"i_lat":-6.338021,"line":0,"transit":false,"i_long":106.491338,"station_name":"Daru","is_transit":false,"station_id":"DAR","time":6,"distance":2675}]]}