{"data":[[{"line":2,"time":0,"station_name":"Bojonggede","i_lat":-6.493243,"i_long":106.792719,"transit":false,"distance":0,"is_transit":false,"station_id":"BJD"},{"line":2,"transit":false,"i_long":106.800298,"distance":5197,"is_transit":false,"i_lat":-6.448811,"station_name":"Citayam","station_id":"CTA","time":5},{"station_name":"Depok","distance":5084,"i_long":106.816926,"line":2,"is_transit":false,"station_id":"DP","transit":false,"i_lat":-6.405256,"time":6},{"time":3,"distance":1584,"transit":false,"station_name":"Depokbaru","is_transit":false,"station_id":"DPB","i_lat":-6.391065,"i_long":106.819451,"line":2},{"i_lat":-6.369073,"line":2,"distance":2727,"transit":false,"station_id":"POC","station_name":"Pondok Cina","is_transit":false,"i_long":106.831114,"time":4},{"station_id":"UI","time":2,"i_lat":-6.360749,"transit":false,"distance":1109,"is_transit":false,"i_long":106.831474,"station_name":"Univ. Indonesia","line":2},{"distance":2264,"is_transit":false,"i_lat":-6.339291,"line":2,"transit":false,"time":3,"station_name":"Univ. Pancasila","station_id":"UP","i_long":106.834175},{"station_name":"Lenteng Agung","distance":1029,"transit":false,"is_transit":false,"i_long":106.832616,"time":2,"station_id":"LNA","i_lat":-6.330363,"line":2},{"station_name":"Tanjung Barat","is_transit":false,"distance":2671,"i_long":106.838896,"station_id":"TNT","time":3,"transit":false,"line":2,"i_lat":-6.3080680000000005},{"line":2,"station_id":"PSM","is_transit":false,"i_long":106.843999,"station_name":"Pasar Minggu","time":4,"distance":2820,"i_lat":-6.2842400000000005,"transit":false},{"station_name":"Pasar Minggu Baru","line":2,"i_long":106.851577,"station_id":"PSMB","is_transit":false,"transit":false,"time":2,"distance":2380,"i_lat":-6.263214},{"station_id":"DRN","is_transit":false,"distance":824,"i_long":106.85449,"line":2,"time":2,"transit":false,"i_lat":-6.255332,"station_name":"Duren Kalibata"},{"i_lat":-6.242512,"transit":false,"station_id":"CW","distance":1546,"i_long":106.856607,"line":2,"is_transit":false,"station_name":"Cawang","time":3},{"line":2,"i_long":106.857948,"transit":false,"station_name":"Tebet","is_transit":false,"station_id":"TEB","time":2,"i_lat":-6.226659,"distance":1230},{"i_lat":-6.209883,"distance":2610,"time":4,"is_transit":true,"station_name":"Manggarai","line":2,"station_id":"MRI","i_long":106.84912,"transit":true},{"i_lat":-6.202263,"is_transit":false,"distance":3186,"i_long":106.822649,"time":4,"station_name":"Sudirman","transit":false,"line":1,"station_id":"SUD"},{"is_transit":false,"i_long":106.819881,"time":1,"i_lat":-6.201433,"station_name":"Sudirman Baru","distance":280,"station_id":"SUDB","line":1,"transit":false},{"transit":false,"station_name":"Karet","i_long":106.816351,"i_lat":-6.20132,"time":1,"line":1,"distance":471,"is_transit":false,"station_id":"KAT"},{"time":5,"transit":false,"line":1,"station_id":"THB","is_transit":false,"distance":2029,"i_long":106.811091,"i_lat":-6.185545,"station_name":"Tanah Abang"},{"distance":3632,"transit":false,"station_id":"DU","station_name":"Duri","is_transit":false,"time":8,"i_lat":-6.155215,"i_long":106.800832,"line":1},{"i_long":106.79867,"station_id":"AK","station_name":"Angke","distance":1230,"line":1,"transit":false,"is_transit":false,"time":4,"i_lat":-6.144674},{"is_transit":true,"i_lat":-6.132549,"station_id":"KPB","station_name":"Kampung Bandan","i_long":106.826365,"line":4,"time":9,"transit":true,"distance":4102},{"distance":2185,"station_name":"Ancol","transit":false,"is_transit":false,"time":4,"i_lat":-6.128023,"i_long":106.84464,"station_id":"AC","line":4}],[{"distance":0,"line":2,"station_id":"BJD","is_transit":false,"time":0,"i_lat":-6.493243,"i_long":106.792719,"station_name":"Bojonggede","transit":false},{"transit":false,"i_long":106.800298,"station_name":"Citayam","is_transit":false,"i_lat":-6.448811,"line":2,"time":5,"station_id":"CTA","distance":5197},{"station_id":"DP","station_name":"Depok","transit":false,"is_transit":false,"distance":5084,"i_lat":-6.405256,"i_long":106.816926,"time":6,"line":2},{"station_id":"DPB","i_lat":-6.391065,"is_transit":false,"transit":false,"i_long":106.819451,"time":3,"station_name":"Depokbaru","distance":1584,"line":2},{"station_id":"POC","i_long":106.831114,"line":2,"is_transit":false,"time":4,"transit":false,"distance":2727,"i_lat":-6.369073,"station_name":"Pondok Cina"},{"station_name":"Univ. Indonesia","distance":1109,"line":2,"i_lat":-6.360749,"station_id":"UI","is_transit":false,"time":2,"transit":false,"i_long":106.831474},{"station_id":"UP","i_long":106.834175,"distance":2264,"is_transit":false,"station_name":"Univ. Pancasila","transit":false,"i_lat":-6.339291,"line":2,"time":3},{"line":2,"time":2,"station_id":"LNA","station_name":"Lenteng Agung","transit":false,"distance":1029,"i_long":106.832616,"i_lat":-6.330363,"is_transit":false},{"time":3,"i_long":106.838896,"transit":false,"line":2,"distance":2671,"station_id":"TNT","is_transit":false,"station_name":"Tanjung Barat","i_lat":-6.3080680000000005},{"station_id":"PSM","is_transit":false,"line":2,"time":4,"distance":2820,"i_long":106.843999,"i_lat":-6.2842400000000005,"station_name":"Pasar Minggu","transit":false},{"station_name":"Pasar Minggu Baru","is_transit":false,"i_lat":-6.263214,"transit":false,"line":2,"station_id":"PSMB","distance":2380,"i_long":106.851577,"time":2},{"time":2,"i_long":106.85449,"is_transit":false,"line":2,"distance":824,"transit":false,"station_name":"Duren Kalibata","i_lat":-6.255332,"station_id":"DRN"},{"i_lat":-6.242512,"station_name":"Cawang","i_long":106.856607,"distance":1546,"is_transit":false,"time":3,"transit":false,"station_id":"CW","line":2},{"transit":false,"station_name":"Tebet","i_long":106.857948,"distance":1230,"station_id":"TEB","is_transit":false,"time":2,"i_lat":-6.226659,"line":2},{"distance":2610,"station_name":"Manggarai","station_id":"MRI","i_long":106.84912,"is_transit":false,"line":2,"time":4,"i_lat":-6.209883,"transit":false},{"distance":1590,"i_lat":-6.198556,"station_name":"Cikini","time":4,"station_id":"CKI","transit":false,"is_transit":false,"i_long":106.840169,"line":2},{"transit":false,"i_long":106.832183,"line":2,"station_name":"Gondangdia","distance":1750,"time":3,"i_lat":-6.186295,"station_id":"GDD","is_transit":false},{"time":4,"i_long":106.828284,"station_id":"JUA","transit":false,"is_transit":false,"station_name":"Juanda","distance":2015,"i_lat":-6.166716,"line":2},{"line":2,"i_lat":-6.160725,"time":2,"distance":1149,"station_id":"SW","station_name":"Sawah Besar","is_transit":false,"transit":false,"i_long":106.827103},{"line":2,"station_name":"Manggabesar","is_transit":false,"i_long":106.82482,"transit":false,"station_id":"MGB","i_lat":-6.149769,"distance":906,"time":2},{"distance":1080,"line":2,"i_lat":-6.141205,"i_long":106.820901,"station_name":"Jayakarta","transit":false,"is_transit":false,"time":2,"station_id":"JAY"},{"time":4,"i_lat":-6.137569,"station_id":"JAKK","station_name":"Jakarta Kota","distance":1264,"is_transit":true,"i_long":106.812439,"transit":true,"line":2},{"transit":true,"time":3,"distance":1364,"line":4,"i_lat":-6.132549,"station_name":"Kampung Bandan","is_transit":true,"i_long":106.826365,"station_id":"KPB"},{"time":4,"i_long":106.84464,"station_name":"Ancol","is_transit":false,"distance":2185,"line":4,"transit":false,"station_id":"AC","i_lat":-6.128023}],[{"time":0,"i_lat":-6.493243,"distance":0,"station_id":"BJD","i_long":106.792719,"transit":false,"is_transit":false,"station_name":"Bojonggede","line":2},{"is_transit":false,"transit":false,"station_name":"Citayam","distance":5197,"i_long":106.800298,"line":2,"i_lat":-6.448811,"time":5,"station_id":"CTA"},{"line":2,"time":6,"transit":false,"distance":5084,"is_transit":false,"i_long":106.816926,"station_name":"Depok","station_id":"DP","i_lat":-6.405256},{"i_lat":-6.391065,"transit":false,"line":2,"station_id":"DPB","time":3,"i_long":106.819451,"is_transit":false,"station_name":"Depokbaru","distance":1584},{"line":2,"station_id":"POC","i_lat":-6.369073,"station_name":"Pondok Cina","i_long":106.831114,"distance":2727,"transit":false,"is_transit":false,"time":4},{"transit":false,"line":2,"is_transit":false,"station_id":"UI","distance":1109,"station_name":"Univ. Indonesia","i_long":106.831474,"i_lat":-6.360749,"time":2},{"is_transit":false,"station_id":"UP","transit":false,"i_long":106.834175,"line":2,"station_name":"Univ. Pancasila","time":3,"distance":2264,"i_lat":-6.339291},{"i_long":106.832616,"transit":false,"distance":1029,"line":2,"station_id":"LNA","time":2,"is_transit":false,"station_name":"Lenteng Agung","i_lat":-6.330363},{"station_name":"Tanjung Barat","is_transit":false,"i_lat":-6.3080680000000005,"i_long":106.838896,"transit":false,"line":2,"time":3,"distance":2671,"station_id":"TNT"},{"station_id":"PSM","distance":2820,"i_long":106.843999,"transit":false,"is_transit":false,"line":2,"station_name":"Pasar Minggu","i_lat":-6.2842400000000005,"time":4},{"is_transit":false,"i_lat":-6.263214,"line":2,"i_long":106.851577,"station_id":"PSMB","station_name":"Pasar Minggu Baru","transit":false,"time":2,"distance":2380},{"i_lat":-6.255332,"distance":824,"is_transit":false,"transit":false,"time":2,"station_id":"DRN","i_long":106.85449,"line":2,"station_name":"Duren Kalibata"},{"transit":false,"distance":1546,"is_transit":false,"time":3,"line":2,"station_id":"CW","station_name":"Cawang","i_lat":-6.242512,"i_long":106.856607},{"i_lat":-6.226659,"station_name":"Tebet","distance":1230,"i_long":106.857948,"transit":false,"is_transit":false,"time":2,"line":2,"station_id":"TEB"},{"i_long":106.84912,"time":4,"distance":2610,"is_transit":true,"station_id":"MRI","station_name":"Manggarai","i_lat":-6.209883,"line":2,"transit":true},{"i_lat":-6.212485,"station_id":"MTR","transit":false,"line":1,"distance":1275,"is_transit":false,"time":2,"i_long":106.858896,"station_name":"Matraman"},{"line":1,"time":8,"station_name":"Jatinegara","is_transit":true,"i_lat":-6.215091,"i_long":106.86807400000001,"distance":1377,"station_id":"JNG","transit":true},{"station_name":"Pondok Jati","time":2,"station_id":"POK","i_lat":-6.209188,"line":11,"transit":false,"is_transit":false,"distance":1236,"i_long":106.861737},{"station_name":"Kramat","station_id":"KMT","time":2,"i_long":106.855437,"is_transit":false,"distance":1829,"line":11,"transit":false,"i_lat":-6.193792},{"transit":false,"is_transit":false,"station_name":"Gang Sentiong","time":1,"i_lat":-6.185975,"i_long":106.850107,"line":11,"station_id":"GST","distance":973},{"distance":1567,"line":11,"i_long":106.84368,"i_lat":-6.174784,"station_name":"Pasar Senen","time":8,"transit":false,"station_id":"PSE","is_transit":false},{"station_name":"Kemayoran","time":4,"distance":1436,"is_transit":false,"i_lat":-6.161728,"line":11,"station_id":"KMO","transit":false,"i_long":106.839204},{"station_id":"RJW","i_long":106.836569,"time":5,"station_name":"Rajawali","line":11,"transit":false,"distance":1901,"i_lat":-6.14505,"is_transit":false},{"is_transit":true,"transit":true,"station_id":"KPB","i_long":106.826365,"i_lat":-6.132549,"station_name":"Kampung Bandan","distance":1444,"time":3,"line":4},{"station_name":"Ancol","distance":2185,"i_lat":-6.128023,"time":4,"is_transit":false,"line":4,"i_long":106.84464,"station_id":"AC","transit":false}]]}