{"data":[[{"distance":0,"line":2,"station_id":"BJD","i_long":106.792719,"transit":false,"time":0,"i_lat":-6.493243,"station_name":"Bojonggede","is_transit":false},{"line":2,"distance":5197,"station_name":"Citayam","station_id":"CTA","is_transit":false,"i_lat":-6.448811,"i_long":106.800298,"transit":false,"time":5},{"time":6,"station_name":"Depok","station_id":"DP","is_transit":false,"i_long":106.816926,"i_lat":-6.405256,"transit":false,"line":2,"distance":5084},{"i_lat":-6.391065,"station_id":"DPB","line":2,"time":3,"transit":false,"distance":1584,"i_long":106.819451,"is_transit":false,"station_name":"Depokbaru"},{"transit":false,"station_name":"Pondok Cina","distance":2727,"i_long":106.831114,"line":2,"i_lat":-6.369073,"station_id":"POC","time":4,"is_transit":false},{"station_id":"UI","distance":1109,"station_name":"Univ. Indonesia","transit":false,"is_transit":false,"i_lat":-6.360749,"time":2,"i_long":106.831474,"line":2},{"i_lat":-6.339291,"distance":2264,"transit":false,"station_name":"Univ. Pancasila","time":3,"station_id":"UP","i_long":106.834175,"line":2,"is_transit":false},{"time":2,"i_lat":-6.330363,"distance":1029,"i_long":106.832616,"station_name":"Lenteng Agung","station_id":"LNA","is_transit":false,"transit":false,"line":2}]]}