{"data":[[{"i_long":106.792719,"distance":0,"transit":false,"station_id":"BJD","station_name":"Bojonggede","time":0,"is_transit":false,"i_lat":-6.493243,"line":0},{"station_id":"CTA","distance":5197,"time":5,"is_transit":true,"i_lat":-6.448811,"i_long":106.800298,"line":1,"station_name":"Citayam","transit":false},{"distance":5084,"i_long":106.816926,"transit":false,"i_lat":-6.405256,"is_transit":false,"station_id":"DP","line":0,"station_name":"Depok","time":6},{"is_transit":false,"line":0,"i_lat":-6.391065,"transit":false,"time":3,"station_name":"Depokbaru","distance":1584,"i_long":106.819451,"station_id":"DPB"},{"line":2,"station_id":"POC","station_name":"Pondok Cina","i_lat":-6.369073,"is_transit":false,"i_long":106.831114,"time":4,"transit":false,"distance":2727}]]}