{"data":[[{"i_long":106.792719,"distance":0,"transit":false,"time":0,"line":2,"station_id":"BJD","i_lat":-6.493243,"station_name":"Bojonggede"},{"i_long":106.800298,"distance":5197,"transit":false,"time":5,"line":2,"station_id":"CTA","i_lat":-6.448811,"station_name":"Citayam"},{"i_long":106.816926,"distance":5084,"transit":false,"time":6,"line":2,"station_id":"DP","i_lat":-6.405256,"station_name":"Depok"},{"i_long":106.819451,"distance":1584,"transit":false,"time":3,"line":2,"station_id":"DPB","i_lat":-6.391065,"station_name":"Depokbaru"},{"i_long":106.831114,"distance":2727,"transit":false,"time":4,"line":2,"station_id":"POC","i_lat":-6.369073,"station_name":"Pondok Cina"},{"i_long":106.831474,"distance":1109,"transit":false,"time":2,"line":2,"station_id":"UI","i_lat":-6.360749,"station_name":"Univ. Indonesia"},{"i_long":106.834175,"distance":2264,"transit":false,"time":3,"line":2,"station_id":"UP","i_lat":-6.339291,"station_name":"Univ. Pancasila"},{"i_long":106.832616,"distance":1029,"transit":false,"time":2,"line":2,"station_id":"LNA","i_lat":-6.330363,"station_name":"Lenteng Agung"},{"i_long":106.838896,"distance":2671,"transit":false,"time":3,"line":2,"station_id":"TNT","i_lat":-6.3080680000000005,"station_name":"Tanjung Barat"},{"i_long":106.843999,"distance":2820,"transit":false,"time":4,"line":2,"station_id":"PSM","i_lat":-6.2842400000000005,"station_name":"Pasar Minggu"},{"i_long":106.851577,"distance":2380,"transit":false,"time":2,"line":2,"station_id":"PSMB","i_lat":-6.263214,"station_name":"Pasar Minggu Baru"},{"i_long":106.85449,"distance":824,"transit":false,"time":2,"line":2,"station_id":"DRN","i_lat":-6.255332,"station_name":"Duren Kalibata"},{"i_long":106.856607,"distance":1546,"transit":false,"time":3,"line":2,"station_id":"CW","i_lat":-6.242512,"station_name":"Cawang"},{"i_long":106.857948,"distance":1230,"transit":false,"time":2,"line":2,"station_id":"TEB","i_lat":-6.226659,"station_name":"Tebet"}]]}