{"data":[[{"station_name":"Bojonggede","is_transit":false,"time":0,"i_long":106.792719,"station_id":"BJD","distance":0,"i_lat":-6.493243,"transit":false,"line":2},{"i_lat":-6.448811,"line":2,"transit":false,"station_name":"Citayam","distance":5197,"is_transit":false,"i_long":106.800298,"station_id":"CTA","time":5},{"line":2,"is_transit":false,"station_name":"Depok","distance":5084,"time":6,"transit":false,"i_lat":-6.405256,"station_id":"DP","i_long":106.816926},{"distance":1584,"i_lat":-6.391065,"station_id":"DPB","transit":false,"time":3,"i_long":106.819451,"is_transit":false,"station_name":"Depokbaru","line":2},{"is_transit":false,"distance":2727,"i_lat":-6.369073,"transit":false,"time":4,"station_name":"Pondok Cina","station_id":"POC","i_long":106.831114,"line":2},{"transit":false,"i_long":106.831474,"station_name":"Univ. Indonesia","time":2,"i_lat":-6.360749,"station_id":"UI","is_transit":false,"distance":1109,"line":2},{"i_long":106.834175,"station_id":"UP","station_name":"Univ. Pancasila","transit":false,"time":3,"line":2,"distance":2264,"is_transit":false,"i_lat":-6.339291},{"distance":1029,"is_transit":false,"i_long":106.832616,"i_lat":-6.330363,"time":2,"line":2,"station_name":"Lenteng Agung","station_id":"LNA","transit":false},{"station_name":"Tanjung Barat","station_id":"TNT","distance":2671,"time":3,"transit":false,"i_lat":-6.3080680000000005,"is_transit":false,"i_long":106.838896,"line":2},{"transit":false,"i_lat":-6.2842400000000005,"station_name":"Pasar Minggu","i_long":106.843999,"distance":2820,"time":4,"is_transit":false,"station_id":"PSM","line":2},{"i_lat":-6.263214,"distance":2380,"transit":false,"time":2,"line":2,"is_transit":false,"i_long":106.851577,"station_name":"Pasar Minggu Baru","station_id":"PSMB"},{"i_long":106.85449,"transit":false,"station_name":"Duren Kalibata","distance":824,"station_id":"DRN","line":2,"time":2,"is_transit":false,"i_lat":-6.255332},{"distance":1546,"is_transit":false,"line":2,"station_id":"CW","transit":false,"station_name":"Cawang","i_lat":-6.242512,"time":3,"i_long":106.856607},{"transit":false,"time":2,"station_id":"TEB","is_transit":false,"station_name":"Tebet","i_lat":-6.226659,"i_long":106.857948,"distance":1230,"line":2},{"station_id":"MRI","station_name":"Manggarai","transit":true,"time":4,"distance":2610,"i_lat":-6.209883,"line":2,"i_long":106.84912,"is_transit":true},{"transit":false,"station_id":"MTR","i_lat":-6.212485,"i_long":106.858896,"time":2,"is_transit":false,"station_name":"Matraman","line":1,"distance":1275},{"is_transit":true,"transit":true,"station_name":"Jatinegara","line":1,"time":8,"station_id":"JNG","distance":1377,"i_lat":-6.215091,"i_long":106.86807400000001},{"time":2,"transit":false,"line":11,"distance":1236,"station_id":"POK","i_lat":-6.209188,"i_long":106.861737,"is_transit":false,"station_name":"Pondok Jati"},{"time":2,"distance":1829,"i_long":106.855437,"station_id":"KMT","i_lat":-6.193792,"line":11,"station_name":"Kramat","transit":false,"is_transit":false},{"i_lat":-6.185975,"distance":973,"i_long":106.850107,"line":11,"transit":false,"is_transit":false,"station_name":"Gang Sentiong","time":1,"station_id":"GST"},{"transit":false,"i_long":106.84368,"station_id":"PSE","line":11,"station_name":"Pasar Senen","time":8,"i_lat":-6.174784,"is_transit":false,"distance":1567},{"i_lat":-6.161728,"time":4,"distance":1436,"station_id":"KMO","i_long":106.839204,"station_name":"Kemayoran","line":11,"transit":false,"is_transit":false},{"station_name":"Rajawali","i_long":106.836569,"transit":false,"station_id":"RJW","i_lat":-6.14505,"line":11,"time":5,"distance":1901,"is_transit":false}],[{"time":0,"station_id":"BJD","station_name":"Bojonggede","transit":false,"i_lat":-6.493243,"is_transit":false,"distance":0,"i_long":106.792719,"line":2},{"is_transit":false,"line":2,"time":5,"station_name":"Citayam","transit":false,"distance":5197,"i_long":106.800298,"station_id":"CTA","i_lat":-6.448811},{"station_name":"Depok","distance":5084,"i_lat":-6.405256,"line":2,"station_id":"DP","is_transit":false,"time":6,"transit":false,"i_long":106.816926},{"i_lat":-6.391065,"time":3,"distance":1584,"station_id":"DPB","transit":false,"station_name":"Depokbaru","is_transit":false,"i_long":106.819451,"line":2},{"station_name":"Pondok Cina","transit":false,"distance":2727,"i_long":106.831114,"i_lat":-6.369073,"is_transit":false,"station_id":"POC","line":2,"time":4},{"line":2,"is_transit":false,"station_name":"Univ. Indonesia","transit":false,"time":2,"station_id":"UI","distance":1109,"i_lat":-6.360749,"i_long":106.831474},{"is_transit":false,"i_long":106.834175,"i_lat":-6.339291,"line":2,"time":3,"transit":false,"station_name":"Univ. Pancasila","distance":2264,"station_id":"UP"},{"time":2,"station_name":"Lenteng Agung","station_id":"LNA","is_transit":false,"line":2,"distance":1029,"transit":false,"i_lat":-6.330363,"i_long":106.832616},{"station_name":"Tanjung Barat","transit":false,"station_id":"TNT","i_lat":-6.3080680000000005,"i_long":106.838896,"is_transit":false,"time":3,"distance":2671,"line":2},{"transit":false,"station_id":"PSM","i_long":106.843999,"distance":2820,"is_transit":false,"i_lat":-6.2842400000000005,"line":2,"station_name":"Pasar Minggu","time":4},{"i_lat":-6.263214,"time":2,"i_long":106.851577,"station_name":"Pasar Minggu Baru","line":2,"transit":false,"distance":2380,"is_transit":false,"station_id":"PSMB"},{"line":2,"is_transit":false,"i_lat":-6.255332,"distance":824,"i_long":106.85449,"station_id":"DRN","transit":false,"time":2,"station_name":"Duren Kalibata"},{"station_name":"Cawang","station_id":"CW","is_transit":false,"time":3,"i_lat":-6.242512,"line":2,"transit":false,"distance":1546,"i_long":106.856607},{"is_transit":false,"station_name":"Tebet","time":2,"i_lat":-6.226659,"line":2,"transit":false,"station_id":"TEB","distance":1230,"i_long":106.857948},{"time":4,"station_name":"Manggarai","distance":2610,"station_id":"MRI","line":2,"i_lat":-6.209883,"i_long":106.84912,"is_transit":true,"transit":true},{"station_id":"SUD","line":1,"distance":3186,"i_lat":-6.202263,"station_name":"Sudirman","time":4,"transit":false,"i_long":106.822649,"is_transit":false},{"line":1,"station_name":"Sudirman Baru","transit":false,"station_id":"SUDB","distance":280,"time":1,"i_lat":-6.201433,"is_transit":false,"i_long":106.819881},{"line":1,"i_lat":-6.20132,"station_name":"Karet","time":1,"transit":false,"distance":471,"is_transit":false,"station_id":"KAT","i_long":106.816351},{"distance":2029,"station_name":"Tanah Abang","transit":false,"station_id":"THB","i_lat":-6.185545,"is_transit":false,"time":5,"i_long":106.811091,"line":1},{"station_name":"Duri","line":1,"station_id":"DU","i_lat":-6.155215,"distance":3632,"i_long":106.800832,"is_transit":false,"transit":false,"time":8},{"distance":1230,"station_id":"AK","transit":false,"time":4,"i_lat":-6.144674,"i_long":106.79867,"line":1,"is_transit":false,"station_name":"Angke"},{"line":4,"is_transit":true,"transit":true,"station_id":"KPB","i_lat":-6.132549,"station_name":"Kampung Bandan","time":9,"distance":4102,"i_long":106.826365},{"i_lat":-6.14505,"i_long":106.836569,"time":3,"line":11,"distance":1444,"station_id":"RJW","is_transit":false,"station_name":"Rajawali","transit":false}],[{"transit":false,"time":0,"i_lat":-6.493243,"distance":0,"i_long":106.792719,"line":2,"station_name":"Bojonggede","station_id":"BJD","is_transit":false},{"station_id":"CTA","is_transit":false,"station_name":"Citayam","time":5,"distance":5197,"i_lat":-6.448811,"line":2,"transit":false,"i_long":106.800298},{"distance":5084,"i_lat":-6.405256,"time":6,"i_long":106.816926,"line":2,"is_transit":false,"station_name":"Depok","transit":false,"station_id":"DP"},{"i_long":106.819451,"station_id":"DPB","time":3,"station_name":"Depokbaru","is_transit":false,"transit":false,"distance":1584,"line":2,"i_lat":-6.391065},{"i_lat":-6.369073,"i_long":106.831114,"line":2,"transit":false,"station_name":"Pondok Cina","station_id":"POC","is_transit":false,"time":4,"distance":2727},{"is_transit":false,"i_lat":-6.360749,"station_name":"Univ. Indonesia","distance":1109,"station_id":"UI","transit":false,"time":2,"i_long":106.831474,"line":2},{"line":2,"time":3,"station_id":"UP","i_lat":-6.339291,"is_transit":false,"i_long":106.834175,"station_name":"Univ. Pancasila","transit":false,"distance":2264},{"station_id":"LNA","distance":1029,"transit":false,"is_transit":false,"i_lat":-6.330363,"line":2,"time":2,"i_long":106.832616,"station_name":"Lenteng Agung"},{"is_transit":false,"i_long":106.838896,"transit":false,"distance":2671,"station_name":"Tanjung Barat","time":3,"line":2,"station_id":"TNT","i_lat":-6.3080680000000005},{"transit":false,"station_name":"Pasar Minggu","i_lat":-6.2842400000000005,"is_transit":false,"distance":2820,"station_id":"PSM","i_long":106.843999,"time":4,"line":2},{"station_id":"PSMB","line":2,"time":2,"i_lat":-6.263214,"is_transit":false,"station_name":"Pasar Minggu Baru","transit":false,"distance":2380,"i_long":106.851577},{"i_lat":-6.255332,"is_transit":false,"station_name":"Duren Kalibata","line":2,"distance":824,"i_long":106.85449,"time":2,"transit":false,"station_id":"DRN"},{"station_name":"Cawang","i_lat":-6.242512,"station_id":"CW","distance":1546,"i_long":106.856607,"is_transit":false,"line":2,"time":3,"transit":false},{"station_id":"TEB","station_name":"Tebet","transit":false,"time":2,"distance":1230,"i_long":106.857948,"line":2,"is_transit":false,"i_lat":-6.226659},{"is_transit":false,"time":4,"i_long":106.84912,"line":2,"station_name":"Manggarai","transit":false,"distance":2610,"i_lat":-6.209883,"station_id":"MRI"},{"i_long":106.840169,"line":2,"distance":1590,"time":4,"is_transit":false,"station_id":"CKI","i_lat":-6.198556,"transit":false,"station_name":"Cikini"},{"station_id":"GDD","line":2,"time":3,"distance":1750,"i_long":106.832183,"transit":false,"is_transit":false,"station_name":"Gondangdia","i_lat":-6.186295},{"station_name":"Juanda","i_lat":-6.166716,"station_id":"JUA","i_long":106.828284,"line":2,"is_transit":false,"time":4,"transit":false,"distance":2015},{"time":2,"line":2,"transit":false,"i_long":106.827103,"distance":1149,"i_lat":-6.160725,"station_name":"Sawah Besar","station_id":"SW","is_transit":false},{"i_long":106.82482,"station_name":"Manggabesar","station_id":"MGB","time":2,"line":2,"transit":false,"is_transit":false,"distance":906,"i_lat":-6.149769},{"distance":1080,"i_lat":-6.141205,"time":2,"transit":false,"station_name":"Jayakarta","i_long":106.820901,"line":2,"is_transit":false,"station_id":"JAY"},{"is_transit":true,"i_lat":-6.137569,"station_name":"Jakarta Kota","time":4,"line":2,"station_id":"JAKK","transit":true,"distance":1264,"i_long":106.812439},{"station_id":"KPB","time":3,"distance":1364,"i_long":106.826365,"transit":true,"i_lat":-6.132549,"line":4,"is_transit":true,"station_name":"Kampung Bandan"},{"is_transit":false,"station_name":"Rajawali","time":3,"i_long":106.836569,"i_lat":-6.14505,"station_id":"RJW","distance":1444,"transit":false,"line":11}]]}