{"data":[[{"line":0,"distance":0,"i_lat":-6.493243,"station_name":"Bojonggede","time":0,"station_id":"BJD","transit":false,"is_transit":false,"i_long":106.792719},{"is_transit":true,"distance":5197,"station_name":"Citayam","station_id":"CTA","transit":false,"i_long":106.800298,"i_lat":-6.448811,"line":1,"time":5},{"station_id":"DP","is_transit":false,"station_name":"Depok","i_lat":-6.405256,"time":6,"distance":5084,"i_long":106.816926,"transit":false,"line":0},{"station_id":"DPB","transit":false,"line":0,"station_name":"Depokbaru","time":3,"i_long":106.819451,"is_transit":false,"distance":1584,"i_lat":-6.391065},{"i_lat":-6.369073,"is_transit":false,"distance":2727,"time":4,"i_long":106.831114,"line":2,"station_id":"POC","transit":false,"station_name":"Pondok Cina"},{"i_lat":-6.360749,"time":2,"is_transit":false,"station_id":"UI","line":2,"i_long":106.831474,"distance":1109,"transit":false,"station_name":"Univ. Indonesia"},{"transit":false,"distance":2264,"i_lat":-6.339291,"i_long":106.834175,"line":2,"station_name":"Univ. Pancasila","station_id":"UP","is_transit":false,"time":3},{"station_id":"LNA","time":2,"transit":false,"is_transit":false,"station_name":"Lenteng Agung","i_lat":-6.330363,"i_long":106.832616,"line":2,"distance":1029},{"transit":false,"distance":2671,"i_long":106.838896,"i_lat":-6.3080680000000005,"station_id":"TNT","station_name":"Tanjung Barat","time":3,"line":2,"is_transit":false},{"time":4,"i_lat":-6.2842400000000005,"i_long":106.843999,"distance":2820,"is_transit":false,"station_name":"Pasar Minggu","transit":false,"line":2,"station_id":"PSM"},{"line":2,"is_transit":false,"time":2,"station_id":"PSMB","station_name":"Pasar Minggu Baru","i_lat":-6.263214,"i_long":106.851577,"transit":false,"distance":2380},{"time":2,"i_lat":-6.255332,"is_transit":false,"distance":824,"station_name":"Duren Kalibata","i_long":106.85449,"station_id":"DRN","line":0,"transit":false},{"distance":1546,"transit":false,"time":3,"i_lat":-6.242512,"i_long":106.856607,"station_id":"CW","line":0,"station_name":"Cawang","is_transit":false},{"i_lat":-6.226659,"station_name":"Tebet","i_long":106.857948,"distance":1230,"line":2,"is_transit":false,"station_id":"TEB","time":2,"transit":false},{"station_id":"MRI","transit":true,"line":0,"time":4,"station_name":"Manggarai","i_lat":-6.209883,"is_transit":true,"distance":2610,"i_long":106.84912},{"station_name":"Sudirman","time":4,"i_long":106.822649,"station_id":"SUD","is_transit":false,"i_lat":-6.202263,"transit":false,"distance":3186,"line":1},{"i_long":106.819881,"i_lat":-6.201433,"transit":false,"line":1,"station_id":"SUDB","time":1,"distance":280,"is_transit":false,"station_name":"Sudirman Baru"},{"transit":false,"is_transit":false,"i_long":106.816351,"station_name":"Karet","i_lat":-6.20132,"line":1,"time":1,"distance":471,"station_id":"KAT"},{"distance":2029,"transit":false,"i_lat":-6.185545,"line":1,"station_name":"Tanah Abang","station_id":"THB","time":5,"is_transit":true,"i_long":106.811091},{"station_id":"DU","transit":true,"distance":3632,"i_lat":-6.155215,"i_long":106.800832,"is_transit":true,"station_name":"Duri","line":1,"time":8},{"station_name":"Angke","station_id":"AK","line":0,"distance":1230,"time":4,"transit":false,"is_transit":false,"i_long":106.79867,"i_lat":-6.144674},{"i_lat":-6.132549,"station_id":"KPB","station_name":"Kampung Bandan","line":0,"is_transit":true,"distance":4102,"transit":false,"time":9,"i_long":106.826365},{"time":4,"transit":false,"station_id":"AC","station_name":"Ancol","i_lat":-6.128023,"i_long":106.84464,"line":0,"is_transit":false,"distance":2185}],[{"line":0,"station_name":"Bojonggede","distance":0,"i_long":106.792719,"station_id":"BJD","is_transit":false,"time":0,"i_lat":-6.493243,"transit":false},{"line":1,"is_transit":true,"time":5,"i_long":106.800298,"i_lat":-6.448811,"station_name":"Citayam","distance":5197,"station_id":"CTA","transit":false},{"distance":5084,"i_lat":-6.405256,"station_id":"DP","station_name":"Depok","line":0,"i_long":106.816926,"time":6,"transit":false,"is_transit":false},{"station_name":"Depokbaru","is_transit":false,"time":3,"i_lat":-6.391065,"transit":false,"distance":1584,"i_long":106.819451,"station_id":"DPB","line":0},{"time":4,"i_lat":-6.369073,"is_transit":false,"line":2,"transit":false,"station_name":"Pondok Cina","station_id":"POC","distance":2727,"i_long":106.831114},{"i_long":106.831474,"transit":false,"station_id":"UI","station_name":"Univ. Indonesia","time":2,"i_lat":-6.360749,"line":2,"is_transit":false,"distance":1109},{"i_long":106.834175,"line":2,"distance":2264,"is_transit":false,"transit":false,"station_id":"UP","time":3,"station_name":"Univ. Pancasila","i_lat":-6.339291},{"station_id":"LNA","line":2,"time":2,"i_long":106.832616,"distance":1029,"is_transit":false,"station_name":"Lenteng Agung","transit":false,"i_lat":-6.330363},{"time":3,"i_lat":-6.3080680000000005,"is_transit":false,"distance":2671,"i_long":106.838896,"line":2,"transit":false,"station_name":"Tanjung Barat","station_id":"TNT"},{"transit":false,"time":4,"i_lat":-6.2842400000000005,"line":2,"station_id":"PSM","i_long":106.843999,"station_name":"Pasar Minggu","is_transit":false,"distance":2820},{"station_id":"PSMB","is_transit":false,"time":2,"i_lat":-6.263214,"i_long":106.851577,"transit":false,"station_name":"Pasar Minggu Baru","line":2,"distance":2380},{"station_id":"DRN","i_lat":-6.255332,"is_transit":false,"distance":824,"i_long":106.85449,"time":2,"station_name":"Duren Kalibata","transit":false,"line":0},{"i_long":106.856607,"time":3,"i_lat":-6.242512,"is_transit":false,"distance":1546,"station_name":"Cawang","line":0,"station_id":"CW","transit":false},{"line":2,"is_transit":false,"station_name":"Tebet","time":2,"distance":1230,"transit":false,"i_lat":-6.226659,"station_id":"TEB","i_long":106.857948},{"time":4,"station_name":"Manggarai","distance":2610,"station_id":"MRI","transit":true,"i_long":106.84912,"i_lat":-6.209883,"line":0,"is_transit":true},{"distance":1590,"i_long":106.840169,"transit":false,"station_id":"CKI","is_transit":false,"time":4,"station_name":"Cikini","line":0,"i_lat":-6.198556},{"time":3,"distance":1750,"station_id":"GDD","i_long":106.832183,"is_transit":false,"station_name":"Gondangdia","transit":false,"line":2,"i_lat":-6.186295},{"line":2,"station_name":"Juanda","i_lat":-6.166716,"i_long":106.828284,"station_id":"JUA","distance":2015,"is_transit":false,"time":4,"transit":false},{"is_transit":false,"transit":false,"i_long":106.827103,"line":2,"station_name":"Sawah Besar","time":2,"distance":1149,"station_id":"SW","i_lat":-6.160725},{"transit":false,"line":2,"is_transit":false,"station_id":"MGB","station_name":"Manggabesar","time":2,"i_lat":-6.149769,"i_long":106.82482,"distance":906},{"distance":1080,"i_lat":-6.141205,"station_name":"Jayakarta","time":2,"transit":false,"is_transit":false,"i_long":106.820901,"station_id":"JAY","line":7},{"distance":1264,"transit":true,"station_id":"JAKK","i_long":106.812439,"i_lat":-6.137569,"is_transit":true,"station_name":"Jakarta Kota","line":0,"time":4},{"time":3,"line":0,"is_transit":true,"transit":false,"station_name":"Kampung Bandan","i_lat":-6.132549,"distance":1364,"i_long":106.826365,"station_id":"KPB"},{"station_name":"Ancol","station_id":"AC","transit":false,"is_transit":false,"i_long":106.84464,"i_lat":-6.128023,"time":4,"line":0,"distance":2185}],[{"time":0,"station_id":"BJD","transit":false,"i_lat":-6.493243,"i_long":106.792719,"station_name":"Bojonggede","is_transit":false,"distance":0,"line":0},{"distance":5197,"i_lat":-6.448811,"station_name":"Citayam","transit":false,"i_long":106.800298,"is_transit":true,"station_id":"CTA","line":1,"time":5},{"transit":false,"is_transit":false,"distance":5084,"i_lat":-6.405256,"i_long":106.816926,"station_id":"DP","station_name":"Depok","line":0,"time":6},{"time":3,"i_lat":-6.391065,"distance":1584,"is_transit":false,"station_id":"DPB","station_name":"Depokbaru","transit":false,"i_long":106.819451,"line":0},{"station_name":"Pondok Cina","distance":2727,"i_lat":-6.369073,"station_id":"POC","line":2,"time":4,"i_long":106.831114,"transit":false,"is_transit":false},{"is_transit":false,"transit":false,"i_lat":-6.360749,"station_id":"UI","i_long":106.831474,"line":2,"distance":1109,"station_name":"Univ. Indonesia","time":2},{"transit":false,"distance":2264,"time":3,"station_id":"UP","i_lat":-6.339291,"i_long":106.834175,"line":2,"is_transit":false,"station_name":"Univ. Pancasila"},{"time":2,"station_id":"LNA","i_lat":-6.330363,"line":2,"is_transit":false,"distance":1029,"station_name":"Lenteng Agung","i_long":106.832616,"transit":false},{"i_long":106.838896,"station_name":"Tanjung Barat","transit":false,"station_id":"TNT","is_transit":false,"line":2,"distance":2671,"i_lat":-6.3080680000000005,"time":3},{"station_id":"PSM","i_long":106.843999,"line":2,"distance":2820,"station_name":"Pasar Minggu","transit":false,"time":4,"is_transit":false,"i_lat":-6.2842400000000005},{"is_transit":false,"time":2,"station_name":"Pasar Minggu Baru","line":2,"distance":2380,"i_long":106.851577,"i_lat":-6.263214,"transit":false,"station_id":"PSMB"},{"is_transit":false,"station_name":"Duren Kalibata","distance":824,"transit":false,"i_long":106.85449,"time":2,"line":0,"station_id":"DRN","i_lat":-6.255332},{"i_lat":-6.242512,"line":0,"station_name":"Cawang","is_transit":false,"time":3,"station_id":"CW","distance":1546,"transit":false,"i_long":106.856607},{"line":2,"station_name":"Tebet","is_transit":false,"station_id":"TEB","distance":1230,"i_long":106.857948,"transit":false,"i_lat":-6.226659,"time":2},{"station_id":"MRI","i_long":106.84912,"is_transit":true,"station_name":"Manggarai","distance":2610,"transit":true,"line":0,"i_lat":-6.209883,"time":4},{"time":2,"is_transit":false,"distance":1275,"i_long":106.858896,"station_name":"Matraman","line":1,"transit":false,"i_lat":-6.212485,"station_id":"MTR"},{"time":8,"station_name":"Jatinegara","distance":1377,"line":0,"station_id":"JNG","i_long":106.86807400000001,"is_transit":true,"i_lat":-6.215091,"transit":true},{"i_long":106.861737,"station_name":"Pondok Jati","is_transit":false,"line":11,"station_id":"POK","distance":1236,"transit":false,"time":2,"i_lat":-6.209188},{"station_name":"Kramat","time":2,"distance":1829,"i_lat":-6.193792,"is_transit":false,"line":11,"transit":false,"station_id":"KMT","i_long":106.855437},{"i_long":106.850107,"i_lat":-6.185975,"transit":false,"time":1,"is_transit":false,"station_id":"GST","line":11,"station_name":"Gang Sentiong","distance":973},{"transit":false,"time":8,"is_transit":false,"i_lat":-6.174784,"distance":1567,"line":11,"i_long":106.84368,"station_name":"Pasar Senen","station_id":"PSE"},{"station_id":"KMO","line":11,"distance":1436,"is_transit":false,"station_name":"Kemayoran","time":4,"i_long":106.839204,"i_lat":-6.161728,"transit":false},{"i_lat":-6.14505,"station_id":"RJW","time":5,"distance":1901,"line":11,"i_long":106.836569,"is_transit":false,"transit":false,"station_name":"Rajawali"},{"i_long":106.826365,"station_id":"KPB","i_lat":-6.132549,"transit":true,"line":0,"distance":1444,"time":3,"station_name":"Kampung Bandan","is_transit":true},{"distance":2185,"station_id":"AC","time":4,"i_long":106.84464,"station_name":"Ancol","i_lat":-6.128023,"is_transit":false,"transit":false,"line":0}]]}