{"data":[[{"i_long":106.792719,"station_name":"Bojonggede","transit":false,"station_id":"BJD","i_lat":-6.493243,"line":2,"time":0,"is_transit":false,"distance":0},{"i_lat":-6.448811,"transit":false,"distance":5197,"i_long":106.800298,"time":5,"line":2,"station_id":"CTA","station_name":"Citayam","is_transit":false},{"i_long":106.816926,"station_name":"Depok","distance":5084,"time":6,"station_id":"DP","is_transit":false,"transit":false,"line":2,"i_lat":-6.405256},{"station_name":"Depokbaru","is_transit":false,"station_id":"DPB","i_lat":-6.391065,"i_long":106.819451,"transit":false,"distance":1584,"time":3,"line":2},{"station_id":"POC","line":2,"station_name":"Pondok Cina","i_long":106.831114,"is_transit":false,"distance":2727,"transit":false,"time":4,"i_lat":-6.369073},{"time":2,"station_name":"Univ. Indonesia","is_transit":false,"i_long":106.831474,"transit":false,"station_id":"UI","distance":1109,"i_lat":-6.360749,"line":2},{"transit":false,"i_long":106.834175,"i_lat":-6.339291,"line":2,"station_id":"UP","time":3,"station_name":"Univ. Pancasila","is_transit":false,"distance":2264},{"station_id":"LNA","i_lat":-6.330363,"time":2,"is_transit":false,"station_name":"Lenteng Agung","distance":1029,"transit":false,"i_long":106.832616,"line":2},{"is_transit":false,"i_lat":-6.3080680000000005,"i_long":106.838896,"line":2,"time":3,"transit":false,"station_name":"Tanjung Barat","station_id":"TNT","distance":2671},{"i_lat":-6.2842400000000005,"line":2,"distance":2820,"station_id":"PSM","is_transit":false,"i_long":106.843999,"time":4,"station_name":"Pasar Minggu","transit":false},{"is_transit":false,"transit":false,"station_id":"PSMB","distance":2380,"i_lat":-6.263214,"i_long":106.851577,"line":2,"station_name":"Pasar Minggu Baru","time":2},{"station_id":"DRN","i_long":106.85449,"is_transit":false,"line":2,"station_name":"Duren Kalibata","distance":824,"transit":false,"i_lat":-6.255332,"time":2},{"distance":1546,"time":3,"is_transit":false,"transit":false,"station_id":"CW","i_long":106.856607,"i_lat":-6.242512,"line":2,"station_name":"Cawang"},{"line":2,"i_long":106.857948,"station_id":"TEB","distance":1230,"time":2,"i_lat":-6.226659,"transit":false,"is_transit":false,"station_name":"Tebet"},{"station_name":"Manggarai","is_transit":true,"line":2,"time":4,"transit":true,"distance":2610,"station_id":"MRI","i_lat":-6.209883,"i_long":106.84912},{"line":1,"is_transit":false,"distance":3186,"time":4,"station_name":"Sudirman","transit":false,"i_lat":-6.202263,"i_long":106.822649,"station_id":"SUD"},{"transit":false,"i_lat":-6.201433,"station_id":"SUDB","station_name":"Sudirman Baru","i_long":106.819881,"time":1,"distance":280,"line":1,"is_transit":false},{"is_transit":false,"transit":false,"i_long":106.816351,"station_id":"KAT","line":1,"station_name":"Karet","time":1,"distance":471,"i_lat":-6.20132},{"i_long":106.811091,"station_name":"Tanah Abang","distance":2029,"station_id":"THB","transit":false,"line":1,"is_transit":false,"time":5,"i_lat":-6.185545},{"line":1,"distance":3632,"station_name":"Duri","i_lat":-6.155215,"station_id":"DU","is_transit":true,"i_long":106.800832,"transit":true,"time":8},{"i_lat":-6.162021,"station_id":"GGL","line":5,"station_name":"Grogol","is_transit":false,"i_long":106.788277,"time":3,"distance":1700,"transit":false},{"is_transit":false,"line":5,"i_long":106.771379,"time":2,"transit":false,"station_name":"Pesing","distance":2036,"i_lat":-6.161433,"station_id":"PSG"},{"station_name":"Taman Kota","line":5,"i_lat":-6.1587309999999995,"i_long":106.756522,"distance":1614,"is_transit":false,"transit":false,"station_id":"TKO","time":2},{"i_lat":-6.159876,"station_name":"Bojongindah","i_long":106.737035,"transit":false,"line":5,"time":2,"is_transit":false,"station_id":"BOI","distance":2334},{"distance":1152,"line":5,"transit":false,"station_id":"RW","is_transit":false,"i_long":106.723064,"time":4,"station_name":"Rawa Buaya","i_lat":-6.162758},{"station_name":"Kalideres","transit":false,"station_id":"KDS","distance":2504,"i_long":106.701612,"line":5,"time":3,"i_lat":-6.166068,"is_transit":false},{"line":5,"station_id":"PI","transit":false,"distance":2548,"time":3,"i_long":106.679458,"i_lat":-6.169933,"is_transit":false,"station_name":"Poris"},{"station_id":"BPR","line":5,"i_long":106.665036,"distance":1834,"i_lat":-6.171811,"time":3,"station_name":"Batuceper","is_transit":false,"transit":false},{"time":3,"transit":false,"station_id":"TTI","is_transit":false,"distance":2028,"i_lat":-6.17331,"station_name":"Tanah Tinggi","i_long":106.64657,"line":5}],[{"i_lat":-6.493243,"is_transit":false,"station_name":"Bojonggede","station_id":"BJD","i_long":106.792719,"distance":0,"transit":false,"line":2,"time":0},{"i_lat":-6.448811,"transit":false,"i_long":106.800298,"line":2,"is_transit":false,"time":5,"station_id":"CTA","distance":5197,"station_name":"Citayam"},{"time":6,"distance":5084,"station_name":"Depok","is_transit":false,"i_lat":-6.405256,"transit":false,"i_long":106.816926,"line":2,"station_id":"DP"},{"transit":false,"station_id":"DPB","time":3,"i_lat":-6.391065,"line":2,"distance":1584,"is_transit":false,"station_name":"Depokbaru","i_long":106.819451},{"station_name":"Pondok Cina","i_long":106.831114,"is_transit":false,"time":4,"station_id":"POC","distance":2727,"transit":false,"i_lat":-6.369073,"line":2},{"distance":1109,"line":2,"station_id":"UI","time":2,"transit":false,"i_lat":-6.360749,"i_long":106.831474,"station_name":"Univ. Indonesia","is_transit":false},{"distance":2264,"transit":false,"i_lat":-6.339291,"station_id":"UP","time":3,"station_name":"Univ. Pancasila","is_transit":false,"i_long":106.834175,"line":2},{"distance":1029,"station_name":"Lenteng Agung","transit":false,"station_id":"LNA","is_transit":false,"line":2,"i_lat":-6.330363,"time":2,"i_long":106.832616},{"distance":2671,"line":2,"i_lat":-6.3080680000000005,"i_long":106.838896,"transit":false,"time":3,"station_id":"TNT","is_transit":false,"station_name":"Tanjung Barat"},{"i_long":106.843999,"station_id":"PSM","time":4,"station_name":"Pasar Minggu","transit":false,"line":2,"i_lat":-6.2842400000000005,"is_transit":false,"distance":2820},{"is_transit":false,"i_long":106.851577,"station_id":"PSMB","station_name":"Pasar Minggu Baru","time":2,"i_lat":-6.263214,"line":2,"distance":2380,"transit":false},{"line":2,"transit":false,"station_name":"Duren Kalibata","i_lat":-6.255332,"station_id":"DRN","is_transit":false,"i_long":106.85449,"time":2,"distance":824},{"i_lat":-6.242512,"station_id":"CW","time":3,"line":2,"i_long":106.856607,"distance":1546,"station_name":"Cawang","is_transit":false,"transit":false},{"i_long":106.857948,"line":2,"is_transit":false,"i_lat":-6.226659,"transit":false,"time":2,"station_id":"TEB","station_name":"Tebet","distance":1230},{"i_long":106.84912,"time":4,"transit":false,"line":2,"station_name":"Manggarai","is_transit":false,"distance":2610,"i_lat":-6.209883,"station_id":"MRI"},{"i_long":106.840169,"time":4,"station_id":"CKI","is_transit":false,"distance":1590,"transit":false,"i_lat":-6.198556,"station_name":"Cikini","line":2},{"i_long":106.832183,"is_transit":false,"station_name":"Gondangdia","line":2,"transit":false,"time":3,"distance":1750,"i_lat":-6.186295,"station_id":"GDD"},{"is_transit":false,"distance":2015,"line":2,"station_name":"Juanda","i_lat":-6.166716,"station_id":"JUA","time":4,"transit":false,"i_long":106.828284},{"line":2,"i_lat":-6.160725,"is_transit":false,"distance":1149,"station_id":"SW","i_long":106.827103,"time":2,"station_name":"Sawah Besar","transit":false},{"i_lat":-6.149769,"is_transit":false,"distance":906,"station_name":"Manggabesar","transit":false,"i_long":106.82482,"line":2,"time":2,"station_id":"MGB"},{"transit":false,"i_lat":-6.141205,"station_name":"Jayakarta","i_long":106.820901,"line":2,"station_id":"JAY","time":2,"is_transit":false,"distance":1080},{"i_lat":-6.137569,"i_long":106.812439,"line":2,"distance":1264,"station_id":"JAKK","station_name":"Jakarta Kota","transit":true,"time":4,"is_transit":true},{"station_id":"KPB","line":4,"i_long":106.826365,"is_transit":true,"transit":true,"distance":1364,"time":3,"station_name":"Kampung Bandan","i_lat":-6.132549},{"transit":false,"station_name":"Angke","is_transit":false,"distance":4102,"i_long":106.79867,"line":1,"station_id":"AK","time":9,"i_lat":-6.144674},{"station_name":"Duri","station_id":"DU","transit":true,"distance":1230,"i_long":106.800832,"time":4,"line":1,"is_transit":true,"i_lat":-6.155215},{"is_transit":false,"time":3,"station_id":"GGL","i_lat":-6.162021,"station_name":"Grogol","transit":false,"i_long":106.788277,"distance":1700,"line":5},{"station_id":"PSG","line":5,"distance":2036,"station_name":"Pesing","i_long":106.771379,"time":2,"is_transit":false,"i_lat":-6.161433,"transit":false},{"station_name":"Taman Kota","transit":false,"is_transit":false,"i_long":106.756522,"distance":1614,"line":5,"i_lat":-6.1587309999999995,"station_id":"TKO","time":2},{"transit":false,"line":5,"time":2,"station_id":"BOI","is_transit":false,"station_name":"Bojongindah","distance":2334,"i_long":106.737035,"i_lat":-6.159876},{"is_transit":false,"time":4,"i_long":106.723064,"line":5,"station_name":"Rawa Buaya","distance":1152,"i_lat":-6.162758,"transit":false,"station_id":"RW"},{"is_transit":false,"distance":2504,"line":5,"i_lat":-6.166068,"i_long":106.701612,"transit":false,"station_name":"Kalideres","station_id":"KDS","time":3},{"station_id":"PI","is_transit":false,"transit":false,"i_long":106.679458,"station_name":"Poris","i_lat":-6.169933,"distance":2548,"time":3,"line":5},{"is_transit":false,"station_id":"BPR","station_name":"Batuceper","line":5,"distance":1834,"transit":false,"time":3,"i_lat":-6.171811,"i_long":106.665036},{"is_transit":false,"distance":2028,"line":5,"station_id":"TTI","transit":false,"station_name":"Tanah Tinggi","time":3,"i_long":106.64657,"i_lat":-6.17331}],[{"is_transit":false,"time":0,"station_id":"BJD","station_name":"Bojonggede","transit":false,"i_long":106.792719,"line":2,"distance":0,"i_lat":-6.493243},{"time":5,"is_transit":false,"transit":false,"i_lat":-6.448811,"station_name":"Citayam","line":2,"distance":5197,"station_id":"CTA","i_long":106.800298},{"time":6,"line":2,"station_id":"DP","transit":false,"i_lat":-6.405256,"i_long":106.816926,"is_transit":false,"station_name":"Depok","distance":5084},{"station_name":"Depokbaru","station_id":"DPB","i_long":106.819451,"line":2,"is_transit":false,"distance":1584,"i_lat":-6.391065,"time":3,"transit":false},{"time":4,"i_long":106.831114,"line":2,"distance":2727,"station_name":"Pondok Cina","is_transit":false,"transit":false,"station_id":"POC","i_lat":-6.369073},{"is_transit":false,"station_id":"UI","i_lat":-6.360749,"distance":1109,"line":2,"i_long":106.831474,"station_name":"Univ. Indonesia","transit":false,"time":2},{"distance":2264,"transit":false,"line":2,"station_id":"UP","i_long":106.834175,"is_transit":false,"time":3,"station_name":"Univ. Pancasila","i_lat":-6.339291},{"distance":1029,"time":2,"transit":false,"i_long":106.832616,"line":2,"station_id":"LNA","is_transit":false,"station_name":"Lenteng Agung","i_lat":-6.330363},{"transit":false,"i_long":106.838896,"time":3,"station_name":"Tanjung Barat","station_id":"TNT","is_transit":false,"distance":2671,"line":2,"i_lat":-6.3080680000000005},{"transit":false,"is_transit":false,"station_id":"PSM","i_long":106.843999,"line":2,"station_name":"Pasar Minggu","i_lat":-6.2842400000000005,"time":4,"distance":2820},{"station_name":"Pasar Minggu Baru","is_transit":false,"station_id":"PSMB","transit":false,"i_lat":-6.263214,"i_long":106.851577,"time":2,"line":2,"distance":2380},{"time":2,"station_name":"Duren Kalibata","line":2,"station_id":"DRN","is_transit":false,"i_long":106.85449,"transit":false,"i_lat":-6.255332,"distance":824},{"i_lat":-6.242512,"distance":1546,"i_long":106.856607,"transit":false,"station_id":"CW","is_transit":false,"time":3,"station_name":"Cawang","line":2},{"line":2,"distance":1230,"station_id":"TEB","time":2,"is_transit":false,"station_name":"Tebet","transit":false,"i_lat":-6.226659,"i_long":106.857948},{"distance":2610,"transit":true,"i_long":106.84912,"station_name":"Manggarai","i_lat":-6.209883,"line":2,"station_id":"MRI","time":4,"is_transit":true},{"is_transit":false,"line":1,"station_name":"Matraman","distance":1275,"i_long":106.858896,"time":2,"station_id":"MTR","transit":false,"i_lat":-6.212485},{"distance":1377,"line":1,"is_transit":true,"transit":true,"station_name":"Jatinegara","i_lat":-6.215091,"i_long":106.86807400000001,"time":8,"station_id":"JNG"},{"i_lat":-6.209188,"distance":1236,"i_long":106.861737,"time":2,"transit":false,"is_transit":false,"line":11,"station_id":"POK","station_name":"Pondok Jati"},{"station_name":"Kramat","line":11,"i_lat":-6.193792,"i_long":106.855437,"station_id":"KMT","transit":false,"time":2,"distance":1829,"is_transit":false},{"transit":false,"distance":973,"station_id":"GST","i_lat":-6.185975,"time":1,"station_name":"Gang Sentiong","line":11,"i_long":106.850107,"is_transit":false},{"station_id":"PSE","time":8,"station_name":"Pasar Senen","distance":1567,"transit":false,"is_transit":false,"i_long":106.84368,"line":11,"i_lat":-6.174784},{"distance":1436,"i_long":106.839204,"line":11,"station_name":"Kemayoran","transit":false,"is_transit":false,"i_lat":-6.161728,"time":4,"station_id":"KMO"},{"distance":1901,"time":5,"transit":false,"station_id":"RJW","i_lat":-6.14505,"line":11,"is_transit":false,"i_long":106.836569,"station_name":"Rajawali"},{"station_name":"Kampung Bandan","is_transit":true,"distance":1444,"i_lat":-6.132549,"i_long":106.826365,"line":4,"transit":true,"time":3,"station_id":"KPB"},{"transit":false,"is_transit":false,"distance":4102,"i_long":106.79867,"i_lat":-6.144674,"station_id":"AK","station_name":"Angke","time":9,"line":1},{"distance":1230,"i_lat":-6.155215,"i_long":106.800832,"time":4,"line":1,"station_id":"DU","is_transit":true,"transit":true,"station_name":"Duri"},{"i_lat":-6.162021,"transit":false,"time":3,"station_id":"GGL","line":5,"station_name":"Grogol","is_transit":false,"distance":1700,"i_long":106.788277},{"is_transit":false,"distance":2036,"station_id":"PSG","transit":false,"i_lat":-6.161433,"line":5,"station_name":"Pesing","time":2,"i_long":106.771379},{"i_lat":-6.1587309999999995,"distance":1614,"i_long":106.756522,"station_id":"TKO","time":2,"station_name":"Taman Kota","transit":false,"line":5,"is_transit":false},{"i_lat":-6.159876,"station_name":"Bojongindah","time":2,"station_id":"BOI","line":5,"transit":false,"distance":2334,"i_long":106.737035,"is_transit":false},{"transit":false,"i_long":106.723064,"station_name":"Rawa Buaya","distance":1152,"is_transit":false,"station_id":"RW","i_lat":-6.162758,"line":5,"time":4},{"i_long":106.701612,"line":5,"i_lat":-6.166068,"is_transit":false,"time":3,"station_id":"KDS","transit":false,"distance":2504,"station_name":"Kalideres"},{"station_id":"PI","line":5,"distance":2548,"transit":false,"i_long":106.679458,"time":3,"is_transit":false,"station_name":"Poris","i_lat":-6.169933},{"station_name":"Batuceper","distance":1834,"time":3,"i_long":106.665036,"line":5,"transit":false,"station_id":"BPR","is_transit":false,"i_lat":-6.171811},{"is_transit":false,"distance":2028,"line":5,"time":3,"station_id":"TTI","i_lat":-6.17331,"i_long":106.64657,"transit":false,"station_name":"Tanah Tinggi"}]]}