{"data":[[{"time":0,"station_name":"Bojonggede","is_transit":false,"transit":false,"i_lat":-6.493243,"station_id":"BJD","line":2,"distance":0,"i_long":106.792719},{"i_lat":-6.448811,"time":5,"transit":false,"distance":5197,"i_long":106.800298,"station_name":"Citayam","is_transit":false,"line":2,"station_id":"CTA"},{"i_lat":-6.405256,"station_id":"DP","time":6,"distance":5084,"station_name":"Depok","is_transit":false,"i_long":106.816926,"transit":false,"line":2},{"transit":false,"station_name":"Depokbaru","is_transit":false,"i_lat":-6.391065,"station_id":"DPB","distance":1584,"line":2,"i_long":106.819451,"time":3},{"i_lat":-6.369073,"is_transit":false,"distance":2727,"station_id":"POC","station_name":"Pondok Cina","time":4,"i_long":106.831114,"line":2,"transit":false},{"is_transit":false,"distance":1109,"i_long":106.831474,"line":2,"station_name":"Univ. Indonesia","transit":false,"i_lat":-6.360749,"station_id":"UI","time":2},{"is_transit":false,"i_lat":-6.339291,"line":2,"transit":false,"station_name":"Univ. Pancasila","i_long":106.834175,"distance":2264,"time":3,"station_id":"UP"},{"is_transit":false,"i_long":106.832616,"i_lat":-6.330363,"line":2,"distance":1029,"transit":false,"station_id":"LNA","station_name":"Lenteng Agung","time":2},{"distance":2671,"station_id":"TNT","station_name":"Tanjung Barat","transit":false,"i_lat":-6.3080680000000005,"is_transit":false,"time":3,"i_long":106.838896,"line":2},{"station_id":"PSM","line":2,"i_lat":-6.2842400000000005,"transit":false,"time":4,"station_name":"Pasar Minggu","distance":2820,"i_long":106.843999,"is_transit":false}]]}