{"data":[[{"station_id":"BJD","time":0,"transit":false,"i_long":106.792719,"station_name":"Bojonggede","is_transit":false,"line":2,"distance":0,"i_lat":-6.493243},{"transit":false,"i_lat":-6.448811,"i_long":106.800298,"line":2,"station_id":"CTA","station_name":"Citayam","distance":5197,"time":5,"is_transit":false},{"i_lat":-6.405256,"i_long":106.816926,"is_transit":false,"station_name":"Depok","time":6,"line":2,"station_id":"DP","transit":false,"distance":5084},{"station_id":"DPB","i_lat":-6.391065,"is_transit":false,"transit":false,"i_long":106.819451,"distance":1584,"line":2,"station_name":"Depokbaru","time":3},{"i_lat":-6.369073,"i_long":106.831114,"is_transit":false,"line":2,"station_name":"Pondok Cina","time":4,"distance":2727,"station_id":"POC","transit":false},{"i_lat":-6.360749,"transit":false,"is_transit":false,"station_id":"UI","time":2,"distance":1109,"i_long":106.831474,"station_name":"Univ. Indonesia","line":2},{"is_transit":false,"time":3,"i_lat":-6.339291,"station_id":"UP","transit":false,"distance":2264,"station_name":"Univ. Pancasila","line":2,"i_long":106.834175},{"transit":false,"line":2,"is_transit":false,"time":2,"station_name":"Lenteng Agung","distance":1029,"i_long":106.832616,"i_lat":-6.330363,"station_id":"LNA"},{"transit":false,"station_id":"TNT","is_transit":false,"distance":2671,"time":3,"i_lat":-6.3080680000000005,"i_long":106.838896,"line":2,"station_name":"Tanjung Barat"},{"line":2,"transit":false,"i_lat":-6.2842400000000005,"distance":2820,"station_name":"Pasar Minggu","is_transit":false,"time":4,"i_long":106.843999,"station_id":"PSM"},{"line":2,"i_long":106.851577,"distance":2380,"time":2,"station_id":"PSMB","station_name":"Pasar Minggu Baru","transit":false,"is_transit":false,"i_lat":-6.263214},{"is_transit":false,"i_lat":-6.255332,"station_id":"DRN","time":2,"i_long":106.85449,"line":2,"station_name":"Duren Kalibata","transit":false,"distance":824},{"i_long":106.856607,"time":3,"line":2,"station_name":"Cawang","distance":1546,"is_transit":false,"transit":false,"i_lat":-6.242512,"station_id":"CW"},{"transit":false,"station_name":"Tebet","distance":1230,"i_long":106.857948,"i_lat":-6.226659,"station_id":"TEB","is_transit":false,"time":2,"line":2},{"i_long":106.84912,"transit":true,"i_lat":-6.209883,"station_name":"Manggarai","time":4,"station_id":"MRI","line":2,"distance":2610,"is_transit":true},{"time":4,"distance":3186,"is_transit":false,"station_id":"SUD","i_lat":-6.202263,"i_long":106.822649,"transit":false,"station_name":"Sudirman","line":1},{"time":1,"distance":280,"is_transit":false,"line":1,"station_id":"SUDB","station_name":"Sudirman Baru","i_long":106.819881,"i_lat":-6.201433,"transit":false},{"station_id":"KAT","line":1,"transit":false,"station_name":"Karet","distance":471,"time":1,"i_lat":-6.20132,"i_long":106.816351,"is_transit":false},{"transit":false,"station_name":"Tanah Abang","distance":2029,"i_long":106.811091,"station_id":"THB","line":1,"is_transit":false,"time":5,"i_lat":-6.185545},{"i_long":106.800832,"line":1,"i_lat":-6.155215,"transit":false,"station_name":"Duri","station_id":"DU","time":8,"is_transit":false,"distance":3632},{"i_long":106.79867,"is_transit":false,"transit":false,"line":1,"i_lat":-6.144674,"distance":1230,"station_name":"Angke","station_id":"AK","time":4},{"time":9,"line":4,"station_id":"KPB","distance":4102,"i_lat":-6.132549,"is_transit":true,"i_long":106.826365,"station_name":"Kampung Bandan","transit":true},{"i_long":106.84464,"line":4,"time":4,"transit":false,"is_transit":false,"station_name":"Ancol","distance":2185,"station_id":"AC","i_lat":-6.128023}],[{"transit":false,"station_id":"BJD","i_long":106.792719,"line":2,"i_lat":-6.493243,"station_name":"Bojonggede","distance":0,"is_transit":false,"time":0},{"station_name":"Citayam","transit":false,"i_long":106.800298,"distance":5197,"is_transit":false,"station_id":"CTA","i_lat":-6.448811,"line":2,"time":5},{"i_long":106.816926,"transit":false,"line":2,"is_transit":false,"station_id":"DP","station_name":"Depok","time":6,"distance":5084,"i_lat":-6.405256},{"distance":1584,"transit":false,"time":3,"line":2,"station_id":"DPB","station_name":"Depokbaru","is_transit":false,"i_long":106.819451,"i_lat":-6.391065},{"is_transit":false,"time":4,"transit":false,"station_name":"Pondok Cina","distance":2727,"line":2,"i_long":106.831114,"i_lat":-6.369073,"station_id":"POC"},{"station_name":"Univ. Indonesia","line":2,"time":2,"i_lat":-6.360749,"distance":1109,"is_transit":false,"i_long":106.831474,"station_id":"UI","transit":false},{"station_name":"Univ. Pancasila","is_transit":false,"i_long":106.834175,"transit":false,"i_lat":-6.339291,"time":3,"distance":2264,"line":2,"station_id":"UP"},{"i_long":106.832616,"transit":false,"is_transit":false,"line":2,"distance":1029,"time":2,"station_id":"LNA","station_name":"Lenteng Agung","i_lat":-6.330363},{"i_long":106.838896,"i_lat":-6.3080680000000005,"time":3,"station_id":"TNT","is_transit":false,"line":2,"transit":false,"distance":2671,"station_name":"Tanjung Barat"},{"transit":false,"i_lat":-6.2842400000000005,"station_name":"Pasar Minggu","i_long":106.843999,"time":4,"is_transit":false,"distance":2820,"line":2,"station_id":"PSM"},{"line":2,"is_transit":false,"transit":false,"i_lat":-6.263214,"station_id":"PSMB","distance":2380,"i_long":106.851577,"station_name":"Pasar Minggu Baru","time":2},{"i_long":106.85449,"station_id":"DRN","distance":824,"line":2,"transit":false,"is_transit":false,"time":2,"station_name":"Duren Kalibata","i_lat":-6.255332},{"station_id":"CW","station_name":"Cawang","transit":false,"i_long":106.856607,"distance":1546,"i_lat":-6.242512,"time":3,"is_transit":false,"line":2},{"i_long":106.857948,"line":2,"time":2,"i_lat":-6.226659,"distance":1230,"is_transit":false,"station_id":"TEB","transit":false,"station_name":"Tebet"},{"station_id":"MRI","line":2,"station_name":"Manggarai","time":4,"transit":false,"i_long":106.84912,"i_lat":-6.209883,"is_transit":false,"distance":2610},{"line":2,"station_id":"CKI","i_long":106.840169,"time":4,"is_transit":false,"transit":false,"station_name":"Cikini","distance":1590,"i_lat":-6.198556},{"transit":false,"time":3,"distance":1750,"station_id":"GDD","station_name":"Gondangdia","i_lat":-6.186295,"is_transit":false,"i_long":106.832183,"line":2},{"is_transit":false,"station_name":"Juanda","station_id":"JUA","i_lat":-6.166716,"time":4,"transit":false,"distance":2015,"i_long":106.828284,"line":2},{"is_transit":false,"transit":false,"i_long":106.827103,"station_id":"SW","i_lat":-6.160725,"station_name":"Sawah Besar","time":2,"distance":1149,"line":2},{"station_name":"Manggabesar","is_transit":false,"line":2,"distance":906,"time":2,"i_lat":-6.149769,"station_id":"MGB","i_long":106.82482,"transit":false},{"station_name":"Jayakarta","i_lat":-6.141205,"i_long":106.820901,"transit":false,"is_transit":false,"station_id":"JAY","distance":1080,"line":2,"time":2},{"station_id":"JAKK","distance":1264,"line":2,"transit":true,"time":4,"i_long":106.812439,"is_transit":true,"i_lat":-6.137569,"station_name":"Jakarta Kota"},{"is_transit":true,"transit":true,"line":4,"distance":1364,"time":3,"i_long":106.826365,"station_id":"KPB","station_name":"Kampung Bandan","i_lat":-6.132549},{"station_id":"AC","transit":false,"station_name":"Ancol","distance":2185,"i_long":106.84464,"line":4,"is_transit":false,"time":4,"i_lat":-6.128023}],[{"station_name":"Bojonggede","i_lat":-6.493243,"station_id":"BJD","distance":0,"transit":false,"line":2,"is_transit":false,"i_long":106.792719,"time":0},{"i_lat":-6.448811,"time":5,"distance":5197,"line":2,"is_transit":false,"station_name":"Citayam","i_long":106.800298,"transit":false,"station_id":"CTA"},{"station_id":"DP","i_lat":-6.405256,"distance":5084,"station_name":"Depok","transit":false,"line":2,"time":6,"is_transit":false,"i_long":106.816926},{"is_transit":false,"i_lat":-6.391065,"transit":false,"distance":1584,"i_long":106.819451,"time":3,"station_name":"Depokbaru","line":2,"station_id":"DPB"},{"distance":2727,"transit":false,"is_transit":false,"i_long":106.831114,"line":2,"station_name":"Pondok Cina","station_id":"POC","i_lat":-6.369073,"time":4},{"is_transit":false,"distance":1109,"station_name":"Univ. Indonesia","line":2,"transit":false,"time":2,"i_lat":-6.360749,"i_long":106.831474,"station_id":"UI"},{"line":2,"is_transit":false,"i_lat":-6.339291,"station_id":"UP","transit":false,"distance":2264,"time":3,"station_name":"Univ. Pancasila","i_long":106.834175},{"i_long":106.832616,"line":2,"station_id":"LNA","i_lat":-6.330363,"is_transit":false,"time":2,"station_name":"Lenteng Agung","transit":false,"distance":1029},{"time":3,"i_lat":-6.3080680000000005,"i_long":106.838896,"is_transit":false,"station_id":"TNT","transit":false,"distance":2671,"line":2,"station_name":"Tanjung Barat"},{"time":4,"station_id":"PSM","is_transit":false,"i_long":106.843999,"transit":false,"i_lat":-6.2842400000000005,"line":2,"station_name":"Pasar Minggu","distance":2820},{"time":2,"is_transit":false,"i_lat":-6.263214,"i_long":106.851577,"line":2,"station_id":"PSMB","transit":false,"station_name":"Pasar Minggu Baru","distance":2380},{"transit":false,"line":2,"station_id":"DRN","distance":824,"i_lat":-6.255332,"is_transit":false,"station_name":"Duren Kalibata","time":2,"i_long":106.85449},{"transit":false,"line":2,"time":3,"is_transit":false,"station_name":"Cawang","distance":1546,"i_long":106.856607,"i_lat":-6.242512,"station_id":"CW"},{"distance":1230,"station_name":"Tebet","i_long":106.857948,"transit":false,"i_lat":-6.226659,"line":2,"station_id":"TEB","is_transit":false,"time":2},{"station_name":"Manggarai","time":4,"is_transit":true,"line":2,"transit":true,"distance":2610,"i_long":106.84912,"i_lat":-6.209883,"station_id":"MRI"},{"station_name":"Matraman","distance":1275,"i_lat":-6.212485,"station_id":"MTR","transit":false,"line":1,"i_long":106.858896,"time":2,"is_transit":false},{"transit":true,"station_id":"JNG","is_transit":true,"station_name":"Jatinegara","i_lat":-6.215091,"time":8,"i_long":106.86807400000001,"distance":1377,"line":1},{"time":2,"i_lat":-6.209188,"station_id":"POK","station_name":"Pondok Jati","is_transit":false,"distance":1236,"i_long":106.861737,"transit":false,"line":11},{"is_transit":false,"i_lat":-6.193792,"distance":1829,"time":2,"line":11,"i_long":106.855437,"transit":false,"station_id":"KMT","station_name":"Kramat"},{"transit":false,"i_long":106.850107,"is_transit":false,"station_name":"Gang Sentiong","distance":973,"time":1,"i_lat":-6.185975,"station_id":"GST","line":11},{"station_id":"PSE","i_long":106.84368,"station_name":"Pasar Senen","line":11,"i_lat":-6.174784,"is_transit":false,"distance":1567,"time":8,"transit":false},{"station_id":"KMO","line":11,"distance":1436,"i_long":106.839204,"station_name":"Kemayoran","transit":false,"i_lat":-6.161728,"is_transit":false,"time":4},{"line":11,"distance":1901,"station_name":"Rajawali","station_id":"RJW","transit":false,"is_transit":false,"i_long":106.836569,"i_lat":-6.14505,"time":5},{"distance":1444,"line":4,"i_long":106.826365,"transit":true,"i_lat":-6.132549,"station_name":"Kampung Bandan","time":3,"station_id":"KPB","is_transit":true},{"transit":false,"line":4,"distance":2185,"is_transit":false,"station_name":"Ancol","time":4,"station_id":"AC","i_lat":-6.128023,"i_long":106.84464}]]}