{"data":[[{"is_transit":false,"distance":0,"line":2,"station_name":"Bojonggede","i_lat":-6.493243,"time":0,"transit":false,"station_id":"BJD","i_long":106.792719},{"i_lat":-6.448811,"i_long":106.800298,"station_id":"CTA","is_transit":false,"station_name":"Citayam","line":2,"time":5,"transit":false,"distance":5197},{"station_id":"DP","station_name":"Depok","transit":false,"line":2,"time":6,"is_transit":false,"i_long":106.816926,"i_lat":-6.405256,"distance":5084},{"transit":false,"i_lat":-6.391065,"distance":1584,"station_id":"DPB","time":3,"station_name":"Depokbaru","is_transit":false,"i_long":106.819451,"line":2},{"distance":2727,"time":4,"line":2,"is_transit":false,"station_id":"POC","i_lat":-6.369073,"i_long":106.831114,"station_name":"Pondok Cina","transit":false},{"i_lat":-6.360749,"i_long":106.831474,"line":2,"transit":false,"is_transit":false,"station_id":"UI","time":2,"distance":1109,"station_name":"Univ. Indonesia"},{"time":3,"station_id":"UP","line":2,"station_name":"Univ. Pancasila","distance":2264,"is_transit":false,"transit":false,"i_long":106.834175,"i_lat":-6.339291},{"transit":false,"is_transit":false,"i_lat":-6.330363,"i_long":106.832616,"distance":1029,"station_name":"Lenteng Agung","line":2,"time":2,"station_id":"LNA"},{"station_id":"TNT","transit":false,"i_lat":-6.3080680000000005,"i_long":106.838896,"is_transit":false,"line":2,"station_name":"Tanjung Barat","time":3,"distance":2671},{"i_long":106.843999,"station_id":"PSM","i_lat":-6.2842400000000005,"line":2,"transit":false,"distance":2820,"station_name":"Pasar Minggu","time":4,"is_transit":false},{"station_name":"Pasar Minggu Baru","is_transit":false,"distance":2380,"station_id":"PSMB","time":2,"i_lat":-6.263214,"i_long":106.851577,"line":2,"transit":false},{"i_lat":-6.255332,"distance":824,"line":2,"time":2,"i_long":106.85449,"transit":false,"station_name":"Duren Kalibata","is_transit":false,"station_id":"DRN"},{"i_long":106.856607,"is_transit":false,"station_name":"Cawang","transit":false,"distance":1546,"time":3,"station_id":"CW","line":2,"i_lat":-6.242512},{"station_id":"TEB","station_name":"Tebet","is_transit":false,"distance":1230,"i_lat":-6.226659,"line":2,"time":2,"transit":false,"i_long":106.857948},{"station_name":"Manggarai","distance":2610,"time":4,"station_id":"MRI","transit":true,"i_lat":-6.209883,"i_long":106.84912,"line":2,"is_transit":true},{"line":1,"station_name":"Sudirman","is_transit":false,"time":4,"transit":false,"i_long":106.822649,"i_lat":-6.202263,"distance":3186,"station_id":"SUD"},{"station_id":"SUDB","i_lat":-6.201433,"i_long":106.819881,"station_name":"Sudirman Baru","is_transit":false,"transit":false,"distance":280,"time":1,"line":1},{"i_lat":-6.20132,"transit":false,"distance":471,"is_transit":false,"station_id":"KAT","time":1,"i_long":106.816351,"line":1,"station_name":"Karet"},{"i_long":106.811091,"station_id":"THB","station_name":"Tanah Abang","distance":2029,"transit":false,"is_transit":false,"i_lat":-6.185545,"line":1,"time":5},{"station_id":"DU","line":1,"transit":true,"distance":3632,"station_name":"Duri","i_long":106.800832,"time":8,"i_lat":-6.155215,"is_transit":true},{"is_transit":false,"distance":1700,"station_name":"Grogol","time":3,"i_lat":-6.162021,"transit":false,"station_id":"GGL","line":5,"i_long":106.788277},{"time":2,"distance":2036,"transit":false,"is_transit":false,"i_lat":-6.161433,"station_name":"Pesing","station_id":"PSG","i_long":106.771379,"line":5},{"i_long":106.756522,"line":5,"station_name":"Taman Kota","i_lat":-6.1587309999999995,"is_transit":false,"time":2,"station_id":"TKO","transit":false,"distance":1614}],[{"i_long":106.792719,"is_transit":false,"transit":false,"i_lat":-6.493243,"time":0,"station_id":"BJD","station_name":"Bojonggede","distance":0,"line":2},{"transit":false,"station_name":"Citayam","i_lat":-6.448811,"distance":5197,"i_long":106.800298,"time":5,"station_id":"CTA","is_transit":false,"line":2},{"i_long":106.816926,"distance":5084,"is_transit":false,"transit":false,"station_name":"Depok","line":2,"time":6,"station_id":"DP","i_lat":-6.405256},{"is_transit":false,"time":3,"distance":1584,"station_name":"Depokbaru","station_id":"DPB","i_lat":-6.391065,"i_long":106.819451,"line":2,"transit":false},{"station_id":"POC","distance":2727,"time":4,"station_name":"Pondok Cina","transit":false,"i_lat":-6.369073,"line":2,"is_transit":false,"i_long":106.831114},{"station_id":"UI","i_long":106.831474,"transit":false,"time":2,"station_name":"Univ. Indonesia","i_lat":-6.360749,"distance":1109,"line":2,"is_transit":false},{"is_transit":false,"transit":false,"distance":2264,"station_name":"Univ. Pancasila","line":2,"i_lat":-6.339291,"i_long":106.834175,"time":3,"station_id":"UP"},{"is_transit":false,"station_id":"LNA","transit":false,"time":2,"distance":1029,"i_lat":-6.330363,"station_name":"Lenteng Agung","i_long":106.832616,"line":2},{"station_id":"TNT","line":2,"i_lat":-6.3080680000000005,"transit":false,"station_name":"Tanjung Barat","is_transit":false,"time":3,"i_long":106.838896,"distance":2671},{"i_lat":-6.2842400000000005,"station_id":"PSM","i_long":106.843999,"is_transit":false,"line":2,"station_name":"Pasar Minggu","transit":false,"distance":2820,"time":4},{"time":2,"station_name":"Pasar Minggu Baru","is_transit":false,"i_long":106.851577,"line":2,"distance":2380,"i_lat":-6.263214,"station_id":"PSMB","transit":false},{"line":2,"time":2,"distance":824,"i_lat":-6.255332,"station_id":"DRN","i_long":106.85449,"is_transit":false,"station_name":"Duren Kalibata","transit":false},{"time":3,"line":2,"station_name":"Cawang","is_transit":false,"i_long":106.856607,"transit":false,"distance":1546,"station_id":"CW","i_lat":-6.242512},{"distance":1230,"station_id":"TEB","station_name":"Tebet","line":2,"i_lat":-6.226659,"time":2,"i_long":106.857948,"transit":false,"is_transit":false},{"transit":false,"i_lat":-6.209883,"distance":2610,"is_transit":false,"station_id":"MRI","time":4,"station_name":"Manggarai","line":2,"i_long":106.84912},{"station_id":"CKI","i_lat":-6.198556,"station_name":"Cikini","distance":1590,"time":4,"i_long":106.840169,"line":2,"is_transit":false,"transit":false},{"transit":false,"i_lat":-6.186295,"time":3,"station_id":"GDD","distance":1750,"is_transit":false,"i_long":106.832183,"line":2,"station_name":"Gondangdia"},{"is_transit":false,"distance":2015,"i_long":106.828284,"time":4,"station_name":"Juanda","station_id":"JUA","i_lat":-6.166716,"line":2,"transit":false},{"line":2,"is_transit":false,"transit":false,"distance":1149,"time":2,"station_id":"SW","station_name":"Sawah Besar","i_lat":-6.160725,"i_long":106.827103},{"distance":906,"transit":false,"station_name":"Manggabesar","line":2,"station_id":"MGB","is_transit":false,"i_lat":-6.149769,"i_long":106.82482,"time":2},{"time":2,"is_transit":false,"i_lat":-6.141205,"i_long":106.820901,"station_id":"JAY","line":2,"station_name":"Jayakarta","transit":false,"distance":1080},{"i_lat":-6.137569,"station_name":"Jakarta Kota","i_long":106.812439,"time":4,"is_transit":true,"line":2,"transit":true,"station_id":"JAKK","distance":1264},{"i_lat":-6.132549,"i_long":106.826365,"line":4,"transit":true,"is_transit":true,"station_name":"Kampung Bandan","station_id":"KPB","distance":1364,"time":3},{"station_id":"AK","i_lat":-6.144674,"i_long":106.79867,"time":9,"transit":false,"is_transit":false,"distance":4102,"station_name":"Angke","line":1},{"distance":1230,"transit":true,"station_id":"DU","i_long":106.800832,"time":4,"i_lat":-6.155215,"line":1,"station_name":"Duri","is_transit":true},{"i_lat":-6.162021,"line":5,"station_id":"GGL","is_transit":false,"i_long":106.788277,"time":3,"station_name":"Grogol","transit":false,"distance":1700},{"station_name":"Pesing","time":2,"is_transit":false,"transit":false,"station_id":"PSG","i_long":106.771379,"i_lat":-6.161433,"line":5,"distance":2036},{"station_name":"Taman Kota","line":5,"transit":false,"i_lat":-6.1587309999999995,"is_transit":false,"station_id":"TKO","i_long":106.756522,"distance":1614,"time":2}],[{"station_name":"Bojonggede","line":2,"distance":0,"transit":false,"is_transit":false,"time":0,"i_long":106.792719,"station_id":"BJD","i_lat":-6.493243},{"transit":false,"i_lat":-6.448811,"is_transit":false,"time":5,"line":2,"station_id":"CTA","station_name":"Citayam","i_long":106.800298,"distance":5197},{"time":6,"distance":5084,"station_id":"DP","transit":false,"is_transit":false,"station_name":"Depok","i_lat":-6.405256,"i_long":106.816926,"line":2},{"station_id":"DPB","distance":1584,"i_long":106.819451,"transit":false,"line":2,"i_lat":-6.391065,"is_transit":false,"time":3,"station_name":"Depokbaru"},{"time":4,"distance":2727,"station_name":"Pondok Cina","i_long":106.831114,"transit":false,"is_transit":false,"station_id":"POC","line":2,"i_lat":-6.369073},{"station_name":"Univ. Indonesia","time":2,"i_long":106.831474,"distance":1109,"i_lat":-6.360749,"line":2,"is_transit":false,"transit":false,"station_id":"UI"},{"i_lat":-6.339291,"time":3,"station_name":"Univ. Pancasila","transit":false,"station_id":"UP","line":2,"distance":2264,"i_long":106.834175,"is_transit":false},{"station_id":"LNA","distance":1029,"time":2,"i_long":106.832616,"i_lat":-6.330363,"transit":false,"line":2,"station_name":"Lenteng Agung","is_transit":false},{"is_transit":false,"station_name":"Tanjung Barat","i_long":106.838896,"station_id":"TNT","distance":2671,"time":3,"i_lat":-6.3080680000000005,"transit":false,"line":2},{"is_transit":false,"time":4,"station_id":"PSM","i_long":106.843999,"line":2,"station_name":"Pasar Minggu","i_lat":-6.2842400000000005,"distance":2820,"transit":false},{"station_id":"PSMB","i_lat":-6.263214,"time":2,"distance":2380,"station_name":"Pasar Minggu Baru","transit":false,"line":2,"i_long":106.851577,"is_transit":false},{"is_transit":false,"transit":false,"i_long":106.85449,"station_id":"DRN","i_lat":-6.255332,"time":2,"station_name":"Duren Kalibata","line":2,"distance":824},{"i_lat":-6.242512,"distance":1546,"line":2,"station_id":"CW","transit":false,"is_transit":false,"time":3,"station_name":"Cawang","i_long":106.856607},{"i_lat":-6.226659,"line":2,"station_id":"TEB","transit":false,"i_long":106.857948,"time":2,"distance":1230,"station_name":"Tebet","is_transit":false},{"distance":2610,"is_transit":true,"i_long":106.84912,"i_lat":-6.209883,"station_name":"Manggarai","time":4,"station_id":"MRI","line":2,"transit":true},{"transit":false,"is_transit":false,"station_name":"Matraman","time":2,"distance":1275,"i_lat":-6.212485,"line":1,"station_id":"MTR","i_long":106.858896},{"i_long":106.86807400000001,"station_id":"JNG","station_name":"Jatinegara","line":1,"transit":true,"i_lat":-6.215091,"distance":1377,"is_transit":true,"time":8},{"distance":1236,"transit":false,"i_lat":-6.209188,"line":11,"station_id":"POK","station_name":"Pondok Jati","is_transit":false,"i_long":106.861737,"time":2},{"time":2,"distance":1829,"station_id":"KMT","i_lat":-6.193792,"transit":false,"is_transit":false,"i_long":106.855437,"station_name":"Kramat","line":11},{"is_transit":false,"i_long":106.850107,"transit":false,"station_id":"GST","distance":973,"time":1,"station_name":"Gang Sentiong","i_lat":-6.185975,"line":11},{"time":8,"distance":1567,"transit":false,"i_long":106.84368,"i_lat":-6.174784,"is_transit":false,"line":11,"station_name":"Pasar Senen","station_id":"PSE"},{"station_name":"Kemayoran","transit":false,"station_id":"KMO","time":4,"distance":1436,"i_lat":-6.161728,"is_transit":false,"i_long":106.839204,"line":11},{"i_long":106.836569,"line":11,"time":5,"is_transit":false,"i_lat":-6.14505,"transit":false,"station_name":"Rajawali","distance":1901,"station_id":"RJW"},{"station_name":"Kampung Bandan","i_long":106.826365,"is_transit":true,"distance":1444,"transit":true,"station_id":"KPB","i_lat":-6.132549,"line":4,"time":3},{"time":9,"station_name":"Angke","station_id":"AK","i_lat":-6.144674,"transit":false,"i_long":106.79867,"line":1,"distance":4102,"is_transit":false},{"time":4,"distance":1230,"transit":true,"station_id":"DU","i_lat":-6.155215,"i_long":106.800832,"line":1,"station_name":"Duri","is_transit":true},{"i_long":106.788277,"transit":false,"is_transit":false,"station_id":"GGL","distance":1700,"line":5,"time":3,"station_name":"Grogol","i_lat":-6.162021},{"time":2,"is_transit":false,"distance":2036,"station_name":"Pesing","station_id":"PSG","line":5,"transit":false,"i_long":106.771379,"i_lat":-6.161433},{"time":2,"transit":false,"station_name":"Taman Kota","distance":1614,"line":5,"station_id":"TKO","is_transit":false,"i_long":106.756522,"i_lat":-6.1587309999999995}]]}