{"data":[[{"transit":false,"is_transit":false,"distance":0,"line":2,"station_id":"BJD","time":0,"i_lat":-6.493243,"station_name":"Bojonggede","i_long":106.792719},{"station_name":"Citayam","i_long":106.800298,"time":5,"line":2,"distance":5197,"is_transit":false,"transit":false,"station_id":"CTA","i_lat":-6.448811},{"i_lat":-6.405256,"transit":false,"i_long":106.816926,"distance":5084,"is_transit":false,"time":6,"station_id":"DP","station_name":"Depok","line":2},{"transit":false,"i_lat":-6.391065,"station_id":"DPB","i_long":106.819451,"distance":1584,"line":2,"station_name":"Depokbaru","time":3,"is_transit":false},{"station_name":"Pondok Cina","i_long":106.831114,"time":4,"station_id":"POC","i_lat":-6.369073,"is_transit":false,"line":2,"transit":false,"distance":2727}]]}