{"data":[[{"line":2,"station_name":"Bojonggede","transit":false,"station_id":"BJD","is_transit":false,"time":0,"i_long":106.792719,"i_lat":-6.493243,"distance":0},{"line":2,"transit":false,"station_name":"Citayam","time":5,"distance":5197,"i_long":106.800298,"is_transit":false,"i_lat":-6.448811,"station_id":"CTA"},{"station_name":"Depok","i_long":106.816926,"transit":false,"is_transit":false,"i_lat":-6.405256,"time":6,"distance":5084,"line":2,"station_id":"DP"},{"is_transit":false,"station_id":"DPB","line":2,"i_long":106.819451,"station_name":"Depokbaru","time":3,"i_lat":-6.391065,"distance":1584,"transit":false},{"is_transit":false,"time":4,"station_id":"POC","i_lat":-6.369073,"line":2,"transit":false,"i_long":106.831114,"station_name":"Pondok Cina","distance":2727},{"i_long":106.831474,"transit":false,"line":2,"i_lat":-6.360749,"time":2,"station_name":"Univ. Indonesia","station_id":"UI","is_transit":false,"distance":1109},{"distance":2264,"is_transit":false,"i_long":106.834175,"line":2,"transit":false,"station_id":"UP","i_lat":-6.339291,"station_name":"Univ. Pancasila","time":3},{"station_id":"LNA","i_long":106.832616,"line":2,"transit":false,"time":2,"station_name":"Lenteng Agung","distance":1029,"i_lat":-6.330363,"is_transit":false},{"station_id":"TNT","is_transit":false,"line":2,"i_long":106.838896,"distance":2671,"station_name":"Tanjung Barat","transit":false,"time":3,"i_lat":-6.3080680000000005},{"transit":false,"i_long":106.843999,"station_id":"PSM","is_transit":false,"station_name":"Pasar Minggu","time":4,"line":2,"distance":2820,"i_lat":-6.2842400000000005},{"i_long":106.851577,"line":2,"time":2,"is_transit":false,"transit":false,"station_name":"Pasar Minggu Baru","station_id":"PSMB","i_lat":-6.263214,"distance":2380},{"is_transit":false,"station_name":"Duren Kalibata","time":2,"line":2,"distance":824,"transit":false,"station_id":"DRN","i_long":106.85449,"i_lat":-6.255332},{"time":3,"transit":false,"distance":1546,"station_id":"CW","i_lat":-6.242512,"is_transit":false,"i_long":106.856607,"station_name":"Cawang","line":2},{"is_transit":false,"transit":false,"station_name":"Tebet","time":2,"distance":1230,"station_id":"TEB","line":2,"i_long":106.857948,"i_lat":-6.226659},{"time":4,"station_name":"Manggarai","distance":2610,"i_long":106.84912,"transit":false,"i_lat":-6.209883,"station_id":"MRI","line":2,"is_transit":false},{"line":2,"is_transit":false,"i_long":106.840169,"station_id":"CKI","transit":false,"station_name":"Cikini","i_lat":-6.198556,"time":4,"distance":1590},{"line":2,"station_name":"Gondangdia","is_transit":false,"station_id":"GDD","i_long":106.832183,"time":3,"transit":false,"distance":1750,"i_lat":-6.186295},{"station_id":"JUA","time":4,"station_name":"Juanda","is_transit":false,"i_lat":-6.166716,"i_long":106.828284,"line":2,"transit":false,"distance":2015},{"transit":false,"i_lat":-6.160725,"distance":1149,"station_name":"Sawah Besar","time":2,"i_long":106.827103,"line":2,"station_id":"SW","is_transit":false},{"transit":false,"distance":906,"station_id":"MGB","is_transit":false,"i_lat":-6.149769,"i_long":106.82482,"station_name":"Manggabesar","line":2,"time":2},{"transit":false,"station_name":"Jayakarta","distance":1080,"i_lat":-6.141205,"is_transit":false,"time":2,"i_long":106.820901,"station_id":"JAY","line":2}],[{"i_long":106.792719,"distance":0,"is_transit":false,"time":0,"line":2,"transit":false,"station_name":"Bojonggede","station_id":"BJD","i_lat":-6.493243},{"station_id":"CTA","i_lat":-6.448811,"station_name":"Citayam","is_transit":false,"time":5,"distance":5197,"transit":false,"i_long":106.800298,"line":2},{"is_transit":false,"station_name":"Depok","station_id":"DP","transit":false,"distance":5084,"i_long":106.816926,"line":2,"i_lat":-6.405256,"time":6},{"is_transit":false,"i_lat":-6.391065,"transit":false,"distance":1584,"station_name":"Depokbaru","line":2,"time":3,"i_long":106.819451,"station_id":"DPB"},{"time":4,"distance":2727,"i_lat":-6.369073,"line":2,"transit":false,"is_transit":false,"station_id":"POC","i_long":106.831114,"station_name":"Pondok Cina"},{"distance":1109,"i_long":106.831474,"transit":false,"station_name":"Univ. Indonesia","time":2,"line":2,"station_id":"UI","i_lat":-6.360749,"is_transit":false},{"i_lat":-6.339291,"is_transit":false,"distance":2264,"line":2,"transit":false,"station_id":"UP","station_name":"Univ. Pancasila","i_long":106.834175,"time":3},{"line":2,"i_long":106.832616,"time":2,"i_lat":-6.330363,"transit":false,"station_name":"Lenteng Agung","distance":1029,"is_transit":false,"station_id":"LNA"},{"distance":2671,"is_transit":false,"i_long":106.838896,"line":2,"station_name":"Tanjung Barat","time":3,"station_id":"TNT","transit":false,"i_lat":-6.3080680000000005},{"transit":false,"station_name":"Pasar Minggu","time":4,"station_id":"PSM","is_transit":false,"line":2,"distance":2820,"i_long":106.843999,"i_lat":-6.2842400000000005},{"line":2,"distance":2380,"station_name":"Pasar Minggu Baru","transit":false,"time":2,"i_lat":-6.263214,"station_id":"PSMB","is_transit":false,"i_long":106.851577},{"i_long":106.85449,"is_transit":false,"station_name":"Duren Kalibata","time":2,"distance":824,"transit":false,"i_lat":-6.255332,"line":2,"station_id":"DRN"},{"station_id":"CW","station_name":"Cawang","line":2,"i_lat":-6.242512,"distance":1546,"i_long":106.856607,"transit":false,"is_transit":false,"time":3},{"distance":1230,"time":2,"transit":false,"i_lat":-6.226659,"i_long":106.857948,"station_id":"TEB","is_transit":false,"station_name":"Tebet","line":2},{"station_id":"MRI","time":4,"distance":2610,"i_long":106.84912,"transit":true,"is_transit":true,"line":2,"i_lat":-6.209883,"station_name":"Manggarai"},{"line":1,"station_name":"Sudirman","i_long":106.822649,"transit":false,"i_lat":-6.202263,"station_id":"SUD","is_transit":false,"time":4,"distance":3186},{"time":1,"distance":280,"station_name":"Sudirman Baru","station_id":"SUDB","i_lat":-6.201433,"line":1,"i_long":106.819881,"transit":false,"is_transit":false},{"time":1,"transit":false,"station_id":"KAT","station_name":"Karet","i_lat":-6.20132,"distance":471,"is_transit":false,"line":1,"i_long":106.816351},{"i_lat":-6.185545,"time":5,"is_transit":false,"i_long":106.811091,"transit":false,"station_id":"THB","station_name":"Tanah Abang","line":1,"distance":2029},{"distance":3632,"time":8,"i_long":106.800832,"line":1,"station_name":"Duri","station_id":"DU","transit":false,"i_lat":-6.155215,"is_transit":false},{"distance":1230,"is_transit":false,"station_name":"Angke","station_id":"AK","line":1,"time":4,"i_long":106.79867,"transit":false,"i_lat":-6.144674},{"distance":4102,"i_long":106.826365,"i_lat":-6.132549,"line":4,"time":9,"transit":true,"station_name":"Kampung Bandan","is_transit":true,"station_id":"KPB"},{"station_id":"JAKK","i_long":106.812439,"line":2,"transit":true,"distance":1364,"is_transit":true,"i_lat":-6.137569,"station_name":"Jakarta Kota","time":3},{"station_name":"Jayakarta","time":4,"i_long":106.820901,"line":2,"station_id":"JAY","is_transit":false,"distance":1264,"i_lat":-6.141205,"transit":false}],[{"distance":0,"station_id":"BJD","line":2,"time":0,"i_long":106.792719,"is_transit":false,"transit":false,"station_name":"Bojonggede","i_lat":-6.493243},{"is_transit":false,"i_long":106.800298,"station_id":"CTA","i_lat":-6.448811,"distance":5197,"station_name":"Citayam","time":5,"transit":false,"line":2},{"station_id":"DP","i_lat":-6.405256,"is_transit":false,"transit":false,"line":2,"station_name":"Depok","distance":5084,"i_long":106.816926,"time":6},{"time":3,"transit":false,"is_transit":false,"line":2,"station_id":"DPB","distance":1584,"station_name":"Depokbaru","i_lat":-6.391065,"i_long":106.819451},{"i_lat":-6.369073,"station_id":"POC","i_long":106.831114,"line":2,"transit":false,"time":4,"station_name":"Pondok Cina","is_transit":false,"distance":2727},{"is_transit":false,"distance":1109,"station_name":"Univ. Indonesia","time":2,"station_id":"UI","i_lat":-6.360749,"transit":false,"i_long":106.831474,"line":2},{"i_lat":-6.339291,"i_long":106.834175,"line":2,"station_name":"Univ. Pancasila","distance":2264,"transit":false,"station_id":"UP","is_transit":false,"time":3},{"station_name":"Lenteng Agung","station_id":"LNA","distance":1029,"time":2,"transit":false,"i_long":106.832616,"i_lat":-6.330363,"is_transit":false,"line":2},{"transit":false,"station_name":"Tanjung Barat","i_long":106.838896,"is_transit":false,"line":2,"time":3,"i_lat":-6.3080680000000005,"station_id":"TNT","distance":2671},{"i_long":106.843999,"time":4,"i_lat":-6.2842400000000005,"is_transit":false,"station_id":"PSM","transit":false,"line":2,"station_name":"Pasar Minggu","distance":2820},{"i_long":106.851577,"transit":false,"line":2,"distance":2380,"time":2,"station_id":"PSMB","station_name":"Pasar Minggu Baru","is_transit":false,"i_lat":-6.263214},{"station_name":"Duren Kalibata","is_transit":false,"time":2,"distance":824,"i_lat":-6.255332,"transit":false,"station_id":"DRN","i_long":106.85449,"line":2},{"line":2,"time":3,"station_name":"Cawang","i_lat":-6.242512,"station_id":"CW","transit":false,"distance":1546,"is_transit":false,"i_long":106.856607},{"station_id":"TEB","line":2,"station_name":"Tebet","is_transit":false,"distance":1230,"transit":false,"time":2,"i_lat":-6.226659,"i_long":106.857948},{"station_name":"Manggarai","distance":2610,"i_long":106.84912,"is_transit":true,"transit":true,"i_lat":-6.209883,"line":2,"station_id":"MRI","time":4},{"distance":1275,"line":1,"station_name":"Matraman","station_id":"MTR","transit":false,"is_transit":false,"i_lat":-6.212485,"time":2,"i_long":106.858896},{"is_transit":true,"distance":1377,"time":8,"i_long":106.86807400000001,"line":1,"station_name":"Jatinegara","transit":true,"station_id":"JNG","i_lat":-6.215091},{"line":11,"station_name":"Pondok Jati","i_long":106.861737,"distance":1236,"time":2,"i_lat":-6.209188,"transit":false,"is_transit":false,"station_id":"POK"},{"distance":1829,"line":11,"time":2,"transit":false,"station_id":"KMT","is_transit":false,"i_long":106.855437,"station_name":"Kramat","i_lat":-6.193792},{"i_lat":-6.185975,"transit":false,"line":11,"distance":973,"i_long":106.850107,"station_id":"GST","is_transit":false,"station_name":"Gang Sentiong","time":1},{"time":8,"is_transit":false,"distance":1567,"transit":false,"station_name":"Pasar Senen","station_id":"PSE","i_long":106.84368,"line":11,"i_lat":-6.174784},{"is_transit":false,"distance":1436,"i_lat":-6.161728,"station_name":"Kemayoran","station_id":"KMO","time":4,"transit":false,"line":11,"i_long":106.839204},{"i_lat":-6.14505,"station_name":"Rajawali","distance":1901,"station_id":"RJW","time":5,"is_transit":false,"transit":false,"i_long":106.836569,"line":11},{"line":4,"transit":true,"distance":1444,"station_name":"Kampung Bandan","is_transit":true,"station_id":"KPB","time":3,"i_lat":-6.132549,"i_long":106.826365},{"time":3,"distance":1364,"i_lat":-6.137569,"line":2,"i_long":106.812439,"station_name":"Jakarta Kota","station_id":"JAKK","is_transit":true,"transit":true},{"i_long":106.820901,"station_name":"Jayakarta","line":2,"station_id":"JAY","transit":false,"time":4,"i_lat":-6.141205,"is_transit":false,"distance":1264}]]}