{"data":[[{"i_long":106.792719,"is_transit":false,"station_name":"Bojonggede","station_id":"BJD","time":0,"transit":false,"distance":0,"i_lat":-6.493243,"line":2},{"line":2,"i_long":106.800298,"station_name":"Citayam","time":5,"is_transit":false,"transit":false,"station_id":"CTA","distance":5197,"i_lat":-6.448811},{"transit":false,"station_id":"DP","time":6,"station_name":"Depok","i_lat":-6.405256,"is_transit":false,"i_long":106.816926,"distance":5084,"line":2},{"station_id":"DPB","distance":1584,"i_lat":-6.391065,"i_long":106.819451,"station_name":"Depokbaru","line":2,"transit":false,"is_transit":false,"time":3},{"time":4,"distance":2727,"i_lat":-6.369073,"transit":false,"is_transit":false,"line":2,"station_id":"POC","i_long":106.831114,"station_name":"Pondok Cina"},{"station_name":"Univ. Indonesia","station_id":"UI","i_lat":-6.360749,"is_transit":false,"line":2,"time":2,"transit":false,"distance":1109,"i_long":106.831474},{"line":2,"transit":false,"i_long":106.834175,"i_lat":-6.339291,"is_transit":false,"station_name":"Univ. Pancasila","station_id":"UP","distance":2264,"time":3},{"i_long":106.832616,"is_transit":false,"station_id":"LNA","transit":false,"station_name":"Lenteng Agung","i_lat":-6.330363,"line":2,"distance":1029,"time":2},{"line":2,"station_name":"Tanjung Barat","i_lat":-6.3080680000000005,"transit":false,"station_id":"TNT","is_transit":false,"distance":2671,"i_long":106.838896,"time":3},{"line":2,"transit":false,"i_lat":-6.2842400000000005,"station_name":"Pasar Minggu","is_transit":false,"time":4,"i_long":106.843999,"station_id":"PSM","distance":2820},{"time":2,"i_lat":-6.263214,"distance":2380,"i_long":106.851577,"is_transit":false,"transit":false,"station_id":"PSMB","station_name":"Pasar Minggu Baru","line":2},{"line":2,"station_name":"Duren Kalibata","time":2,"is_transit":false,"i_long":106.85449,"station_id":"DRN","distance":824,"i_lat":-6.255332,"transit":false},{"station_name":"Cawang","i_long":106.856607,"time":3,"transit":false,"station_id":"CW","is_transit":false,"distance":1546,"i_lat":-6.242512,"line":2},{"station_id":"TEB","is_transit":false,"time":2,"line":2,"distance":1230,"transit":false,"i_lat":-6.226659,"station_name":"Tebet","i_long":106.857948},{"station_id":"MRI","i_long":106.84912,"station_name":"Manggarai","transit":true,"distance":2610,"time":4,"i_lat":-6.209883,"line":2,"is_transit":true},{"line":1,"time":2,"transit":false,"i_long":106.858896,"station_id":"MTR","is_transit":false,"station_name":"Matraman","distance":1275,"i_lat":-6.212485},{"transit":true,"time":8,"i_long":106.86807400000001,"station_name":"Jatinegara","i_lat":-6.215091,"line":1,"is_transit":true,"station_id":"JNG","distance":1377},{"time":2,"i_lat":-6.209188,"line":11,"transit":false,"station_id":"POK","station_name":"Pondok Jati","i_long":106.861737,"distance":1236,"is_transit":false},{"distance":1829,"station_name":"Kramat","is_transit":false,"line":11,"i_lat":-6.193792,"transit":false,"station_id":"KMT","i_long":106.855437,"time":2},{"distance":973,"i_lat":-6.185975,"i_long":106.850107,"station_name":"Gang Sentiong","line":11,"transit":false,"is_transit":false,"time":1,"station_id":"GST"},{"transit":false,"is_transit":false,"i_lat":-6.174784,"time":8,"i_long":106.84368,"distance":1567,"line":11,"station_name":"Pasar Senen","station_id":"PSE"},{"is_transit":false,"i_lat":-6.161728,"time":4,"transit":false,"station_name":"Kemayoran","i_long":106.839204,"station_id":"KMO","distance":1436,"line":11},{"is_transit":false,"line":11,"station_name":"Rajawali","transit":false,"i_long":106.836569,"time":5,"station_id":"RJW","i_lat":-6.14505,"distance":1901}],[{"station_id":"BJD","station_name":"Bojonggede","is_transit":false,"distance":0,"i_long":106.792719,"line":2,"transit":false,"time":0,"i_lat":-6.493243},{"line":2,"i_lat":-6.448811,"time":5,"i_long":106.800298,"transit":false,"distance":5197,"station_name":"Citayam","station_id":"CTA","is_transit":false},{"transit":false,"station_name":"Depok","station_id":"DP","time":6,"distance":5084,"i_lat":-6.405256,"i_long":106.816926,"line":2,"is_transit":false},{"time":3,"station_name":"Depokbaru","station_id":"DPB","distance":1584,"is_transit":false,"i_long":106.819451,"transit":false,"line":2,"i_lat":-6.391065},{"i_lat":-6.369073,"i_long":106.831114,"transit":false,"line":2,"station_name":"Pondok Cina","station_id":"POC","is_transit":false,"distance":2727,"time":4},{"station_name":"Univ. Indonesia","transit":false,"station_id":"UI","i_long":106.831474,"distance":1109,"time":2,"i_lat":-6.360749,"line":2,"is_transit":false},{"line":2,"station_name":"Univ. Pancasila","time":3,"station_id":"UP","i_lat":-6.339291,"is_transit":false,"transit":false,"distance":2264,"i_long":106.834175},{"station_name":"Lenteng Agung","station_id":"LNA","is_transit":false,"line":2,"transit":false,"i_long":106.832616,"time":2,"distance":1029,"i_lat":-6.330363},{"time":3,"distance":2671,"i_long":106.838896,"is_transit":false,"transit":false,"i_lat":-6.3080680000000005,"station_name":"Tanjung Barat","station_id":"TNT","line":2},{"distance":2820,"time":4,"line":2,"i_long":106.843999,"i_lat":-6.2842400000000005,"transit":false,"is_transit":false,"station_name":"Pasar Minggu","station_id":"PSM"},{"transit":false,"i_long":106.851577,"distance":2380,"line":2,"is_transit":false,"station_id":"PSMB","station_name":"Pasar Minggu Baru","time":2,"i_lat":-6.263214},{"distance":824,"time":2,"is_transit":false,"i_long":106.85449,"transit":false,"i_lat":-6.255332,"station_name":"Duren Kalibata","station_id":"DRN","line":2},{"transit":false,"distance":1546,"is_transit":false,"station_id":"CW","time":3,"i_lat":-6.242512,"i_long":106.856607,"station_name":"Cawang","line":2},{"time":2,"distance":1230,"transit":false,"line":2,"station_id":"TEB","i_lat":-6.226659,"i_long":106.857948,"station_name":"Tebet","is_transit":false},{"time":4,"i_long":106.84912,"distance":2610,"station_name":"Manggarai","is_transit":true,"station_id":"MRI","transit":true,"i_lat":-6.209883,"line":2},{"line":1,"transit":false,"station_name":"Sudirman","i_long":106.822649,"station_id":"SUD","time":4,"i_lat":-6.202263,"is_transit":false,"distance":3186},{"transit":false,"distance":280,"station_name":"Sudirman Baru","line":1,"station_id":"SUDB","i_lat":-6.201433,"time":1,"i_long":106.819881,"is_transit":false},{"station_id":"KAT","i_long":106.816351,"i_lat":-6.20132,"station_name":"Karet","time":1,"line":1,"transit":false,"distance":471,"is_transit":false},{"time":5,"i_long":106.811091,"distance":2029,"line":1,"transit":false,"is_transit":false,"station_id":"THB","i_lat":-6.185545,"station_name":"Tanah Abang"},{"transit":false,"station_name":"Duri","line":1,"time":8,"station_id":"DU","is_transit":false,"distance":3632,"i_long":106.800832,"i_lat":-6.155215},{"station_id":"AK","time":4,"line":1,"is_transit":false,"i_lat":-6.144674,"i_long":106.79867,"transit":false,"station_name":"Angke","distance":1230},{"station_name":"Kampung Bandan","i_long":106.826365,"transit":true,"distance":4102,"is_transit":true,"i_lat":-6.132549,"station_id":"KPB","time":9,"line":4},{"line":11,"i_lat":-6.14505,"station_id":"RJW","is_transit":false,"station_name":"Rajawali","distance":1444,"transit":false,"time":3,"i_long":106.836569}],[{"line":2,"transit":false,"station_id":"BJD","is_transit":false,"distance":0,"i_lat":-6.493243,"time":0,"i_long":106.792719,"station_name":"Bojonggede"},{"station_name":"Citayam","station_id":"CTA","i_long":106.800298,"transit":false,"is_transit":false,"time":5,"line":2,"distance":5197,"i_lat":-6.448811},{"transit":false,"i_long":106.816926,"station_name":"Depok","station_id":"DP","is_transit":false,"time":6,"line":2,"distance":5084,"i_lat":-6.405256},{"i_lat":-6.391065,"station_id":"DPB","distance":1584,"transit":false,"station_name":"Depokbaru","is_transit":false,"time":3,"i_long":106.819451,"line":2},{"transit":false,"station_id":"POC","distance":2727,"is_transit":false,"station_name":"Pondok Cina","i_lat":-6.369073,"i_long":106.831114,"line":2,"time":4},{"distance":1109,"time":2,"i_lat":-6.360749,"station_id":"UI","i_long":106.831474,"is_transit":false,"station_name":"Univ. Indonesia","line":2,"transit":false},{"time":3,"i_lat":-6.339291,"line":2,"transit":false,"station_id":"UP","i_long":106.834175,"distance":2264,"station_name":"Univ. Pancasila","is_transit":false},{"distance":1029,"line":2,"i_long":106.832616,"station_name":"Lenteng Agung","time":2,"i_lat":-6.330363,"transit":false,"station_id":"LNA","is_transit":false},{"i_long":106.838896,"i_lat":-6.3080680000000005,"station_name":"Tanjung Barat","station_id":"TNT","line":2,"is_transit":false,"time":3,"transit":false,"distance":2671},{"distance":2820,"i_lat":-6.2842400000000005,"station_name":"Pasar Minggu","time":4,"line":2,"transit":false,"is_transit":false,"station_id":"PSM","i_long":106.843999},{"time":2,"transit":false,"station_name":"Pasar Minggu Baru","i_lat":-6.263214,"is_transit":false,"line":2,"i_long":106.851577,"distance":2380,"station_id":"PSMB"},{"i_lat":-6.255332,"station_id":"DRN","is_transit":false,"distance":824,"station_name":"Duren Kalibata","line":2,"i_long":106.85449,"transit":false,"time":2},{"station_id":"CW","i_lat":-6.242512,"i_long":106.856607,"transit":false,"station_name":"Cawang","line":2,"is_transit":false,"time":3,"distance":1546},{"transit":false,"time":2,"i_long":106.857948,"line":2,"station_id":"TEB","is_transit":false,"distance":1230,"station_name":"Tebet","i_lat":-6.226659},{"distance":2610,"line":2,"is_transit":false,"i_long":106.84912,"station_name":"Manggarai","station_id":"MRI","transit":false,"time":4,"i_lat":-6.209883},{"station_name":"Cikini","line":2,"is_transit":false,"transit":false,"station_id":"CKI","i_lat":-6.198556,"i_long":106.840169,"time":4,"distance":1590},{"i_lat":-6.186295,"line":2,"station_id":"GDD","time":3,"i_long":106.832183,"distance":1750,"transit":false,"station_name":"Gondangdia","is_transit":false},{"i_lat":-6.166716,"transit":false,"station_id":"JUA","distance":2015,"time":4,"i_long":106.828284,"station_name":"Juanda","is_transit":false,"line":2},{"station_name":"Sawah Besar","station_id":"SW","i_long":106.827103,"i_lat":-6.160725,"distance":1149,"line":2,"transit":false,"is_transit":false,"time":2},{"transit":false,"is_transit":false,"station_name":"Manggabesar","station_id":"MGB","time":2,"i_lat":-6.149769,"line":2,"distance":906,"i_long":106.82482},{"station_id":"JAY","line":2,"time":2,"station_name":"Jayakarta","transit":false,"distance":1080,"i_lat":-6.141205,"i_long":106.820901,"is_transit":false},{"time":4,"is_transit":true,"line":2,"transit":true,"i_lat":-6.137569,"distance":1264,"station_name":"Jakarta Kota","i_long":106.812439,"station_id":"JAKK"},{"i_lat":-6.132549,"station_name":"Kampung Bandan","station_id":"KPB","i_long":106.826365,"line":4,"time":3,"transit":true,"distance":1364,"is_transit":true},{"is_transit":false,"transit":false,"time":3,"distance":1444,"i_lat":-6.14505,"line":11,"station_name":"Rajawali","station_id":"RJW","i_long":106.836569}]]}