{"data":[[{"transit":false,"time":0,"is_transit":false,"station_id":"BJD","station_name":"Bojonggede","distance":0,"i_long":106.792719,"line":2,"i_lat":-6.493243},{"is_transit":false,"transit":false,"station_name":"Citayam","i_long":106.800298,"station_id":"CTA","i_lat":-6.448811,"time":5,"line":2,"distance":5197},{"station_name":"Depok","is_transit":false,"i_lat":-6.405256,"line":2,"time":6,"distance":5084,"station_id":"DP","transit":false,"i_long":106.816926},{"station_id":"DPB","i_lat":-6.391065,"distance":1584,"i_long":106.819451,"station_name":"Depokbaru","line":2,"transit":false,"is_transit":false,"time":3},{"transit":false,"station_name":"Pondok Cina","i_long":106.831114,"line":2,"i_lat":-6.369073,"distance":2727,"is_transit":false,"station_id":"POC","time":4}]]}