{"data":[[{"station_id":"BJD","is_transit":false,"station_name":"Bojonggede","transit":false,"i_lat":-6.493243,"line":2,"time":0,"i_long":106.792719,"distance":0},{"i_long":106.800298,"line":2,"transit":false,"station_name":"Citayam","time":5,"distance":5197,"i_lat":-6.448811,"is_transit":false,"station_id":"CTA"},{"distance":5084,"line":2,"station_name":"Depok","i_lat":-6.405256,"transit":false,"is_transit":false,"time":6,"station_id":"DP","i_long":106.816926},{"station_id":"DPB","time":3,"is_transit":false,"distance":1584,"line":2,"station_name":"Depokbaru","i_lat":-6.391065,"i_long":106.819451,"transit":false},{"station_id":"POC","transit":false,"is_transit":false,"i_lat":-6.369073,"i_long":106.831114,"line":2,"station_name":"Pondok Cina","time":4,"distance":2727},{"i_lat":-6.360749,"line":2,"time":2,"transit":false,"i_long":106.831474,"station_name":"Univ. Indonesia","distance":1109,"station_id":"UI","is_transit":false},{"station_id":"UP","i_long":106.834175,"is_transit":false,"transit":false,"i_lat":-6.339291,"station_name":"Univ. Pancasila","time":3,"distance":2264,"line":2},{"transit":false,"station_name":"Lenteng Agung","is_transit":false,"station_id":"LNA","distance":1029,"i_long":106.832616,"line":2,"i_lat":-6.330363,"time":2},{"i_lat":-6.3080680000000005,"station_id":"TNT","i_long":106.838896,"time":3,"distance":2671,"line":2,"station_name":"Tanjung Barat","is_transit":false,"transit":false},{"i_lat":-6.2842400000000005,"station_name":"Pasar Minggu","distance":2820,"i_long":106.843999,"transit":false,"is_transit":false,"station_id":"PSM","line":2,"time":4},{"is_transit":false,"i_long":106.851577,"station_id":"PSMB","station_name":"Pasar Minggu Baru","time":2,"distance":2380,"line":2,"transit":false,"i_lat":-6.263214},{"station_name":"Duren Kalibata","station_id":"DRN","line":2,"transit":false,"i_lat":-6.255332,"i_long":106.85449,"time":2,"distance":824,"is_transit":false},{"i_long":106.856607,"i_lat":-6.242512,"is_transit":false,"line":2,"station_name":"Cawang","station_id":"CW","transit":false,"time":3,"distance":1546},{"transit":false,"station_id":"TEB","time":2,"i_long":106.857948,"i_lat":-6.226659,"is_transit":false,"line":2,"station_name":"Tebet","distance":1230},{"is_transit":true,"station_name":"Manggarai","transit":true,"station_id":"MRI","time":4,"i_lat":-6.209883,"line":2,"i_long":106.84912,"distance":2610},{"transit":false,"i_lat":-6.212485,"i_long":106.858896,"line":1,"is_transit":false,"station_id":"MTR","time":2,"distance":1275,"station_name":"Matraman"},{"distance":1377,"i_long":106.86807400000001,"line":1,"station_name":"Jatinegara","transit":false,"is_transit":false,"station_id":"JNG","time":8,"i_lat":-6.215091},{"line":1,"i_lat":-6.2135,"i_long":106.899548,"is_transit":false,"transit":false,"station_id":"KLD","time":3,"station_name":"Klender","distance":3395},{"distance":3100,"line":1,"is_transit":false,"i_long":106.922662,"station_name":"Buaran","i_lat":-6.215568,"station_id":"BUA","time":2,"transit":false},{"transit":false,"is_transit":false,"time":1,"station_name":"Klenderbaru","i_lat":-6.217455,"line":1,"station_id":"KLDB","i_long":106.939679,"distance":1305},{"i_long":106.951283,"line":1,"i_lat":-6.219053,"is_transit":false,"distance":1385,"time":8,"station_id":"CUK","transit":false,"station_name":"Cakung"}],[{"line":2,"station_name":"Bojonggede","i_long":106.792719,"transit":false,"distance":0,"time":0,"i_lat":-6.493243,"is_transit":false,"station_id":"BJD"},{"time":5,"i_lat":-6.448811,"is_transit":false,"line":2,"i_long":106.800298,"station_name":"Citayam","distance":5197,"transit":false,"station_id":"CTA"},{"station_id":"DP","i_long":106.816926,"transit":false,"station_name":"Depok","line":2,"time":6,"is_transit":false,"distance":5084,"i_lat":-6.405256},{"station_id":"DPB","station_name":"Depokbaru","is_transit":false,"distance":1584,"line":2,"time":3,"i_lat":-6.391065,"i_long":106.819451,"transit":false},{"time":4,"station_name":"Pondok Cina","transit":false,"is_transit":false,"distance":2727,"i_lat":-6.369073,"i_long":106.831114,"line":2,"station_id":"POC"},{"i_long":106.831474,"station_name":"Univ. Indonesia","is_transit":false,"i_lat":-6.360749,"distance":1109,"transit":false,"station_id":"UI","time":2,"line":2},{"distance":2264,"station_name":"Univ. Pancasila","is_transit":false,"i_lat":-6.339291,"i_long":106.834175,"time":3,"transit":false,"station_id":"UP","line":2},{"is_transit":false,"station_id":"LNA","i_long":106.832616,"transit":false,"line":2,"station_name":"Lenteng Agung","distance":1029,"time":2,"i_lat":-6.330363},{"transit":false,"time":3,"is_transit":false,"station_name":"Tanjung Barat","distance":2671,"station_id":"TNT","line":2,"i_lat":-6.3080680000000005,"i_long":106.838896},{"i_lat":-6.2842400000000005,"is_transit":false,"station_name":"Pasar Minggu","station_id":"PSM","i_long":106.843999,"transit":false,"time":4,"line":2,"distance":2820},{"line":2,"is_transit":false,"station_name":"Pasar Minggu Baru","transit":false,"distance":2380,"i_lat":-6.263214,"station_id":"PSMB","time":2,"i_long":106.851577},{"station_name":"Duren Kalibata","station_id":"DRN","transit":false,"i_lat":-6.255332,"line":2,"is_transit":false,"time":2,"distance":824,"i_long":106.85449},{"time":3,"i_long":106.856607,"line":2,"i_lat":-6.242512,"station_name":"Cawang","station_id":"CW","transit":false,"is_transit":false,"distance":1546},{"station_id":"TEB","is_transit":false,"transit":false,"time":2,"line":2,"station_name":"Tebet","i_lat":-6.226659,"i_long":106.857948,"distance":1230},{"i_long":106.84912,"station_name":"Manggarai","distance":2610,"i_lat":-6.209883,"line":2,"is_transit":true,"time":4,"station_id":"MRI","transit":true},{"station_id":"SUD","transit":false,"is_transit":false,"distance":3186,"i_lat":-6.202263,"i_long":106.822649,"line":1,"time":4,"station_name":"Sudirman"},{"is_transit":false,"time":1,"i_long":106.819881,"distance":280,"station_id":"SUDB","i_lat":-6.201433,"transit":false,"station_name":"Sudirman Baru","line":1},{"station_id":"KAT","line":1,"distance":471,"station_name":"Karet","time":1,"i_long":106.816351,"is_transit":false,"i_lat":-6.20132,"transit":false},{"time":5,"distance":2029,"i_long":106.811091,"line":1,"i_lat":-6.185545,"is_transit":false,"station_name":"Tanah Abang","transit":false,"station_id":"THB"},{"transit":false,"line":1,"i_lat":-6.155215,"i_long":106.800832,"is_transit":false,"station_name":"Duri","time":8,"station_id":"DU","distance":3632},{"is_transit":false,"distance":1230,"line":1,"transit":false,"station_name":"Angke","station_id":"AK","time":4,"i_lat":-6.144674,"i_long":106.79867},{"station_id":"KPB","distance":4102,"station_name":"Kampung Bandan","transit":true,"i_long":106.826365,"line":4,"is_transit":true,"i_lat":-6.132549,"time":9},{"i_long":106.836569,"is_transit":false,"station_name":"Rajawali","station_id":"RJW","line":11,"distance":1444,"i_lat":-6.14505,"transit":false,"time":3},{"station_id":"KMO","transit":false,"i_lat":-6.161728,"line":11,"is_transit":false,"station_name":"Kemayoran","time":5,"i_long":106.839204,"distance":1901},{"i_lat":-6.174784,"line":11,"i_long":106.84368,"is_transit":false,"station_name":"Pasar Senen","station_id":"PSE","transit":false,"distance":1436,"time":4},{"station_id":"GST","i_long":106.850107,"transit":false,"line":11,"station_name":"Gang Sentiong","is_transit":false,"distance":1567,"i_lat":-6.185975,"time":8},{"i_long":106.855437,"i_lat":-6.193792,"is_transit":false,"time":1,"transit":false,"station_id":"KMT","distance":973,"station_name":"Kramat","line":11},{"line":11,"distance":1829,"i_lat":-6.209188,"i_long":106.861737,"time":2,"transit":false,"station_name":"Pondok Jati","station_id":"POK","is_transit":false},{"station_name":"Jatinegara","station_id":"JNG","line":1,"i_long":106.86807400000001,"is_transit":true,"i_lat":-6.215091,"time":9,"distance":1236,"transit":true},{"is_transit":false,"i_long":106.899548,"station_name":"Klender","time":3,"line":1,"transit":false,"distance":3395,"i_lat":-6.2135,"station_id":"KLD"},{"i_long":106.922662,"transit":false,"station_id":"BUA","station_name":"Buaran","i_lat":-6.215568,"line":1,"time":2,"distance":3100,"is_transit":false},{"station_id":"KLDB","i_long":106.939679,"line":1,"transit":false,"station_name":"Klenderbaru","is_transit":false,"time":1,"distance":1305,"i_lat":-6.217455},{"i_long":106.951283,"time":8,"station_name":"Cakung","distance":1385,"is_transit":false,"line":1,"transit":false,"i_lat":-6.219053,"station_id":"CUK"}],[{"is_transit":false,"time":0,"transit":false,"i_long":106.792719,"station_id":"BJD","line":2,"i_lat":-6.493243,"distance":0,"station_name":"Bojonggede"},{"i_long":106.800298,"time":5,"is_transit":false,"distance":5197,"i_lat":-6.448811,"station_name":"Citayam","line":2,"station_id":"CTA","transit":false},{"distance":5084,"i_long":106.816926,"i_lat":-6.405256,"time":6,"station_id":"DP","transit":false,"line":2,"station_name":"Depok","is_transit":false},{"transit":false,"time":3,"station_id":"DPB","station_name":"Depokbaru","i_lat":-6.391065,"i_long":106.819451,"distance":1584,"is_transit":false,"line":2},{"distance":2727,"line":2,"is_transit":false,"time":4,"i_lat":-6.369073,"i_long":106.831114,"station_id":"POC","station_name":"Pondok Cina","transit":false},{"i_lat":-6.360749,"distance":1109,"station_id":"UI","is_transit":false,"transit":false,"line":2,"i_long":106.831474,"time":2,"station_name":"Univ. Indonesia"},{"time":3,"station_name":"Univ. Pancasila","i_long":106.834175,"transit":false,"station_id":"UP","is_transit":false,"distance":2264,"i_lat":-6.339291,"line":2},{"i_long":106.832616,"i_lat":-6.330363,"station_id":"LNA","time":2,"station_name":"Lenteng Agung","distance":1029,"transit":false,"is_transit":false,"line":2},{"transit":false,"is_transit":false,"station_id":"TNT","line":2,"i_long":106.838896,"time":3,"i_lat":-6.3080680000000005,"distance":2671,"station_name":"Tanjung Barat"},{"line":2,"i_long":106.843999,"i_lat":-6.2842400000000005,"is_transit":false,"station_name":"Pasar Minggu","transit":false,"station_id":"PSM","time":4,"distance":2820},{"station_name":"Pasar Minggu Baru","time":2,"distance":2380,"station_id":"PSMB","i_long":106.851577,"transit":false,"i_lat":-6.263214,"is_transit":false,"line":2},{"station_name":"Duren Kalibata","is_transit":false,"transit":false,"distance":824,"i_lat":-6.255332,"line":2,"station_id":"DRN","time":2,"i_long":106.85449},{"distance":1546,"is_transit":false,"station_name":"Cawang","line":2,"i_long":106.856607,"time":3,"transit":false,"i_lat":-6.242512,"station_id":"CW"},{"is_transit":false,"i_long":106.857948,"time":2,"transit":false,"station_id":"TEB","line":2,"station_name":"Tebet","distance":1230,"i_lat":-6.226659},{"line":2,"i_long":106.84912,"transit":false,"station_name":"Manggarai","time":4,"is_transit":false,"distance":2610,"station_id":"MRI","i_lat":-6.209883},{"is_transit":false,"i_lat":-6.198556,"transit":false,"time":4,"i_long":106.840169,"station_name":"Cikini","line":2,"station_id":"CKI","distance":1590},{"station_id":"GDD","station_name":"Gondangdia","i_lat":-6.186295,"i_long":106.832183,"transit":false,"is_transit":false,"time":3,"line":2,"distance":1750},{"station_name":"Juanda","is_transit":false,"distance":2015,"line":2,"station_id":"JUA","time":4,"i_long":106.828284,"i_lat":-6.166716,"transit":false},{"line":2,"is_transit":false,"i_long":106.827103,"i_lat":-6.160725,"distance":1149,"time":2,"station_name":"Sawah Besar","transit":false,"station_id":"SW"},{"station_name":"Manggabesar","transit":false,"distance":906,"is_transit":false,"time":2,"i_lat":-6.149769,"station_id":"MGB","i_long":106.82482,"line":2},{"i_long":106.820901,"time":2,"station_id":"JAY","i_lat":-6.141205,"distance":1080,"line":2,"transit":false,"station_name":"Jayakarta","is_transit":false},{"i_lat":-6.137569,"line":2,"time":4,"transit":true,"station_id":"JAKK","station_name":"Jakarta Kota","is_transit":true,"i_long":106.812439,"distance":1264},{"line":4,"transit":true,"i_long":106.826365,"i_lat":-6.132549,"distance":1364,"station_id":"KPB","time":3,"is_transit":true,"station_name":"Kampung Bandan"},{"distance":1444,"station_name":"Rajawali","time":3,"i_long":106.836569,"transit":false,"is_transit":false,"station_id":"RJW","i_lat":-6.14505,"line":11},{"i_lat":-6.161728,"is_transit":false,"time":5,"transit":false,"i_long":106.839204,"distance":1901,"station_name":"Kemayoran","station_id":"KMO","line":11},{"i_lat":-6.174784,"time":4,"distance":1436,"transit":false,"line":11,"i_long":106.84368,"station_name":"Pasar Senen","station_id":"PSE","is_transit":false},{"distance":1567,"station_name":"Gang Sentiong","line":11,"station_id":"GST","i_long":106.850107,"i_lat":-6.185975,"time":8,"transit":false,"is_transit":false},{"time":1,"i_long":106.855437,"station_name":"Kramat","distance":973,"is_transit":false,"line":11,"transit":false,"station_id":"KMT","i_lat":-6.193792},{"time":2,"i_lat":-6.209188,"transit":false,"station_id":"POK","i_long":106.861737,"line":11,"station_name":"Pondok Jati","is_transit":false,"distance":1829},{"transit":true,"station_id":"JNG","i_lat":-6.215091,"time":9,"distance":1236,"line":1,"is_transit":true,"station_name":"Jatinegara","i_long":106.86807400000001},{"station_id":"KLD","is_transit":false,"i_long":106.899548,"i_lat":-6.2135,"time":3,"transit":false,"station_name":"Klender","distance":3395,"line":1},{"is_transit":false,"distance":3100,"line":1,"time":2,"i_lat":-6.215568,"i_long":106.922662,"transit":false,"station_name":"Buaran","station_id":"BUA"},{"line":1,"transit":false,"is_transit":false,"time":1,"i_long":106.939679,"distance":1305,"i_lat":-6.217455,"station_id":"KLDB","station_name":"Klenderbaru"},{"i_lat":-6.219053,"line":1,"transit":false,"i_long":106.951283,"time":8,"station_name":"Cakung","station_id":"CUK","is_transit":false,"distance":1385}]]}