{"data":[[{"station_id":"BJD","i_lat":-6.493243,"time":0,"line":2,"is_transit":false,"station_name":"Bojonggede","transit":false,"distance":0,"i_long":106.792719},{"i_lat":-6.448811,"distance":5197,"i_long":106.800298,"station_name":"Citayam","line":2,"transit":false,"is_transit":false,"station_id":"CTA","time":5},{"time":6,"station_name":"Depok","i_lat":-6.405256,"station_id":"DP","i_long":106.816926,"line":2,"distance":5084,"is_transit":false,"transit":false},{"time":3,"is_transit":false,"station_id":"DPB","line":2,"i_lat":-6.391065,"distance":1584,"station_name":"Depokbaru","transit":false,"i_long":106.819451},{"is_transit":false,"time":4,"transit":false,"i_long":106.831114,"line":2,"station_name":"Pondok Cina","distance":2727,"i_lat":-6.369073,"station_id":"POC"},{"station_id":"UI","i_long":106.831474,"i_lat":-6.360749,"line":2,"transit":false,"time":2,"is_transit":false,"distance":1109,"station_name":"Univ. Indonesia"},{"station_id":"UP","time":3,"distance":2264,"transit":false,"station_name":"Univ. Pancasila","i_lat":-6.339291,"i_long":106.834175,"is_transit":false,"line":2},{"transit":false,"station_id":"LNA","distance":1029,"time":2,"i_lat":-6.330363,"line":2,"station_name":"Lenteng Agung","i_long":106.832616,"is_transit":false},{"time":3,"is_transit":false,"distance":2671,"i_lat":-6.3080680000000005,"line":2,"transit":false,"i_long":106.838896,"station_id":"TNT","station_name":"Tanjung Barat"},{"station_id":"PSM","station_name":"Pasar Minggu","line":2,"distance":2820,"transit":false,"time":4,"i_lat":-6.2842400000000005,"i_long":106.843999,"is_transit":false},{"time":2,"is_transit":false,"station_id":"PSMB","i_lat":-6.263214,"station_name":"Pasar Minggu Baru","i_long":106.851577,"line":2,"distance":2380,"transit":false},{"line":2,"transit":false,"is_transit":false,"distance":824,"station_name":"Duren Kalibata","i_long":106.85449,"i_lat":-6.255332,"time":2,"station_id":"DRN"},{"i_long":106.856607,"time":3,"line":2,"distance":1546,"transit":false,"is_transit":false,"station_id":"CW","station_name":"Cawang","i_lat":-6.242512},{"station_id":"TEB","i_long":106.857948,"is_transit":false,"line":2,"i_lat":-6.226659,"distance":1230,"time":2,"transit":false,"station_name":"Tebet"},{"time":4,"transit":true,"is_transit":true,"station_id":"MRI","station_name":"Manggarai","i_long":106.84912,"line":2,"i_lat":-6.209883,"distance":2610},{"time":4,"station_name":"Sudirman","is_transit":false,"i_lat":-6.202263,"transit":false,"i_long":106.822649,"line":1,"distance":3186,"station_id":"SUD"},{"distance":280,"time":1,"i_lat":-6.201433,"i_long":106.819881,"station_id":"SUDB","transit":false,"line":1,"is_transit":false,"station_name":"Sudirman Baru"},{"station_name":"Karet","i_lat":-6.20132,"line":1,"time":1,"transit":false,"i_long":106.816351,"station_id":"KAT","is_transit":false,"distance":471},{"time":5,"station_name":"Tanah Abang","i_lat":-6.185545,"transit":false,"is_transit":false,"distance":2029,"line":1,"i_long":106.811091,"station_id":"THB"},{"transit":true,"i_long":106.800832,"time":8,"station_name":"Duri","is_transit":true,"distance":3632,"line":1,"i_lat":-6.155215,"station_id":"DU"},{"i_long":106.788277,"distance":1700,"transit":false,"time":3,"line":5,"station_name":"Grogol","i_lat":-6.162021,"is_transit":false,"station_id":"GGL"},{"time":2,"station_name":"Pesing","line":5,"i_lat":-6.161433,"transit":false,"is_transit":false,"distance":2036,"station_id":"PSG","i_long":106.771379},{"is_transit":false,"distance":1614,"i_long":106.756522,"line":5,"station_id":"TKO","time":2,"transit":false,"station_name":"Taman Kota","i_lat":-6.1587309999999995}],[{"station_id":"BJD","i_lat":-6.493243,"line":2,"is_transit":false,"station_name":"Bojonggede","time":0,"transit":false,"distance":0,"i_long":106.792719},{"station_name":"Citayam","i_lat":-6.448811,"time":5,"line":2,"station_id":"CTA","is_transit":false,"distance":5197,"transit":false,"i_long":106.800298},{"is_transit":false,"station_id":"DP","transit":false,"distance":5084,"station_name":"Depok","i_lat":-6.405256,"time":6,"i_long":106.816926,"line":2},{"transit":false,"line":2,"time":3,"distance":1584,"is_transit":false,"station_id":"DPB","station_name":"Depokbaru","i_lat":-6.391065,"i_long":106.819451},{"is_transit":false,"distance":2727,"transit":false,"i_long":106.831114,"station_name":"Pondok Cina","time":4,"station_id":"POC","i_lat":-6.369073,"line":2},{"i_lat":-6.360749,"time":2,"transit":false,"distance":1109,"is_transit":false,"station_name":"Univ. Indonesia","station_id":"UI","i_long":106.831474,"line":2},{"i_long":106.834175,"transit":false,"station_id":"UP","station_name":"Univ. Pancasila","is_transit":false,"time":3,"distance":2264,"line":2,"i_lat":-6.339291},{"i_lat":-6.330363,"distance":1029,"transit":false,"time":2,"i_long":106.832616,"station_name":"Lenteng Agung","station_id":"LNA","line":2,"is_transit":false},{"station_name":"Tanjung Barat","i_lat":-6.3080680000000005,"line":2,"time":3,"distance":2671,"i_long":106.838896,"station_id":"TNT","is_transit":false,"transit":false},{"i_long":106.843999,"line":2,"station_name":"Pasar Minggu","i_lat":-6.2842400000000005,"is_transit":false,"time":4,"station_id":"PSM","distance":2820,"transit":false},{"distance":2380,"transit":false,"is_transit":false,"station_name":"Pasar Minggu Baru","station_id":"PSMB","i_long":106.851577,"time":2,"line":2,"i_lat":-6.263214},{"station_id":"DRN","distance":824,"i_long":106.85449,"transit":false,"station_name":"Duren Kalibata","line":2,"i_lat":-6.255332,"time":2,"is_transit":false},{"transit":false,"distance":1546,"station_name":"Cawang","i_long":106.856607,"i_lat":-6.242512,"station_id":"CW","line":2,"is_transit":false,"time":3},{"station_name":"Tebet","time":2,"station_id":"TEB","i_long":106.857948,"is_transit":false,"transit":false,"distance":1230,"i_lat":-6.226659,"line":2},{"time":4,"i_lat":-6.209883,"transit":false,"station_name":"Manggarai","distance":2610,"station_id":"MRI","is_transit":false,"i_long":106.84912,"line":2},{"distance":1590,"i_long":106.840169,"is_transit":false,"transit":false,"line":2,"station_name":"Cikini","i_lat":-6.198556,"time":4,"station_id":"CKI"},{"station_id":"GDD","distance":1750,"i_lat":-6.186295,"line":2,"time":3,"transit":false,"i_long":106.832183,"station_name":"Gondangdia","is_transit":false},{"i_long":106.828284,"i_lat":-6.166716,"transit":false,"is_transit":false,"time":4,"distance":2015,"station_name":"Juanda","line":2,"station_id":"JUA"},{"distance":1149,"line":2,"station_name":"Sawah Besar","is_transit":false,"time":2,"i_long":106.827103,"transit":false,"station_id":"SW","i_lat":-6.160725},{"station_id":"MGB","is_transit":false,"station_name":"Manggabesar","line":2,"time":2,"i_lat":-6.149769,"i_long":106.82482,"transit":false,"distance":906},{"i_long":106.820901,"line":2,"station_name":"Jayakarta","distance":1080,"is_transit":false,"time":2,"transit":false,"i_lat":-6.141205,"station_id":"JAY"},{"i_long":106.812439,"station_id":"JAKK","time":4,"transit":true,"i_lat":-6.137569,"station_name":"Jakarta Kota","line":2,"is_transit":true,"distance":1264},{"time":3,"distance":1364,"station_name":"Kampung Bandan","transit":true,"i_long":106.826365,"line":4,"station_id":"KPB","is_transit":true,"i_lat":-6.132549},{"station_name":"Angke","i_lat":-6.144674,"line":1,"distance":4102,"i_long":106.79867,"station_id":"AK","is_transit":false,"time":9,"transit":false},{"transit":true,"is_transit":true,"time":4,"i_long":106.800832,"station_id":"DU","distance":1230,"line":1,"station_name":"Duri","i_lat":-6.155215},{"station_id":"GGL","distance":1700,"i_lat":-6.162021,"i_long":106.788277,"time":3,"is_transit":false,"transit":false,"line":5,"station_name":"Grogol"},{"station_id":"PSG","time":2,"distance":2036,"line":5,"is_transit":false,"i_long":106.771379,"transit":false,"station_name":"Pesing","i_lat":-6.161433},{"station_id":"TKO","line":5,"i_lat":-6.1587309999999995,"is_transit":false,"distance":1614,"i_long":106.756522,"station_name":"Taman Kota","time":2,"transit":false}],[{"line":2,"is_transit":false,"transit":false,"distance":0,"station_name":"Bojonggede","i_long":106.792719,"time":0,"station_id":"BJD","i_lat":-6.493243},{"station_id":"CTA","i_long":106.800298,"transit":false,"distance":5197,"time":5,"station_name":"Citayam","line":2,"is_transit":false,"i_lat":-6.448811},{"transit":false,"line":2,"i_long":106.816926,"distance":5084,"is_transit":false,"station_name":"Depok","station_id":"DP","time":6,"i_lat":-6.405256},{"distance":1584,"i_long":106.819451,"station_id":"DPB","transit":false,"line":2,"station_name":"Depokbaru","time":3,"i_lat":-6.391065,"is_transit":false},{"is_transit":false,"transit":false,"station_id":"POC","distance":2727,"station_name":"Pondok Cina","i_lat":-6.369073,"i_long":106.831114,"time":4,"line":2},{"transit":false,"is_transit":false,"time":2,"distance":1109,"station_name":"Univ. Indonesia","station_id":"UI","line":2,"i_lat":-6.360749,"i_long":106.831474},{"station_name":"Univ. Pancasila","distance":2264,"transit":false,"i_lat":-6.339291,"is_transit":false,"line":2,"time":3,"station_id":"UP","i_long":106.834175},{"station_name":"Lenteng Agung","i_long":106.832616,"line":2,"is_transit":false,"station_id":"LNA","transit":false,"i_lat":-6.330363,"distance":1029,"time":2},{"transit":false,"i_lat":-6.3080680000000005,"station_name":"Tanjung Barat","i_long":106.838896,"is_transit":false,"station_id":"TNT","line":2,"time":3,"distance":2671},{"time":4,"transit":false,"station_id":"PSM","i_long":106.843999,"line":2,"is_transit":false,"distance":2820,"station_name":"Pasar Minggu","i_lat":-6.2842400000000005},{"line":2,"i_long":106.851577,"station_id":"PSMB","distance":2380,"station_name":"Pasar Minggu Baru","i_lat":-6.263214,"time":2,"transit":false,"is_transit":false},{"distance":824,"i_long":106.85449,"transit":false,"i_lat":-6.255332,"time":2,"station_id":"DRN","station_name":"Duren Kalibata","line":2,"is_transit":false},{"time":3,"distance":1546,"i_long":106.856607,"line":2,"station_id":"CW","station_name":"Cawang","is_transit":false,"transit":false,"i_lat":-6.242512},{"is_transit":false,"distance":1230,"i_lat":-6.226659,"i_long":106.857948,"time":2,"transit":false,"station_name":"Tebet","line":2,"station_id":"TEB"},{"time":4,"distance":2610,"transit":true,"i_lat":-6.209883,"is_transit":true,"station_id":"MRI","i_long":106.84912,"line":2,"station_name":"Manggarai"},{"time":2,"station_id":"MTR","is_transit":false,"i_lat":-6.212485,"station_name":"Matraman","i_long":106.858896,"line":1,"distance":1275,"transit":false},{"i_long":106.86807400000001,"station_id":"JNG","line":1,"distance":1377,"is_transit":true,"transit":true,"time":8,"station_name":"Jatinegara","i_lat":-6.215091},{"line":11,"station_id":"POK","time":2,"transit":false,"station_name":"Pondok Jati","i_lat":-6.209188,"i_long":106.861737,"is_transit":false,"distance":1236},{"time":2,"distance":1829,"transit":false,"station_name":"Kramat","is_transit":false,"i_long":106.855437,"station_id":"KMT","line":11,"i_lat":-6.193792},{"line":11,"is_transit":false,"station_name":"Gang Sentiong","time":1,"station_id":"GST","distance":973,"i_long":106.850107,"i_lat":-6.185975,"transit":false},{"distance":1567,"transit":false,"line":11,"station_id":"PSE","i_lat":-6.174784,"station_name":"Pasar Senen","is_transit":false,"i_long":106.84368,"time":8},{"i_long":106.839204,"distance":1436,"i_lat":-6.161728,"line":11,"transit":false,"station_name":"Kemayoran","station_id":"KMO","is_transit":false,"time":4},{"is_transit":false,"distance":1901,"time":5,"i_lat":-6.14505,"station_id":"RJW","i_long":106.836569,"transit":false,"station_name":"Rajawali","line":11},{"station_id":"KPB","station_name":"Kampung Bandan","i_long":106.826365,"line":4,"transit":true,"time":3,"distance":1444,"is_transit":true,"i_lat":-6.132549},{"line":1,"time":9,"station_id":"AK","i_lat":-6.144674,"transit":false,"distance":4102,"station_name":"Angke","i_long":106.79867,"is_transit":false},{"time":4,"station_name":"Duri","transit":true,"station_id":"DU","distance":1230,"i_lat":-6.155215,"line":1,"is_transit":true,"i_long":106.800832},{"distance":1700,"i_long":106.788277,"line":5,"station_id":"GGL","is_transit":false,"transit":false,"i_lat":-6.162021,"time":3,"station_name":"Grogol"},{"is_transit":false,"station_id":"PSG","time":2,"station_name":"Pesing","distance":2036,"i_lat":-6.161433,"transit":false,"i_long":106.771379,"line":5},{"time":2,"station_id":"TKO","line":5,"station_name":"Taman Kota","is_transit":false,"transit":false,"i_lat":-6.1587309999999995,"i_long":106.756522,"distance":1614}]]}