{"data":[[{"i_lat":-6.493243,"is_transit":false,"i_long":106.792719,"station_id":"BJD","distance":0,"time":0,"transit":false,"line":2,"station_name":"Bojonggede"},{"station_name":"Citayam","transit":false,"line":2,"i_lat":-6.448811,"is_transit":false,"time":5,"distance":5197,"station_id":"CTA","i_long":106.800298},{"is_transit":false,"station_id":"DP","station_name":"Depok","i_lat":-6.405256,"i_long":106.816926,"line":2,"time":6,"distance":5084,"transit":false},{"distance":1584,"is_transit":false,"time":3,"station_id":"DPB","transit":false,"i_lat":-6.391065,"i_long":106.819451,"line":2,"station_name":"Depokbaru"},{"i_long":106.831114,"line":2,"transit":false,"is_transit":false,"distance":2727,"time":4,"i_lat":-6.369073,"station_id":"POC","station_name":"Pondok Cina"},{"station_id":"UI","i_lat":-6.360749,"line":2,"transit":false,"i_long":106.831474,"time":2,"station_name":"Univ. Indonesia","is_transit":false,"distance":1109},{"i_long":106.834175,"line":2,"distance":2264,"station_name":"Univ. Pancasila","station_id":"UP","transit":false,"i_lat":-6.339291,"is_transit":false,"time":3},{"distance":1029,"station_name":"Lenteng Agung","line":2,"i_lat":-6.330363,"is_transit":false,"station_id":"LNA","transit":false,"i_long":106.832616,"time":2},{"station_id":"TNT","i_lat":-6.3080680000000005,"transit":false,"line":2,"is_transit":false,"time":3,"distance":2671,"i_long":106.838896,"station_name":"Tanjung Barat"},{"is_transit":false,"station_id":"PSM","station_name":"Pasar Minggu","time":4,"i_lat":-6.2842400000000005,"distance":2820,"i_long":106.843999,"line":2,"transit":false},{"i_long":106.851577,"distance":2380,"line":2,"i_lat":-6.263214,"transit":false,"station_name":"Pasar Minggu Baru","is_transit":false,"station_id":"PSMB","time":2},{"i_lat":-6.255332,"transit":false,"is_transit":false,"station_name":"Duren Kalibata","time":2,"station_id":"DRN","i_long":106.85449,"distance":824,"line":2},{"time":3,"i_lat":-6.242512,"station_name":"Cawang","line":2,"is_transit":false,"i_long":106.856607,"distance":1546,"station_id":"CW","transit":false},{"transit":false,"i_lat":-6.226659,"station_name":"Tebet","i_long":106.857948,"time":2,"station_id":"TEB","line":2,"is_transit":false,"distance":1230},{"station_name":"Manggarai","station_id":"MRI","transit":true,"distance":2610,"is_transit":true,"i_lat":-6.209883,"time":4,"line":2,"i_long":106.84912},{"station_id":"SUD","line":1,"distance":3186,"i_long":106.822649,"station_name":"Sudirman","transit":false,"i_lat":-6.202263,"is_transit":false,"time":4},{"station_id":"SUDB","is_transit":false,"transit":false,"line":1,"time":1,"i_long":106.819881,"i_lat":-6.201433,"station_name":"Sudirman Baru","distance":280},{"station_id":"KAT","is_transit":false,"distance":471,"station_name":"Karet","time":1,"line":1,"transit":false,"i_lat":-6.20132,"i_long":106.816351},{"is_transit":false,"time":5,"distance":2029,"transit":false,"line":1,"i_lat":-6.185545,"i_long":106.811091,"station_id":"THB","station_name":"Tanah Abang"},{"station_id":"DU","station_name":"Duri","is_transit":true,"time":8,"i_lat":-6.155215,"i_long":106.800832,"line":1,"transit":true,"distance":3632},{"distance":1700,"i_lat":-6.162021,"line":5,"station_id":"GGL","station_name":"Grogol","time":3,"i_long":106.788277,"is_transit":false,"transit":false},{"i_long":106.771379,"is_transit":false,"time":2,"station_name":"Pesing","distance":2036,"line":5,"station_id":"PSG","transit":false,"i_lat":-6.161433},{"i_lat":-6.1587309999999995,"i_long":106.756522,"time":2,"is_transit":false,"distance":1614,"line":5,"station_name":"Taman Kota","station_id":"TKO","transit":false},{"line":5,"i_lat":-6.159876,"time":2,"station_name":"Bojongindah","station_id":"BOI","i_long":106.737035,"is_transit":false,"distance":2334,"transit":false},{"distance":1152,"station_name":"Rawa Buaya","i_lat":-6.162758,"station_id":"RW","i_long":106.723064,"is_transit":false,"time":4,"line":5,"transit":false},{"line":5,"time":3,"station_name":"Kalideres","station_id":"KDS","i_long":106.701612,"distance":2504,"i_lat":-6.166068,"is_transit":false,"transit":false}],[{"station_id":"BJD","i_long":106.792719,"is_transit":false,"distance":0,"time":0,"station_name":"Bojonggede","i_lat":-6.493243,"line":2,"transit":false},{"i_long":106.800298,"is_transit":false,"time":5,"i_lat":-6.448811,"line":2,"distance":5197,"transit":false,"station_id":"CTA","station_name":"Citayam"},{"i_lat":-6.405256,"is_transit":false,"time":6,"station_id":"DP","transit":false,"station_name":"Depok","i_long":106.816926,"distance":5084,"line":2},{"time":3,"station_id":"DPB","station_name":"Depokbaru","i_lat":-6.391065,"line":2,"distance":1584,"i_long":106.819451,"transit":false,"is_transit":false},{"i_long":106.831114,"is_transit":false,"time":4,"line":2,"distance":2727,"station_name":"Pondok Cina","station_id":"POC","transit":false,"i_lat":-6.369073},{"transit":false,"line":2,"station_name":"Univ. Indonesia","is_transit":false,"time":2,"station_id":"UI","i_lat":-6.360749,"i_long":106.831474,"distance":1109},{"time":3,"line":2,"distance":2264,"station_id":"UP","i_long":106.834175,"station_name":"Univ. Pancasila","transit":false,"is_transit":false,"i_lat":-6.339291},{"is_transit":false,"distance":1029,"i_lat":-6.330363,"station_name":"Lenteng Agung","station_id":"LNA","time":2,"i_long":106.832616,"transit":false,"line":2},{"time":3,"line":2,"distance":2671,"station_name":"Tanjung Barat","transit":false,"i_long":106.838896,"i_lat":-6.3080680000000005,"station_id":"TNT","is_transit":false},{"i_long":106.843999,"station_name":"Pasar Minggu","is_transit":false,"time":4,"distance":2820,"line":2,"i_lat":-6.2842400000000005,"station_id":"PSM","transit":false},{"i_lat":-6.263214,"station_id":"PSMB","time":2,"station_name":"Pasar Minggu Baru","transit":false,"line":2,"is_transit":false,"distance":2380,"i_long":106.851577},{"station_name":"Duren Kalibata","i_long":106.85449,"is_transit":false,"time":2,"station_id":"DRN","line":2,"distance":824,"transit":false,"i_lat":-6.255332},{"is_transit":false,"distance":1546,"time":3,"i_long":106.856607,"line":2,"station_name":"Cawang","transit":false,"i_lat":-6.242512,"station_id":"CW"},{"station_id":"TEB","transit":false,"distance":1230,"i_lat":-6.226659,"time":2,"i_long":106.857948,"line":2,"is_transit":false,"station_name":"Tebet"},{"station_name":"Manggarai","is_transit":false,"time":4,"i_lat":-6.209883,"line":2,"distance":2610,"station_id":"MRI","transit":false,"i_long":106.84912},{"is_transit":false,"i_long":106.840169,"distance":1590,"time":4,"station_id":"CKI","station_name":"Cikini","line":2,"transit":false,"i_lat":-6.198556},{"is_transit":false,"station_id":"GDD","i_lat":-6.186295,"time":3,"station_name":"Gondangdia","line":2,"transit":false,"distance":1750,"i_long":106.832183},{"station_name":"Juanda","is_transit":false,"transit":false,"time":4,"i_lat":-6.166716,"i_long":106.828284,"line":2,"distance":2015,"station_id":"JUA"},{"is_transit":false,"time":2,"station_id":"SW","line":2,"station_name":"Sawah Besar","transit":false,"distance":1149,"i_long":106.827103,"i_lat":-6.160725},{"line":2,"is_transit":false,"i_long":106.82482,"station_name":"Manggabesar","distance":906,"time":2,"i_lat":-6.149769,"station_id":"MGB","transit":false},{"distance":1080,"transit":false,"i_lat":-6.141205,"i_long":106.820901,"line":2,"is_transit":false,"station_name":"Jayakarta","time":2,"station_id":"JAY"},{"station_name":"Jakarta Kota","i_long":106.812439,"distance":1264,"is_transit":true,"line":2,"station_id":"JAKK","transit":true,"time":4,"i_lat":-6.137569},{"transit":true,"station_name":"Kampung Bandan","i_lat":-6.132549,"line":4,"station_id":"KPB","time":3,"is_transit":true,"distance":1364,"i_long":106.826365},{"station_id":"AK","i_long":106.79867,"time":9,"is_transit":false,"transit":false,"distance":4102,"station_name":"Angke","i_lat":-6.144674,"line":1},{"is_transit":true,"i_long":106.800832,"time":4,"station_name":"Duri","i_lat":-6.155215,"station_id":"DU","line":1,"distance":1230,"transit":true},{"station_name":"Grogol","distance":1700,"i_long":106.788277,"is_transit":false,"time":3,"station_id":"GGL","transit":false,"i_lat":-6.162021,"line":5},{"station_id":"PSG","station_name":"Pesing","transit":false,"distance":2036,"is_transit":false,"time":2,"line":5,"i_lat":-6.161433,"i_long":106.771379},{"time":2,"i_lat":-6.1587309999999995,"i_long":106.756522,"transit":false,"station_id":"TKO","station_name":"Taman Kota","is_transit":false,"distance":1614,"line":5},{"station_name":"Bojongindah","time":2,"i_long":106.737035,"line":5,"transit":false,"is_transit":false,"i_lat":-6.159876,"distance":2334,"station_id":"BOI"},{"station_name":"Rawa Buaya","is_transit":false,"station_id":"RW","transit":false,"i_long":106.723064,"time":4,"line":5,"i_lat":-6.162758,"distance":1152},{"i_lat":-6.166068,"station_id":"KDS","transit":false,"is_transit":false,"i_long":106.701612,"station_name":"Kalideres","time":3,"line":5,"distance":2504}],[{"distance":0,"line":2,"station_name":"Bojonggede","i_lat":-6.493243,"station_id":"BJD","transit":false,"i_long":106.792719,"time":0,"is_transit":false},{"is_transit":false,"station_id":"CTA","i_long":106.800298,"time":5,"station_name":"Citayam","transit":false,"line":2,"distance":5197,"i_lat":-6.448811},{"i_long":106.816926,"station_name":"Depok","is_transit":false,"transit":false,"line":2,"station_id":"DP","time":6,"i_lat":-6.405256,"distance":5084},{"is_transit":false,"i_long":106.819451,"distance":1584,"station_id":"DPB","station_name":"Depokbaru","line":2,"transit":false,"time":3,"i_lat":-6.391065},{"i_lat":-6.369073,"i_long":106.831114,"line":2,"station_name":"Pondok Cina","distance":2727,"time":4,"station_id":"POC","transit":false,"is_transit":false},{"is_transit":false,"time":2,"station_id":"UI","distance":1109,"i_lat":-6.360749,"i_long":106.831474,"line":2,"transit":false,"station_name":"Univ. Indonesia"},{"transit":false,"is_transit":false,"time":3,"i_long":106.834175,"distance":2264,"station_name":"Univ. Pancasila","i_lat":-6.339291,"line":2,"station_id":"UP"},{"i_long":106.832616,"line":2,"distance":1029,"time":2,"station_id":"LNA","transit":false,"i_lat":-6.330363,"station_name":"Lenteng Agung","is_transit":false},{"is_transit":false,"distance":2671,"time":3,"station_id":"TNT","i_lat":-6.3080680000000005,"i_long":106.838896,"line":2,"transit":false,"station_name":"Tanjung Barat"},{"i_lat":-6.2842400000000005,"distance":2820,"transit":false,"station_name":"Pasar Minggu","i_long":106.843999,"is_transit":false,"station_id":"PSM","time":4,"line":2},{"line":2,"station_id":"PSMB","i_lat":-6.263214,"i_long":106.851577,"time":2,"distance":2380,"station_name":"Pasar Minggu Baru","is_transit":false,"transit":false},{"distance":824,"transit":false,"line":2,"i_lat":-6.255332,"station_id":"DRN","station_name":"Duren Kalibata","is_transit":false,"time":2,"i_long":106.85449},{"line":2,"i_lat":-6.242512,"i_long":106.856607,"is_transit":false,"time":3,"station_name":"Cawang","distance":1546,"station_id":"CW","transit":false},{"time":2,"i_lat":-6.226659,"is_transit":false,"station_name":"Tebet","line":2,"distance":1230,"station_id":"TEB","transit":false,"i_long":106.857948},{"i_long":106.84912,"i_lat":-6.209883,"distance":2610,"station_id":"MRI","line":2,"time":4,"is_transit":true,"station_name":"Manggarai","transit":true},{"i_lat":-6.212485,"line":1,"station_name":"Matraman","station_id":"MTR","is_transit":false,"time":2,"distance":1275,"transit":false,"i_long":106.858896},{"station_id":"JNG","i_long":106.86807400000001,"line":1,"i_lat":-6.215091,"is_transit":true,"transit":true,"station_name":"Jatinegara","distance":1377,"time":8},{"distance":1236,"station_name":"Pondok Jati","i_lat":-6.209188,"i_long":106.861737,"station_id":"POK","time":2,"transit":false,"is_transit":false,"line":11},{"is_transit":false,"distance":1829,"transit":false,"line":11,"station_name":"Kramat","i_long":106.855437,"i_lat":-6.193792,"station_id":"KMT","time":2},{"is_transit":false,"transit":false,"station_id":"GST","station_name":"Gang Sentiong","time":1,"distance":973,"i_lat":-6.185975,"line":11,"i_long":106.850107},{"time":8,"transit":false,"station_name":"Pasar Senen","station_id":"PSE","i_long":106.84368,"distance":1567,"is_transit":false,"i_lat":-6.174784,"line":11},{"is_transit":false,"line":11,"i_lat":-6.161728,"time":4,"station_name":"Kemayoran","distance":1436,"station_id":"KMO","transit":false,"i_long":106.839204},{"i_lat":-6.14505,"is_transit":false,"distance":1901,"line":11,"time":5,"station_id":"RJW","station_name":"Rajawali","transit":false,"i_long":106.836569},{"station_name":"Kampung Bandan","distance":1444,"station_id":"KPB","i_long":106.826365,"i_lat":-6.132549,"line":4,"time":3,"transit":true,"is_transit":true},{"line":1,"transit":false,"i_lat":-6.144674,"distance":4102,"is_transit":false,"time":9,"station_id":"AK","i_long":106.79867,"station_name":"Angke"},{"i_lat":-6.155215,"is_transit":true,"transit":true,"i_long":106.800832,"time":4,"distance":1230,"station_name":"Duri","station_id":"DU","line":1},{"transit":false,"distance":1700,"time":3,"station_id":"GGL","i_lat":-6.162021,"line":5,"is_transit":false,"station_name":"Grogol","i_long":106.788277},{"i_long":106.771379,"time":2,"station_name":"Pesing","transit":false,"line":5,"is_transit":false,"distance":2036,"station_id":"PSG","i_lat":-6.161433},{"is_transit":false,"time":2,"transit":false,"line":5,"station_id":"TKO","station_name":"Taman Kota","distance":1614,"i_lat":-6.1587309999999995,"i_long":106.756522},{"time":2,"is_transit":false,"station_id":"BOI","i_lat":-6.159876,"i_long":106.737035,"station_name":"Bojongindah","transit":false,"line":5,"distance":2334},{"time":4,"station_id":"RW","i_lat":-6.162758,"is_transit":false,"transit":false,"station_name":"Rawa Buaya","line":5,"distance":1152,"i_long":106.723064},{"transit":false,"station_id":"KDS","station_name":"Kalideres","i_long":106.701612,"is_transit":false,"line":5,"i_lat":-6.166068,"time":3,"distance":2504}]]}