{"data":[[{"transit":false,"station_id":"BJD","station_name":"Bojonggede","time":0,"i_lat":-6.493243,"i_long":106.792719,"line":2,"is_transit":false,"distance":0},{"distance":5197,"i_lat":-6.448811,"is_transit":false,"time":5,"transit":false,"station_id":"CTA","station_name":"Citayam","i_long":106.800298,"line":2},{"time":6,"station_name":"Depok","is_transit":false,"i_lat":-6.405256,"line":2,"distance":5084,"transit":false,"i_long":106.816926,"station_id":"DP"},{"i_lat":-6.391065,"distance":1584,"time":3,"is_transit":false,"station_id":"DPB","line":2,"i_long":106.819451,"transit":false,"station_name":"Depokbaru"},{"transit":false,"time":4,"is_transit":false,"station_id":"POC","i_long":106.831114,"distance":2727,"station_name":"Pondok Cina","line":2,"i_lat":-6.369073},{"time":2,"distance":1109,"i_lat":-6.360749,"line":2,"station_name":"Univ. Indonesia","station_id":"UI","is_transit":false,"transit":false,"i_long":106.831474},{"station_id":"UP","station_name":"Univ. Pancasila","is_transit":false,"time":3,"distance":2264,"i_lat":-6.339291,"i_long":106.834175,"line":2,"transit":false},{"station_name":"Lenteng Agung","time":2,"distance":1029,"i_lat":-6.330363,"is_transit":false,"line":2,"transit":false,"station_id":"LNA","i_long":106.832616},{"i_long":106.838896,"transit":false,"is_transit":false,"distance":2671,"i_lat":-6.3080680000000005,"station_id":"TNT","time":3,"line":2,"station_name":"Tanjung Barat"},{"is_transit":false,"i_lat":-6.2842400000000005,"station_id":"PSM","transit":false,"station_name":"Pasar Minggu","distance":2820,"i_long":106.843999,"line":2,"time":4},{"i_lat":-6.263214,"station_id":"PSMB","distance":2380,"i_long":106.851577,"line":2,"is_transit":false,"time":2,"transit":false,"station_name":"Pasar Minggu Baru"},{"i_lat":-6.255332,"station_id":"DRN","station_name":"Duren Kalibata","is_transit":false,"distance":824,"line":2,"transit":false,"time":2,"i_long":106.85449},{"time":3,"i_lat":-6.242512,"station_name":"Cawang","distance":1546,"station_id":"CW","is_transit":false,"i_long":106.856607,"line":2,"transit":false}]]}