{"data":[[{"time":0,"is_transit":false,"station_id":"BJD","i_lat":-6.493243,"station_name":"Bojonggede","line":2,"distance":0,"i_long":106.792719,"transit":false},{"transit":false,"i_long":106.800298,"distance":5197,"time":5,"station_id":"CTA","station_name":"Citayam","is_transit":false,"i_lat":-6.448811,"line":2},{"i_long":106.816926,"line":2,"is_transit":false,"transit":false,"station_name":"Depok","time":6,"distance":5084,"station_id":"DP","i_lat":-6.405256},{"i_lat":-6.391065,"distance":1584,"time":3,"is_transit":false,"i_long":106.819451,"line":2,"station_name":"Depokbaru","transit":false,"station_id":"DPB"},{"time":4,"distance":2727,"station_id":"POC","transit":false,"i_lat":-6.369073,"line":2,"i_long":106.831114,"station_name":"Pondok Cina","is_transit":false},{"is_transit":false,"station_name":"Univ. Indonesia","transit":false,"time":2,"station_id":"UI","i_long":106.831474,"distance":1109,"line":2,"i_lat":-6.360749},{"station_id":"UP","i_long":106.834175,"time":3,"station_name":"Univ. Pancasila","is_transit":false,"distance":2264,"i_lat":-6.339291,"transit":false,"line":2},{"is_transit":false,"distance":1029,"i_lat":-6.330363,"line":2,"station_id":"LNA","station_name":"Lenteng Agung","i_long":106.832616,"time":2,"transit":false},{"transit":false,"i_long":106.838896,"station_name":"Tanjung Barat","line":2,"station_id":"TNT","is_transit":false,"i_lat":-6.3080680000000005,"time":3,"distance":2671},{"line":2,"station_name":"Pasar Minggu","is_transit":false,"time":4,"distance":2820,"station_id":"PSM","i_long":106.843999,"i_lat":-6.2842400000000005,"transit":false},{"i_lat":-6.263214,"transit":false,"station_name":"Pasar Minggu Baru","time":2,"distance":2380,"i_long":106.851577,"line":2,"is_transit":false,"station_id":"PSMB"},{"station_id":"DRN","i_long":106.85449,"i_lat":-6.255332,"time":2,"is_transit":false,"station_name":"Duren Kalibata","transit":false,"distance":824,"line":2},{"distance":1546,"i_long":106.856607,"i_lat":-6.242512,"time":3,"station_id":"CW","transit":false,"station_name":"Cawang","is_transit":false,"line":2},{"time":2,"i_lat":-6.226659,"line":2,"station_name":"Tebet","i_long":106.857948,"transit":false,"is_transit":false,"distance":1230,"station_id":"TEB"},{"distance":2610,"transit":true,"i_lat":-6.209883,"is_transit":true,"time":4,"station_id":"MRI","i_long":106.84912,"station_name":"Manggarai","line":2},{"distance":3186,"station_id":"SUD","line":1,"time":4,"i_long":106.822649,"i_lat":-6.202263,"station_name":"Sudirman","is_transit":false,"transit":false},{"distance":280,"i_lat":-6.201433,"transit":false,"time":1,"is_transit":false,"station_id":"SUDB","line":1,"station_name":"Sudirman Baru","i_long":106.819881},{"i_lat":-6.20132,"station_id":"KAT","station_name":"Karet","i_long":106.816351,"is_transit":false,"time":1,"distance":471,"line":1,"transit":false},{"line":1,"is_transit":false,"time":5,"station_name":"Tanah Abang","distance":2029,"i_lat":-6.185545,"transit":false,"i_long":106.811091,"station_id":"THB"},{"station_id":"DU","i_long":106.800832,"time":8,"station_name":"Duri","is_transit":true,"i_lat":-6.155215,"line":1,"distance":3632,"transit":true},{"is_transit":false,"i_long":106.788277,"i_lat":-6.162021,"station_name":"Grogol","line":5,"distance":1700,"station_id":"GGL","time":3,"transit":false},{"station_name":"Pesing","transit":false,"station_id":"PSG","is_transit":false,"i_long":106.771379,"time":2,"i_lat":-6.161433,"distance":2036,"line":5},{"distance":1614,"transit":false,"station_id":"TKO","time":2,"is_transit":false,"i_lat":-6.1587309999999995,"line":5,"station_name":"Taman Kota","i_long":106.756522},{"distance":2334,"station_id":"BOI","time":2,"station_name":"Bojongindah","line":5,"i_lat":-6.159876,"i_long":106.737035,"is_transit":false,"transit":false},{"transit":false,"time":4,"is_transit":false,"i_lat":-6.162758,"station_id":"RW","i_long":106.723064,"station_name":"Rawa Buaya","distance":1152,"line":5},{"time":3,"is_transit":false,"i_long":106.701612,"station_name":"Kalideres","distance":2504,"line":5,"i_lat":-6.166068,"station_id":"KDS","transit":false},{"station_id":"PI","is_transit":false,"distance":2548,"time":3,"i_lat":-6.169933,"i_long":106.679458,"transit":false,"line":5,"station_name":"Poris"},{"time":3,"station_name":"Batuceper","transit":false,"i_long":106.665036,"distance":1834,"station_id":"BPR","is_transit":false,"i_lat":-6.171811,"line":5}],[{"transit":false,"line":2,"station_name":"Bojonggede","i_lat":-6.493243,"is_transit":false,"i_long":106.792719,"time":0,"station_id":"BJD","distance":0},{"transit":false,"station_name":"Citayam","distance":5197,"is_transit":false,"station_id":"CTA","i_long":106.800298,"line":2,"i_lat":-6.448811,"time":5},{"i_long":106.816926,"line":2,"distance":5084,"time":6,"station_id":"DP","is_transit":false,"transit":false,"i_lat":-6.405256,"station_name":"Depok"},{"station_id":"DPB","transit":false,"station_name":"Depokbaru","is_transit":false,"i_lat":-6.391065,"distance":1584,"line":2,"i_long":106.819451,"time":3},{"station_id":"POC","i_long":106.831114,"station_name":"Pondok Cina","time":4,"transit":false,"distance":2727,"i_lat":-6.369073,"line":2,"is_transit":false},{"line":2,"transit":false,"is_transit":false,"station_name":"Univ. Indonesia","i_lat":-6.360749,"time":2,"station_id":"UI","distance":1109,"i_long":106.831474},{"i_long":106.834175,"station_id":"UP","is_transit":false,"station_name":"Univ. Pancasila","time":3,"transit":false,"line":2,"distance":2264,"i_lat":-6.339291},{"transit":false,"i_lat":-6.330363,"station_id":"LNA","time":2,"distance":1029,"is_transit":false,"station_name":"Lenteng Agung","i_long":106.832616,"line":2},{"station_name":"Tanjung Barat","line":2,"i_long":106.838896,"distance":2671,"transit":false,"time":3,"is_transit":false,"station_id":"TNT","i_lat":-6.3080680000000005},{"is_transit":false,"distance":2820,"i_lat":-6.2842400000000005,"time":4,"station_name":"Pasar Minggu","i_long":106.843999,"line":2,"transit":false,"station_id":"PSM"},{"is_transit":false,"station_id":"PSMB","station_name":"Pasar Minggu Baru","distance":2380,"line":2,"time":2,"transit":false,"i_lat":-6.263214,"i_long":106.851577},{"is_transit":false,"i_long":106.85449,"line":2,"distance":824,"station_name":"Duren Kalibata","transit":false,"i_lat":-6.255332,"time":2,"station_id":"DRN"},{"line":2,"station_id":"CW","time":3,"station_name":"Cawang","i_lat":-6.242512,"i_long":106.856607,"distance":1546,"transit":false,"is_transit":false},{"line":2,"transit":false,"i_long":106.857948,"station_name":"Tebet","i_lat":-6.226659,"is_transit":false,"time":2,"station_id":"TEB","distance":1230},{"transit":false,"i_long":106.84912,"station_id":"MRI","time":4,"distance":2610,"i_lat":-6.209883,"is_transit":false,"station_name":"Manggarai","line":2},{"distance":1590,"i_lat":-6.198556,"i_long":106.840169,"line":2,"station_name":"Cikini","transit":false,"station_id":"CKI","is_transit":false,"time":4},{"i_long":106.832183,"is_transit":false,"i_lat":-6.186295,"distance":1750,"time":3,"station_id":"GDD","station_name":"Gondangdia","line":2,"transit":false},{"transit":false,"time":4,"station_id":"JUA","i_long":106.828284,"line":2,"distance":2015,"is_transit":false,"station_name":"Juanda","i_lat":-6.166716},{"i_long":106.827103,"i_lat":-6.160725,"station_id":"SW","station_name":"Sawah Besar","time":2,"is_transit":false,"distance":1149,"transit":false,"line":2},{"station_id":"MGB","time":2,"distance":906,"i_long":106.82482,"is_transit":false,"i_lat":-6.149769,"station_name":"Manggabesar","line":2,"transit":false},{"transit":false,"station_id":"JAY","is_transit":false,"i_lat":-6.141205,"time":2,"station_name":"Jayakarta","distance":1080,"i_long":106.820901,"line":2},{"i_long":106.812439,"line":2,"i_lat":-6.137569,"station_id":"JAKK","is_transit":true,"distance":1264,"transit":true,"time":4,"station_name":"Jakarta Kota"},{"station_id":"KPB","line":4,"distance":1364,"transit":true,"i_long":106.826365,"is_transit":true,"station_name":"Kampung Bandan","time":3,"i_lat":-6.132549},{"line":1,"station_id":"AK","i_long":106.79867,"distance":4102,"station_name":"Angke","transit":false,"time":9,"i_lat":-6.144674,"is_transit":false},{"time":4,"i_long":106.800832,"is_transit":true,"station_id":"DU","station_name":"Duri","i_lat":-6.155215,"distance":1230,"transit":true,"line":1},{"line":5,"distance":1700,"transit":false,"is_transit":false,"time":3,"i_long":106.788277,"i_lat":-6.162021,"station_id":"GGL","station_name":"Grogol"},{"i_lat":-6.161433,"station_id":"PSG","i_long":106.771379,"distance":2036,"station_name":"Pesing","time":2,"transit":false,"line":5,"is_transit":false},{"i_long":106.756522,"station_name":"Taman Kota","distance":1614,"time":2,"line":5,"station_id":"TKO","is_transit":false,"transit":false,"i_lat":-6.1587309999999995},{"i_long":106.737035,"station_name":"Bojongindah","station_id":"BOI","transit":false,"i_lat":-6.159876,"line":5,"is_transit":false,"time":2,"distance":2334},{"is_transit":false,"transit":false,"i_long":106.723064,"time":4,"i_lat":-6.162758,"station_name":"Rawa Buaya","distance":1152,"line":5,"station_id":"RW"},{"station_name":"Kalideres","i_long":106.701612,"line":5,"distance":2504,"time":3,"is_transit":false,"transit":false,"i_lat":-6.166068,"station_id":"KDS"},{"distance":2548,"i_long":106.679458,"line":5,"transit":false,"i_lat":-6.169933,"station_name":"Poris","time":3,"station_id":"PI","is_transit":false},{"line":5,"is_transit":false,"i_long":106.665036,"transit":false,"station_id":"BPR","time":3,"station_name":"Batuceper","distance":1834,"i_lat":-6.171811}],[{"station_name":"Bojonggede","time":0,"transit":false,"line":2,"i_lat":-6.493243,"distance":0,"i_long":106.792719,"is_transit":false,"station_id":"BJD"},{"i_long":106.800298,"line":2,"transit":false,"is_transit":false,"i_lat":-6.448811,"distance":5197,"station_name":"Citayam","time":5,"station_id":"CTA"},{"station_name":"Depok","i_lat":-6.405256,"time":6,"is_transit":false,"line":2,"distance":5084,"transit":false,"i_long":106.816926,"station_id":"DP"},{"i_lat":-6.391065,"station_id":"DPB","distance":1584,"i_long":106.819451,"transit":false,"line":2,"time":3,"station_name":"Depokbaru","is_transit":false},{"i_long":106.831114,"time":4,"station_name":"Pondok Cina","transit":false,"is_transit":false,"station_id":"POC","i_lat":-6.369073,"line":2,"distance":2727},{"station_id":"UI","i_lat":-6.360749,"i_long":106.831474,"station_name":"Univ. Indonesia","distance":1109,"transit":false,"time":2,"is_transit":false,"line":2},{"station_name":"Univ. Pancasila","station_id":"UP","i_long":106.834175,"is_transit":false,"transit":false,"i_lat":-6.339291,"line":2,"time":3,"distance":2264},{"i_lat":-6.330363,"line":2,"transit":false,"time":2,"i_long":106.832616,"distance":1029,"station_id":"LNA","station_name":"Lenteng Agung","is_transit":false},{"line":2,"i_long":106.838896,"is_transit":false,"i_lat":-6.3080680000000005,"transit":false,"station_id":"TNT","time":3,"distance":2671,"station_name":"Tanjung Barat"},{"line":2,"i_lat":-6.2842400000000005,"distance":2820,"time":4,"station_id":"PSM","is_transit":false,"station_name":"Pasar Minggu","transit":false,"i_long":106.843999},{"i_long":106.851577,"station_id":"PSMB","time":2,"distance":2380,"i_lat":-6.263214,"is_transit":false,"line":2,"station_name":"Pasar Minggu Baru","transit":false},{"station_name":"Duren Kalibata","time":2,"i_long":106.85449,"distance":824,"line":2,"is_transit":false,"i_lat":-6.255332,"station_id":"DRN","transit":false},{"i_long":106.856607,"station_id":"CW","is_transit":false,"transit":false,"distance":1546,"line":2,"station_name":"Cawang","i_lat":-6.242512,"time":3},{"is_transit":false,"i_lat":-6.226659,"line":2,"transit":false,"station_name":"Tebet","time":2,"i_long":106.857948,"station_id":"TEB","distance":1230},{"is_transit":true,"i_lat":-6.209883,"time":4,"line":2,"station_id":"MRI","station_name":"Manggarai","distance":2610,"i_long":106.84912,"transit":true},{"station_name":"Matraman","i_long":106.858896,"distance":1275,"is_transit":false,"line":1,"station_id":"MTR","time":2,"i_lat":-6.212485,"transit":false},{"line":1,"is_transit":true,"i_lat":-6.215091,"time":8,"station_id":"JNG","station_name":"Jatinegara","distance":1377,"i_long":106.86807400000001,"transit":true},{"transit":false,"is_transit":false,"i_lat":-6.209188,"line":11,"i_long":106.861737,"station_id":"POK","distance":1236,"station_name":"Pondok Jati","time":2},{"i_long":106.855437,"station_name":"Kramat","line":11,"time":2,"i_lat":-6.193792,"transit":false,"station_id":"KMT","distance":1829,"is_transit":false},{"i_long":106.850107,"is_transit":false,"line":11,"i_lat":-6.185975,"distance":973,"time":1,"transit":false,"station_id":"GST","station_name":"Gang Sentiong"},{"transit":false,"time":8,"i_long":106.84368,"i_lat":-6.174784,"station_name":"Pasar Senen","station_id":"PSE","distance":1567,"is_transit":false,"line":11},{"is_transit":false,"distance":1436,"station_name":"Kemayoran","i_lat":-6.161728,"time":4,"line":11,"i_long":106.839204,"station_id":"KMO","transit":false},{"station_name":"Rajawali","station_id":"RJW","transit":false,"i_long":106.836569,"line":11,"distance":1901,"time":5,"is_transit":false,"i_lat":-6.14505},{"is_transit":true,"i_lat":-6.132549,"transit":true,"station_name":"Kampung Bandan","i_long":106.826365,"station_id":"KPB","time":3,"distance":1444,"line":4},{"station_id":"AK","transit":false,"station_name":"Angke","i_lat":-6.144674,"i_long":106.79867,"time":9,"line":1,"distance":4102,"is_transit":false},{"time":4,"distance":1230,"transit":true,"station_id":"DU","i_lat":-6.155215,"is_transit":true,"line":1,"station_name":"Duri","i_long":106.800832},{"station_id":"GGL","transit":false,"time":3,"station_name":"Grogol","i_lat":-6.162021,"line":5,"distance":1700,"is_transit":false,"i_long":106.788277},{"line":5,"is_transit":false,"time":2,"i_long":106.771379,"station_name":"Pesing","i_lat":-6.161433,"station_id":"PSG","transit":false,"distance":2036},{"line":5,"is_transit":false,"station_name":"Taman Kota","i_lat":-6.1587309999999995,"station_id":"TKO","time":2,"distance":1614,"transit":false,"i_long":106.756522},{"station_name":"Bojongindah","transit":false,"is_transit":false,"station_id":"BOI","i_lat":-6.159876,"time":2,"distance":2334,"i_long":106.737035,"line":5},{"i_lat":-6.162758,"is_transit":false,"time":4,"i_long":106.723064,"distance":1152,"station_id":"RW","transit":false,"line":5,"station_name":"Rawa Buaya"},{"i_long":106.701612,"line":5,"transit":false,"is_transit":false,"station_id":"KDS","i_lat":-6.166068,"distance":2504,"station_name":"Kalideres","time":3},{"time":3,"i_long":106.679458,"transit":false,"i_lat":-6.169933,"distance":2548,"line":5,"is_transit":false,"station_name":"Poris","station_id":"PI"},{"time":3,"station_name":"Batuceper","is_transit":false,"i_long":106.665036,"station_id":"BPR","line":5,"transit":false,"i_lat":-6.171811,"distance":1834}]]}