{"data":[[{"station_name":"Bojonggede","is_transit":false,"i_lat":-6.493243,"time":0,"distance":0,"i_long":106.792719,"line":0,"transit":false,"station_id":"BJD"},{"i_long":106.800298,"line":1,"time":5,"i_lat":-6.448811,"transit":false,"station_name":"Citayam","distance":5197,"station_id":"CTA","is_transit":true},{"is_transit":false,"i_lat":-6.405256,"line":0,"station_name":"Depok","time":6,"distance":5084,"transit":false,"station_id":"DP","i_long":106.816926},{"line":0,"transit":false,"station_id":"DPB","time":3,"distance":1584,"i_long":106.819451,"i_lat":-6.391065,"is_transit":false,"station_name":"Depokbaru"},{"i_lat":-6.369073,"is_transit":false,"time":4,"station_name":"Pondok Cina","station_id":"POC","transit":false,"i_long":106.831114,"line":2,"distance":2727},{"line":2,"is_transit":false,"time":2,"distance":1109,"i_long":106.831474,"station_id":"UI","transit":false,"station_name":"Univ. Indonesia","i_lat":-6.360749},{"line":2,"i_lat":-6.339291,"distance":2264,"i_long":106.834175,"station_id":"UP","is_transit":false,"station_name":"Univ. Pancasila","transit":false,"time":3},{"station_id":"LNA","is_transit":false,"time":2,"distance":1029,"station_name":"Lenteng Agung","transit":false,"i_long":106.832616,"i_lat":-6.330363,"line":2},{"distance":2671,"i_lat":-6.3080680000000005,"i_long":106.838896,"is_transit":false,"station_name":"Tanjung Barat","transit":false,"line":2,"time":3,"station_id":"TNT"},{"i_long":106.843999,"i_lat":-6.2842400000000005,"distance":2820,"station_name":"Pasar Minggu","station_id":"PSM","time":4,"line":2,"transit":false,"is_transit":false},{"i_long":106.851577,"i_lat":-6.263214,"time":2,"distance":2380,"station_id":"PSMB","station_name":"Pasar Minggu Baru","transit":false,"is_transit":false,"line":2},{"i_long":106.85449,"station_id":"DRN","line":0,"station_name":"Duren Kalibata","distance":824,"i_lat":-6.255332,"transit":false,"time":2,"is_transit":false},{"line":0,"is_transit":false,"station_id":"CW","i_long":106.856607,"time":3,"station_name":"Cawang","distance":1546,"i_lat":-6.242512,"transit":false},{"station_name":"Tebet","station_id":"TEB","line":2,"i_long":106.857948,"time":2,"transit":false,"i_lat":-6.226659,"is_transit":false,"distance":1230},{"time":4,"distance":2610,"is_transit":true,"station_name":"Manggarai","station_id":"MRI","transit":true,"line":0,"i_lat":-6.209883,"i_long":106.84912},{"distance":1590,"transit":false,"line":0,"is_transit":false,"station_name":"Cikini","time":4,"i_long":106.840169,"i_lat":-6.198556,"station_id":"CKI"},{"time":3,"station_id":"GDD","distance":1750,"station_name":"Gondangdia","i_long":106.832183,"i_lat":-6.186295,"is_transit":false,"transit":false,"line":2},{"transit":false,"line":2,"i_long":106.828284,"station_id":"JUA","distance":2015,"time":4,"is_transit":false,"station_name":"Juanda","i_lat":-6.166716},{"station_id":"SW","transit":false,"time":2,"line":2,"is_transit":false,"distance":1149,"i_lat":-6.160725,"station_name":"Sawah Besar","i_long":106.827103},{"i_lat":-6.149769,"i_long":106.82482,"station_id":"MGB","transit":false,"distance":906,"line":2,"is_transit":false,"time":2,"station_name":"Manggabesar"},{"time":2,"i_long":106.820901,"line":7,"station_id":"JAY","station_name":"Jayakarta","is_transit":false,"distance":1080,"transit":false,"i_lat":-6.141205}],[{"station_name":"Bojonggede","transit":false,"i_lat":-6.493243,"line":0,"i_long":106.792719,"is_transit":false,"distance":0,"station_id":"BJD","time":0},{"distance":5197,"station_name":"Citayam","transit":false,"time":5,"is_transit":true,"i_long":106.800298,"line":1,"i_lat":-6.448811,"station_id":"CTA"},{"distance":5084,"transit":false,"station_id":"DP","time":6,"station_name":"Depok","i_long":106.816926,"is_transit":false,"line":0,"i_lat":-6.405256},{"distance":1584,"station_id":"DPB","time":3,"is_transit":false,"transit":false,"i_lat":-6.391065,"i_long":106.819451,"line":0,"station_name":"Depokbaru"},{"station_name":"Pondok Cina","transit":false,"station_id":"POC","i_lat":-6.369073,"line":2,"time":4,"i_long":106.831114,"is_transit":false,"distance":2727},{"line":2,"station_name":"Univ. Indonesia","station_id":"UI","i_long":106.831474,"is_transit":false,"distance":1109,"transit":false,"time":2,"i_lat":-6.360749},{"transit":false,"station_id":"UP","i_lat":-6.339291,"time":3,"is_transit":false,"i_long":106.834175,"line":2,"distance":2264,"station_name":"Univ. Pancasila"},{"line":2,"station_id":"LNA","distance":1029,"transit":false,"i_lat":-6.330363,"i_long":106.832616,"is_transit":false,"station_name":"Lenteng Agung","time":2},{"station_id":"TNT","station_name":"Tanjung Barat","line":2,"distance":2671,"is_transit":false,"i_lat":-6.3080680000000005,"i_long":106.838896,"transit":false,"time":3},{"distance":2820,"i_lat":-6.2842400000000005,"station_id":"PSM","i_long":106.843999,"time":4,"line":2,"transit":false,"station_name":"Pasar Minggu","is_transit":false},{"station_name":"Pasar Minggu Baru","transit":false,"i_long":106.851577,"time":2,"station_id":"PSMB","is_transit":false,"line":2,"i_lat":-6.263214,"distance":2380},{"is_transit":false,"time":2,"line":0,"i_lat":-6.255332,"transit":false,"station_name":"Duren Kalibata","station_id":"DRN","i_long":106.85449,"distance":824},{"i_lat":-6.242512,"i_long":106.856607,"distance":1546,"transit":false,"line":0,"station_id":"CW","time":3,"station_name":"Cawang","is_transit":false},{"i_lat":-6.226659,"distance":1230,"transit":false,"i_long":106.857948,"time":2,"station_id":"TEB","is_transit":false,"station_name":"Tebet","line":2},{"time":4,"station_id":"MRI","is_transit":true,"distance":2610,"station_name":"Manggarai","i_lat":-6.209883,"transit":true,"line":0,"i_long":106.84912},{"station_id":"SUD","distance":3186,"time":4,"station_name":"Sudirman","is_transit":false,"transit":false,"i_long":106.822649,"i_lat":-6.202263,"line":1},{"distance":280,"is_transit":false,"station_name":"Sudirman Baru","transit":false,"i_long":106.819881,"line":1,"station_id":"SUDB","i_lat":-6.201433,"time":1},{"station_name":"Karet","station_id":"KAT","i_long":106.816351,"line":1,"is_transit":false,"time":1,"i_lat":-6.20132,"transit":false,"distance":471},{"station_id":"THB","i_long":106.811091,"i_lat":-6.185545,"is_transit":true,"distance":2029,"time":5,"line":1,"station_name":"Tanah Abang","transit":false},{"transit":true,"station_name":"Duri","is_transit":true,"time":8,"station_id":"DU","distance":3632,"i_lat":-6.155215,"i_long":106.800832,"line":1},{"station_id":"AK","time":4,"station_name":"Angke","line":0,"transit":false,"i_lat":-6.144674,"distance":1230,"is_transit":false,"i_long":106.79867},{"time":9,"is_transit":true,"line":0,"station_id":"KPB","distance":4102,"station_name":"Kampung Bandan","transit":false,"i_lat":-6.132549,"i_long":106.826365},{"distance":1364,"line":0,"is_transit":true,"i_long":106.812439,"station_name":"Jakarta Kota","time":3,"station_id":"JAKK","transit":true,"i_lat":-6.137569},{"i_long":106.820901,"station_id":"JAY","station_name":"Jayakarta","is_transit":false,"line":7,"transit":false,"i_lat":-6.141205,"time":4,"distance":1264}],[{"time":0,"station_name":"Bojonggede","distance":0,"line":0,"is_transit":false,"station_id":"BJD","i_long":106.792719,"i_lat":-6.493243,"transit":false},{"i_long":106.800298,"station_id":"CTA","station_name":"Citayam","distance":5197,"line":1,"i_lat":-6.448811,"is_transit":true,"transit":false,"time":5},{"is_transit":false,"time":6,"station_name":"Depok","station_id":"DP","i_lat":-6.405256,"i_long":106.816926,"distance":5084,"transit":false,"line":0},{"i_lat":-6.391065,"is_transit":false,"station_id":"DPB","i_long":106.819451,"station_name":"Depokbaru","line":0,"distance":1584,"transit":false,"time":3},{"line":2,"station_name":"Pondok Cina","station_id":"POC","distance":2727,"time":4,"transit":false,"i_lat":-6.369073,"is_transit":false,"i_long":106.831114},{"station_id":"UI","is_transit":false,"station_name":"Univ. Indonesia","line":2,"time":2,"i_lat":-6.360749,"i_long":106.831474,"transit":false,"distance":1109},{"station_id":"UP","distance":2264,"line":2,"station_name":"Univ. Pancasila","i_long":106.834175,"is_transit":false,"i_lat":-6.339291,"time":3,"transit":false},{"station_name":"Lenteng Agung","transit":false,"i_long":106.832616,"is_transit":false,"line":2,"i_lat":-6.330363,"station_id":"LNA","distance":1029,"time":2},{"i_lat":-6.3080680000000005,"station_id":"TNT","time":3,"distance":2671,"i_long":106.838896,"line":2,"station_name":"Tanjung Barat","transit":false,"is_transit":false},{"time":4,"station_name":"Pasar Minggu","line":2,"distance":2820,"is_transit":false,"transit":false,"i_lat":-6.2842400000000005,"station_id":"PSM","i_long":106.843999},{"station_name":"Pasar Minggu Baru","time":2,"i_lat":-6.263214,"line":2,"i_long":106.851577,"station_id":"PSMB","is_transit":false,"distance":2380,"transit":false},{"line":0,"time":2,"station_name":"Duren Kalibata","distance":824,"i_lat":-6.255332,"i_long":106.85449,"station_id":"DRN","is_transit":false,"transit":false},{"i_long":106.856607,"is_transit":false,"time":3,"distance":1546,"station_name":"Cawang","station_id":"CW","line":0,"i_lat":-6.242512,"transit":false},{"i_lat":-6.226659,"station_id":"TEB","distance":1230,"station_name":"Tebet","is_transit":false,"i_long":106.857948,"line":2,"transit":false,"time":2},{"time":4,"is_transit":true,"station_id":"MRI","station_name":"Manggarai","transit":true,"distance":2610,"i_lat":-6.209883,"i_long":106.84912,"line":0},{"is_transit":false,"station_id":"MTR","time":2,"transit":false,"line":1,"distance":1275,"i_lat":-6.212485,"station_name":"Matraman","i_long":106.858896},{"distance":1377,"i_lat":-6.215091,"station_name":"Jatinegara","line":0,"time":8,"transit":true,"i_long":106.86807400000001,"is_transit":true,"station_id":"JNG"},{"i_lat":-6.209188,"time":2,"station_id":"POK","station_name":"Pondok Jati","distance":1236,"i_long":106.861737,"is_transit":false,"line":11,"transit":false},{"transit":false,"time":2,"i_lat":-6.193792,"distance":1829,"i_long":106.855437,"is_transit":false,"line":11,"station_name":"Kramat","station_id":"KMT"},{"is_transit":false,"line":11,"i_lat":-6.185975,"station_name":"Gang Sentiong","i_long":106.850107,"station_id":"GST","time":1,"transit":false,"distance":973},{"time":8,"distance":1567,"is_transit":false,"station_id":"PSE","i_lat":-6.174784,"i_long":106.84368,"line":11,"transit":false,"station_name":"Pasar Senen"},{"line":11,"station_name":"Kemayoran","distance":1436,"is_transit":false,"station_id":"KMO","time":4,"transit":false,"i_lat":-6.161728,"i_long":106.839204},{"station_name":"Rajawali","i_long":106.836569,"transit":false,"station_id":"RJW","time":5,"distance":1901,"i_lat":-6.14505,"is_transit":false,"line":11},{"transit":true,"line":0,"distance":1444,"station_id":"KPB","i_lat":-6.132549,"station_name":"Kampung Bandan","is_transit":true,"i_long":106.826365,"time":3},{"station_name":"Jakarta Kota","is_transit":true,"line":0,"i_lat":-6.137569,"time":3,"distance":1364,"i_long":106.812439,"station_id":"JAKK","transit":true},{"station_id":"JAY","time":4,"is_transit":false,"distance":1264,"transit":false,"line":7,"i_lat":-6.141205,"i_long":106.820901,"station_name":"Jayakarta"}]]}