{"data":[[{"is_transit":false,"transit":false,"i_long":106.792719,"station_name":"Bojonggede","station_id":"BJD","distance":0,"time":0,"line":0,"i_lat":-6.493243},{"time":5,"i_long":106.800298,"distance":5197,"line":1,"station_name":"Citayam","station_id":"CTA","transit":false,"i_lat":-6.448811,"is_transit":true},{"station_name":"Depok","time":6,"is_transit":false,"transit":false,"distance":5084,"i_lat":-6.405256,"station_id":"DP","i_long":106.816926,"line":0},{"i_long":106.819451,"station_id":"DPB","time":3,"line":0,"station_name":"Depokbaru","distance":1584,"i_lat":-6.391065,"is_transit":false,"transit":false},{"line":2,"i_lat":-6.369073,"time":4,"station_id":"POC","station_name":"Pondok Cina","transit":false,"distance":2727,"i_long":106.831114,"is_transit":false},{"time":2,"station_id":"UI","line":2,"station_name":"Univ. Indonesia","i_long":106.831474,"is_transit":false,"transit":false,"distance":1109,"i_lat":-6.360749},{"distance":2264,"is_transit":false,"station_id":"UP","i_long":106.834175,"time":3,"station_name":"Univ. Pancasila","i_lat":-6.339291,"line":2,"transit":false},{"distance":1029,"is_transit":false,"time":2,"transit":false,"station_name":"Lenteng Agung","station_id":"LNA","i_lat":-6.330363,"i_long":106.832616,"line":2},{"time":3,"i_long":106.838896,"station_id":"TNT","i_lat":-6.3080680000000005,"is_transit":false,"line":2,"station_name":"Tanjung Barat","distance":2671,"transit":false},{"i_long":106.843999,"distance":2820,"is_transit":false,"transit":false,"station_name":"Pasar Minggu","time":4,"i_lat":-6.2842400000000005,"station_id":"PSM","line":2},{"line":2,"transit":false,"i_lat":-6.263214,"distance":2380,"station_id":"PSMB","time":2,"i_long":106.851577,"is_transit":false,"station_name":"Pasar Minggu Baru"},{"is_transit":false,"line":0,"time":2,"station_id":"DRN","station_name":"Duren Kalibata","i_lat":-6.255332,"distance":824,"transit":false,"i_long":106.85449},{"i_long":106.856607,"distance":1546,"i_lat":-6.242512,"time":3,"station_name":"Cawang","station_id":"CW","transit":false,"is_transit":false,"line":0},{"is_transit":false,"transit":false,"i_long":106.857948,"time":2,"line":2,"station_name":"Tebet","i_lat":-6.226659,"distance":1230,"station_id":"TEB"},{"time":4,"line":0,"i_long":106.84912,"is_transit":true,"transit":true,"station_id":"MRI","distance":2610,"station_name":"Manggarai","i_lat":-6.209883},{"distance":3186,"is_transit":false,"time":4,"station_id":"SUD","transit":false,"line":1,"i_long":106.822649,"i_lat":-6.202263,"station_name":"Sudirman"},{"is_transit":false,"line":1,"i_lat":-6.201433,"time":1,"distance":280,"station_name":"Sudirman Baru","transit":false,"station_id":"SUDB","i_long":106.819881},{"line":1,"station_name":"Karet","is_transit":false,"transit":false,"time":1,"distance":471,"station_id":"KAT","i_lat":-6.20132,"i_long":106.816351},{"time":5,"station_name":"Tanah Abang","station_id":"THB","transit":false,"i_lat":-6.185545,"is_transit":true,"i_long":106.811091,"line":1,"distance":2029},{"station_name":"Duri","i_long":106.800832,"station_id":"DU","distance":3632,"time":8,"transit":true,"i_lat":-6.155215,"is_transit":true,"line":1},{"transit":false,"time":3,"i_long":106.788277,"i_lat":-6.162021,"station_id":"GGL","line":5,"distance":1700,"is_transit":false,"station_name":"Grogol"},{"time":2,"transit":false,"station_id":"PSG","station_name":"Pesing","distance":2036,"i_lat":-6.161433,"i_long":106.771379,"line":5,"is_transit":false},{"i_lat":-6.1587309999999995,"i_long":106.756522,"is_transit":false,"line":5,"distance":1614,"transit":false,"station_id":"TKO","time":2,"station_name":"Taman Kota"}],[{"line":0,"i_lat":-6.493243,"distance":0,"i_long":106.792719,"transit":false,"time":0,"is_transit":false,"station_id":"BJD","station_name":"Bojonggede"},{"line":1,"i_lat":-6.448811,"time":5,"station_id":"CTA","is_transit":true,"transit":false,"distance":5197,"station_name":"Citayam","i_long":106.800298},{"station_id":"DP","i_long":106.816926,"is_transit":false,"line":0,"station_name":"Depok","transit":false,"i_lat":-6.405256,"time":6,"distance":5084},{"line":0,"i_lat":-6.391065,"transit":false,"i_long":106.819451,"distance":1584,"time":3,"station_name":"Depokbaru","station_id":"DPB","is_transit":false},{"line":2,"is_transit":false,"time":4,"transit":false,"i_long":106.831114,"distance":2727,"station_id":"POC","i_lat":-6.369073,"station_name":"Pondok Cina"},{"transit":false,"station_name":"Univ. Indonesia","i_long":106.831474,"distance":1109,"i_lat":-6.360749,"station_id":"UI","line":2,"time":2,"is_transit":false},{"distance":2264,"transit":false,"i_long":106.834175,"time":3,"line":2,"station_name":"Univ. Pancasila","station_id":"UP","i_lat":-6.339291,"is_transit":false},{"i_long":106.832616,"station_name":"Lenteng Agung","i_lat":-6.330363,"distance":1029,"station_id":"LNA","line":2,"is_transit":false,"transit":false,"time":2},{"distance":2671,"line":2,"i_long":106.838896,"station_id":"TNT","time":3,"is_transit":false,"transit":false,"station_name":"Tanjung Barat","i_lat":-6.3080680000000005},{"station_id":"PSM","time":4,"i_lat":-6.2842400000000005,"i_long":106.843999,"station_name":"Pasar Minggu","line":2,"is_transit":false,"transit":false,"distance":2820},{"line":2,"distance":2380,"i_lat":-6.263214,"is_transit":false,"i_long":106.851577,"station_id":"PSMB","time":2,"transit":false,"station_name":"Pasar Minggu Baru"},{"line":0,"time":2,"distance":824,"transit":false,"station_name":"Duren Kalibata","i_long":106.85449,"is_transit":false,"station_id":"DRN","i_lat":-6.255332},{"distance":1546,"is_transit":false,"station_id":"CW","i_long":106.856607,"station_name":"Cawang","i_lat":-6.242512,"line":0,"transit":false,"time":3},{"station_id":"TEB","time":2,"line":2,"transit":false,"i_long":106.857948,"is_transit":false,"distance":1230,"station_name":"Tebet","i_lat":-6.226659},{"is_transit":true,"i_lat":-6.209883,"distance":2610,"transit":true,"i_long":106.84912,"station_id":"MRI","line":0,"station_name":"Manggarai","time":4},{"time":4,"station_name":"Cikini","line":0,"transit":false,"station_id":"CKI","i_long":106.840169,"is_transit":false,"i_lat":-6.198556,"distance":1590},{"transit":false,"time":3,"station_name":"Gondangdia","i_long":106.832183,"line":2,"is_transit":false,"i_lat":-6.186295,"station_id":"GDD","distance":1750},{"time":4,"transit":false,"is_transit":false,"station_id":"JUA","distance":2015,"station_name":"Juanda","i_lat":-6.166716,"line":2,"i_long":106.828284},{"line":2,"time":2,"is_transit":false,"i_long":106.827103,"i_lat":-6.160725,"station_id":"SW","transit":false,"distance":1149,"station_name":"Sawah Besar"},{"i_long":106.82482,"i_lat":-6.149769,"station_name":"Manggabesar","line":2,"distance":906,"time":2,"transit":false,"is_transit":false,"station_id":"MGB"},{"line":7,"transit":false,"station_id":"JAY","i_lat":-6.141205,"time":2,"station_name":"Jayakarta","distance":1080,"is_transit":false,"i_long":106.820901},{"i_long":106.812439,"station_id":"JAKK","line":0,"transit":true,"distance":1264,"time":4,"is_transit":true,"i_lat":-6.137569,"station_name":"Jakarta Kota"},{"i_lat":-6.132549,"transit":false,"line":0,"station_name":"Kampung Bandan","station_id":"KPB","time":3,"is_transit":true,"distance":1364,"i_long":106.826365},{"i_long":106.79867,"time":9,"distance":4102,"is_transit":false,"station_name":"Angke","station_id":"AK","transit":false,"i_lat":-6.144674,"line":0},{"station_name":"Duri","line":1,"station_id":"DU","i_lat":-6.155215,"i_long":106.800832,"time":4,"distance":1230,"is_transit":true,"transit":true},{"time":3,"station_name":"Grogol","is_transit":false,"distance":1700,"transit":false,"station_id":"GGL","i_lat":-6.162021,"line":5,"i_long":106.788277},{"i_long":106.771379,"transit":false,"time":2,"station_id":"PSG","i_lat":-6.161433,"line":5,"distance":2036,"is_transit":false,"station_name":"Pesing"},{"transit":false,"i_long":106.756522,"line":5,"station_name":"Taman Kota","distance":1614,"i_lat":-6.1587309999999995,"time":2,"station_id":"TKO","is_transit":false}],[{"transit":false,"station_name":"Bojonggede","i_lat":-6.493243,"station_id":"BJD","time":0,"i_long":106.792719,"line":0,"distance":0,"is_transit":false},{"line":1,"station_id":"CTA","time":5,"i_long":106.800298,"distance":5197,"transit":false,"is_transit":true,"i_lat":-6.448811,"station_name":"Citayam"},{"is_transit":false,"line":0,"time":6,"distance":5084,"i_long":106.816926,"station_id":"DP","station_name":"Depok","i_lat":-6.405256,"transit":false},{"line":0,"station_id":"DPB","station_name":"Depokbaru","is_transit":false,"distance":1584,"time":3,"transit":false,"i_long":106.819451,"i_lat":-6.391065},{"time":4,"line":2,"station_name":"Pondok Cina","station_id":"POC","distance":2727,"is_transit":false,"transit":false,"i_lat":-6.369073,"i_long":106.831114},{"line":2,"is_transit":false,"i_lat":-6.360749,"station_name":"Univ. Indonesia","time":2,"transit":false,"station_id":"UI","i_long":106.831474,"distance":1109},{"transit":false,"distance":2264,"i_lat":-6.339291,"is_transit":false,"station_name":"Univ. Pancasila","i_long":106.834175,"station_id":"UP","line":2,"time":3},{"distance":1029,"station_id":"LNA","is_transit":false,"station_name":"Lenteng Agung","i_lat":-6.330363,"i_long":106.832616,"line":2,"transit":false,"time":2},{"transit":false,"is_transit":false,"station_id":"TNT","distance":2671,"station_name":"Tanjung Barat","time":3,"i_long":106.838896,"i_lat":-6.3080680000000005,"line":2},{"distance":2820,"i_long":106.843999,"transit":false,"time":4,"station_name":"Pasar Minggu","station_id":"PSM","is_transit":false,"i_lat":-6.2842400000000005,"line":2},{"is_transit":false,"station_name":"Pasar Minggu Baru","distance":2380,"i_long":106.851577,"line":2,"transit":false,"station_id":"PSMB","time":2,"i_lat":-6.263214},{"station_id":"DRN","station_name":"Duren Kalibata","i_long":106.85449,"distance":824,"transit":false,"i_lat":-6.255332,"line":0,"time":2,"is_transit":false},{"line":0,"station_id":"CW","station_name":"Cawang","is_transit":false,"time":3,"i_long":106.856607,"distance":1546,"transit":false,"i_lat":-6.242512},{"line":2,"distance":1230,"is_transit":false,"transit":false,"i_lat":-6.226659,"i_long":106.857948,"station_name":"Tebet","time":2,"station_id":"TEB"},{"station_id":"MRI","distance":2610,"i_lat":-6.209883,"line":0,"time":4,"station_name":"Manggarai","is_transit":true,"i_long":106.84912,"transit":true},{"distance":1275,"i_lat":-6.212485,"i_long":106.858896,"is_transit":false,"transit":false,"station_id":"MTR","line":1,"time":2,"station_name":"Matraman"},{"transit":true,"distance":1377,"time":8,"station_id":"JNG","i_lat":-6.215091,"is_transit":true,"station_name":"Jatinegara","line":0,"i_long":106.86807400000001},{"distance":1236,"time":2,"station_name":"Pondok Jati","transit":false,"station_id":"POK","line":11,"is_transit":false,"i_lat":-6.209188,"i_long":106.861737},{"distance":1829,"station_name":"Kramat","station_id":"KMT","i_lat":-6.193792,"is_transit":false,"transit":false,"i_long":106.855437,"time":2,"line":11},{"transit":false,"line":11,"is_transit":false,"station_id":"GST","time":1,"station_name":"Gang Sentiong","distance":973,"i_long":106.850107,"i_lat":-6.185975},{"time":8,"transit":false,"distance":1567,"i_lat":-6.174784,"i_long":106.84368,"line":11,"station_name":"Pasar Senen","is_transit":false,"station_id":"PSE"},{"i_long":106.839204,"line":11,"distance":1436,"time":4,"is_transit":false,"station_id":"KMO","transit":false,"i_lat":-6.161728,"station_name":"Kemayoran"},{"line":11,"station_name":"Rajawali","station_id":"RJW","distance":1901,"time":5,"transit":false,"is_transit":false,"i_long":106.836569,"i_lat":-6.14505},{"line":0,"distance":1444,"station_name":"Kampung Bandan","i_long":106.826365,"is_transit":true,"transit":true,"station_id":"KPB","time":3,"i_lat":-6.132549},{"i_lat":-6.144674,"is_transit":false,"distance":4102,"line":0,"time":9,"transit":false,"station_name":"Angke","i_long":106.79867,"station_id":"AK"},{"is_transit":true,"time":4,"transit":true,"i_lat":-6.155215,"station_id":"DU","distance":1230,"i_long":106.800832,"line":1,"station_name":"Duri"},{"i_lat":-6.162021,"line":5,"station_name":"Grogol","transit":false,"distance":1700,"station_id":"GGL","is_transit":false,"i_long":106.788277,"time":3},{"time":2,"transit":false,"line":5,"is_transit":false,"i_lat":-6.161433,"distance":2036,"i_long":106.771379,"station_id":"PSG","station_name":"Pesing"},{"i_lat":-6.1587309999999995,"is_transit":false,"time":2,"distance":1614,"line":5,"i_long":106.756522,"station_id":"TKO","transit":false,"station_name":"Taman Kota"}]]}