{"data":[[{"station_name":"Bojonggede","station_id":"BJD","distance":0,"transit":false,"i_lat":-6.493243,"i_long":106.792719,"time":0,"is_transit":false,"line":2},{"i_lat":-6.448811,"station_id":"CTA","is_transit":false,"transit":false,"distance":5197,"line":2,"i_long":106.800298,"time":5,"station_name":"Citayam"},{"line":2,"i_lat":-6.405256,"transit":false,"station_name":"Depok","distance":5084,"i_long":106.816926,"time":6,"station_id":"DP","is_transit":false},{"is_transit":false,"transit":false,"i_lat":-6.391065,"time":3,"distance":1584,"station_id":"DPB","station_name":"Depokbaru","i_long":106.819451,"line":2},{"distance":2727,"time":4,"station_id":"POC","station_name":"Pondok Cina","transit":false,"i_long":106.831114,"i_lat":-6.369073,"line":2,"is_transit":false},{"distance":1109,"time":2,"transit":false,"i_long":106.831474,"i_lat":-6.360749,"station_name":"Univ. Indonesia","is_transit":false,"station_id":"UI","line":2},{"i_long":106.834175,"is_transit":false,"i_lat":-6.339291,"distance":2264,"station_name":"Univ. Pancasila","transit":false,"station_id":"UP","line":2,"time":3},{"time":2,"i_lat":-6.330363,"i_long":106.832616,"line":2,"station_id":"LNA","distance":1029,"is_transit":false,"transit":false,"station_name":"Lenteng Agung"},{"line":2,"is_transit":false,"station_name":"Tanjung Barat","i_long":106.838896,"time":3,"station_id":"TNT","transit":false,"i_lat":-6.3080680000000005,"distance":2671},{"transit":false,"line":2,"i_lat":-6.2842400000000005,"station_id":"PSM","distance":2820,"time":4,"i_long":106.843999,"is_transit":false,"station_name":"Pasar Minggu"},{"is_transit":false,"i_lat":-6.263214,"station_id":"PSMB","distance":2380,"station_name":"Pasar Minggu Baru","transit":false,"line":2,"i_long":106.851577,"time":2},{"transit":false,"line":2,"is_transit":false,"time":2,"i_long":106.85449,"distance":824,"i_lat":-6.255332,"station_id":"DRN","station_name":"Duren Kalibata"},{"i_long":106.856607,"station_id":"CW","is_transit":false,"station_name":"Cawang","time":3,"i_lat":-6.242512,"distance":1546,"line":2,"transit":false},{"time":2,"transit":false,"i_long":106.857948,"distance":1230,"is_transit":false,"i_lat":-6.226659,"line":2,"station_id":"TEB","station_name":"Tebet"},{"i_long":106.84912,"is_transit":true,"transit":true,"distance":2610,"time":4,"i_lat":-6.209883,"station_id":"MRI","station_name":"Manggarai","line":2},{"is_transit":false,"distance":1275,"station_name":"Matraman","i_lat":-6.212485,"line":1,"time":2,"station_id":"MTR","transit":false,"i_long":106.858896},{"time":8,"transit":false,"distance":1377,"line":1,"station_id":"JNG","station_name":"Jatinegara","i_lat":-6.215091,"is_transit":false,"i_long":106.86807400000001},{"time":3,"distance":3395,"is_transit":false,"station_id":"KLD","transit":false,"station_name":"Klender","i_lat":-6.2135,"line":1,"i_long":106.899548},{"is_transit":false,"i_long":106.922662,"line":1,"time":2,"station_id":"BUA","station_name":"Buaran","transit":false,"distance":3100,"i_lat":-6.215568},{"is_transit":false,"line":1,"station_name":"Klenderbaru","distance":1305,"station_id":"KLDB","transit":false,"i_lat":-6.217455,"i_long":106.939679,"time":1},{"time":8,"transit":false,"i_lat":-6.219053,"i_long":106.951283,"station_id":"CUK","distance":1385,"station_name":"Cakung","line":1,"is_transit":false},{"station_id":"KRI","distance":3097,"line":1,"station_name":"Kranji","i_lat":-6.224515,"time":3,"is_transit":false,"i_long":106.977657,"transit":false},{"station_id":"BKS","transit":false,"i_lat":-6.236616,"time":4,"i_long":106.997013,"distance":2520,"station_name":"Bekasi","line":1,"is_transit":false},{"i_lat":-6.248029,"distance":2368,"i_long":107.016735,"time":2,"line":1,"station_name":"Bekasi Timur","station_id":"BKST","transit":false,"is_transit":false},{"line":1,"station_name":"Tambun","i_lat":-6.258864,"station_id":"TB","distance":4460,"transit":false,"i_long":107.055722,"is_transit":false,"time":7}],[{"station_id":"BJD","distance":0,"i_long":106.792719,"transit":false,"is_transit":false,"time":0,"line":2,"i_lat":-6.493243,"station_name":"Bojonggede"},{"station_name":"Citayam","i_long":106.800298,"distance":5197,"line":2,"transit":false,"station_id":"CTA","is_transit":false,"time":5,"i_lat":-6.448811},{"distance":5084,"i_lat":-6.405256,"line":2,"time":6,"i_long":106.816926,"station_id":"DP","is_transit":false,"station_name":"Depok","transit":false},{"i_long":106.819451,"line":2,"station_name":"Depokbaru","distance":1584,"time":3,"i_lat":-6.391065,"station_id":"DPB","transit":false,"is_transit":false},{"transit":false,"distance":2727,"i_long":106.831114,"station_id":"POC","time":4,"station_name":"Pondok Cina","i_lat":-6.369073,"line":2,"is_transit":false},{"station_id":"UI","station_name":"Univ. Indonesia","line":2,"transit":false,"i_lat":-6.360749,"i_long":106.831474,"time":2,"distance":1109,"is_transit":false},{"distance":2264,"is_transit":false,"i_lat":-6.339291,"transit":false,"i_long":106.834175,"line":2,"station_id":"UP","time":3,"station_name":"Univ. Pancasila"},{"station_id":"LNA","i_lat":-6.330363,"line":2,"station_name":"Lenteng Agung","is_transit":false,"i_long":106.832616,"time":2,"distance":1029,"transit":false},{"time":3,"line":2,"i_lat":-6.3080680000000005,"i_long":106.838896,"station_id":"TNT","transit":false,"station_name":"Tanjung Barat","is_transit":false,"distance":2671},{"station_id":"PSM","transit":false,"i_long":106.843999,"station_name":"Pasar Minggu","line":2,"distance":2820,"i_lat":-6.2842400000000005,"is_transit":false,"time":4},{"station_id":"PSMB","is_transit":false,"i_lat":-6.263214,"i_long":106.851577,"line":2,"station_name":"Pasar Minggu Baru","distance":2380,"transit":false,"time":2},{"station_name":"Duren Kalibata","distance":824,"i_lat":-6.255332,"station_id":"DRN","transit":false,"i_long":106.85449,"line":2,"time":2,"is_transit":false},{"is_transit":false,"station_id":"CW","i_lat":-6.242512,"line":2,"transit":false,"station_name":"Cawang","i_long":106.856607,"distance":1546,"time":3},{"time":2,"is_transit":false,"i_lat":-6.226659,"i_long":106.857948,"station_id":"TEB","transit":false,"distance":1230,"station_name":"Tebet","line":2},{"station_id":"MRI","is_transit":true,"transit":true,"distance":2610,"station_name":"Manggarai","i_long":106.84912,"line":2,"time":4,"i_lat":-6.209883},{"transit":false,"line":1,"time":4,"station_name":"Sudirman","is_transit":false,"i_lat":-6.202263,"i_long":106.822649,"distance":3186,"station_id":"SUD"},{"i_lat":-6.201433,"distance":280,"i_long":106.819881,"line":1,"time":1,"station_id":"SUDB","is_transit":false,"transit":false,"station_name":"Sudirman Baru"},{"distance":471,"i_long":106.816351,"line":1,"i_lat":-6.20132,"transit":false,"is_transit":false,"station_id":"KAT","time":1,"station_name":"Karet"},{"station_name":"Tanah Abang","transit":false,"is_transit":false,"i_lat":-6.185545,"line":1,"station_id":"THB","i_long":106.811091,"time":5,"distance":2029},{"i_long":106.800832,"time":8,"station_name":"Duri","station_id":"DU","i_lat":-6.155215,"line":1,"transit":false,"is_transit":false,"distance":3632},{"i_lat":-6.144674,"line":1,"station_id":"AK","is_transit":false,"i_long":106.79867,"time":4,"distance":1230,"station_name":"Angke","transit":false},{"line":4,"time":9,"is_transit":true,"i_long":106.826365,"distance":4102,"station_id":"KPB","transit":true,"station_name":"Kampung Bandan","i_lat":-6.132549},{"line":11,"time":3,"station_name":"Rajawali","distance":1444,"i_lat":-6.14505,"transit":false,"i_long":106.836569,"is_transit":false,"station_id":"RJW"},{"transit":false,"time":5,"station_id":"KMO","i_long":106.839204,"station_name":"Kemayoran","line":11,"distance":1901,"i_lat":-6.161728,"is_transit":false},{"line":11,"station_name":"Pasar Senen","station_id":"PSE","i_lat":-6.174784,"is_transit":false,"time":4,"distance":1436,"i_long":106.84368,"transit":false},{"i_lat":-6.185975,"station_id":"GST","station_name":"Gang Sentiong","is_transit":false,"i_long":106.850107,"time":8,"distance":1567,"line":11,"transit":false},{"i_long":106.855437,"distance":973,"line":11,"i_lat":-6.193792,"station_name":"Kramat","time":1,"is_transit":false,"transit":false,"station_id":"KMT"},{"line":11,"transit":false,"distance":1829,"station_name":"Pondok Jati","is_transit":false,"station_id":"POK","time":2,"i_lat":-6.209188,"i_long":106.861737},{"i_long":106.86807400000001,"is_transit":true,"time":9,"station_id":"JNG","distance":1236,"i_lat":-6.215091,"line":1,"transit":true,"station_name":"Jatinegara"},{"station_id":"KLD","i_lat":-6.2135,"transit":false,"time":3,"i_long":106.899548,"station_name":"Klender","distance":3395,"is_transit":false,"line":1},{"is_transit":false,"transit":false,"station_name":"Buaran","i_long":106.922662,"time":2,"line":1,"i_lat":-6.215568,"distance":3100,"station_id":"BUA"},{"line":1,"is_transit":false,"distance":1305,"time":1,"station_id":"KLDB","i_long":106.939679,"i_lat":-6.217455,"transit":false,"station_name":"Klenderbaru"},{"station_name":"Cakung","i_lat":-6.219053,"station_id":"CUK","distance":1385,"i_long":106.951283,"is_transit":false,"transit":false,"time":8,"line":1},{"transit":false,"station_name":"Kranji","i_long":106.977657,"distance":3097,"station_id":"KRI","is_transit":false,"time":3,"line":1,"i_lat":-6.224515},{"transit":false,"distance":2520,"station_id":"BKS","i_long":106.997013,"line":1,"station_name":"Bekasi","is_transit":false,"time":4,"i_lat":-6.236616},{"time":2,"i_lat":-6.248029,"i_long":107.016735,"distance":2368,"is_transit":false,"station_id":"BKST","transit":false,"station_name":"Bekasi Timur","line":1},{"station_name":"Tambun","i_lat":-6.258864,"time":7,"is_transit":false,"line":1,"distance":4460,"transit":false,"station_id":"TB","i_long":107.055722}],[{"station_id":"BJD","time":0,"distance":0,"i_long":106.792719,"station_name":"Bojonggede","is_transit":false,"i_lat":-6.493243,"transit":false,"line":2},{"time":5,"i_lat":-6.448811,"station_id":"CTA","i_long":106.800298,"distance":5197,"station_name":"Citayam","is_transit":false,"transit":false,"line":2},{"i_long":106.816926,"transit":false,"distance":5084,"station_name":"Depok","is_transit":false,"line":2,"time":6,"i_lat":-6.405256,"station_id":"DP"},{"time":3,"distance":1584,"i_lat":-6.391065,"station_name":"Depokbaru","i_long":106.819451,"station_id":"DPB","transit":false,"is_transit":false,"line":2},{"transit":false,"i_long":106.831114,"distance":2727,"i_lat":-6.369073,"is_transit":false,"time":4,"station_id":"POC","station_name":"Pondok Cina","line":2},{"station_id":"UI","transit":false,"line":2,"station_name":"Univ. Indonesia","i_long":106.831474,"distance":1109,"time":2,"is_transit":false,"i_lat":-6.360749},{"time":3,"station_name":"Univ. Pancasila","station_id":"UP","transit":false,"distance":2264,"i_lat":-6.339291,"i_long":106.834175,"is_transit":false,"line":2},{"time":2,"i_lat":-6.330363,"line":2,"transit":false,"station_id":"LNA","i_long":106.832616,"distance":1029,"station_name":"Lenteng Agung","is_transit":false},{"line":2,"station_id":"TNT","i_lat":-6.3080680000000005,"time":3,"transit":false,"is_transit":false,"distance":2671,"i_long":106.838896,"station_name":"Tanjung Barat"},{"time":4,"transit":false,"i_long":106.843999,"station_id":"PSM","distance":2820,"station_name":"Pasar Minggu","is_transit":false,"i_lat":-6.2842400000000005,"line":2},{"station_id":"PSMB","transit":false,"distance":2380,"i_long":106.851577,"station_name":"Pasar Minggu Baru","is_transit":false,"time":2,"i_lat":-6.263214,"line":2},{"line":2,"distance":824,"time":2,"i_lat":-6.255332,"is_transit":false,"station_name":"Duren Kalibata","station_id":"DRN","transit":false,"i_long":106.85449},{"distance":1546,"line":2,"station_id":"CW","time":3,"transit":false,"i_lat":-6.242512,"i_long":106.856607,"is_transit":false,"station_name":"Cawang"},{"station_id":"TEB","i_long":106.857948,"station_name":"Tebet","line":2,"i_lat":-6.226659,"time":2,"transit":false,"is_transit":false,"distance":1230},{"i_long":106.84912,"distance":2610,"i_lat":-6.209883,"time":4,"station_name":"Manggarai","is_transit":false,"line":2,"station_id":"MRI","transit":false},{"time":4,"station_id":"CKI","transit":false,"distance":1590,"station_name":"Cikini","line":2,"i_long":106.840169,"i_lat":-6.198556,"is_transit":false},{"transit":false,"station_id":"GDD","time":3,"line":2,"station_name":"Gondangdia","distance":1750,"is_transit":false,"i_lat":-6.186295,"i_long":106.832183},{"i_long":106.828284,"time":4,"station_id":"JUA","distance":2015,"is_transit":false,"transit":false,"line":2,"station_name":"Juanda","i_lat":-6.166716},{"i_lat":-6.160725,"time":2,"transit":false,"station_id":"SW","line":2,"station_name":"Sawah Besar","i_long":106.827103,"is_transit":false,"distance":1149},{"i_long":106.82482,"station_id":"MGB","station_name":"Manggabesar","i_lat":-6.149769,"time":2,"is_transit":false,"distance":906,"transit":false,"line":2},{"i_lat":-6.141205,"i_long":106.820901,"station_id":"JAY","distance":1080,"is_transit":false,"time":2,"station_name":"Jayakarta","line":2,"transit":false},{"station_id":"JAKK","transit":true,"line":2,"station_name":"Jakarta Kota","distance":1264,"i_lat":-6.137569,"time":4,"i_long":106.812439,"is_transit":true},{"transit":true,"is_transit":true,"station_id":"KPB","time":3,"distance":1364,"i_long":106.826365,"line":4,"station_name":"Kampung Bandan","i_lat":-6.132549},{"transit":false,"time":3,"i_long":106.836569,"station_name":"Rajawali","distance":1444,"i_lat":-6.14505,"is_transit":false,"line":11,"station_id":"RJW"},{"transit":false,"time":5,"station_id":"KMO","station_name":"Kemayoran","is_transit":false,"i_lat":-6.161728,"i_long":106.839204,"distance":1901,"line":11},{"time":4,"is_transit":false,"distance":1436,"station_id":"PSE","transit":false,"line":11,"station_name":"Pasar Senen","i_long":106.84368,"i_lat":-6.174784},{"i_lat":-6.185975,"i_long":106.850107,"is_transit":false,"station_name":"Gang Sentiong","distance":1567,"time":8,"station_id":"GST","transit":false,"line":11},{"line":11,"distance":973,"station_name":"Kramat","is_transit":false,"i_lat":-6.193792,"station_id":"KMT","i_long":106.855437,"time":1,"transit":false},{"transit":false,"station_name":"Pondok Jati","distance":1829,"line":11,"i_lat":-6.209188,"i_long":106.861737,"station_id":"POK","is_transit":false,"time":2},{"line":1,"time":9,"i_lat":-6.215091,"is_transit":true,"i_long":106.86807400000001,"distance":1236,"transit":true,"station_name":"Jatinegara","station_id":"JNG"},{"i_lat":-6.2135,"transit":false,"distance":3395,"i_long":106.899548,"time":3,"line":1,"station_id":"KLD","station_name":"Klender","is_transit":false},{"i_lat":-6.215568,"station_id":"BUA","is_transit":false,"time":2,"line":1,"i_long":106.922662,"transit":false,"station_name":"Buaran","distance":3100},{"line":1,"transit":false,"station_name":"Klenderbaru","i_lat":-6.217455,"time":1,"i_long":106.939679,"station_id":"KLDB","is_transit":false,"distance":1305},{"i_long":106.951283,"station_name":"Cakung","line":1,"is_transit":false,"transit":false,"distance":1385,"i_lat":-6.219053,"time":8,"station_id":"CUK"},{"line":1,"is_transit":false,"station_name":"Kranji","time":3,"i_lat":-6.224515,"transit":false,"distance":3097,"station_id":"KRI","i_long":106.977657},{"i_lat":-6.236616,"i_long":106.997013,"transit":false,"is_transit":false,"station_name":"Bekasi","line":1,"station_id":"BKS","time":4,"distance":2520},{"is_transit":false,"transit":false,"station_id":"BKST","station_name":"Bekasi Timur","distance":2368,"i_long":107.016735,"line":1,"time":2,"i_lat":-6.248029},{"line":1,"station_id":"TB","time":7,"transit":false,"i_long":107.055722,"distance":4460,"i_lat":-6.258864,"station_name":"Tambun","is_transit":false}]]}