{"data":[[{"station_name":"Bojonggede","i_lat":-6.493243,"station_id":"BJD","i_long":106.792719,"transit":false,"time":0,"is_transit":false,"line":2,"distance":0},{"distance":5197,"is_transit":false,"station_name":"Citayam","i_lat":-6.448811,"transit":false,"i_long":106.800298,"time":5,"line":2,"station_id":"CTA"},{"is_transit":false,"i_long":106.816926,"station_id":"DP","line":2,"transit":false,"time":6,"station_name":"Depok","i_lat":-6.405256,"distance":5084},{"transit":false,"line":2,"i_long":106.819451,"station_name":"Depokbaru","distance":1584,"i_lat":-6.391065,"station_id":"DPB","time":3,"is_transit":false},{"i_lat":-6.369073,"i_long":106.831114,"station_id":"POC","station_name":"Pondok Cina","is_transit":false,"distance":2727,"line":2,"transit":false,"time":4},{"is_transit":false,"i_lat":-6.360749,"time":2,"i_long":106.831474,"distance":1109,"station_id":"UI","transit":false,"line":2,"station_name":"Univ. Indonesia"},{"i_lat":-6.339291,"station_name":"Univ. Pancasila","time":3,"distance":2264,"i_long":106.834175,"station_id":"UP","is_transit":false,"transit":false,"line":2},{"i_long":106.832616,"transit":false,"station_id":"LNA","station_name":"Lenteng Agung","is_transit":false,"distance":1029,"time":2,"i_lat":-6.330363,"line":2},{"station_name":"Tanjung Barat","time":3,"is_transit":false,"i_long":106.838896,"line":2,"station_id":"TNT","distance":2671,"transit":false,"i_lat":-6.3080680000000005},{"i_lat":-6.2842400000000005,"station_id":"PSM","is_transit":false,"i_long":106.843999,"line":2,"transit":false,"distance":2820,"time":4,"station_name":"Pasar Minggu"},{"i_lat":-6.263214,"transit":false,"distance":2380,"is_transit":false,"station_id":"PSMB","line":2,"station_name":"Pasar Minggu Baru","i_long":106.851577,"time":2},{"time":2,"station_name":"Duren Kalibata","transit":false,"distance":824,"station_id":"DRN","i_long":106.85449,"i_lat":-6.255332,"line":2,"is_transit":false},{"distance":1546,"i_lat":-6.242512,"station_name":"Cawang","line":2,"transit":false,"is_transit":false,"i_long":106.856607,"station_id":"CW","time":3},{"time":2,"i_lat":-6.226659,"is_transit":false,"distance":1230,"transit":false,"i_long":106.857948,"station_id":"TEB","line":2,"station_name":"Tebet"},{"station_name":"Manggarai","is_transit":true,"i_long":106.84912,"line":2,"station_id":"MRI","transit":true,"distance":2610,"time":4,"i_lat":-6.209883},{"is_transit":false,"line":1,"station_id":"MTR","time":2,"i_lat":-6.212485,"transit":false,"distance":1275,"i_long":106.858896,"station_name":"Matraman"},{"is_transit":false,"distance":1377,"line":1,"i_long":106.86807400000001,"station_id":"JNG","transit":false,"time":8,"i_lat":-6.215091,"station_name":"Jatinegara"},{"time":3,"is_transit":false,"station_id":"KLD","i_long":106.899548,"i_lat":-6.2135,"distance":3395,"line":1,"station_name":"Klender","transit":false},{"time":2,"station_id":"BUA","distance":3100,"i_long":106.922662,"is_transit":false,"transit":false,"station_name":"Buaran","i_lat":-6.215568,"line":1},{"station_name":"Klenderbaru","distance":1305,"station_id":"KLDB","time":1,"i_long":106.939679,"transit":false,"i_lat":-6.217455,"line":1,"is_transit":false},{"transit":false,"station_name":"Cakung","station_id":"CUK","is_transit":false,"distance":1385,"i_lat":-6.219053,"i_long":106.951283,"line":1,"time":8}],[{"distance":0,"i_lat":-6.493243,"time":0,"is_transit":false,"i_long":106.792719,"line":2,"transit":false,"station_name":"Bojonggede","station_id":"BJD"},{"line":2,"distance":5197,"transit":false,"station_id":"CTA","time":5,"is_transit":false,"i_long":106.800298,"station_name":"Citayam","i_lat":-6.448811},{"is_transit":false,"distance":5084,"i_long":106.816926,"i_lat":-6.405256,"station_id":"DP","line":2,"time":6,"station_name":"Depok","transit":false},{"i_lat":-6.391065,"time":3,"station_id":"DPB","i_long":106.819451,"is_transit":false,"line":2,"distance":1584,"station_name":"Depokbaru","transit":false},{"is_transit":false,"station_id":"POC","station_name":"Pondok Cina","time":4,"i_long":106.831114,"transit":false,"distance":2727,"i_lat":-6.369073,"line":2},{"distance":1109,"i_lat":-6.360749,"i_long":106.831474,"station_name":"Univ. Indonesia","is_transit":false,"time":2,"station_id":"UI","line":2,"transit":false},{"station_name":"Univ. Pancasila","distance":2264,"line":2,"is_transit":false,"time":3,"station_id":"UP","transit":false,"i_long":106.834175,"i_lat":-6.339291},{"distance":1029,"station_id":"LNA","i_long":106.832616,"station_name":"Lenteng Agung","is_transit":false,"i_lat":-6.330363,"time":2,"transit":false,"line":2},{"i_lat":-6.3080680000000005,"transit":false,"i_long":106.838896,"station_name":"Tanjung Barat","is_transit":false,"station_id":"TNT","line":2,"time":3,"distance":2671},{"i_long":106.843999,"transit":false,"time":4,"line":2,"distance":2820,"station_name":"Pasar Minggu","station_id":"PSM","is_transit":false,"i_lat":-6.2842400000000005},{"line":2,"time":2,"station_name":"Pasar Minggu Baru","i_lat":-6.263214,"is_transit":false,"i_long":106.851577,"transit":false,"station_id":"PSMB","distance":2380},{"time":2,"distance":824,"station_id":"DRN","line":2,"i_lat":-6.255332,"transit":false,"station_name":"Duren Kalibata","is_transit":false,"i_long":106.85449},{"distance":1546,"station_name":"Cawang","line":2,"is_transit":false,"time":3,"i_long":106.856607,"transit":false,"station_id":"CW","i_lat":-6.242512},{"station_id":"TEB","line":2,"time":2,"is_transit":false,"distance":1230,"i_lat":-6.226659,"station_name":"Tebet","i_long":106.857948,"transit":false},{"transit":true,"i_long":106.84912,"station_id":"MRI","station_name":"Manggarai","line":2,"is_transit":true,"time":4,"distance":2610,"i_lat":-6.209883},{"station_id":"SUD","i_long":106.822649,"station_name":"Sudirman","line":1,"distance":3186,"i_lat":-6.202263,"transit":false,"is_transit":false,"time":4},{"time":1,"is_transit":false,"distance":280,"station_id":"SUDB","line":1,"i_lat":-6.201433,"i_long":106.819881,"transit":false,"station_name":"Sudirman Baru"},{"distance":471,"i_long":106.816351,"station_name":"Karet","line":1,"transit":false,"time":1,"station_id":"KAT","is_transit":false,"i_lat":-6.20132},{"station_name":"Tanah Abang","transit":false,"i_lat":-6.185545,"i_long":106.811091,"distance":2029,"station_id":"THB","time":5,"is_transit":false,"line":1},{"station_id":"DU","station_name":"Duri","i_lat":-6.155215,"i_long":106.800832,"line":1,"is_transit":false,"transit":false,"time":8,"distance":3632},{"station_name":"Angke","line":1,"transit":false,"distance":1230,"i_lat":-6.144674,"time":4,"station_id":"AK","i_long":106.79867,"is_transit":false},{"distance":4102,"transit":true,"is_transit":true,"i_long":106.826365,"time":9,"line":4,"i_lat":-6.132549,"station_name":"Kampung Bandan","station_id":"KPB"},{"line":11,"station_name":"Rajawali","is_transit":false,"i_long":106.836569,"transit":false,"time":3,"i_lat":-6.14505,"station_id":"RJW","distance":1444},{"line":11,"station_id":"KMO","transit":false,"time":5,"i_long":106.839204,"is_transit":false,"distance":1901,"i_lat":-6.161728,"station_name":"Kemayoran"},{"transit":false,"i_long":106.84368,"time":4,"station_id":"PSE","station_name":"Pasar Senen","is_transit":false,"distance":1436,"i_lat":-6.174784,"line":11},{"time":8,"transit":false,"is_transit":false,"station_name":"Gang Sentiong","i_lat":-6.185975,"i_long":106.850107,"station_id":"GST","line":11,"distance":1567},{"transit":false,"station_id":"KMT","distance":973,"station_name":"Kramat","time":1,"i_lat":-6.193792,"is_transit":false,"i_long":106.855437,"line":11},{"distance":1829,"i_long":106.861737,"station_id":"POK","station_name":"Pondok Jati","is_transit":false,"transit":false,"time":2,"i_lat":-6.209188,"line":11},{"time":9,"distance":1236,"i_long":106.86807400000001,"transit":true,"station_name":"Jatinegara","station_id":"JNG","i_lat":-6.215091,"line":1,"is_transit":true},{"is_transit":false,"station_id":"KLD","i_lat":-6.2135,"transit":false,"distance":3395,"station_name":"Klender","time":3,"i_long":106.899548,"line":1},{"line":1,"time":2,"transit":false,"distance":3100,"is_transit":false,"i_lat":-6.215568,"i_long":106.922662,"station_id":"BUA","station_name":"Buaran"},{"transit":false,"station_name":"Klenderbaru","station_id":"KLDB","is_transit":false,"distance":1305,"i_lat":-6.217455,"time":1,"i_long":106.939679,"line":1},{"i_lat":-6.219053,"time":8,"distance":1385,"transit":false,"is_transit":false,"station_name":"Cakung","i_long":106.951283,"line":1,"station_id":"CUK"}],[{"line":2,"distance":0,"station_name":"Bojonggede","station_id":"BJD","is_transit":false,"time":0,"i_lat":-6.493243,"i_long":106.792719,"transit":false},{"distance":5197,"transit":false,"is_transit":false,"i_lat":-6.448811,"time":5,"i_long":106.800298,"station_id":"CTA","station_name":"Citayam","line":2},{"time":6,"transit":false,"i_long":106.816926,"is_transit":false,"line":2,"station_name":"Depok","station_id":"DP","distance":5084,"i_lat":-6.405256},{"i_lat":-6.391065,"is_transit":false,"line":2,"station_name":"Depokbaru","i_long":106.819451,"station_id":"DPB","distance":1584,"time":3,"transit":false},{"station_name":"Pondok Cina","i_long":106.831114,"distance":2727,"i_lat":-6.369073,"line":2,"transit":false,"station_id":"POC","is_transit":false,"time":4},{"i_lat":-6.360749,"line":2,"station_name":"Univ. Indonesia","time":2,"i_long":106.831474,"transit":false,"station_id":"UI","is_transit":false,"distance":1109},{"i_lat":-6.339291,"transit":false,"distance":2264,"i_long":106.834175,"station_id":"UP","time":3,"is_transit":false,"station_name":"Univ. Pancasila","line":2},{"transit":false,"distance":1029,"i_lat":-6.330363,"station_name":"Lenteng Agung","line":2,"i_long":106.832616,"is_transit":false,"time":2,"station_id":"LNA"},{"i_long":106.838896,"i_lat":-6.3080680000000005,"station_id":"TNT","time":3,"is_transit":false,"station_name":"Tanjung Barat","transit":false,"line":2,"distance":2671},{"time":4,"station_id":"PSM","station_name":"Pasar Minggu","i_long":106.843999,"distance":2820,"transit":false,"i_lat":-6.2842400000000005,"is_transit":false,"line":2},{"transit":false,"station_id":"PSMB","station_name":"Pasar Minggu Baru","time":2,"i_long":106.851577,"is_transit":false,"line":2,"i_lat":-6.263214,"distance":2380},{"i_lat":-6.255332,"i_long":106.85449,"distance":824,"time":2,"is_transit":false,"transit":false,"line":2,"station_name":"Duren Kalibata","station_id":"DRN"},{"station_id":"CW","time":3,"is_transit":false,"i_long":106.856607,"i_lat":-6.242512,"transit":false,"line":2,"station_name":"Cawang","distance":1546},{"time":2,"transit":false,"line":2,"station_name":"Tebet","station_id":"TEB","distance":1230,"i_lat":-6.226659,"is_transit":false,"i_long":106.857948},{"station_name":"Manggarai","line":2,"distance":2610,"i_long":106.84912,"transit":false,"station_id":"MRI","time":4,"is_transit":false,"i_lat":-6.209883},{"i_long":106.840169,"transit":false,"station_id":"CKI","distance":1590,"time":4,"i_lat":-6.198556,"is_transit":false,"line":2,"station_name":"Cikini"},{"i_lat":-6.186295,"is_transit":false,"distance":1750,"time":3,"station_name":"Gondangdia","i_long":106.832183,"station_id":"GDD","transit":false,"line":2},{"i_long":106.828284,"line":2,"station_id":"JUA","is_transit":false,"i_lat":-6.166716,"distance":2015,"transit":false,"station_name":"Juanda","time":4},{"i_lat":-6.160725,"station_id":"SW","is_transit":false,"transit":false,"time":2,"station_name":"Sawah Besar","line":2,"distance":1149,"i_long":106.827103},{"station_name":"Manggabesar","distance":906,"time":2,"is_transit":false,"line":2,"transit":false,"i_long":106.82482,"station_id":"MGB","i_lat":-6.149769},{"is_transit":false,"line":2,"time":2,"i_lat":-6.141205,"station_id":"JAY","station_name":"Jayakarta","transit":false,"i_long":106.820901,"distance":1080},{"transit":true,"station_id":"JAKK","station_name":"Jakarta Kota","is_transit":true,"time":4,"i_lat":-6.137569,"line":2,"i_long":106.812439,"distance":1264},{"is_transit":true,"station_id":"KPB","transit":true,"time":3,"i_lat":-6.132549,"distance":1364,"i_long":106.826365,"line":4,"station_name":"Kampung Bandan"},{"station_name":"Rajawali","is_transit":false,"i_lat":-6.14505,"transit":false,"i_long":106.836569,"distance":1444,"time":3,"line":11,"station_id":"RJW"},{"time":5,"station_id":"KMO","i_lat":-6.161728,"station_name":"Kemayoran","line":11,"distance":1901,"i_long":106.839204,"is_transit":false,"transit":false},{"station_id":"PSE","time":4,"is_transit":false,"distance":1436,"line":11,"station_name":"Pasar Senen","transit":false,"i_long":106.84368,"i_lat":-6.174784},{"transit":false,"station_id":"GST","time":8,"is_transit":false,"distance":1567,"i_lat":-6.185975,"i_long":106.850107,"line":11,"station_name":"Gang Sentiong"},{"i_lat":-6.193792,"station_id":"KMT","transit":false,"is_transit":false,"station_name":"Kramat","i_long":106.855437,"line":11,"time":1,"distance":973},{"transit":false,"i_long":106.861737,"is_transit":false,"station_name":"Pondok Jati","line":11,"i_lat":-6.209188,"station_id":"POK","distance":1829,"time":2},{"distance":1236,"time":9,"station_id":"JNG","line":1,"transit":true,"i_long":106.86807400000001,"is_transit":true,"station_name":"Jatinegara","i_lat":-6.215091},{"line":1,"station_name":"Klender","time":3,"distance":3395,"station_id":"KLD","i_lat":-6.2135,"i_long":106.899548,"transit":false,"is_transit":false},{"station_id":"BUA","time":2,"is_transit":false,"distance":3100,"i_long":106.922662,"i_lat":-6.215568,"station_name":"Buaran","line":1,"transit":false},{"station_name":"Klenderbaru","is_transit":false,"distance":1305,"i_lat":-6.217455,"i_long":106.939679,"line":1,"station_id":"KLDB","transit":false,"time":1},{"station_id":"CUK","time":8,"distance":1385,"line":1,"is_transit":false,"i_long":106.951283,"transit":false,"station_name":"Cakung","i_lat":-6.219053}]]}