{"data":[[{"transit":false,"time":0,"i_long":106.792719,"station_name":"Bojonggede","distance":0,"i_lat":-6.493243,"line":2,"is_transit":false,"station_id":"BJD"},{"line":2,"i_lat":-6.448811,"station_name":"Citayam","is_transit":false,"i_long":106.800298,"distance":5197,"time":5,"station_id":"CTA","transit":false},{"i_lat":-6.405256,"station_name":"Depok","is_transit":false,"distance":5084,"time":6,"transit":false,"i_long":106.816926,"line":2,"station_id":"DP"},{"i_long":106.819451,"station_name":"Depokbaru","transit":false,"time":3,"is_transit":false,"i_lat":-6.391065,"station_id":"DPB","distance":1584,"line":2},{"distance":2727,"i_long":106.831114,"station_id":"POC","time":4,"is_transit":false,"i_lat":-6.369073,"line":2,"transit":false,"station_name":"Pondok Cina"},{"is_transit":false,"i_long":106.831474,"transit":false,"station_name":"Univ. Indonesia","station_id":"UI","time":2,"line":2,"i_lat":-6.360749,"distance":1109},{"transit":false,"line":2,"i_long":106.834175,"station_name":"Univ. Pancasila","distance":2264,"is_transit":false,"station_id":"UP","time":3,"i_lat":-6.339291},{"line":2,"time":2,"transit":false,"distance":1029,"station_id":"LNA","i_long":106.832616,"is_transit":false,"i_lat":-6.330363,"station_name":"Lenteng Agung"}]]}