{"data":[[{"station_name":"Bojonggede","time":0,"is_transit":false,"i_lat":-6.493243,"line":0,"transit":false,"station_id":"BJD","i_long":106.792719,"distance":0},{"is_transit":true,"line":1,"i_lat":-6.448811,"i_long":106.800298,"time":5,"station_name":"Citayam","station_id":"CTA","distance":5197,"transit":false},{"station_id":"DP","transit":false,"station_name":"Depok","is_transit":false,"i_lat":-6.405256,"i_long":106.816926,"time":6,"line":0,"distance":5084},{"station_name":"Depokbaru","time":3,"distance":1584,"station_id":"DPB","line":0,"is_transit":false,"transit":false,"i_lat":-6.391065,"i_long":106.819451},{"station_id":"POC","line":2,"distance":2727,"i_lat":-6.369073,"time":4,"is_transit":false,"station_name":"Pondok Cina","transit":false,"i_long":106.831114},{"transit":false,"station_id":"UI","line":2,"time":2,"station_name":"Univ. Indonesia","is_transit":false,"i_lat":-6.360749,"distance":1109,"i_long":106.831474}]]}