{"data":[[{"line":2,"i_lat":-6.493243,"time":0,"distance":0,"station_name":"Bojonggede","station_id":"BJD","is_transit":false,"i_long":106.792719,"transit":false},{"transit":false,"time":5,"i_lat":-6.448811,"station_name":"Citayam","i_long":106.800298,"line":2,"distance":5197,"is_transit":false,"station_id":"CTA"},{"station_name":"Depok","station_id":"DP","line":2,"time":6,"distance":5084,"i_lat":-6.405256,"i_long":106.816926,"transit":false,"is_transit":false},{"station_name":"Depokbaru","is_transit":false,"distance":1584,"transit":false,"i_lat":-6.391065,"i_long":106.819451,"time":3,"line":2,"station_id":"DPB"},{"i_long":106.831114,"time":4,"is_transit":false,"i_lat":-6.369073,"line":2,"transit":false,"distance":2727,"station_id":"POC","station_name":"Pondok Cina"},{"is_transit":false,"station_name":"Univ. Indonesia","line":2,"i_lat":-6.360749,"time":2,"distance":1109,"station_id":"UI","i_long":106.831474,"transit":false},{"distance":2264,"transit":false,"is_transit":false,"i_long":106.834175,"time":3,"station_id":"UP","station_name":"Univ. Pancasila","line":2,"i_lat":-6.339291},{"time":2,"i_lat":-6.330363,"station_id":"LNA","distance":1029,"station_name":"Lenteng Agung","transit":false,"is_transit":false,"i_long":106.832616,"line":2},{"line":2,"time":3,"station_name":"Tanjung Barat","transit":false,"distance":2671,"station_id":"TNT","is_transit":false,"i_lat":-6.3080680000000005,"i_long":106.838896},{"i_long":106.843999,"station_id":"PSM","time":4,"station_name":"Pasar Minggu","i_lat":-6.2842400000000005,"line":2,"transit":false,"distance":2820,"is_transit":false},{"station_name":"Pasar Minggu Baru","transit":false,"station_id":"PSMB","is_transit":false,"time":2,"distance":2380,"line":2,"i_long":106.851577,"i_lat":-6.263214},{"i_long":106.85449,"line":2,"distance":824,"station_id":"DRN","transit":false,"i_lat":-6.255332,"is_transit":false,"station_name":"Duren Kalibata","time":2},{"station_id":"CW","station_name":"Cawang","time":3,"distance":1546,"transit":false,"i_lat":-6.242512,"i_long":106.856607,"line":2,"is_transit":false},{"line":2,"station_id":"TEB","i_long":106.857948,"station_name":"Tebet","is_transit":false,"time":2,"i_lat":-6.226659,"transit":false,"distance":1230},{"i_lat":-6.209883,"time":4,"transit":false,"is_transit":false,"distance":2610,"station_name":"Manggarai","station_id":"MRI","line":2,"i_long":106.84912},{"time":4,"station_id":"CKI","is_transit":false,"i_long":106.840169,"distance":1590,"station_name":"Cikini","i_lat":-6.198556,"line":2,"transit":false},{"i_lat":-6.186295,"i_long":106.832183,"is_transit":false,"line":2,"station_id":"GDD","transit":false,"time":3,"distance":1750,"station_name":"Gondangdia"},{"is_transit":false,"time":4,"i_lat":-6.166716,"transit":false,"station_id":"JUA","distance":2015,"station_name":"Juanda","i_long":106.828284,"line":2},{"is_transit":false,"station_name":"Sawah Besar","i_lat":-6.160725,"line":2,"time":2,"distance":1149,"i_long":106.827103,"station_id":"SW","transit":false},{"transit":false,"line":2,"time":2,"is_transit":false,"station_id":"MGB","station_name":"Manggabesar","distance":906,"i_long":106.82482,"i_lat":-6.149769},{"i_lat":-6.141205,"line":2,"station_id":"JAY","is_transit":false,"transit":false,"station_name":"Jayakarta","time":2,"distance":1080,"i_long":106.820901}],[{"station_id":"BJD","time":0,"i_long":106.792719,"transit":false,"is_transit":false,"station_name":"Bojonggede","line":2,"i_lat":-6.493243,"distance":0},{"station_name":"Citayam","time":5,"transit":false,"is_transit":false,"i_lat":-6.448811,"i_long":106.800298,"station_id":"CTA","distance":5197,"line":2},{"time":6,"line":2,"transit":false,"is_transit":false,"distance":5084,"i_lat":-6.405256,"i_long":106.816926,"station_id":"DP","station_name":"Depok"},{"is_transit":false,"i_lat":-6.391065,"distance":1584,"line":2,"i_long":106.819451,"transit":false,"station_name":"Depokbaru","station_id":"DPB","time":3},{"line":2,"station_name":"Pondok Cina","distance":2727,"transit":false,"station_id":"POC","time":4,"i_long":106.831114,"i_lat":-6.369073,"is_transit":false},{"station_id":"UI","i_long":106.831474,"time":2,"transit":false,"is_transit":false,"distance":1109,"line":2,"station_name":"Univ. Indonesia","i_lat":-6.360749},{"station_name":"Univ. Pancasila","line":2,"distance":2264,"i_lat":-6.339291,"station_id":"UP","i_long":106.834175,"time":3,"is_transit":false,"transit":false},{"is_transit":false,"station_name":"Lenteng Agung","i_long":106.832616,"time":2,"station_id":"LNA","line":2,"distance":1029,"i_lat":-6.330363,"transit":false},{"line":2,"time":3,"transit":false,"is_transit":false,"station_id":"TNT","station_name":"Tanjung Barat","i_lat":-6.3080680000000005,"i_long":106.838896,"distance":2671},{"distance":2820,"i_long":106.843999,"line":2,"station_name":"Pasar Minggu","is_transit":false,"station_id":"PSM","transit":false,"time":4,"i_lat":-6.2842400000000005},{"i_long":106.851577,"distance":2380,"i_lat":-6.263214,"time":2,"transit":false,"is_transit":false,"station_id":"PSMB","station_name":"Pasar Minggu Baru","line":2},{"transit":false,"is_transit":false,"distance":824,"line":2,"station_id":"DRN","time":2,"i_lat":-6.255332,"station_name":"Duren Kalibata","i_long":106.85449},{"station_name":"Cawang","i_long":106.856607,"time":3,"line":2,"distance":1546,"is_transit":false,"transit":false,"station_id":"CW","i_lat":-6.242512},{"i_lat":-6.226659,"transit":false,"i_long":106.857948,"distance":1230,"is_transit":false,"time":2,"station_id":"TEB","station_name":"Tebet","line":2},{"time":4,"i_lat":-6.209883,"station_id":"MRI","i_long":106.84912,"distance":2610,"line":2,"station_name":"Manggarai","transit":true,"is_transit":true},{"distance":3186,"i_long":106.822649,"time":4,"station_id":"SUD","i_lat":-6.202263,"is_transit":false,"line":1,"transit":false,"station_name":"Sudirman"},{"i_lat":-6.201433,"station_id":"SUDB","is_transit":false,"i_long":106.819881,"transit":false,"station_name":"Sudirman Baru","distance":280,"time":1,"line":1},{"station_id":"KAT","transit":false,"time":1,"distance":471,"line":1,"station_name":"Karet","is_transit":false,"i_long":106.816351,"i_lat":-6.20132},{"station_id":"THB","i_lat":-6.185545,"station_name":"Tanah Abang","time":5,"distance":2029,"transit":false,"is_transit":false,"i_long":106.811091,"line":1},{"time":8,"i_lat":-6.155215,"i_long":106.800832,"station_name":"Duri","line":1,"transit":false,"station_id":"DU","distance":3632,"is_transit":false},{"station_name":"Angke","line":1,"station_id":"AK","i_long":106.79867,"i_lat":-6.144674,"transit":false,"distance":1230,"time":4,"is_transit":false},{"line":4,"station_name":"Kampung Bandan","transit":true,"i_lat":-6.132549,"distance":4102,"is_transit":true,"station_id":"KPB","i_long":106.826365,"time":9},{"is_transit":true,"station_id":"JAKK","line":2,"distance":1364,"time":3,"i_long":106.812439,"transit":true,"i_lat":-6.137569,"station_name":"Jakarta Kota"},{"time":4,"transit":false,"is_transit":false,"line":2,"distance":1264,"i_lat":-6.141205,"i_long":106.820901,"station_name":"Jayakarta","station_id":"JAY"}],[{"time":0,"is_transit":false,"i_long":106.792719,"distance":0,"transit":false,"i_lat":-6.493243,"station_id":"BJD","line":2,"station_name":"Bojonggede"},{"transit":false,"station_id":"CTA","time":5,"is_transit":false,"distance":5197,"i_lat":-6.448811,"station_name":"Citayam","i_long":106.800298,"line":2},{"is_transit":false,"station_name":"Depok","i_lat":-6.405256,"i_long":106.816926,"transit":false,"line":2,"station_id":"DP","time":6,"distance":5084},{"distance":1584,"i_lat":-6.391065,"transit":false,"i_long":106.819451,"line":2,"is_transit":false,"station_id":"DPB","time":3,"station_name":"Depokbaru"},{"time":4,"is_transit":false,"station_name":"Pondok Cina","transit":false,"i_long":106.831114,"distance":2727,"line":2,"station_id":"POC","i_lat":-6.369073},{"transit":false,"time":2,"station_id":"UI","i_lat":-6.360749,"i_long":106.831474,"station_name":"Univ. Indonesia","is_transit":false,"line":2,"distance":1109},{"station_name":"Univ. Pancasila","i_long":106.834175,"line":2,"time":3,"distance":2264,"station_id":"UP","transit":false,"is_transit":false,"i_lat":-6.339291},{"is_transit":false,"station_id":"LNA","distance":1029,"time":2,"i_long":106.832616,"i_lat":-6.330363,"station_name":"Lenteng Agung","line":2,"transit":false},{"station_name":"Tanjung Barat","i_long":106.838896,"distance":2671,"station_id":"TNT","line":2,"time":3,"i_lat":-6.3080680000000005,"transit":false,"is_transit":false},{"transit":false,"station_id":"PSM","distance":2820,"is_transit":false,"i_long":106.843999,"line":2,"time":4,"i_lat":-6.2842400000000005,"station_name":"Pasar Minggu"},{"time":2,"i_long":106.851577,"line":2,"distance":2380,"station_name":"Pasar Minggu Baru","transit":false,"i_lat":-6.263214,"station_id":"PSMB","is_transit":false},{"time":2,"distance":824,"line":2,"station_id":"DRN","station_name":"Duren Kalibata","i_long":106.85449,"i_lat":-6.255332,"is_transit":false,"transit":false},{"time":3,"transit":false,"i_lat":-6.242512,"station_name":"Cawang","is_transit":false,"distance":1546,"i_long":106.856607,"station_id":"CW","line":2},{"distance":1230,"line":2,"is_transit":false,"time":2,"i_long":106.857948,"station_id":"TEB","transit":false,"station_name":"Tebet","i_lat":-6.226659},{"is_transit":true,"station_name":"Manggarai","line":2,"time":4,"station_id":"MRI","distance":2610,"i_long":106.84912,"i_lat":-6.209883,"transit":true},{"transit":false,"station_name":"Matraman","distance":1275,"i_long":106.858896,"i_lat":-6.212485,"is_transit":false,"station_id":"MTR","line":1,"time":2},{"i_lat":-6.215091,"station_name":"Jatinegara","time":8,"station_id":"JNG","is_transit":true,"i_long":106.86807400000001,"distance":1377,"line":1,"transit":true},{"time":2,"i_long":106.861737,"transit":false,"station_id":"POK","station_name":"Pondok Jati","is_transit":false,"i_lat":-6.209188,"line":11,"distance":1236},{"i_lat":-6.193792,"i_long":106.855437,"line":11,"station_name":"Kramat","distance":1829,"transit":false,"is_transit":false,"station_id":"KMT","time":2},{"station_name":"Gang Sentiong","line":11,"i_long":106.850107,"time":1,"distance":973,"transit":false,"i_lat":-6.185975,"is_transit":false,"station_id":"GST"},{"is_transit":false,"station_name":"Pasar Senen","time":8,"station_id":"PSE","i_long":106.84368,"line":11,"transit":false,"distance":1567,"i_lat":-6.174784},{"station_id":"KMO","is_transit":false,"time":4,"line":11,"i_long":106.839204,"i_lat":-6.161728,"transit":false,"station_name":"Kemayoran","distance":1436},{"transit":false,"is_transit":false,"distance":1901,"time":5,"station_id":"RJW","station_name":"Rajawali","i_lat":-6.14505,"i_long":106.836569,"line":11},{"is_transit":true,"line":4,"station_id":"KPB","i_lat":-6.132549,"distance":1444,"time":3,"i_long":106.826365,"station_name":"Kampung Bandan","transit":true},{"distance":1364,"line":2,"station_id":"JAKK","transit":true,"time":3,"i_lat":-6.137569,"i_long":106.812439,"is_transit":true,"station_name":"Jakarta Kota"},{"is_transit":false,"i_long":106.820901,"station_id":"JAY","station_name":"Jayakarta","time":4,"line":2,"distance":1264,"i_lat":-6.141205,"transit":false}]]}