{"data":[[{"is_transit":false,"i_lat":-6.493243,"i_long":106.792719,"line":0,"station_id":"BJD","distance":0,"transit":false,"station_name":"Bojonggede","time":0},{"i_long":106.800298,"line":1,"i_lat":-6.448811,"time":5,"is_transit":true,"transit":false,"station_name":"Citayam","station_id":"CTA","distance":5197},{"time":6,"distance":5084,"i_long":106.816926,"line":0,"is_transit":false,"transit":false,"station_name":"Depok","i_lat":-6.405256,"station_id":"DP"},{"i_lat":-6.391065,"station_name":"Depokbaru","station_id":"DPB","distance":1584,"i_long":106.819451,"time":3,"line":0,"is_transit":false,"transit":false},{"distance":2727,"time":4,"i_long":106.831114,"station_name":"Pondok Cina","station_id":"POC","transit":false,"line":2,"is_transit":false,"i_lat":-6.369073},{"line":2,"is_transit":false,"distance":1109,"time":2,"transit":false,"i_long":106.831474,"station_name":"Univ. Indonesia","station_id":"UI","i_lat":-6.360749},{"station_name":"Univ. Pancasila","is_transit":false,"transit":false,"i_long":106.834175,"i_lat":-6.339291,"distance":2264,"station_id":"UP","line":2,"time":3},{"time":2,"is_transit":false,"distance":1029,"station_name":"Lenteng Agung","station_id":"LNA","transit":false,"i_long":106.832616,"line":2,"i_lat":-6.330363},{"i_long":106.838896,"i_lat":-6.3080680000000005,"line":2,"time":3,"is_transit":false,"transit":false,"distance":2671,"station_name":"Tanjung Barat","station_id":"TNT"},{"transit":false,"is_transit":false,"distance":2820,"station_name":"Pasar Minggu","i_long":106.843999,"station_id":"PSM","i_lat":-6.2842400000000005,"line":2,"time":4},{"i_lat":-6.263214,"distance":2380,"is_transit":false,"transit":false,"station_name":"Pasar Minggu Baru","station_id":"PSMB","line":2,"i_long":106.851577,"time":2},{"is_transit":false,"i_lat":-6.255332,"i_long":106.85449,"station_id":"DRN","line":0,"time":2,"distance":824,"transit":false,"station_name":"Duren Kalibata"},{"station_id":"CW","transit":false,"line":0,"i_lat":-6.242512,"distance":1546,"station_name":"Cawang","i_long":106.856607,"is_transit":false,"time":3},{"distance":1230,"i_lat":-6.226659,"transit":false,"line":2,"time":2,"is_transit":false,"station_name":"Tebet","station_id":"TEB","i_long":106.857948},{"transit":true,"line":0,"station_id":"MRI","i_long":106.84912,"time":4,"is_transit":true,"i_lat":-6.209883,"station_name":"Manggarai","distance":2610},{"i_long":106.822649,"is_transit":false,"station_name":"Sudirman","distance":3186,"transit":false,"line":1,"time":4,"station_id":"SUD","i_lat":-6.202263},{"line":1,"distance":280,"station_name":"Sudirman Baru","station_id":"SUDB","transit":false,"time":1,"i_long":106.819881,"is_transit":false,"i_lat":-6.201433},{"transit":false,"distance":471,"station_id":"KAT","station_name":"Karet","i_long":106.816351,"line":1,"i_lat":-6.20132,"is_transit":false,"time":1},{"station_name":"Tanah Abang","station_id":"THB","i_lat":-6.185545,"line":1,"distance":2029,"i_long":106.811091,"time":5,"is_transit":true,"transit":true},{"i_long":106.79689,"station_name":"Palmerah","i_lat":-6.207404,"station_id":"PLM","time":6,"is_transit":false,"distance":3191,"transit":false,"line":6},{"station_name":"Kebayoran","distance":3737,"line":6,"station_id":"KBY","i_long":106.780334,"time":7,"is_transit":false,"transit":false,"i_lat":-6.237242},{"i_long":106.74273,"station_id":"PDJ","i_lat":-6.276362,"distance":6218,"station_name":"Pondokranji","time":8,"is_transit":false,"transit":false,"line":6},{"transit":false,"i_lat":-6.288927,"line":6,"station_id":"JMU","distance":2179,"i_long":106.728916,"is_transit":false,"time":3,"station_name":"Jurangmangu"},{"transit":false,"station_name":"Sudimara","line":6,"i_long":106.712277,"station_id":"SDM","is_transit":false,"time":4,"distance":1994,"i_lat":-6.296963},{"station_name":"Rawa Buntu","i_lat":-6.314823,"is_transit":false,"station_id":"RU","i_long":106.675475,"transit":false,"distance":4566,"line":6,"time":6},{"i_lat":-6.319871,"line":6,"station_id":"SRP","i_long":106.66566,"time":4,"is_transit":false,"distance":2413,"station_name":"Serpong","transit":false},{"transit":false,"station_id":"CSK","i_lat":-6.32484,"distance":1784,"line":0,"station_name":"Cisauk","is_transit":false,"i_long":106.640411,"time":4},{"line":0,"is_transit":false,"station_name":"Cicayur","time":4,"station_id":"CC","i_long":106.617853,"distance":2519,"transit":false,"i_lat":-6.329547},{"station_id":"PRP","time":8,"is_transit":false,"i_lat":-6.3441410000000005,"line":6,"i_long":106.568863,"station_name":"Parung Panjang","distance":5968,"transit":false}],[{"i_long":106.792719,"i_lat":-6.493243,"distance":0,"transit":false,"station_id":"BJD","time":0,"line":0,"station_name":"Bojonggede","is_transit":false},{"transit":false,"distance":5197,"station_name":"Citayam","line":1,"i_long":106.800298,"is_transit":true,"i_lat":-6.448811,"time":5,"station_id":"CTA"},{"distance":5084,"station_name":"Depok","i_lat":-6.405256,"transit":false,"time":6,"station_id":"DP","line":0,"i_long":106.816926,"is_transit":false},{"line":0,"station_name":"Depokbaru","transit":false,"i_long":106.819451,"is_transit":false,"i_lat":-6.391065,"time":3,"distance":1584,"station_id":"DPB"},{"time":4,"i_lat":-6.369073,"i_long":106.831114,"station_id":"POC","station_name":"Pondok Cina","is_transit":false,"transit":false,"line":2,"distance":2727},{"distance":1109,"transit":false,"station_id":"UI","line":2,"is_transit":false,"station_name":"Univ. Indonesia","i_lat":-6.360749,"i_long":106.831474,"time":2},{"line":2,"station_name":"Univ. Pancasila","transit":false,"is_transit":false,"time":3,"distance":2264,"station_id":"UP","i_lat":-6.339291,"i_long":106.834175},{"is_transit":false,"station_name":"Lenteng Agung","distance":1029,"i_long":106.832616,"station_id":"LNA","time":2,"line":2,"transit":false,"i_lat":-6.330363},{"time":3,"distance":2671,"is_transit":false,"i_lat":-6.3080680000000005,"station_name":"Tanjung Barat","station_id":"TNT","line":2,"i_long":106.838896,"transit":false},{"distance":2820,"station_name":"Pasar Minggu","i_long":106.843999,"line":2,"is_transit":false,"i_lat":-6.2842400000000005,"station_id":"PSM","time":4,"transit":false},{"i_long":106.851577,"station_id":"PSMB","is_transit":false,"time":2,"distance":2380,"i_lat":-6.263214,"station_name":"Pasar Minggu Baru","transit":false,"line":2},{"transit":false,"i_long":106.85449,"line":0,"station_name":"Duren Kalibata","time":2,"station_id":"DRN","i_lat":-6.255332,"is_transit":false,"distance":824},{"i_long":106.856607,"time":3,"is_transit":false,"distance":1546,"transit":false,"station_id":"CW","i_lat":-6.242512,"line":0,"station_name":"Cawang"},{"is_transit":false,"station_name":"Tebet","i_lat":-6.226659,"i_long":106.857948,"time":2,"distance":1230,"station_id":"TEB","line":2,"transit":false},{"is_transit":true,"i_long":106.84912,"line":0,"station_id":"MRI","time":4,"i_lat":-6.209883,"distance":2610,"transit":true,"station_name":"Manggarai"},{"i_lat":-6.198556,"i_long":106.840169,"line":0,"distance":1590,"time":4,"station_name":"Cikini","transit":false,"is_transit":false,"station_id":"CKI"},{"transit":false,"is_transit":false,"line":2,"time":3,"station_id":"GDD","i_lat":-6.186295,"station_name":"Gondangdia","i_long":106.832183,"distance":1750},{"distance":2015,"i_lat":-6.166716,"i_long":106.828284,"station_name":"Juanda","station_id":"JUA","line":2,"is_transit":false,"transit":false,"time":4},{"station_id":"SW","transit":false,"i_long":106.827103,"is_transit":false,"station_name":"Sawah Besar","i_lat":-6.160725,"time":2,"distance":1149,"line":2},{"station_id":"MGB","time":2,"transit":false,"is_transit":false,"i_lat":-6.149769,"i_long":106.82482,"line":2,"station_name":"Manggabesar","distance":906},{"is_transit":false,"time":2,"line":7,"transit":false,"station_id":"JAY","i_long":106.820901,"station_name":"Jayakarta","i_lat":-6.141205,"distance":1080},{"station_name":"Jakarta Kota","i_long":106.812439,"line":0,"is_transit":true,"transit":true,"time":4,"distance":1264,"station_id":"JAKK","i_lat":-6.137569},{"station_id":"KPB","time":3,"distance":1364,"transit":false,"i_lat":-6.132549,"i_long":106.826365,"is_transit":true,"line":0,"station_name":"Kampung Bandan"},{"station_name":"Angke","line":0,"station_id":"AK","distance":4102,"i_lat":-6.144674,"transit":false,"i_long":106.79867,"time":9,"is_transit":false},{"is_transit":true,"station_id":"DU","time":4,"station_name":"Duri","transit":true,"distance":1230,"i_lat":-6.155215,"i_long":106.800832,"line":1},{"time":8,"station_id":"THB","i_lat":-6.185545,"distance":3632,"transit":true,"i_long":106.811091,"is_transit":true,"station_name":"Tanah Abang","line":1},{"station_name":"Palmerah","time":6,"is_transit":false,"station_id":"PLM","transit":false,"i_lat":-6.207404,"i_long":106.79689,"line":6,"distance":3191},{"i_lat":-6.237242,"is_transit":false,"i_long":106.780334,"line":6,"station_name":"Kebayoran","station_id":"KBY","distance":3737,"transit":false,"time":7},{"line":6,"station_name":"Pondokranji","i_lat":-6.276362,"is_transit":false,"distance":6218,"station_id":"PDJ","time":8,"i_long":106.74273,"transit":false},{"station_id":"JMU","is_transit":false,"distance":2179,"line":6,"time":3,"station_name":"Jurangmangu","i_lat":-6.288927,"i_long":106.728916,"transit":false},{"station_name":"Sudimara","time":4,"i_lat":-6.296963,"distance":1994,"is_transit":false,"transit":false,"i_long":106.712277,"line":6,"station_id":"SDM"},{"is_transit":false,"line":6,"station_name":"Rawa Buntu","i_lat":-6.314823,"transit":false,"station_id":"RU","i_long":106.675475,"time":6,"distance":4566},{"is_transit":false,"distance":2413,"i_lat":-6.319871,"station_name":"Serpong","time":4,"transit":false,"i_long":106.66566,"line":6,"station_id":"SRP"},{"i_lat":-6.32484,"line":0,"time":4,"is_transit":false,"station_name":"Cisauk","transit":false,"i_long":106.640411,"station_id":"CSK","distance":1784},{"station_name":"Cicayur","line":0,"i_lat":-6.329547,"is_transit":false,"transit":false,"station_id":"CC","i_long":106.617853,"distance":2519,"time":4},{"distance":5968,"is_transit":false,"station_id":"PRP","i_long":106.568863,"line":6,"station_name":"Parung Panjang","time":8,"transit":false,"i_lat":-6.3441410000000005}],[{"transit":false,"line":0,"station_id":"BJD","station_name":"Bojonggede","time":0,"is_transit":false,"distance":0,"i_lat":-6.493243,"i_long":106.792719},{"is_transit":true,"time":5,"distance":5197,"i_lat":-6.448811,"i_long":106.800298,"station_id":"CTA","station_name":"Citayam","transit":false,"line":1},{"i_lat":-6.405256,"i_long":106.816926,"line":0,"is_transit":false,"distance":5084,"station_name":"Depok","transit":false,"station_id":"DP","time":6},{"i_long":106.819451,"station_name":"Depokbaru","distance":1584,"i_lat":-6.391065,"station_id":"DPB","line":0,"time":3,"is_transit":false,"transit":false},{"distance":2727,"transit":false,"station_id":"POC","line":2,"i_long":106.831114,"time":4,"i_lat":-6.369073,"is_transit":false,"station_name":"Pondok Cina"},{"transit":false,"time":2,"distance":1109,"i_lat":-6.360749,"is_transit":false,"line":2,"station_name":"Univ. Indonesia","station_id":"UI","i_long":106.831474},{"transit":false,"station_name":"Univ. Pancasila","line":2,"time":3,"distance":2264,"i_long":106.834175,"station_id":"UP","i_lat":-6.339291,"is_transit":false},{"station_name":"Lenteng Agung","line":2,"transit":false,"time":2,"station_id":"LNA","i_long":106.832616,"is_transit":false,"i_lat":-6.330363,"distance":1029},{"time":3,"i_long":106.838896,"distance":2671,"i_lat":-6.3080680000000005,"station_name":"Tanjung Barat","is_transit":false,"station_id":"TNT","transit":false,"line":2},{"time":4,"transit":false,"i_long":106.843999,"station_id":"PSM","is_transit":false,"distance":2820,"station_name":"Pasar Minggu","line":2,"i_lat":-6.2842400000000005},{"is_transit":false,"distance":2380,"time":2,"station_id":"PSMB","i_lat":-6.263214,"line":2,"i_long":106.851577,"station_name":"Pasar Minggu Baru","transit":false},{"transit":false,"station_id":"DRN","i_lat":-6.255332,"distance":824,"time":2,"line":0,"is_transit":false,"i_long":106.85449,"station_name":"Duren Kalibata"},{"time":3,"station_name":"Cawang","station_id":"CW","is_transit":false,"i_long":106.856607,"line":0,"distance":1546,"transit":false,"i_lat":-6.242512},{"i_lat":-6.226659,"is_transit":false,"i_long":106.857948,"transit":false,"time":2,"distance":1230,"station_id":"TEB","line":2,"station_name":"Tebet"},{"line":0,"transit":true,"station_name":"Manggarai","i_long":106.84912,"is_transit":true,"distance":2610,"i_lat":-6.209883,"time":4,"station_id":"MRI"},{"distance":1275,"is_transit":false,"i_long":106.858896,"line":1,"time":2,"i_lat":-6.212485,"station_name":"Matraman","station_id":"MTR","transit":false},{"transit":true,"station_name":"Jatinegara","i_lat":-6.215091,"distance":1377,"line":0,"station_id":"JNG","time":8,"i_long":106.86807400000001,"is_transit":true},{"i_lat":-6.209188,"is_transit":false,"station_name":"Pondok Jati","i_long":106.861737,"time":2,"station_id":"POK","line":11,"distance":1236,"transit":false},{"is_transit":false,"distance":1829,"time":2,"station_id":"KMT","i_lat":-6.193792,"station_name":"Kramat","transit":false,"i_long":106.855437,"line":11},{"is_transit":false,"station_name":"Gang Sentiong","station_id":"GST","line":11,"i_long":106.850107,"transit":false,"time":1,"i_lat":-6.185975,"distance":973},{"i_lat":-6.174784,"line":11,"transit":false,"station_name":"Pasar Senen","i_long":106.84368,"time":8,"is_transit":false,"distance":1567,"station_id":"PSE"},{"distance":1436,"transit":false,"i_lat":-6.161728,"station_id":"KMO","station_name":"Kemayoran","is_transit":false,"i_long":106.839204,"line":11,"time":4},{"transit":false,"line":11,"time":5,"station_name":"Rajawali","i_lat":-6.14505,"station_id":"RJW","distance":1901,"i_long":106.836569,"is_transit":false},{"time":3,"line":0,"is_transit":true,"transit":true,"station_id":"KPB","i_lat":-6.132549,"station_name":"Kampung Bandan","i_long":106.826365,"distance":1444},{"transit":false,"is_transit":false,"line":0,"time":9,"i_lat":-6.144674,"station_name":"Angke","distance":4102,"i_long":106.79867,"station_id":"AK"},{"i_long":106.800832,"i_lat":-6.155215,"station_id":"DU","line":1,"time":4,"station_name":"Duri","transit":true,"distance":1230,"is_transit":true},{"distance":3632,"line":1,"time":8,"station_name":"Tanah Abang","i_long":106.811091,"i_lat":-6.185545,"is_transit":true,"transit":true,"station_id":"THB"},{"i_long":106.79689,"distance":3191,"station_id":"PLM","i_lat":-6.207404,"time":6,"is_transit":false,"station_name":"Palmerah","transit":false,"line":6},{"i_lat":-6.237242,"transit":false,"is_transit":false,"i_long":106.780334,"line":6,"station_name":"Kebayoran","time":7,"distance":3737,"station_id":"KBY"},{"time":8,"station_name":"Pondokranji","i_long":106.74273,"line":6,"transit":false,"i_lat":-6.276362,"distance":6218,"is_transit":false,"station_id":"PDJ"},{"is_transit":false,"distance":2179,"line":6,"station_id":"JMU","time":3,"transit":false,"i_lat":-6.288927,"i_long":106.728916,"station_name":"Jurangmangu"},{"i_long":106.712277,"line":6,"time":4,"transit":false,"station_name":"Sudimara","is_transit":false,"distance":1994,"station_id":"SDM","i_lat":-6.296963},{"time":6,"transit":false,"distance":4566,"i_lat":-6.314823,"i_long":106.675475,"station_id":"RU","line":6,"station_name":"Rawa Buntu","is_transit":false},{"station_name":"Serpong","transit":false,"station_id":"SRP","time":4,"distance":2413,"i_lat":-6.319871,"line":6,"is_transit":false,"i_long":106.66566},{"transit":false,"line":0,"distance":1784,"station_id":"CSK","time":4,"i_long":106.640411,"i_lat":-6.32484,"is_transit":false,"station_name":"Cisauk"},{"i_long":106.617853,"station_name":"Cicayur","transit":false,"station_id":"CC","line":0,"time":4,"is_transit":false,"distance":2519,"i_lat":-6.329547},{"distance":5968,"line":6,"i_long":106.568863,"is_transit":false,"time":8,"station_id":"PRP","station_name":"Parung Panjang","i_lat":-6.3441410000000005,"transit":false}]]}