{"data":[[{"station_name":"Bojonggede","station_id":"BJD","distance":0,"line":0,"i_lat":-6.493243,"i_long":106.792719,"time":0,"is_transit":false,"transit":false},{"i_lat":-6.448811,"station_name":"Citayam","distance":5197,"time":5,"i_long":106.800298,"line":1,"is_transit":true,"station_id":"CTA","transit":false},{"transit":false,"station_name":"Depok","i_lat":-6.405256,"i_long":106.816926,"line":0,"station_id":"DP","time":6,"is_transit":false,"distance":5084},{"line":0,"distance":1584,"station_id":"DPB","is_transit":false,"time":3,"station_name":"Depokbaru","transit":false,"i_lat":-6.391065,"i_long":106.819451},{"station_id":"POC","transit":false,"i_long":106.831114,"line":2,"i_lat":-6.369073,"station_name":"Pondok Cina","is_transit":false,"time":4,"distance":2727},{"transit":false,"station_name":"Univ. Indonesia","line":2,"i_lat":-6.360749,"distance":1109,"station_id":"UI","i_long":106.831474,"time":2,"is_transit":false},{"distance":2264,"transit":false,"i_long":106.834175,"line":2,"station_id":"UP","is_transit":false,"station_name":"Univ. Pancasila","i_lat":-6.339291,"time":3},{"line":2,"i_lat":-6.330363,"distance":1029,"transit":false,"i_long":106.832616,"station_id":"LNA","time":2,"is_transit":false,"station_name":"Lenteng Agung"},{"i_long":106.838896,"time":3,"station_id":"TNT","distance":2671,"i_lat":-6.3080680000000005,"transit":false,"station_name":"Tanjung Barat","line":2,"is_transit":false},{"i_long":106.843999,"station_id":"PSM","time":4,"is_transit":false,"i_lat":-6.2842400000000005,"line":2,"station_name":"Pasar Minggu","distance":2820,"transit":false},{"time":2,"i_lat":-6.263214,"station_name":"Pasar Minggu Baru","line":2,"transit":false,"i_long":106.851577,"is_transit":false,"distance":2380,"station_id":"PSMB"},{"line":0,"station_name":"Duren Kalibata","station_id":"DRN","distance":824,"i_lat":-6.255332,"is_transit":false,"transit":false,"i_long":106.85449,"time":2},{"station_id":"CW","transit":false,"distance":1546,"time":3,"station_name":"Cawang","i_lat":-6.242512,"line":0,"is_transit":false,"i_long":106.856607},{"distance":1230,"line":2,"station_id":"TEB","transit":false,"is_transit":false,"i_long":106.857948,"station_name":"Tebet","time":2,"i_lat":-6.226659},{"is_transit":true,"station_id":"MRI","i_lat":-6.209883,"station_name":"Manggarai","time":4,"transit":true,"distance":2610,"i_long":106.84912,"line":0},{"i_long":106.822649,"station_id":"SUD","time":4,"station_name":"Sudirman","i_lat":-6.202263,"is_transit":false,"transit":false,"line":1,"distance":3186},{"transit":false,"distance":280,"i_lat":-6.201433,"station_id":"SUDB","time":1,"i_long":106.819881,"line":1,"is_transit":false,"station_name":"Sudirman Baru"},{"distance":471,"time":1,"line":1,"station_id":"KAT","transit":false,"station_name":"Karet","i_lat":-6.20132,"is_transit":false,"i_long":106.816351},{"i_long":106.811091,"is_transit":true,"station_name":"Tanah Abang","transit":false,"i_lat":-6.185545,"distance":2029,"time":5,"line":1,"station_id":"THB"},{"distance":3632,"i_long":106.800832,"transit":true,"line":1,"is_transit":true,"i_lat":-6.155215,"station_id":"DU","time":8,"station_name":"Duri"},{"time":3,"i_long":106.788277,"station_id":"GGL","distance":1700,"station_name":"Grogol","i_lat":-6.162021,"transit":false,"line":5,"is_transit":false},{"is_transit":false,"line":5,"time":2,"distance":2036,"station_name":"Pesing","i_lat":-6.161433,"station_id":"PSG","transit":false,"i_long":106.771379},{"is_transit":false,"line":5,"i_long":106.756522,"time":2,"transit":false,"station_name":"Taman Kota","i_lat":-6.1587309999999995,"distance":1614,"station_id":"TKO"},{"i_lat":-6.159876,"i_long":106.737035,"distance":2334,"line":0,"time":2,"station_name":"Bojongindah","transit":false,"station_id":"BOI","is_transit":false},{"station_id":"RW","is_transit":false,"time":4,"i_lat":-6.162758,"station_name":"Rawa Buaya","transit":false,"distance":1152,"i_long":106.723064,"line":5},{"time":3,"station_id":"KDS","station_name":"Kalideres","i_long":106.701612,"distance":2504,"i_lat":-6.166068,"is_transit":false,"transit":false,"line":5}],[{"distance":0,"is_transit":false,"time":0,"i_lat":-6.493243,"i_long":106.792719,"station_id":"BJD","line":0,"transit":false,"station_name":"Bojonggede"},{"station_id":"CTA","distance":5197,"i_lat":-6.448811,"i_long":106.800298,"station_name":"Citayam","transit":false,"line":1,"is_transit":true,"time":5},{"time":6,"line":0,"transit":false,"station_name":"Depok","station_id":"DP","i_long":106.816926,"is_transit":false,"i_lat":-6.405256,"distance":5084},{"transit":false,"station_name":"Depokbaru","i_lat":-6.391065,"i_long":106.819451,"is_transit":false,"time":3,"line":0,"station_id":"DPB","distance":1584},{"station_id":"POC","is_transit":false,"i_long":106.831114,"time":4,"station_name":"Pondok Cina","transit":false,"distance":2727,"i_lat":-6.369073,"line":2},{"i_lat":-6.360749,"station_name":"Univ. Indonesia","i_long":106.831474,"is_transit":false,"distance":1109,"line":2,"station_id":"UI","time":2,"transit":false},{"station_name":"Univ. Pancasila","transit":false,"line":2,"time":3,"station_id":"UP","i_lat":-6.339291,"i_long":106.834175,"is_transit":false,"distance":2264},{"is_transit":false,"transit":false,"line":2,"distance":1029,"time":2,"i_lat":-6.330363,"i_long":106.832616,"station_name":"Lenteng Agung","station_id":"LNA"},{"transit":false,"i_long":106.838896,"is_transit":false,"station_name":"Tanjung Barat","line":2,"station_id":"TNT","time":3,"distance":2671,"i_lat":-6.3080680000000005},{"i_long":106.843999,"time":4,"transit":false,"line":2,"station_id":"PSM","is_transit":false,"distance":2820,"station_name":"Pasar Minggu","i_lat":-6.2842400000000005},{"transit":false,"station_name":"Pasar Minggu Baru","station_id":"PSMB","is_transit":false,"distance":2380,"i_lat":-6.263214,"line":2,"time":2,"i_long":106.851577},{"is_transit":false,"transit":false,"station_name":"Duren Kalibata","distance":824,"i_long":106.85449,"time":2,"line":0,"station_id":"DRN","i_lat":-6.255332},{"time":3,"distance":1546,"transit":false,"is_transit":false,"station_name":"Cawang","station_id":"CW","i_lat":-6.242512,"line":0,"i_long":106.856607},{"time":2,"i_lat":-6.226659,"distance":1230,"station_id":"TEB","transit":false,"i_long":106.857948,"line":2,"station_name":"Tebet","is_transit":false},{"i_long":106.84912,"is_transit":true,"time":4,"distance":2610,"i_lat":-6.209883,"transit":true,"station_name":"Manggarai","line":0,"station_id":"MRI"},{"station_name":"Cikini","station_id":"CKI","distance":1590,"i_lat":-6.198556,"is_transit":false,"time":4,"transit":false,"line":0,"i_long":106.840169},{"i_long":106.832183,"station_id":"GDD","line":2,"time":3,"transit":false,"distance":1750,"station_name":"Gondangdia","is_transit":false,"i_lat":-6.186295},{"line":2,"station_name":"Juanda","station_id":"JUA","time":4,"distance":2015,"i_lat":-6.166716,"transit":false,"is_transit":false,"i_long":106.828284},{"i_long":106.827103,"is_transit":false,"time":2,"station_name":"Sawah Besar","line":2,"i_lat":-6.160725,"transit":false,"distance":1149,"station_id":"SW"},{"i_long":106.82482,"time":2,"transit":false,"is_transit":false,"line":2,"station_name":"Manggabesar","station_id":"MGB","i_lat":-6.149769,"distance":906},{"i_lat":-6.141205,"distance":1080,"i_long":106.820901,"time":2,"line":7,"station_id":"JAY","is_transit":false,"station_name":"Jayakarta","transit":false},{"distance":1264,"station_id":"JAKK","station_name":"Jakarta Kota","i_lat":-6.137569,"i_long":106.812439,"time":4,"transit":true,"line":0,"is_transit":true},{"transit":false,"distance":1364,"is_transit":true,"station_name":"Kampung Bandan","station_id":"KPB","line":0,"i_long":106.826365,"time":3,"i_lat":-6.132549},{"station_name":"Angke","line":0,"transit":false,"is_transit":false,"time":9,"i_lat":-6.144674,"i_long":106.79867,"station_id":"AK","distance":4102},{"station_name":"Duri","i_long":106.800832,"is_transit":true,"line":1,"station_id":"DU","i_lat":-6.155215,"time":4,"distance":1230,"transit":true},{"is_transit":false,"distance":1700,"station_id":"GGL","time":3,"station_name":"Grogol","transit":false,"i_lat":-6.162021,"line":5,"i_long":106.788277},{"transit":false,"is_transit":false,"line":5,"station_id":"PSG","i_lat":-6.161433,"i_long":106.771379,"distance":2036,"station_name":"Pesing","time":2},{"transit":false,"i_lat":-6.1587309999999995,"is_transit":false,"distance":1614,"i_long":106.756522,"line":5,"station_id":"TKO","time":2,"station_name":"Taman Kota"},{"i_long":106.737035,"transit":false,"station_id":"BOI","distance":2334,"is_transit":false,"station_name":"Bojongindah","time":2,"line":0,"i_lat":-6.159876},{"i_lat":-6.162758,"i_long":106.723064,"line":5,"time":4,"station_name":"Rawa Buaya","is_transit":false,"distance":1152,"transit":false,"station_id":"RW"},{"time":3,"transit":false,"line":5,"distance":2504,"i_lat":-6.166068,"is_transit":false,"station_name":"Kalideres","i_long":106.701612,"station_id":"KDS"}],[{"station_name":"Bojonggede","station_id":"BJD","is_transit":false,"line":0,"distance":0,"transit":false,"i_lat":-6.493243,"time":0,"i_long":106.792719},{"i_lat":-6.448811,"i_long":106.800298,"line":1,"is_transit":true,"station_name":"Citayam","distance":5197,"time":5,"transit":false,"station_id":"CTA"},{"distance":5084,"i_lat":-6.405256,"time":6,"line":0,"station_id":"DP","station_name":"Depok","i_long":106.816926,"is_transit":false,"transit":false},{"i_long":106.819451,"i_lat":-6.391065,"is_transit":false,"line":0,"distance":1584,"transit":false,"station_id":"DPB","station_name":"Depokbaru","time":3},{"transit":false,"i_lat":-6.369073,"time":4,"line":2,"i_long":106.831114,"distance":2727,"station_name":"Pondok Cina","station_id":"POC","is_transit":false},{"i_long":106.831474,"station_id":"UI","time":2,"distance":1109,"is_transit":false,"station_name":"Univ. Indonesia","transit":false,"line":2,"i_lat":-6.360749},{"station_id":"UP","line":2,"i_long":106.834175,"station_name":"Univ. Pancasila","time":3,"transit":false,"i_lat":-6.339291,"distance":2264,"is_transit":false},{"time":2,"i_long":106.832616,"is_transit":false,"station_name":"Lenteng Agung","i_lat":-6.330363,"distance":1029,"transit":false,"line":2,"station_id":"LNA"},{"transit":false,"is_transit":false,"station_name":"Tanjung Barat","distance":2671,"line":2,"station_id":"TNT","i_long":106.838896,"i_lat":-6.3080680000000005,"time":3},{"is_transit":false,"transit":false,"station_id":"PSM","station_name":"Pasar Minggu","i_lat":-6.2842400000000005,"i_long":106.843999,"time":4,"line":2,"distance":2820},{"i_lat":-6.263214,"time":2,"distance":2380,"transit":false,"line":2,"is_transit":false,"station_id":"PSMB","station_name":"Pasar Minggu Baru","i_long":106.851577},{"station_name":"Duren Kalibata","station_id":"DRN","time":2,"transit":false,"i_lat":-6.255332,"distance":824,"i_long":106.85449,"is_transit":false,"line":0},{"station_name":"Cawang","is_transit":false,"transit":false,"i_lat":-6.242512,"station_id":"CW","i_long":106.856607,"distance":1546,"time":3,"line":0},{"line":2,"time":2,"station_id":"TEB","i_lat":-6.226659,"is_transit":false,"distance":1230,"station_name":"Tebet","transit":false,"i_long":106.857948},{"station_id":"MRI","is_transit":true,"transit":true,"time":4,"i_lat":-6.209883,"distance":2610,"line":0,"station_name":"Manggarai","i_long":106.84912},{"station_name":"Matraman","transit":false,"i_long":106.858896,"line":1,"i_lat":-6.212485,"is_transit":false,"station_id":"MTR","time":2,"distance":1275},{"i_long":106.86807400000001,"station_name":"Jatinegara","time":8,"station_id":"JNG","distance":1377,"transit":true,"i_lat":-6.215091,"line":0,"is_transit":true},{"station_name":"Pondok Jati","transit":false,"is_transit":false,"i_long":106.861737,"station_id":"POK","i_lat":-6.209188,"line":11,"time":2,"distance":1236},{"distance":1829,"line":11,"transit":false,"station_name":"Kramat","station_id":"KMT","is_transit":false,"i_lat":-6.193792,"i_long":106.855437,"time":2},{"distance":973,"line":11,"station_name":"Gang Sentiong","i_long":106.850107,"is_transit":false,"station_id":"GST","transit":false,"i_lat":-6.185975,"time":1},{"i_lat":-6.174784,"transit":false,"is_transit":false,"station_id":"PSE","time":8,"station_name":"Pasar Senen","distance":1567,"line":11,"i_long":106.84368},{"line":11,"is_transit":false,"distance":1436,"i_lat":-6.161728,"i_long":106.839204,"transit":false,"time":4,"station_id":"KMO","station_name":"Kemayoran"},{"transit":false,"i_lat":-6.14505,"i_long":106.836569,"line":11,"is_transit":false,"station_id":"RJW","distance":1901,"station_name":"Rajawali","time":5},{"time":3,"distance":1444,"line":0,"transit":true,"station_id":"KPB","is_transit":true,"i_lat":-6.132549,"i_long":106.826365,"station_name":"Kampung Bandan"},{"i_lat":-6.144674,"distance":4102,"line":0,"is_transit":false,"i_long":106.79867,"time":9,"station_id":"AK","transit":false,"station_name":"Angke"},{"station_id":"DU","time":4,"i_lat":-6.155215,"transit":true,"station_name":"Duri","is_transit":true,"i_long":106.800832,"line":1,"distance":1230},{"transit":false,"i_lat":-6.162021,"distance":1700,"station_name":"Grogol","station_id":"GGL","line":5,"i_long":106.788277,"time":3,"is_transit":false},{"line":5,"station_name":"Pesing","i_long":106.771379,"distance":2036,"transit":false,"i_lat":-6.161433,"station_id":"PSG","is_transit":false,"time":2},{"i_lat":-6.1587309999999995,"time":2,"transit":false,"station_name":"Taman Kota","station_id":"TKO","i_long":106.756522,"line":5,"is_transit":false,"distance":1614},{"i_lat":-6.159876,"i_long":106.737035,"time":2,"station_name":"Bojongindah","station_id":"BOI","transit":false,"distance":2334,"line":0,"is_transit":false},{"is_transit":false,"i_long":106.723064,"time":4,"distance":1152,"station_id":"RW","transit":false,"line":5,"i_lat":-6.162758,"station_name":"Rawa Buaya"},{"distance":2504,"is_transit":false,"i_long":106.701612,"i_lat":-6.166068,"time":3,"station_name":"Kalideres","line":5,"station_id":"KDS","transit":false}]]}