{"data":[[{"distance":0,"transit":false,"station_name":"Bojonggede","is_transit":false,"i_long":106.792719,"line":2,"station_id":"BJD","i_lat":-6.493243,"time":0},{"i_long":106.800298,"is_transit":false,"time":5,"transit":false,"line":2,"i_lat":-6.448811,"distance":5197,"station_id":"CTA","station_name":"Citayam"},{"i_long":106.816926,"line":2,"transit":false,"station_name":"Depok","station_id":"DP","is_transit":false,"time":6,"i_lat":-6.405256,"distance":5084},{"line":2,"station_name":"Depokbaru","is_transit":false,"i_lat":-6.391065,"distance":1584,"station_id":"DPB","i_long":106.819451,"transit":false,"time":3},{"distance":2727,"i_long":106.831114,"is_transit":false,"time":4,"transit":false,"i_lat":-6.369073,"line":2,"station_id":"POC","station_name":"Pondok Cina"}]]}