{"data":[[{"is_transit":false,"distance":0,"line":2,"time":0,"transit":false,"i_long":106.792719,"station_name":"Bojonggede","i_lat":-6.493243,"station_id":"BJD"},{"is_transit":false,"i_long":106.800298,"time":5,"station_id":"CTA","transit":false,"i_lat":-6.448811,"station_name":"Citayam","line":2,"distance":5197},{"time":6,"is_transit":false,"line":2,"station_id":"DP","station_name":"Depok","distance":5084,"i_lat":-6.405256,"transit":false,"i_long":106.816926},{"line":2,"distance":1584,"transit":false,"i_long":106.819451,"is_transit":false,"i_lat":-6.391065,"time":3,"station_id":"DPB","station_name":"Depokbaru"},{"is_transit":false,"line":2,"station_name":"Pondok Cina","i_long":106.831114,"distance":2727,"time":4,"i_lat":-6.369073,"transit":false,"station_id":"POC"},{"line":2,"distance":1109,"i_lat":-6.360749,"is_transit":false,"station_name":"Univ. Indonesia","transit":false,"station_id":"UI","i_long":106.831474,"time":2},{"station_name":"Univ. Pancasila","i_long":106.834175,"line":2,"station_id":"UP","transit":false,"time":3,"distance":2264,"is_transit":false,"i_lat":-6.339291},{"time":2,"transit":false,"distance":1029,"i_lat":-6.330363,"i_long":106.832616,"station_id":"LNA","line":2,"station_name":"Lenteng Agung","is_transit":false},{"time":3,"station_id":"TNT","i_lat":-6.3080680000000005,"line":2,"transit":false,"is_transit":false,"station_name":"Tanjung Barat","i_long":106.838896,"distance":2671}]]}