{"data":[[{"line":2,"is_transit":false,"i_long":106.792719,"distance":0,"time":0,"station_id":"BJD","transit":false,"station_name":"Bojonggede","i_lat":-6.493243},{"transit":false,"i_lat":-6.448811,"line":2,"distance":5197,"station_id":"CTA","time":5,"is_transit":false,"station_name":"Citayam","i_long":106.800298},{"i_long":106.816926,"distance":5084,"line":2,"i_lat":-6.405256,"station_name":"Depok","transit":false,"station_id":"DP","time":6,"is_transit":false},{"time":3,"i_lat":-6.391065,"line":2,"is_transit":false,"transit":false,"station_name":"Depokbaru","distance":1584,"station_id":"DPB","i_long":106.819451},{"is_transit":false,"station_name":"Pondok Cina","station_id":"POC","i_long":106.831114,"i_lat":-6.369073,"line":2,"transit":false,"time":4,"distance":2727},{"station_id":"UI","i_lat":-6.360749,"time":2,"line":2,"transit":false,"is_transit":false,"distance":1109,"station_name":"Univ. Indonesia","i_long":106.831474},{"transit":false,"distance":2264,"i_long":106.834175,"is_transit":false,"station_id":"UP","station_name":"Univ. Pancasila","i_lat":-6.339291,"line":2,"time":3},{"i_long":106.832616,"is_transit":false,"station_name":"Lenteng Agung","i_lat":-6.330363,"station_id":"LNA","time":2,"distance":1029,"transit":false,"line":2},{"i_lat":-6.3080680000000005,"line":2,"time":3,"i_long":106.838896,"station_id":"TNT","distance":2671,"transit":false,"is_transit":false,"station_name":"Tanjung Barat"},{"distance":2820,"i_lat":-6.2842400000000005,"line":2,"station_name":"Pasar Minggu","time":4,"is_transit":false,"i_long":106.843999,"transit":false,"station_id":"PSM"},{"station_id":"PSMB","time":2,"station_name":"Pasar Minggu Baru","distance":2380,"is_transit":false,"i_long":106.851577,"i_lat":-6.263214,"line":2,"transit":false},{"time":2,"is_transit":false,"station_id":"DRN","transit":false,"i_lat":-6.255332,"station_name":"Duren Kalibata","line":2,"distance":824,"i_long":106.85449},{"line":2,"station_id":"CW","time":3,"distance":1546,"station_name":"Cawang","transit":false,"is_transit":false,"i_long":106.856607,"i_lat":-6.242512},{"i_lat":-6.226659,"time":2,"is_transit":false,"i_long":106.857948,"station_name":"Tebet","line":2,"distance":1230,"transit":false,"station_id":"TEB"},{"transit":true,"line":2,"time":4,"station_name":"Manggarai","distance":2610,"i_long":106.84912,"i_lat":-6.209883,"is_transit":true,"station_id":"MRI"},{"station_id":"SUD","time":4,"station_name":"Sudirman","i_lat":-6.202263,"i_long":106.822649,"is_transit":false,"line":1,"transit":false,"distance":3186},{"station_name":"Sudirman Baru","line":1,"i_lat":-6.201433,"transit":false,"i_long":106.819881,"station_id":"SUDB","is_transit":false,"distance":280,"time":1},{"is_transit":false,"transit":false,"time":1,"line":1,"distance":471,"station_name":"Karet","i_lat":-6.20132,"i_long":106.816351,"station_id":"KAT"},{"i_long":106.811091,"transit":true,"station_id":"THB","distance":2029,"station_name":"Tanah Abang","is_transit":true,"line":1,"time":5,"i_lat":-6.185545},{"line":6,"station_id":"PLM","time":6,"is_transit":false,"transit":false,"i_long":106.79689,"station_name":"Palmerah","i_lat":-6.207404,"distance":3191},{"distance":3737,"station_id":"KBY","i_lat":-6.237242,"line":6,"is_transit":false,"station_name":"Kebayoran","i_long":106.780334,"time":7,"transit":false},{"is_transit":false,"i_lat":-6.276362,"i_long":106.74273,"time":8,"station_name":"Pondokranji","line":6,"transit":false,"station_id":"PDJ","distance":6218},{"transit":false,"i_lat":-6.288927,"distance":2179,"time":3,"i_long":106.728916,"station_name":"Jurangmangu","is_transit":false,"station_id":"JMU","line":6},{"is_transit":false,"station_id":"SDM","line":6,"i_lat":-6.296963,"station_name":"Sudimara","transit":false,"time":4,"i_long":106.712277,"distance":1994},{"station_id":"RU","is_transit":false,"station_name":"Rawa Buntu","time":6,"i_lat":-6.314823,"line":6,"distance":4566,"i_long":106.675475,"transit":false},{"is_transit":false,"station_name":"Serpong","distance":2413,"line":6,"time":4,"i_long":106.66566,"transit":false,"station_id":"SRP","i_lat":-6.319871},{"transit":false,"is_transit":false,"distance":1784,"time":4,"i_long":106.640411,"station_name":"Cisauk","i_lat":-6.32484,"line":3,"station_id":"CSK"},{"i_lat":-6.329547,"distance":2519,"time":4,"station_id":"CC","station_name":"Cicayur","is_transit":false,"i_long":106.617853,"transit":false,"line":3},{"is_transit":false,"i_long":106.568863,"transit":false,"station_name":"Parung Panjang","station_id":"PRP","distance":5968,"line":6,"i_lat":-6.3441410000000005,"time":8}],[{"i_lat":-6.493243,"is_transit":false,"distance":0,"transit":false,"station_name":"Bojonggede","time":0,"i_long":106.792719,"station_id":"BJD","line":2},{"time":5,"transit":false,"station_name":"Citayam","is_transit":false,"i_lat":-6.448811,"line":2,"station_id":"CTA","distance":5197,"i_long":106.800298},{"transit":false,"station_name":"Depok","station_id":"DP","time":6,"i_lat":-6.405256,"i_long":106.816926,"line":2,"distance":5084,"is_transit":false},{"i_lat":-6.391065,"time":3,"transit":false,"station_id":"DPB","line":2,"distance":1584,"station_name":"Depokbaru","i_long":106.819451,"is_transit":false},{"station_name":"Pondok Cina","transit":false,"line":2,"time":4,"i_long":106.831114,"distance":2727,"station_id":"POC","i_lat":-6.369073,"is_transit":false},{"is_transit":false,"time":2,"transit":false,"line":2,"station_id":"UI","i_long":106.831474,"distance":1109,"i_lat":-6.360749,"station_name":"Univ. Indonesia"},{"i_long":106.834175,"time":3,"station_id":"UP","is_transit":false,"transit":false,"distance":2264,"i_lat":-6.339291,"station_name":"Univ. Pancasila","line":2},{"station_id":"LNA","time":2,"is_transit":false,"station_name":"Lenteng Agung","line":2,"i_long":106.832616,"transit":false,"i_lat":-6.330363,"distance":1029},{"transit":false,"is_transit":false,"station_name":"Tanjung Barat","line":2,"station_id":"TNT","i_lat":-6.3080680000000005,"distance":2671,"i_long":106.838896,"time":3},{"station_name":"Pasar Minggu","distance":2820,"line":2,"transit":false,"i_lat":-6.2842400000000005,"time":4,"station_id":"PSM","is_transit":false,"i_long":106.843999},{"station_id":"PSMB","line":2,"distance":2380,"time":2,"station_name":"Pasar Minggu Baru","is_transit":false,"transit":false,"i_lat":-6.263214,"i_long":106.851577},{"distance":824,"station_name":"Duren Kalibata","time":2,"i_lat":-6.255332,"transit":false,"line":2,"station_id":"DRN","i_long":106.85449,"is_transit":false},{"i_lat":-6.242512,"station_id":"CW","station_name":"Cawang","transit":false,"distance":1546,"i_long":106.856607,"line":2,"time":3,"is_transit":false},{"line":2,"is_transit":false,"station_name":"Tebet","time":2,"station_id":"TEB","distance":1230,"transit":false,"i_lat":-6.226659,"i_long":106.857948},{"station_name":"Manggarai","i_long":106.84912,"i_lat":-6.209883,"transit":false,"is_transit":false,"time":4,"line":2,"distance":2610,"station_id":"MRI"},{"station_name":"Cikini","line":2,"station_id":"CKI","i_long":106.840169,"is_transit":false,"time":4,"transit":false,"i_lat":-6.198556,"distance":1590},{"station_id":"GDD","is_transit":false,"time":3,"distance":1750,"line":2,"i_lat":-6.186295,"station_name":"Gondangdia","transit":false,"i_long":106.832183},{"i_lat":-6.166716,"station_name":"Juanda","station_id":"JUA","distance":2015,"i_long":106.828284,"line":2,"time":4,"transit":false,"is_transit":false},{"line":2,"time":2,"transit":false,"i_lat":-6.160725,"is_transit":false,"station_name":"Sawah Besar","distance":1149,"station_id":"SW","i_long":106.827103},{"i_long":106.82482,"station_name":"Manggabesar","i_lat":-6.149769,"is_transit":false,"line":2,"station_id":"MGB","distance":906,"time":2,"transit":false},{"line":2,"i_lat":-6.141205,"transit":false,"i_long":106.820901,"station_id":"JAY","distance":1080,"is_transit":false,"time":2,"station_name":"Jayakarta"},{"transit":true,"line":2,"station_id":"JAKK","station_name":"Jakarta Kota","is_transit":true,"distance":1264,"time":4,"i_long":106.812439,"i_lat":-6.137569},{"distance":1364,"station_name":"Kampung Bandan","i_lat":-6.132549,"is_transit":true,"i_long":106.826365,"time":3,"transit":true,"line":4,"station_id":"KPB"},{"is_transit":false,"distance":4102,"transit":false,"i_long":106.79867,"line":1,"station_id":"AK","time":9,"i_lat":-6.144674,"station_name":"Angke"},{"i_long":106.800832,"i_lat":-6.155215,"is_transit":false,"distance":1230,"transit":false,"station_name":"Duri","line":1,"station_id":"DU","time":4},{"is_transit":true,"distance":3632,"station_id":"THB","station_name":"Tanah Abang","i_lat":-6.185545,"line":1,"transit":true,"time":8,"i_long":106.811091},{"distance":3191,"station_id":"PLM","station_name":"Palmerah","time":6,"transit":false,"i_long":106.79689,"line":6,"i_lat":-6.207404,"is_transit":false},{"transit":false,"is_transit":false,"time":7,"i_lat":-6.237242,"station_name":"Kebayoran","line":6,"distance":3737,"station_id":"KBY","i_long":106.780334},{"station_name":"Pondokranji","transit":false,"i_lat":-6.276362,"time":8,"distance":6218,"is_transit":false,"station_id":"PDJ","line":6,"i_long":106.74273},{"i_lat":-6.288927,"station_id":"JMU","time":3,"is_transit":false,"distance":2179,"line":6,"station_name":"Jurangmangu","transit":false,"i_long":106.728916},{"i_lat":-6.296963,"time":4,"station_id":"SDM","transit":false,"i_long":106.712277,"line":6,"distance":1994,"is_transit":false,"station_name":"Sudimara"},{"distance":4566,"transit":false,"i_lat":-6.314823,"is_transit":false,"station_id":"RU","station_name":"Rawa Buntu","line":6,"time":6,"i_long":106.675475},{"station_id":"SRP","line":6,"i_long":106.66566,"distance":2413,"time":4,"station_name":"Serpong","transit":false,"is_transit":false,"i_lat":-6.319871},{"station_id":"CSK","is_transit":false,"i_lat":-6.32484,"line":3,"station_name":"Cisauk","transit":false,"time":4,"i_long":106.640411,"distance":1784},{"i_lat":-6.329547,"i_long":106.617853,"line":3,"transit":false,"is_transit":false,"distance":2519,"time":4,"station_name":"Cicayur","station_id":"CC"},{"is_transit":false,"i_lat":-6.3441410000000005,"time":8,"distance":5968,"line":6,"station_name":"Parung Panjang","i_long":106.568863,"transit":false,"station_id":"PRP"}],[{"station_name":"Bojonggede","transit":false,"i_lat":-6.493243,"i_long":106.792719,"time":0,"distance":0,"is_transit":false,"line":2,"station_id":"BJD"},{"distance":5197,"line":2,"i_long":106.800298,"time":5,"transit":false,"i_lat":-6.448811,"station_id":"CTA","station_name":"Citayam","is_transit":false},{"distance":5084,"time":6,"station_name":"Depok","station_id":"DP","is_transit":false,"transit":false,"i_lat":-6.405256,"i_long":106.816926,"line":2},{"time":3,"transit":false,"i_lat":-6.391065,"line":2,"is_transit":false,"distance":1584,"i_long":106.819451,"station_id":"DPB","station_name":"Depokbaru"},{"station_name":"Pondok Cina","i_lat":-6.369073,"line":2,"distance":2727,"time":4,"i_long":106.831114,"station_id":"POC","transit":false,"is_transit":false},{"is_transit":false,"distance":1109,"i_long":106.831474,"time":2,"transit":false,"line":2,"station_name":"Univ. Indonesia","station_id":"UI","i_lat":-6.360749},{"distance":2264,"station_name":"Univ. Pancasila","i_long":106.834175,"is_transit":false,"line":2,"station_id":"UP","time":3,"i_lat":-6.339291,"transit":false},{"distance":1029,"is_transit":false,"time":2,"station_name":"Lenteng Agung","i_lat":-6.330363,"i_long":106.832616,"line":2,"station_id":"LNA","transit":false},{"transit":false,"time":3,"station_name":"Tanjung Barat","is_transit":false,"station_id":"TNT","i_lat":-6.3080680000000005,"distance":2671,"i_long":106.838896,"line":2},{"i_lat":-6.2842400000000005,"i_long":106.843999,"transit":false,"is_transit":false,"distance":2820,"station_id":"PSM","line":2,"station_name":"Pasar Minggu","time":4},{"is_transit":false,"station_id":"PSMB","time":2,"station_name":"Pasar Minggu Baru","line":2,"i_long":106.851577,"distance":2380,"transit":false,"i_lat":-6.263214},{"station_id":"DRN","time":2,"is_transit":false,"i_long":106.85449,"distance":824,"line":2,"i_lat":-6.255332,"station_name":"Duren Kalibata","transit":false},{"line":2,"is_transit":false,"distance":1546,"time":3,"station_id":"CW","transit":false,"i_long":106.856607,"station_name":"Cawang","i_lat":-6.242512},{"i_lat":-6.226659,"time":2,"line":2,"station_id":"TEB","station_name":"Tebet","transit":false,"i_long":106.857948,"is_transit":false,"distance":1230},{"is_transit":true,"transit":true,"distance":2610,"i_long":106.84912,"line":2,"station_name":"Manggarai","i_lat":-6.209883,"time":4,"station_id":"MRI"},{"time":2,"transit":false,"station_name":"Matraman","station_id":"MTR","is_transit":false,"i_lat":-6.212485,"distance":1275,"i_long":106.858896,"line":1},{"line":1,"distance":1377,"i_lat":-6.215091,"station_id":"JNG","time":8,"station_name":"Jatinegara","is_transit":true,"transit":true,"i_long":106.86807400000001},{"i_lat":-6.209188,"time":2,"distance":1236,"station_id":"POK","is_transit":false,"line":11,"transit":false,"i_long":106.861737,"station_name":"Pondok Jati"},{"distance":1829,"is_transit":false,"transit":false,"station_id":"KMT","i_long":106.855437,"i_lat":-6.193792,"time":2,"station_name":"Kramat","line":11},{"station_id":"GST","time":1,"i_long":106.850107,"line":11,"station_name":"Gang Sentiong","distance":973,"i_lat":-6.185975,"transit":false,"is_transit":false},{"is_transit":false,"transit":false,"time":8,"station_id":"PSE","distance":1567,"i_long":106.84368,"line":11,"i_lat":-6.174784,"station_name":"Pasar Senen"},{"station_id":"KMO","station_name":"Kemayoran","i_long":106.839204,"is_transit":false,"distance":1436,"line":11,"transit":false,"i_lat":-6.161728,"time":4},{"station_name":"Rajawali","station_id":"RJW","transit":false,"i_lat":-6.14505,"is_transit":false,"distance":1901,"time":5,"i_long":106.836569,"line":11},{"time":3,"i_lat":-6.132549,"is_transit":true,"distance":1444,"transit":true,"station_id":"KPB","station_name":"Kampung Bandan","i_long":106.826365,"line":4},{"station_id":"AK","i_long":106.79867,"station_name":"Angke","i_lat":-6.144674,"line":1,"transit":false,"time":9,"is_transit":false,"distance":4102},{"i_lat":-6.155215,"transit":false,"time":4,"station_name":"Duri","i_long":106.800832,"station_id":"DU","is_transit":false,"line":1,"distance":1230},{"station_name":"Tanah Abang","is_transit":true,"station_id":"THB","time":8,"transit":true,"distance":3632,"i_long":106.811091,"line":1,"i_lat":-6.185545},{"distance":3191,"i_lat":-6.207404,"transit":false,"station_id":"PLM","station_name":"Palmerah","time":6,"line":6,"is_transit":false,"i_long":106.79689},{"line":6,"station_id":"KBY","is_transit":false,"i_lat":-6.237242,"station_name":"Kebayoran","time":7,"distance":3737,"transit":false,"i_long":106.780334},{"line":6,"time":8,"i_lat":-6.276362,"is_transit":false,"transit":false,"station_id":"PDJ","station_name":"Pondokranji","distance":6218,"i_long":106.74273},{"line":6,"time":3,"i_long":106.728916,"is_transit":false,"station_name":"Jurangmangu","i_lat":-6.288927,"transit":false,"distance":2179,"station_id":"JMU"},{"distance":1994,"transit":false,"line":6,"is_transit":false,"i_lat":-6.296963,"station_name":"Sudimara","station_id":"SDM","time":4,"i_long":106.712277},{"i_lat":-6.314823,"station_id":"RU","transit":false,"is_transit":false,"line":6,"station_name":"Rawa Buntu","distance":4566,"i_long":106.675475,"time":6},{"station_id":"SRP","i_long":106.66566,"line":6,"distance":2413,"time":4,"is_transit":false,"i_lat":-6.319871,"transit":false,"station_name":"Serpong"},{"time":4,"i_lat":-6.32484,"distance":1784,"i_long":106.640411,"station_id":"CSK","is_transit":false,"transit":false,"station_name":"Cisauk","line":3},{"i_long":106.617853,"station_id":"CC","is_transit":false,"transit":false,"time":4,"station_name":"Cicayur","line":3,"i_lat":-6.329547,"distance":2519},{"station_id":"PRP","station_name":"Parung Panjang","is_transit":false,"i_long":106.568863,"transit":false,"distance":5968,"line":6,"i_lat":-6.3441410000000005,"time":8}]]}