{"data":[[{"line":2,"distance":0,"station_id":"BJD","is_transit":false,"station_name":"Bojonggede","i_lat":-6.493243,"i_long":106.792719,"time":0,"transit":false},{"transit":false,"station_id":"CTA","i_lat":-6.448811,"time":5,"distance":5197,"line":2,"station_name":"Citayam","i_long":106.800298,"is_transit":false},{"station_id":"DP","is_transit":false,"time":6,"i_long":106.816926,"line":2,"i_lat":-6.405256,"station_name":"Depok","transit":false,"distance":5084},{"line":2,"time":3,"i_long":106.819451,"transit":false,"station_name":"Depokbaru","station_id":"DPB","i_lat":-6.391065,"distance":1584,"is_transit":false},{"time":4,"station_id":"POC","i_long":106.831114,"line":2,"distance":2727,"is_transit":false,"transit":false,"station_name":"Pondok Cina","i_lat":-6.369073},{"distance":1109,"i_lat":-6.360749,"time":2,"line":2,"station_id":"UI","station_name":"Univ. Indonesia","i_long":106.831474,"transit":false,"is_transit":false},{"is_transit":false,"line":2,"station_name":"Univ. Pancasila","time":3,"transit":false,"distance":2264,"station_id":"UP","i_lat":-6.339291,"i_long":106.834175},{"station_name":"Lenteng Agung","i_long":106.832616,"distance":1029,"line":2,"station_id":"LNA","time":2,"transit":false,"is_transit":false,"i_lat":-6.330363},{"station_id":"TNT","station_name":"Tanjung Barat","i_long":106.838896,"line":2,"time":3,"i_lat":-6.3080680000000005,"is_transit":false,"transit":false,"distance":2671},{"transit":false,"i_lat":-6.2842400000000005,"time":4,"station_name":"Pasar Minggu","station_id":"PSM","distance":2820,"i_long":106.843999,"line":2,"is_transit":false},{"i_lat":-6.263214,"station_name":"Pasar Minggu Baru","is_transit":false,"distance":2380,"time":2,"transit":false,"i_long":106.851577,"station_id":"PSMB","line":2},{"distance":824,"time":2,"i_long":106.85449,"is_transit":false,"transit":false,"station_name":"Duren Kalibata","station_id":"DRN","i_lat":-6.255332,"line":2},{"line":2,"time":3,"distance":1546,"station_id":"CW","i_lat":-6.242512,"station_name":"Cawang","transit":false,"is_transit":false,"i_long":106.856607},{"distance":1230,"line":2,"time":2,"transit":false,"i_lat":-6.226659,"i_long":106.857948,"station_name":"Tebet","is_transit":false,"station_id":"TEB"},{"distance":2610,"i_lat":-6.209883,"station_name":"Manggarai","time":4,"transit":true,"station_id":"MRI","i_long":106.84912,"is_transit":true,"line":2},{"is_transit":false,"station_id":"SUD","distance":3186,"transit":false,"time":4,"station_name":"Sudirman","i_long":106.822649,"line":1,"i_lat":-6.202263},{"station_name":"Sudirman Baru","transit":false,"time":1,"i_long":106.819881,"is_transit":false,"distance":280,"station_id":"SUDB","i_lat":-6.201433,"line":1},{"i_long":106.816351,"distance":471,"line":1,"station_id":"KAT","station_name":"Karet","is_transit":false,"time":1,"transit":false,"i_lat":-6.20132},{"transit":true,"i_long":106.811091,"line":1,"distance":2029,"station_id":"THB","station_name":"Tanah Abang","i_lat":-6.185545,"is_transit":true,"time":5},{"i_lat":-6.207404,"distance":3191,"is_transit":false,"i_long":106.79689,"time":6,"line":6,"station_id":"PLM","transit":false,"station_name":"Palmerah"},{"distance":3737,"station_name":"Kebayoran","transit":false,"is_transit":false,"i_lat":-6.237242,"line":6,"time":7,"station_id":"KBY","i_long":106.780334},{"i_lat":-6.276362,"station_name":"Pondokranji","time":8,"distance":6218,"line":6,"station_id":"PDJ","is_transit":false,"transit":false,"i_long":106.74273},{"station_id":"JMU","time":3,"station_name":"Jurangmangu","line":6,"distance":2179,"i_long":106.728916,"i_lat":-6.288927,"transit":false,"is_transit":false},{"transit":false,"is_transit":false,"station_name":"Sudimara","station_id":"SDM","line":6,"distance":1994,"i_lat":-6.296963,"i_long":106.712277,"time":4},{"i_lat":-6.314823,"i_long":106.675475,"distance":4566,"is_transit":false,"transit":false,"station_id":"RU","station_name":"Rawa Buntu","line":6,"time":6},{"is_transit":false,"transit":false,"station_name":"Serpong","line":6,"i_lat":-6.319871,"time":4,"station_id":"SRP","distance":2413,"i_long":106.66566},{"time":4,"station_id":"CSK","station_name":"Cisauk","is_transit":false,"distance":1784,"line":3,"i_lat":-6.32484,"transit":false,"i_long":106.640411},{"transit":false,"i_lat":-6.329547,"is_transit":false,"time":4,"line":3,"station_name":"Cicayur","station_id":"CC","i_long":106.617853,"distance":2519},{"line":6,"distance":5968,"i_long":106.568863,"station_id":"PRP","transit":false,"is_transit":false,"time":8,"station_name":"Parung Panjang","i_lat":-6.3441410000000005}],[{"line":2,"transit":false,"station_id":"BJD","time":0,"is_transit":false,"station_name":"Bojonggede","i_lat":-6.493243,"i_long":106.792719,"distance":0},{"time":5,"station_name":"Citayam","station_id":"CTA","line":2,"is_transit":false,"distance":5197,"i_long":106.800298,"transit":false,"i_lat":-6.448811},{"time":6,"i_long":106.816926,"i_lat":-6.405256,"station_id":"DP","distance":5084,"line":2,"transit":false,"is_transit":false,"station_name":"Depok"},{"station_name":"Depokbaru","time":3,"i_lat":-6.391065,"station_id":"DPB","transit":false,"is_transit":false,"i_long":106.819451,"distance":1584,"line":2},{"i_lat":-6.369073,"station_name":"Pondok Cina","time":4,"i_long":106.831114,"transit":false,"distance":2727,"station_id":"POC","is_transit":false,"line":2},{"i_long":106.831474,"station_id":"UI","line":2,"time":2,"i_lat":-6.360749,"distance":1109,"transit":false,"is_transit":false,"station_name":"Univ. Indonesia"},{"time":3,"line":2,"is_transit":false,"distance":2264,"i_lat":-6.339291,"i_long":106.834175,"station_id":"UP","station_name":"Univ. Pancasila","transit":false},{"i_lat":-6.330363,"line":2,"is_transit":false,"station_id":"LNA","time":2,"distance":1029,"station_name":"Lenteng Agung","transit":false,"i_long":106.832616},{"i_long":106.838896,"time":3,"is_transit":false,"distance":2671,"i_lat":-6.3080680000000005,"transit":false,"station_id":"TNT","station_name":"Tanjung Barat","line":2},{"time":4,"is_transit":false,"station_id":"PSM","station_name":"Pasar Minggu","distance":2820,"i_lat":-6.2842400000000005,"i_long":106.843999,"transit":false,"line":2},{"distance":2380,"time":2,"i_long":106.851577,"is_transit":false,"station_id":"PSMB","line":2,"i_lat":-6.263214,"transit":false,"station_name":"Pasar Minggu Baru"},{"line":2,"is_transit":false,"i_lat":-6.255332,"station_name":"Duren Kalibata","station_id":"DRN","transit":false,"distance":824,"time":2,"i_long":106.85449},{"transit":false,"station_name":"Cawang","distance":1546,"time":3,"i_lat":-6.242512,"i_long":106.856607,"is_transit":false,"line":2,"station_id":"CW"},{"i_lat":-6.226659,"station_id":"TEB","station_name":"Tebet","time":2,"distance":1230,"is_transit":false,"i_long":106.857948,"line":2,"transit":false},{"distance":2610,"i_long":106.84912,"station_name":"Manggarai","transit":false,"time":4,"i_lat":-6.209883,"is_transit":false,"station_id":"MRI","line":2},{"station_id":"CKI","i_lat":-6.198556,"line":2,"time":4,"distance":1590,"transit":false,"station_name":"Cikini","is_transit":false,"i_long":106.840169},{"i_long":106.832183,"station_id":"GDD","is_transit":false,"transit":false,"time":3,"station_name":"Gondangdia","line":2,"distance":1750,"i_lat":-6.186295},{"distance":2015,"station_id":"JUA","time":4,"transit":false,"is_transit":false,"station_name":"Juanda","i_lat":-6.166716,"i_long":106.828284,"line":2},{"i_lat":-6.160725,"i_long":106.827103,"station_id":"SW","station_name":"Sawah Besar","time":2,"line":2,"transit":false,"is_transit":false,"distance":1149},{"i_lat":-6.149769,"line":2,"is_transit":false,"transit":false,"time":2,"distance":906,"station_id":"MGB","i_long":106.82482,"station_name":"Manggabesar"},{"station_id":"JAY","i_long":106.820901,"is_transit":false,"station_name":"Jayakarta","time":2,"transit":false,"distance":1080,"line":2,"i_lat":-6.141205},{"i_lat":-6.137569,"line":2,"time":4,"station_name":"Jakarta Kota","is_transit":true,"station_id":"JAKK","distance":1264,"i_long":106.812439,"transit":true},{"i_lat":-6.132549,"distance":1364,"station_name":"Kampung Bandan","i_long":106.826365,"line":4,"time":3,"is_transit":true,"transit":true,"station_id":"KPB"},{"station_name":"Angke","line":1,"transit":false,"station_id":"AK","time":9,"distance":4102,"i_lat":-6.144674,"i_long":106.79867,"is_transit":false},{"is_transit":false,"distance":1230,"i_long":106.800832,"line":1,"station_name":"Duri","i_lat":-6.155215,"transit":false,"station_id":"DU","time":4},{"station_id":"THB","time":8,"is_transit":true,"distance":3632,"i_lat":-6.185545,"i_long":106.811091,"line":1,"station_name":"Tanah Abang","transit":true},{"line":6,"station_name":"Palmerah","time":6,"distance":3191,"i_long":106.79689,"transit":false,"is_transit":false,"i_lat":-6.207404,"station_id":"PLM"},{"time":7,"transit":false,"distance":3737,"i_lat":-6.237242,"station_name":"Kebayoran","is_transit":false,"i_long":106.780334,"line":6,"station_id":"KBY"},{"time":8,"line":6,"i_long":106.74273,"is_transit":false,"station_name":"Pondokranji","i_lat":-6.276362,"transit":false,"station_id":"PDJ","distance":6218},{"station_id":"JMU","transit":false,"is_transit":false,"time":3,"i_long":106.728916,"station_name":"Jurangmangu","line":6,"distance":2179,"i_lat":-6.288927},{"is_transit":false,"station_name":"Sudimara","time":4,"transit":false,"distance":1994,"i_lat":-6.296963,"i_long":106.712277,"line":6,"station_id":"SDM"},{"station_id":"RU","i_lat":-6.314823,"transit":false,"station_name":"Rawa Buntu","time":6,"is_transit":false,"line":6,"i_long":106.675475,"distance":4566},{"line":6,"is_transit":false,"distance":2413,"transit":false,"time":4,"i_lat":-6.319871,"i_long":106.66566,"station_id":"SRP","station_name":"Serpong"},{"station_name":"Cisauk","transit":false,"is_transit":false,"i_lat":-6.32484,"line":3,"station_id":"CSK","i_long":106.640411,"time":4,"distance":1784},{"i_long":106.617853,"time":4,"station_name":"Cicayur","station_id":"CC","i_lat":-6.329547,"line":3,"transit":false,"is_transit":false,"distance":2519},{"i_lat":-6.3441410000000005,"line":6,"station_id":"PRP","is_transit":false,"i_long":106.568863,"time":8,"distance":5968,"station_name":"Parung Panjang","transit":false}],[{"line":2,"time":0,"is_transit":false,"i_long":106.792719,"distance":0,"transit":false,"station_id":"BJD","station_name":"Bojonggede","i_lat":-6.493243},{"line":2,"time":5,"distance":5197,"station_name":"Citayam","i_lat":-6.448811,"transit":false,"i_long":106.800298,"is_transit":false,"station_id":"CTA"},{"transit":false,"time":6,"station_id":"DP","i_long":106.816926,"station_name":"Depok","line":2,"distance":5084,"i_lat":-6.405256,"is_transit":false},{"line":2,"station_name":"Depokbaru","station_id":"DPB","i_lat":-6.391065,"is_transit":false,"time":3,"distance":1584,"i_long":106.819451,"transit":false},{"i_lat":-6.369073,"station_id":"POC","is_transit":false,"station_name":"Pondok Cina","i_long":106.831114,"time":4,"distance":2727,"line":2,"transit":false},{"i_long":106.831474,"distance":1109,"line":2,"i_lat":-6.360749,"station_name":"Univ. Indonesia","is_transit":false,"time":2,"transit":false,"station_id":"UI"},{"line":2,"transit":false,"distance":2264,"station_name":"Univ. Pancasila","is_transit":false,"station_id":"UP","time":3,"i_lat":-6.339291,"i_long":106.834175},{"i_long":106.832616,"is_transit":false,"time":2,"station_id":"LNA","distance":1029,"i_lat":-6.330363,"line":2,"transit":false,"station_name":"Lenteng Agung"},{"station_id":"TNT","i_lat":-6.3080680000000005,"transit":false,"time":3,"i_long":106.838896,"station_name":"Tanjung Barat","distance":2671,"is_transit":false,"line":2},{"is_transit":false,"transit":false,"station_name":"Pasar Minggu","i_long":106.843999,"time":4,"line":2,"i_lat":-6.2842400000000005,"distance":2820,"station_id":"PSM"},{"line":2,"is_transit":false,"distance":2380,"time":2,"station_id":"PSMB","i_long":106.851577,"i_lat":-6.263214,"transit":false,"station_name":"Pasar Minggu Baru"},{"station_name":"Duren Kalibata","i_lat":-6.255332,"station_id":"DRN","distance":824,"i_long":106.85449,"is_transit":false,"transit":false,"time":2,"line":2},{"transit":false,"is_transit":false,"time":3,"distance":1546,"station_name":"Cawang","i_lat":-6.242512,"station_id":"CW","i_long":106.856607,"line":2},{"transit":false,"time":2,"is_transit":false,"i_lat":-6.226659,"station_id":"TEB","line":2,"i_long":106.857948,"station_name":"Tebet","distance":1230},{"station_id":"MRI","i_long":106.84912,"i_lat":-6.209883,"transit":true,"is_transit":true,"line":2,"time":4,"distance":2610,"station_name":"Manggarai"},{"station_name":"Matraman","distance":1275,"is_transit":false,"i_lat":-6.212485,"time":2,"i_long":106.858896,"transit":false,"station_id":"MTR","line":1},{"i_lat":-6.215091,"time":8,"station_name":"Jatinegara","transit":true,"station_id":"JNG","distance":1377,"i_long":106.86807400000001,"line":1,"is_transit":true},{"station_id":"POK","line":11,"i_long":106.861737,"is_transit":false,"time":2,"distance":1236,"station_name":"Pondok Jati","i_lat":-6.209188,"transit":false},{"station_id":"KMT","i_long":106.855437,"transit":false,"station_name":"Kramat","i_lat":-6.193792,"line":11,"time":2,"distance":1829,"is_transit":false},{"line":11,"station_name":"Gang Sentiong","is_transit":false,"i_lat":-6.185975,"transit":false,"station_id":"GST","time":1,"distance":973,"i_long":106.850107},{"is_transit":false,"line":11,"station_id":"PSE","i_lat":-6.174784,"transit":false,"time":8,"distance":1567,"i_long":106.84368,"station_name":"Pasar Senen"},{"station_id":"KMO","is_transit":false,"transit":false,"time":4,"distance":1436,"i_lat":-6.161728,"station_name":"Kemayoran","line":11,"i_long":106.839204},{"i_long":106.836569,"transit":false,"station_name":"Rajawali","station_id":"RJW","distance":1901,"is_transit":false,"time":5,"i_lat":-6.14505,"line":11},{"line":4,"station_id":"KPB","transit":true,"distance":1444,"time":3,"station_name":"Kampung Bandan","is_transit":true,"i_long":106.826365,"i_lat":-6.132549},{"time":9,"i_long":106.79867,"line":1,"station_id":"AK","is_transit":false,"distance":4102,"transit":false,"station_name":"Angke","i_lat":-6.144674},{"distance":1230,"time":4,"i_long":106.800832,"line":1,"station_id":"DU","station_name":"Duri","is_transit":false,"i_lat":-6.155215,"transit":false},{"time":8,"transit":true,"is_transit":true,"i_long":106.811091,"i_lat":-6.185545,"line":1,"station_id":"THB","distance":3632,"station_name":"Tanah Abang"},{"station_name":"Palmerah","is_transit":false,"transit":false,"station_id":"PLM","distance":3191,"i_lat":-6.207404,"line":6,"time":6,"i_long":106.79689},{"i_lat":-6.237242,"is_transit":false,"distance":3737,"station_id":"KBY","station_name":"Kebayoran","transit":false,"line":6,"i_long":106.780334,"time":7},{"time":8,"station_id":"PDJ","distance":6218,"station_name":"Pondokranji","i_long":106.74273,"line":6,"is_transit":false,"transit":false,"i_lat":-6.276362},{"distance":2179,"transit":false,"i_lat":-6.288927,"time":3,"station_name":"Jurangmangu","i_long":106.728916,"is_transit":false,"line":6,"station_id":"JMU"},{"transit":false,"is_transit":false,"time":4,"distance":1994,"station_id":"SDM","line":6,"i_lat":-6.296963,"i_long":106.712277,"station_name":"Sudimara"},{"i_long":106.675475,"station_id":"RU","is_transit":false,"time":6,"i_lat":-6.314823,"distance":4566,"line":6,"station_name":"Rawa Buntu","transit":false},{"i_long":106.66566,"time":4,"station_id":"SRP","distance":2413,"is_transit":false,"transit":false,"line":6,"station_name":"Serpong","i_lat":-6.319871},{"i_lat":-6.32484,"time":4,"transit":false,"station_id":"CSK","line":3,"station_name":"Cisauk","i_long":106.640411,"is_transit":false,"distance":1784},{"i_long":106.617853,"station_id":"CC","station_name":"Cicayur","i_lat":-6.329547,"time":4,"is_transit":false,"distance":2519,"transit":false,"line":3},{"i_lat":-6.3441410000000005,"i_long":106.568863,"station_id":"PRP","distance":5968,"is_transit":false,"time":8,"station_name":"Parung Panjang","line":6,"transit":false}]]}