{"data":[[{"distance":0,"is_transit":false,"transit":false,"i_long":106.792719,"station_name":"Bojonggede","station_id":"BJD","time":0,"i_lat":-6.493243,"line":2},{"distance":5197,"station_id":"CTA","station_name":"Citayam","transit":false,"i_lat":-6.448811,"i_long":106.800298,"is_transit":false,"line":2,"time":5},{"i_long":106.816926,"time":6,"line":2,"transit":false,"station_name":"Depok","is_transit":false,"i_lat":-6.405256,"distance":5084,"station_id":"DP"},{"time":3,"i_long":106.819451,"is_transit":false,"i_lat":-6.391065,"distance":1584,"station_name":"Depokbaru","station_id":"DPB","transit":false,"line":2},{"distance":2727,"i_long":106.831114,"i_lat":-6.369073,"line":2,"station_name":"Pondok Cina","station_id":"POC","is_transit":false,"time":4,"transit":false},{"station_id":"UI","is_transit":false,"line":2,"distance":1109,"station_name":"Univ. Indonesia","time":2,"i_lat":-6.360749,"transit":false,"i_long":106.831474}]]}