{"data":[[{"station_name":"Bojonggede","i_lat":-6.493243,"line":2,"distance":0,"is_transit":false,"transit":false,"time":0,"i_long":106.792719,"station_id":"BJD"},{"distance":5197,"time":5,"is_transit":false,"station_name":"Citayam","station_id":"CTA","transit":false,"line":2,"i_lat":-6.448811,"i_long":106.800298},{"i_lat":-6.405256,"i_long":106.816926,"distance":5084,"time":6,"transit":false,"station_name":"Depok","line":2,"is_transit":false,"station_id":"DP"},{"station_id":"DPB","is_transit":false,"time":3,"line":2,"distance":1584,"transit":false,"i_lat":-6.391065,"i_long":106.819451,"station_name":"Depokbaru"},{"i_long":106.831114,"station_id":"POC","time":4,"is_transit":false,"transit":false,"distance":2727,"i_lat":-6.369073,"station_name":"Pondok Cina","line":2},{"is_transit":false,"time":2,"i_long":106.831474,"distance":1109,"station_id":"UI","station_name":"Univ. Indonesia","transit":false,"line":2,"i_lat":-6.360749},{"station_id":"UP","transit":false,"distance":2264,"i_lat":-6.339291,"station_name":"Univ. Pancasila","line":2,"time":3,"i_long":106.834175,"is_transit":false},{"time":2,"is_transit":false,"i_long":106.832616,"transit":false,"line":2,"distance":1029,"station_name":"Lenteng Agung","i_lat":-6.330363,"station_id":"LNA"},{"is_transit":false,"station_id":"TNT","line":2,"transit":false,"distance":2671,"station_name":"Tanjung Barat","i_lat":-6.3080680000000005,"i_long":106.838896,"time":3},{"is_transit":false,"i_lat":-6.2842400000000005,"line":2,"transit":false,"station_id":"PSM","station_name":"Pasar Minggu","time":4,"distance":2820,"i_long":106.843999},{"i_lat":-6.263214,"line":2,"distance":2380,"i_long":106.851577,"time":2,"transit":false,"station_name":"Pasar Minggu Baru","is_transit":false,"station_id":"PSMB"},{"i_long":106.85449,"distance":824,"i_lat":-6.255332,"transit":false,"time":2,"station_name":"Duren Kalibata","is_transit":false,"line":2,"station_id":"DRN"},{"station_id":"CW","line":2,"is_transit":false,"time":3,"distance":1546,"transit":false,"station_name":"Cawang","i_lat":-6.242512,"i_long":106.856607},{"station_id":"TEB","transit":false,"i_long":106.857948,"is_transit":false,"distance":1230,"i_lat":-6.226659,"station_name":"Tebet","time":2,"line":2},{"station_id":"MRI","station_name":"Manggarai","distance":2610,"line":2,"time":4,"i_lat":-6.209883,"i_long":106.84912,"transit":true,"is_transit":true},{"distance":1275,"station_id":"MTR","transit":false,"i_long":106.858896,"station_name":"Matraman","line":1,"is_transit":false,"i_lat":-6.212485,"time":2},{"distance":1377,"station_name":"Jatinegara","i_long":106.86807400000001,"time":8,"transit":false,"is_transit":false,"i_lat":-6.215091,"station_id":"JNG","line":1},{"transit":false,"time":3,"is_transit":false,"station_name":"Klender","i_lat":-6.2135,"i_long":106.899548,"line":1,"station_id":"KLD","distance":3395},{"station_id":"BUA","is_transit":false,"station_name":"Buaran","transit":false,"i_lat":-6.215568,"distance":3100,"time":2,"i_long":106.922662,"line":1},{"transit":false,"time":1,"station_name":"Klenderbaru","station_id":"KLDB","is_transit":false,"i_long":106.939679,"line":1,"distance":1305,"i_lat":-6.217455},{"station_name":"Cakung","station_id":"CUK","time":8,"i_lat":-6.219053,"i_long":106.951283,"transit":false,"is_transit":false,"distance":1385,"line":1},{"i_lat":-6.224515,"i_long":106.977657,"distance":3097,"transit":false,"station_id":"KRI","is_transit":false,"line":1,"time":3,"station_name":"Kranji"},{"i_lat":-6.236616,"station_name":"Bekasi","time":4,"is_transit":false,"station_id":"BKS","distance":2520,"transit":false,"i_long":106.997013,"line":1},{"line":1,"time":2,"transit":false,"i_lat":-6.248029,"station_id":"BKST","i_long":107.016735,"is_transit":false,"station_name":"Bekasi Timur","distance":2368},{"station_name":"Tambun","distance":4460,"i_lat":-6.258864,"time":7,"line":1,"is_transit":false,"transit":false,"station_id":"TB","i_long":107.055722}],[{"time":0,"is_transit":false,"station_name":"Bojonggede","transit":false,"i_lat":-6.493243,"i_long":106.792719,"line":2,"distance":0,"station_id":"BJD"},{"i_long":106.800298,"i_lat":-6.448811,"station_id":"CTA","line":2,"is_transit":false,"time":5,"distance":5197,"transit":false,"station_name":"Citayam"},{"transit":false,"time":6,"i_long":106.816926,"i_lat":-6.405256,"station_id":"DP","is_transit":false,"line":2,"station_name":"Depok","distance":5084},{"time":3,"i_lat":-6.391065,"transit":false,"station_id":"DPB","i_long":106.819451,"is_transit":false,"distance":1584,"station_name":"Depokbaru","line":2},{"line":2,"is_transit":false,"distance":2727,"i_long":106.831114,"transit":false,"i_lat":-6.369073,"time":4,"station_id":"POC","station_name":"Pondok Cina"},{"station_id":"UI","distance":1109,"is_transit":false,"station_name":"Univ. Indonesia","time":2,"i_long":106.831474,"line":2,"i_lat":-6.360749,"transit":false},{"is_transit":false,"line":2,"station_name":"Univ. Pancasila","station_id":"UP","distance":2264,"transit":false,"time":3,"i_lat":-6.339291,"i_long":106.834175},{"line":2,"station_id":"LNA","distance":1029,"time":2,"i_lat":-6.330363,"i_long":106.832616,"is_transit":false,"station_name":"Lenteng Agung","transit":false},{"distance":2671,"station_name":"Tanjung Barat","i_long":106.838896,"i_lat":-6.3080680000000005,"transit":false,"time":3,"line":2,"station_id":"TNT","is_transit":false},{"i_lat":-6.2842400000000005,"i_long":106.843999,"station_name":"Pasar Minggu","distance":2820,"is_transit":false,"time":4,"transit":false,"station_id":"PSM","line":2},{"time":2,"station_name":"Pasar Minggu Baru","distance":2380,"i_long":106.851577,"transit":false,"station_id":"PSMB","line":2,"is_transit":false,"i_lat":-6.263214},{"i_lat":-6.255332,"i_long":106.85449,"time":2,"distance":824,"station_id":"DRN","transit":false,"station_name":"Duren Kalibata","is_transit":false,"line":2},{"i_long":106.856607,"line":2,"distance":1546,"i_lat":-6.242512,"transit":false,"station_id":"CW","is_transit":false,"station_name":"Cawang","time":3},{"line":2,"is_transit":false,"station_name":"Tebet","i_long":106.857948,"distance":1230,"time":2,"transit":false,"i_lat":-6.226659,"station_id":"TEB"},{"transit":true,"station_name":"Manggarai","is_transit":true,"i_long":106.84912,"distance":2610,"time":4,"line":2,"i_lat":-6.209883,"station_id":"MRI"},{"line":1,"i_long":106.822649,"is_transit":false,"station_id":"SUD","distance":3186,"time":4,"station_name":"Sudirman","i_lat":-6.202263,"transit":false},{"station_name":"Sudirman Baru","time":1,"distance":280,"transit":false,"is_transit":false,"line":1,"station_id":"SUDB","i_long":106.819881,"i_lat":-6.201433},{"line":1,"station_id":"KAT","distance":471,"transit":false,"is_transit":false,"station_name":"Karet","time":1,"i_lat":-6.20132,"i_long":106.816351},{"i_lat":-6.185545,"i_long":106.811091,"line":1,"transit":false,"station_id":"THB","is_transit":false,"time":5,"distance":2029,"station_name":"Tanah Abang"},{"station_name":"Duri","i_long":106.800832,"time":8,"transit":false,"i_lat":-6.155215,"station_id":"DU","distance":3632,"line":1,"is_transit":false},{"transit":false,"is_transit":false,"station_name":"Angke","line":1,"i_lat":-6.144674,"i_long":106.79867,"station_id":"AK","distance":1230,"time":4},{"is_transit":true,"time":9,"station_name":"Kampung Bandan","transit":true,"i_lat":-6.132549,"station_id":"KPB","i_long":106.826365,"line":4,"distance":4102},{"time":3,"is_transit":false,"station_name":"Rajawali","distance":1444,"i_long":106.836569,"station_id":"RJW","transit":false,"i_lat":-6.14505,"line":11},{"transit":false,"station_id":"KMO","time":5,"station_name":"Kemayoran","line":11,"i_long":106.839204,"is_transit":false,"i_lat":-6.161728,"distance":1901},{"distance":1436,"i_lat":-6.174784,"transit":false,"time":4,"line":11,"is_transit":false,"station_name":"Pasar Senen","i_long":106.84368,"station_id":"PSE"},{"distance":1567,"station_name":"Gang Sentiong","transit":false,"i_long":106.850107,"station_id":"GST","is_transit":false,"time":8,"i_lat":-6.185975,"line":11},{"time":1,"station_name":"Kramat","i_long":106.855437,"line":11,"transit":false,"distance":973,"station_id":"KMT","is_transit":false,"i_lat":-6.193792},{"station_id":"POK","transit":false,"i_lat":-6.209188,"is_transit":false,"line":11,"station_name":"Pondok Jati","i_long":106.861737,"distance":1829,"time":2},{"station_name":"Jatinegara","is_transit":true,"line":1,"i_lat":-6.215091,"transit":true,"i_long":106.86807400000001,"distance":1236,"station_id":"JNG","time":9},{"transit":false,"station_id":"KLD","line":1,"is_transit":false,"i_lat":-6.2135,"station_name":"Klender","time":3,"i_long":106.899548,"distance":3395},{"transit":false,"is_transit":false,"line":1,"time":2,"distance":3100,"i_long":106.922662,"station_id":"BUA","station_name":"Buaran","i_lat":-6.215568},{"i_lat":-6.217455,"distance":1305,"line":1,"station_name":"Klenderbaru","i_long":106.939679,"station_id":"KLDB","transit":false,"is_transit":false,"time":1},{"i_long":106.951283,"time":8,"transit":false,"distance":1385,"station_id":"CUK","station_name":"Cakung","line":1,"is_transit":false,"i_lat":-6.219053},{"station_name":"Kranji","distance":3097,"time":3,"line":1,"transit":false,"i_lat":-6.224515,"station_id":"KRI","is_transit":false,"i_long":106.977657},{"station_name":"Bekasi","is_transit":false,"transit":false,"station_id":"BKS","distance":2520,"time":4,"i_lat":-6.236616,"i_long":106.997013,"line":1},{"i_lat":-6.248029,"station_id":"BKST","station_name":"Bekasi Timur","transit":false,"distance":2368,"time":2,"is_transit":false,"i_long":107.016735,"line":1},{"transit":false,"time":7,"station_name":"Tambun","i_lat":-6.258864,"station_id":"TB","is_transit":false,"distance":4460,"line":1,"i_long":107.055722}],[{"station_id":"BJD","time":0,"i_lat":-6.493243,"i_long":106.792719,"line":2,"is_transit":false,"distance":0,"transit":false,"station_name":"Bojonggede"},{"is_transit":false,"i_long":106.800298,"line":2,"transit":false,"i_lat":-6.448811,"station_name":"Citayam","distance":5197,"time":5,"station_id":"CTA"},{"is_transit":false,"transit":false,"i_lat":-6.405256,"station_id":"DP","station_name":"Depok","line":2,"distance":5084,"i_long":106.816926,"time":6},{"station_name":"Depokbaru","i_lat":-6.391065,"i_long":106.819451,"distance":1584,"transit":false,"time":3,"is_transit":false,"line":2,"station_id":"DPB"},{"distance":2727,"time":4,"station_name":"Pondok Cina","i_long":106.831114,"transit":false,"is_transit":false,"line":2,"station_id":"POC","i_lat":-6.369073},{"i_long":106.831474,"line":2,"time":2,"station_id":"UI","is_transit":false,"station_name":"Univ. Indonesia","transit":false,"i_lat":-6.360749,"distance":1109},{"station_name":"Univ. Pancasila","i_lat":-6.339291,"distance":2264,"transit":false,"line":2,"time":3,"station_id":"UP","i_long":106.834175,"is_transit":false},{"transit":false,"i_lat":-6.330363,"line":2,"station_id":"LNA","is_transit":false,"time":2,"i_long":106.832616,"distance":1029,"station_name":"Lenteng Agung"},{"transit":false,"time":3,"station_id":"TNT","i_long":106.838896,"distance":2671,"station_name":"Tanjung Barat","is_transit":false,"i_lat":-6.3080680000000005,"line":2},{"distance":2820,"i_long":106.843999,"is_transit":false,"transit":false,"station_id":"PSM","time":4,"i_lat":-6.2842400000000005,"station_name":"Pasar Minggu","line":2},{"line":2,"station_name":"Pasar Minggu Baru","transit":false,"i_lat":-6.263214,"station_id":"PSMB","distance":2380,"is_transit":false,"i_long":106.851577,"time":2},{"station_id":"DRN","time":2,"station_name":"Duren Kalibata","is_transit":false,"i_lat":-6.255332,"i_long":106.85449,"distance":824,"transit":false,"line":2},{"station_id":"CW","i_lat":-6.242512,"is_transit":false,"i_long":106.856607,"line":2,"time":3,"station_name":"Cawang","transit":false,"distance":1546},{"is_transit":false,"distance":1230,"time":2,"station_name":"Tebet","line":2,"station_id":"TEB","i_lat":-6.226659,"transit":false,"i_long":106.857948},{"distance":2610,"station_id":"MRI","is_transit":false,"i_lat":-6.209883,"transit":false,"i_long":106.84912,"time":4,"line":2,"station_name":"Manggarai"},{"distance":1590,"is_transit":false,"station_id":"CKI","transit":false,"i_lat":-6.198556,"i_long":106.840169,"station_name":"Cikini","time":4,"line":2},{"i_lat":-6.186295,"time":3,"is_transit":false,"distance":1750,"station_name":"Gondangdia","line":2,"i_long":106.832183,"transit":false,"station_id":"GDD"},{"distance":2015,"transit":false,"i_long":106.828284,"i_lat":-6.166716,"line":2,"station_id":"JUA","is_transit":false,"time":4,"station_name":"Juanda"},{"i_lat":-6.160725,"time":2,"transit":false,"line":2,"station_name":"Sawah Besar","is_transit":false,"i_long":106.827103,"distance":1149,"station_id":"SW"},{"transit":false,"i_lat":-6.149769,"station_name":"Manggabesar","line":2,"station_id":"MGB","time":2,"i_long":106.82482,"is_transit":false,"distance":906},{"station_id":"JAY","distance":1080,"i_long":106.820901,"transit":false,"station_name":"Jayakarta","is_transit":false,"time":2,"i_lat":-6.141205,"line":2},{"transit":true,"station_name":"Jakarta Kota","i_long":106.812439,"distance":1264,"line":2,"station_id":"JAKK","time":4,"is_transit":true,"i_lat":-6.137569},{"station_name":"Kampung Bandan","is_transit":true,"distance":1364,"i_lat":-6.132549,"time":3,"line":4,"transit":true,"station_id":"KPB","i_long":106.826365},{"distance":1444,"is_transit":false,"i_lat":-6.14505,"i_long":106.836569,"transit":false,"station_name":"Rajawali","station_id":"RJW","time":3,"line":11},{"i_long":106.839204,"station_id":"KMO","is_transit":false,"transit":false,"time":5,"distance":1901,"station_name":"Kemayoran","i_lat":-6.161728,"line":11},{"line":11,"distance":1436,"is_transit":false,"time":4,"station_id":"PSE","station_name":"Pasar Senen","i_lat":-6.174784,"i_long":106.84368,"transit":false},{"i_long":106.850107,"is_transit":false,"line":11,"transit":false,"station_name":"Gang Sentiong","i_lat":-6.185975,"station_id":"GST","distance":1567,"time":8},{"station_name":"Kramat","distance":973,"transit":false,"i_long":106.855437,"station_id":"KMT","time":1,"is_transit":false,"i_lat":-6.193792,"line":11},{"time":2,"station_name":"Pondok Jati","is_transit":false,"distance":1829,"i_long":106.861737,"i_lat":-6.209188,"station_id":"POK","line":11,"transit":false},{"station_id":"JNG","distance":1236,"is_transit":true,"time":9,"i_long":106.86807400000001,"transit":true,"i_lat":-6.215091,"station_name":"Jatinegara","line":1},{"line":1,"station_id":"KLD","time":3,"transit":false,"i_lat":-6.2135,"is_transit":false,"i_long":106.899548,"distance":3395,"station_name":"Klender"},{"is_transit":false,"station_name":"Buaran","station_id":"BUA","i_long":106.922662,"distance":3100,"i_lat":-6.215568,"transit":false,"time":2,"line":1},{"i_lat":-6.217455,"station_id":"KLDB","line":1,"transit":false,"time":1,"is_transit":false,"station_name":"Klenderbaru","distance":1305,"i_long":106.939679},{"i_long":106.951283,"line":1,"time":8,"station_id":"CUK","i_lat":-6.219053,"is_transit":false,"distance":1385,"station_name":"Cakung","transit":false},{"i_long":106.977657,"is_transit":false,"transit":false,"distance":3097,"i_lat":-6.224515,"line":1,"station_id":"KRI","station_name":"Kranji","time":3},{"time":4,"i_long":106.997013,"station_name":"Bekasi","distance":2520,"i_lat":-6.236616,"transit":false,"station_id":"BKS","line":1,"is_transit":false},{"is_transit":false,"time":2,"station_name":"Bekasi Timur","distance":2368,"i_lat":-6.248029,"i_long":107.016735,"station_id":"BKST","transit":false,"line":1},{"time":7,"transit":false,"station_name":"Tambun","line":1,"is_transit":false,"i_long":107.055722,"distance":4460,"i_lat":-6.258864,"station_id":"TB"}]]}