{"data":[[{"is_transit":false,"time":0,"distance":0,"transit":false,"line":2,"i_lat":-6.493243,"i_long":106.792719,"station_id":"BJD","station_name":"Bojonggede"},{"station_id":"CTA","station_name":"Citayam","is_transit":false,"time":5,"i_lat":-6.448811,"i_long":106.800298,"line":2,"transit":false,"distance":5197},{"distance":5084,"i_lat":-6.405256,"line":2,"station_id":"DP","station_name":"Depok","time":6,"i_long":106.816926,"transit":false,"is_transit":false},{"i_long":106.819451,"is_transit":false,"time":3,"station_name":"Depokbaru","distance":1584,"line":2,"station_id":"DPB","transit":false,"i_lat":-6.391065},{"i_lat":-6.369073,"i_long":106.831114,"time":4,"distance":2727,"is_transit":false,"line":2,"transit":false,"station_name":"Pondok Cina","station_id":"POC"},{"line":2,"i_lat":-6.360749,"time":2,"station_name":"Univ. Indonesia","station_id":"UI","i_long":106.831474,"is_transit":false,"distance":1109,"transit":false},{"distance":2264,"station_name":"Univ. Pancasila","i_lat":-6.339291,"station_id":"UP","i_long":106.834175,"is_transit":false,"time":3,"line":2,"transit":false},{"line":2,"time":2,"station_name":"Lenteng Agung","station_id":"LNA","i_long":106.832616,"distance":1029,"i_lat":-6.330363,"is_transit":false,"transit":false},{"station_id":"TNT","i_long":106.838896,"is_transit":false,"distance":2671,"time":3,"station_name":"Tanjung Barat","i_lat":-6.3080680000000005,"line":2,"transit":false},{"i_long":106.843999,"is_transit":false,"time":4,"i_lat":-6.2842400000000005,"line":2,"transit":false,"distance":2820,"station_id":"PSM","station_name":"Pasar Minggu"},{"i_lat":-6.263214,"is_transit":false,"time":2,"transit":false,"station_id":"PSMB","station_name":"Pasar Minggu Baru","i_long":106.851577,"distance":2380,"line":2},{"time":2,"station_id":"DRN","station_name":"Duren Kalibata","i_lat":-6.255332,"line":2,"distance":824,"i_long":106.85449,"transit":false,"is_transit":false},{"i_long":106.856607,"is_transit":false,"time":3,"line":2,"distance":1546,"transit":false,"station_name":"Cawang","station_id":"CW","i_lat":-6.242512},{"transit":false,"line":2,"station_name":"Tebet","time":2,"station_id":"TEB","is_transit":false,"i_lat":-6.226659,"i_long":106.857948,"distance":1230},{"time":4,"line":2,"distance":2610,"station_id":"MRI","i_long":106.84912,"transit":true,"station_name":"Manggarai","is_transit":true,"i_lat":-6.209883},{"is_transit":false,"distance":3186,"i_lat":-6.202263,"station_name":"Sudirman","station_id":"SUD","time":4,"i_long":106.822649,"transit":false,"line":1},{"time":1,"line":1,"transit":false,"station_name":"Sudirman Baru","distance":280,"i_long":106.819881,"i_lat":-6.201433,"station_id":"SUDB","is_transit":false},{"transit":false,"i_lat":-6.20132,"distance":471,"time":1,"line":1,"i_long":106.816351,"station_name":"Karet","is_transit":false,"station_id":"KAT"},{"time":5,"line":1,"i_long":106.811091,"station_name":"Tanah Abang","is_transit":false,"transit":false,"distance":2029,"station_id":"THB","i_lat":-6.185545},{"time":8,"station_name":"Duri","is_transit":true,"i_long":106.800832,"line":1,"transit":true,"distance":3632,"station_id":"DU","i_lat":-6.155215},{"station_name":"Grogol","time":3,"is_transit":false,"i_lat":-6.162021,"line":5,"station_id":"GGL","transit":false,"distance":1700,"i_long":106.788277},{"i_lat":-6.161433,"station_name":"Pesing","time":2,"i_long":106.771379,"transit":false,"distance":2036,"station_id":"PSG","line":5,"is_transit":false},{"station_id":"TKO","is_transit":false,"station_name":"Taman Kota","distance":1614,"i_lat":-6.1587309999999995,"i_long":106.756522,"transit":false,"line":5,"time":2}],[{"time":0,"i_lat":-6.493243,"line":2,"distance":0,"i_long":106.792719,"station_name":"Bojonggede","is_transit":false,"station_id":"BJD","transit":false},{"transit":false,"line":2,"station_id":"CTA","distance":5197,"i_long":106.800298,"is_transit":false,"i_lat":-6.448811,"station_name":"Citayam","time":5},{"station_name":"Depok","is_transit":false,"transit":false,"time":6,"i_lat":-6.405256,"i_long":106.816926,"line":2,"distance":5084,"station_id":"DP"},{"time":3,"is_transit":false,"station_id":"DPB","line":2,"station_name":"Depokbaru","transit":false,"distance":1584,"i_long":106.819451,"i_lat":-6.391065},{"line":2,"is_transit":false,"i_long":106.831114,"station_name":"Pondok Cina","distance":2727,"time":4,"i_lat":-6.369073,"transit":false,"station_id":"POC"},{"distance":1109,"transit":false,"i_lat":-6.360749,"i_long":106.831474,"line":2,"is_transit":false,"station_name":"Univ. Indonesia","time":2,"station_id":"UI"},{"station_name":"Univ. Pancasila","i_long":106.834175,"distance":2264,"is_transit":false,"line":2,"station_id":"UP","transit":false,"time":3,"i_lat":-6.339291},{"transit":false,"station_name":"Lenteng Agung","i_lat":-6.330363,"line":2,"station_id":"LNA","time":2,"is_transit":false,"distance":1029,"i_long":106.832616},{"station_id":"TNT","i_long":106.838896,"time":3,"transit":false,"is_transit":false,"distance":2671,"station_name":"Tanjung Barat","i_lat":-6.3080680000000005,"line":2},{"is_transit":false,"i_long":106.843999,"time":4,"station_name":"Pasar Minggu","i_lat":-6.2842400000000005,"station_id":"PSM","line":2,"transit":false,"distance":2820},{"station_name":"Pasar Minggu Baru","distance":2380,"i_long":106.851577,"is_transit":false,"time":2,"station_id":"PSMB","transit":false,"i_lat":-6.263214,"line":2},{"transit":false,"station_name":"Duren Kalibata","station_id":"DRN","distance":824,"is_transit":false,"time":2,"line":2,"i_lat":-6.255332,"i_long":106.85449},{"time":3,"i_lat":-6.242512,"i_long":106.856607,"transit":false,"station_id":"CW","station_name":"Cawang","distance":1546,"is_transit":false,"line":2},{"station_name":"Tebet","time":2,"i_long":106.857948,"line":2,"transit":false,"is_transit":false,"i_lat":-6.226659,"distance":1230,"station_id":"TEB"},{"station_name":"Manggarai","is_transit":false,"station_id":"MRI","transit":false,"i_long":106.84912,"time":4,"line":2,"i_lat":-6.209883,"distance":2610},{"i_lat":-6.198556,"station_id":"CKI","transit":false,"is_transit":false,"i_long":106.840169,"station_name":"Cikini","time":4,"line":2,"distance":1590},{"distance":1750,"line":2,"station_name":"Gondangdia","i_lat":-6.186295,"station_id":"GDD","transit":false,"i_long":106.832183,"time":3,"is_transit":false},{"time":4,"station_id":"JUA","transit":false,"station_name":"Juanda","distance":2015,"line":2,"i_long":106.828284,"is_transit":false,"i_lat":-6.166716},{"is_transit":false,"i_lat":-6.160725,"line":2,"distance":1149,"time":2,"station_name":"Sawah Besar","station_id":"SW","transit":false,"i_long":106.827103},{"distance":906,"is_transit":false,"station_name":"Manggabesar","transit":false,"time":2,"station_id":"MGB","line":2,"i_long":106.82482,"i_lat":-6.149769},{"station_id":"JAY","station_name":"Jayakarta","distance":1080,"is_transit":false,"i_lat":-6.141205,"line":2,"transit":false,"i_long":106.820901,"time":2},{"distance":1264,"station_id":"JAKK","i_lat":-6.137569,"i_long":106.812439,"transit":true,"line":2,"station_name":"Jakarta Kota","time":4,"is_transit":true},{"line":4,"is_transit":true,"transit":true,"time":3,"i_long":106.826365,"distance":1364,"station_name":"Kampung Bandan","station_id":"KPB","i_lat":-6.132549},{"time":9,"station_id":"AK","line":1,"i_long":106.79867,"distance":4102,"is_transit":false,"i_lat":-6.144674,"transit":false,"station_name":"Angke"},{"distance":1230,"i_lat":-6.155215,"time":4,"transit":true,"line":1,"station_name":"Duri","station_id":"DU","i_long":106.800832,"is_transit":true},{"distance":1700,"station_id":"GGL","i_long":106.788277,"station_name":"Grogol","is_transit":false,"time":3,"i_lat":-6.162021,"line":5,"transit":false},{"line":5,"transit":false,"distance":2036,"station_id":"PSG","is_transit":false,"i_long":106.771379,"i_lat":-6.161433,"station_name":"Pesing","time":2},{"i_lat":-6.1587309999999995,"transit":false,"station_name":"Taman Kota","is_transit":false,"line":5,"distance":1614,"station_id":"TKO","time":2,"i_long":106.756522}],[{"transit":false,"station_id":"BJD","station_name":"Bojonggede","time":0,"is_transit":false,"i_lat":-6.493243,"i_long":106.792719,"line":2,"distance":0},{"station_id":"CTA","distance":5197,"i_long":106.800298,"station_name":"Citayam","time":5,"transit":false,"is_transit":false,"i_lat":-6.448811,"line":2},{"line":2,"is_transit":false,"transit":false,"station_name":"Depok","time":6,"i_lat":-6.405256,"distance":5084,"i_long":106.816926,"station_id":"DP"},{"i_lat":-6.391065,"station_name":"Depokbaru","is_transit":false,"i_long":106.819451,"line":2,"transit":false,"station_id":"DPB","distance":1584,"time":3},{"station_name":"Pondok Cina","distance":2727,"station_id":"POC","time":4,"i_long":106.831114,"is_transit":false,"transit":false,"i_lat":-6.369073,"line":2},{"distance":1109,"station_name":"Univ. Indonesia","i_lat":-6.360749,"i_long":106.831474,"station_id":"UI","time":2,"transit":false,"is_transit":false,"line":2},{"is_transit":false,"distance":2264,"transit":false,"line":2,"station_name":"Univ. Pancasila","i_long":106.834175,"i_lat":-6.339291,"station_id":"UP","time":3},{"is_transit":false,"transit":false,"station_id":"LNA","station_name":"Lenteng Agung","time":2,"distance":1029,"i_lat":-6.330363,"line":2,"i_long":106.832616},{"transit":false,"time":3,"station_name":"Tanjung Barat","station_id":"TNT","i_long":106.838896,"distance":2671,"is_transit":false,"i_lat":-6.3080680000000005,"line":2},{"is_transit":false,"line":2,"i_lat":-6.2842400000000005,"time":4,"station_name":"Pasar Minggu","transit":false,"distance":2820,"station_id":"PSM","i_long":106.843999},{"i_lat":-6.263214,"distance":2380,"is_transit":false,"line":2,"time":2,"station_id":"PSMB","transit":false,"station_name":"Pasar Minggu Baru","i_long":106.851577},{"station_name":"Duren Kalibata","distance":824,"station_id":"DRN","i_long":106.85449,"i_lat":-6.255332,"line":2,"time":2,"transit":false,"is_transit":false},{"line":2,"transit":false,"i_lat":-6.242512,"distance":1546,"is_transit":false,"time":3,"station_id":"CW","i_long":106.856607,"station_name":"Cawang"},{"i_lat":-6.226659,"transit":false,"is_transit":false,"i_long":106.857948,"time":2,"distance":1230,"station_name":"Tebet","station_id":"TEB","line":2},{"transit":true,"distance":2610,"time":4,"station_id":"MRI","i_lat":-6.209883,"line":2,"is_transit":true,"station_name":"Manggarai","i_long":106.84912},{"i_long":106.858896,"time":2,"station_name":"Matraman","transit":false,"line":1,"is_transit":false,"distance":1275,"station_id":"MTR","i_lat":-6.212485},{"is_transit":true,"time":8,"transit":true,"line":1,"station_id":"JNG","station_name":"Jatinegara","distance":1377,"i_lat":-6.215091,"i_long":106.86807400000001},{"distance":1236,"is_transit":false,"i_lat":-6.209188,"transit":false,"line":11,"station_name":"Pondok Jati","station_id":"POK","time":2,"i_long":106.861737},{"station_id":"KMT","station_name":"Kramat","time":2,"transit":false,"i_long":106.855437,"line":11,"distance":1829,"is_transit":false,"i_lat":-6.193792},{"station_name":"Gang Sentiong","line":11,"i_lat":-6.185975,"distance":973,"time":1,"i_long":106.850107,"station_id":"GST","transit":false,"is_transit":false},{"i_long":106.84368,"is_transit":false,"transit":false,"station_name":"Pasar Senen","station_id":"PSE","line":11,"time":8,"distance":1567,"i_lat":-6.174784},{"time":4,"i_lat":-6.161728,"i_long":106.839204,"transit":false,"line":11,"distance":1436,"station_id":"KMO","station_name":"Kemayoran","is_transit":false},{"line":11,"distance":1901,"transit":false,"time":5,"station_name":"Rajawali","station_id":"RJW","is_transit":false,"i_lat":-6.14505,"i_long":106.836569},{"i_long":106.826365,"line":4,"is_transit":true,"transit":true,"distance":1444,"station_name":"Kampung Bandan","time":3,"station_id":"KPB","i_lat":-6.132549},{"distance":4102,"station_id":"AK","is_transit":false,"transit":false,"station_name":"Angke","i_lat":-6.144674,"line":1,"time":9,"i_long":106.79867},{"station_name":"Duri","is_transit":true,"time":4,"distance":1230,"station_id":"DU","i_long":106.800832,"transit":true,"i_lat":-6.155215,"line":1},{"line":5,"distance":1700,"i_long":106.788277,"is_transit":false,"time":3,"station_name":"Grogol","i_lat":-6.162021,"station_id":"GGL","transit":false},{"transit":false,"i_lat":-6.161433,"i_long":106.771379,"distance":2036,"station_id":"PSG","is_transit":false,"time":2,"line":5,"station_name":"Pesing"},{"line":5,"distance":1614,"station_name":"Taman Kota","station_id":"TKO","i_lat":-6.1587309999999995,"i_long":106.756522,"is_transit":false,"transit":false,"time":2}]]}