{"data":[[{"line":2,"i_lat":-6.493243,"distance":0,"i_long":106.792719,"time":0,"station_id":"BJD","station_name":"Bojonggede","is_transit":false,"transit":false},{"station_id":"CTA","transit":false,"is_transit":false,"time":5,"distance":5197,"line":2,"i_lat":-6.448811,"station_name":"Citayam","i_long":106.800298},{"i_lat":-6.405256,"is_transit":false,"transit":false,"line":2,"distance":5084,"i_long":106.816926,"time":6,"station_id":"DP","station_name":"Depok"},{"time":3,"is_transit":false,"i_long":106.819451,"station_name":"Depokbaru","station_id":"DPB","transit":false,"i_lat":-6.391065,"distance":1584,"line":2},{"i_long":106.831114,"station_name":"Pondok Cina","line":2,"station_id":"POC","i_lat":-6.369073,"is_transit":false,"time":4,"transit":false,"distance":2727},{"is_transit":false,"line":2,"station_name":"Univ. Indonesia","i_lat":-6.360749,"distance":1109,"i_long":106.831474,"station_id":"UI","transit":false,"time":2},{"station_id":"UP","station_name":"Univ. Pancasila","transit":false,"i_lat":-6.339291,"line":2,"distance":2264,"time":3,"i_long":106.834175,"is_transit":false},{"is_transit":false,"i_long":106.832616,"i_lat":-6.330363,"station_id":"LNA","transit":false,"time":2,"distance":1029,"line":2,"station_name":"Lenteng Agung"},{"distance":2671,"station_id":"TNT","time":3,"station_name":"Tanjung Barat","is_transit":false,"transit":false,"i_lat":-6.3080680000000005,"i_long":106.838896,"line":2},{"station_id":"PSM","i_lat":-6.2842400000000005,"i_long":106.843999,"is_transit":false,"line":2,"station_name":"Pasar Minggu","transit":false,"time":4,"distance":2820},{"time":2,"transit":false,"is_transit":false,"i_lat":-6.263214,"line":2,"station_id":"PSMB","distance":2380,"i_long":106.851577,"station_name":"Pasar Minggu Baru"},{"time":2,"distance":824,"is_transit":false,"i_lat":-6.255332,"line":2,"i_long":106.85449,"station_id":"DRN","station_name":"Duren Kalibata","transit":false},{"i_long":106.856607,"is_transit":false,"station_id":"CW","distance":1546,"transit":false,"line":2,"time":3,"i_lat":-6.242512,"station_name":"Cawang"},{"is_transit":false,"transit":false,"station_id":"TEB","i_long":106.857948,"time":2,"line":2,"i_lat":-6.226659,"distance":1230,"station_name":"Tebet"},{"station_id":"MRI","line":2,"time":4,"station_name":"Manggarai","transit":true,"is_transit":true,"i_lat":-6.209883,"distance":2610,"i_long":106.84912},{"time":4,"distance":3186,"station_name":"Sudirman","is_transit":false,"i_lat":-6.202263,"station_id":"SUD","i_long":106.822649,"line":1,"transit":false},{"line":1,"station_id":"SUDB","time":1,"station_name":"Sudirman Baru","is_transit":false,"i_long":106.819881,"transit":false,"distance":280,"i_lat":-6.201433},{"line":1,"station_id":"KAT","transit":false,"station_name":"Karet","time":1,"distance":471,"i_lat":-6.20132,"is_transit":false,"i_long":106.816351},{"station_name":"Tanah Abang","is_transit":true,"i_long":106.811091,"time":5,"i_lat":-6.185545,"station_id":"THB","distance":2029,"transit":true,"line":1},{"station_id":"PLM","time":6,"is_transit":false,"transit":false,"station_name":"Palmerah","distance":3191,"i_lat":-6.207404,"i_long":106.79689,"line":6},{"is_transit":false,"i_long":106.780334,"transit":false,"line":6,"time":7,"i_lat":-6.237242,"distance":3737,"station_id":"KBY","station_name":"Kebayoran"},{"i_lat":-6.276362,"i_long":106.74273,"line":6,"time":8,"station_name":"Pondokranji","distance":6218,"transit":false,"is_transit":false,"station_id":"PDJ"},{"is_transit":false,"i_long":106.728916,"time":3,"i_lat":-6.288927,"station_name":"Jurangmangu","line":6,"distance":2179,"transit":false,"station_id":"JMU"},{"is_transit":false,"station_id":"SDM","i_lat":-6.296963,"transit":false,"station_name":"Sudimara","i_long":106.712277,"line":6,"distance":1994,"time":4},{"i_lat":-6.314823,"is_transit":false,"station_id":"RU","time":6,"distance":4566,"transit":false,"station_name":"Rawa Buntu","i_long":106.675475,"line":6},{"i_long":106.66566,"station_name":"Serpong","time":4,"line":6,"i_lat":-6.319871,"transit":false,"distance":2413,"station_id":"SRP","is_transit":false},{"is_transit":false,"transit":false,"time":4,"distance":1784,"station_id":"CSK","station_name":"Cisauk","i_long":106.640411,"line":3,"i_lat":-6.32484},{"station_id":"CC","distance":2519,"transit":false,"i_lat":-6.329547,"line":3,"is_transit":false,"station_name":"Cicayur","i_long":106.617853,"time":4},{"i_long":106.568863,"station_name":"Parung Panjang","transit":false,"is_transit":false,"i_lat":-6.3441410000000005,"distance":5968,"time":8,"station_id":"PRP","line":6},{"i_lat":-6.354349,"distance":7025,"i_long":106.508482,"line":3,"is_transit":false,"station_id":"CJT","station_name":"Cilejit","transit":false,"time":9},{"time":6,"distance":2675,"transit":false,"station_name":"Daru","i_long":106.491338,"line":0,"i_lat":-6.338021,"is_transit":false,"station_id":"DAR"},{"line":6,"time":5,"transit":false,"i_lat":-6.327251,"i_long":106.460812,"station_name":"Tenjo","station_id":"TEJ","is_transit":false,"distance":3902},{"line":6,"i_lat":-6.328533,"time":5,"transit":false,"station_id":"TGS","is_transit":false,"distance":2974,"station_name":"Tigaraksa","i_long":106.425991},{"transit":false,"time":3,"distance":2651,"is_transit":false,"station_id":"CKY","i_lat":-6.33561,"i_long":106.411216,"station_name":"Cikoya","line":3},{"is_transit":false,"transit":false,"station_name":"Maja","i_lat":-6.332307,"distance":1853,"line":6,"i_long":106.394373,"station_id":"MJ","time":4},{"is_transit":false,"time":10,"transit":false,"distance":7293,"station_name":"Citeras","i_long":106.332092,"station_id":"CTR","line":3,"i_lat":-6.334892},{"is_transit":false,"i_lat":-6.352675,"station_name":"Rangkasbitung","time":13,"distance":9847,"line":3,"transit":false,"i_long":106.250396,"station_id":"RK"}],[{"transit":false,"i_lat":-6.493243,"is_transit":false,"station_name":"Bojonggede","station_id":"BJD","distance":0,"i_long":106.792719,"line":2,"time":0},{"distance":5197,"transit":false,"i_lat":-6.448811,"station_name":"Citayam","i_long":106.800298,"time":5,"station_id":"CTA","line":2,"is_transit":false},{"time":6,"is_transit":false,"distance":5084,"i_lat":-6.405256,"station_name":"Depok","station_id":"DP","i_long":106.816926,"transit":false,"line":2},{"transit":false,"time":3,"station_name":"Depokbaru","i_long":106.819451,"line":2,"i_lat":-6.391065,"is_transit":false,"distance":1584,"station_id":"DPB"},{"i_long":106.831114,"transit":false,"station_name":"Pondok Cina","is_transit":false,"distance":2727,"i_lat":-6.369073,"time":4,"line":2,"station_id":"POC"},{"is_transit":false,"line":2,"station_name":"Univ. Indonesia","transit":false,"time":2,"station_id":"UI","i_lat":-6.360749,"distance":1109,"i_long":106.831474},{"i_lat":-6.339291,"station_id":"UP","is_transit":false,"station_name":"Univ. Pancasila","time":3,"distance":2264,"line":2,"transit":false,"i_long":106.834175},{"distance":1029,"i_lat":-6.330363,"line":2,"i_long":106.832616,"station_name":"Lenteng Agung","time":2,"station_id":"LNA","is_transit":false,"transit":false},{"distance":2671,"transit":false,"line":2,"i_lat":-6.3080680000000005,"station_id":"TNT","i_long":106.838896,"time":3,"station_name":"Tanjung Barat","is_transit":false},{"station_name":"Pasar Minggu","transit":false,"station_id":"PSM","time":4,"is_transit":false,"i_lat":-6.2842400000000005,"line":2,"i_long":106.843999,"distance":2820},{"station_name":"Pasar Minggu Baru","line":2,"transit":false,"time":2,"is_transit":false,"distance":2380,"i_lat":-6.263214,"station_id":"PSMB","i_long":106.851577},{"transit":false,"distance":824,"station_name":"Duren Kalibata","time":2,"i_long":106.85449,"line":2,"station_id":"DRN","is_transit":false,"i_lat":-6.255332},{"distance":1546,"i_lat":-6.242512,"i_long":106.856607,"station_id":"CW","is_transit":false,"line":2,"transit":false,"station_name":"Cawang","time":3},{"i_lat":-6.226659,"station_id":"TEB","i_long":106.857948,"is_transit":false,"transit":false,"station_name":"Tebet","time":2,"line":2,"distance":1230},{"i_lat":-6.209883,"station_id":"MRI","transit":false,"is_transit":false,"line":2,"time":4,"station_name":"Manggarai","i_long":106.84912,"distance":2610},{"is_transit":false,"station_id":"CKI","station_name":"Cikini","i_lat":-6.198556,"line":2,"time":4,"transit":false,"distance":1590,"i_long":106.840169},{"is_transit":false,"i_lat":-6.186295,"transit":false,"station_name":"Gondangdia","distance":1750,"time":3,"i_long":106.832183,"station_id":"GDD","line":2},{"distance":2015,"transit":false,"station_id":"JUA","station_name":"Juanda","line":2,"i_lat":-6.166716,"time":4,"is_transit":false,"i_long":106.828284},{"i_long":106.827103,"i_lat":-6.160725,"station_id":"SW","station_name":"Sawah Besar","line":2,"is_transit":false,"distance":1149,"transit":false,"time":2},{"time":2,"station_id":"MGB","distance":906,"transit":false,"line":2,"station_name":"Manggabesar","i_lat":-6.149769,"i_long":106.82482,"is_transit":false},{"i_long":106.820901,"time":2,"i_lat":-6.141205,"line":2,"transit":false,"distance":1080,"is_transit":false,"station_id":"JAY","station_name":"Jayakarta"},{"station_id":"JAKK","transit":true,"time":4,"i_lat":-6.137569,"distance":1264,"line":2,"i_long":106.812439,"is_transit":true,"station_name":"Jakarta Kota"},{"is_transit":true,"line":4,"i_lat":-6.132549,"station_id":"KPB","time":3,"i_long":106.826365,"transit":true,"distance":1364,"station_name":"Kampung Bandan"},{"is_transit":false,"distance":4102,"i_long":106.79867,"line":1,"time":9,"i_lat":-6.144674,"transit":false,"station_name":"Angke","station_id":"AK"},{"station_name":"Duri","distance":1230,"station_id":"DU","time":4,"i_lat":-6.155215,"transit":false,"is_transit":false,"i_long":106.800832,"line":1},{"station_id":"THB","distance":3632,"is_transit":true,"transit":true,"station_name":"Tanah Abang","i_long":106.811091,"i_lat":-6.185545,"time":8,"line":1},{"i_long":106.79689,"i_lat":-6.207404,"station_name":"Palmerah","station_id":"PLM","time":6,"transit":false,"line":6,"is_transit":false,"distance":3191},{"i_lat":-6.237242,"line":6,"i_long":106.780334,"transit":false,"time":7,"distance":3737,"station_id":"KBY","is_transit":false,"station_name":"Kebayoran"},{"time":8,"is_transit":false,"i_long":106.74273,"transit":false,"station_id":"PDJ","station_name":"Pondokranji","distance":6218,"line":6,"i_lat":-6.276362},{"station_id":"JMU","distance":2179,"time":3,"i_long":106.728916,"transit":false,"line":6,"i_lat":-6.288927,"is_transit":false,"station_name":"Jurangmangu"},{"i_lat":-6.296963,"distance":1994,"line":6,"is_transit":false,"time":4,"transit":false,"station_name":"Sudimara","i_long":106.712277,"station_id":"SDM"},{"i_long":106.675475,"line":6,"i_lat":-6.314823,"distance":4566,"time":6,"is_transit":false,"transit":false,"station_id":"RU","station_name":"Rawa Buntu"},{"time":4,"station_name":"Serpong","i_lat":-6.319871,"i_long":106.66566,"line":6,"is_transit":false,"station_id":"SRP","transit":false,"distance":2413},{"is_transit":false,"i_long":106.640411,"line":3,"transit":false,"station_id":"CSK","station_name":"Cisauk","i_lat":-6.32484,"distance":1784,"time":4},{"i_lat":-6.329547,"station_id":"CC","station_name":"Cicayur","line":3,"i_long":106.617853,"distance":2519,"time":4,"is_transit":false,"transit":false},{"distance":5968,"i_long":106.568863,"station_name":"Parung Panjang","i_lat":-6.3441410000000005,"transit":false,"is_transit":false,"time":8,"station_id":"PRP","line":6},{"station_name":"Cilejit","distance":7025,"transit":false,"line":3,"time":9,"i_lat":-6.354349,"station_id":"CJT","i_long":106.508482,"is_transit":false},{"time":6,"station_name":"Daru","i_long":106.491338,"station_id":"DAR","i_lat":-6.338021,"line":0,"transit":false,"distance":2675,"is_transit":false},{"line":6,"station_id":"TEJ","distance":3902,"station_name":"Tenjo","time":5,"transit":false,"i_long":106.460812,"i_lat":-6.327251,"is_transit":false},{"station_id":"TGS","transit":false,"station_name":"Tigaraksa","is_transit":false,"i_lat":-6.328533,"i_long":106.425991,"line":6,"distance":2974,"time":5},{"transit":false,"i_long":106.411216,"distance":2651,"line":3,"station_id":"CKY","time":3,"is_transit":false,"i_lat":-6.33561,"station_name":"Cikoya"},{"line":6,"transit":false,"time":4,"station_id":"MJ","i_long":106.394373,"i_lat":-6.332307,"is_transit":false,"distance":1853,"station_name":"Maja"},{"i_lat":-6.334892,"i_long":106.332092,"line":3,"is_transit":false,"station_id":"CTR","distance":7293,"time":10,"transit":false,"station_name":"Citeras"},{"transit":false,"station_name":"Rangkasbitung","distance":9847,"station_id":"RK","i_lat":-6.352675,"is_transit":false,"i_long":106.250396,"line":3,"time":13}],[{"is_transit":false,"station_name":"Bojonggede","station_id":"BJD","transit":false,"i_lat":-6.493243,"line":2,"i_long":106.792719,"time":0,"distance":0},{"is_transit":false,"i_long":106.800298,"time":5,"station_id":"CTA","distance":5197,"transit":false,"station_name":"Citayam","line":2,"i_lat":-6.448811},{"time":6,"distance":5084,"station_name":"Depok","i_long":106.816926,"transit":false,"is_transit":false,"station_id":"DP","i_lat":-6.405256,"line":2},{"is_transit":false,"line":2,"station_name":"Depokbaru","transit":false,"station_id":"DPB","time":3,"i_lat":-6.391065,"distance":1584,"i_long":106.819451},{"line":2,"i_lat":-6.369073,"i_long":106.831114,"station_id":"POC","time":4,"is_transit":false,"distance":2727,"transit":false,"station_name":"Pondok Cina"},{"distance":1109,"transit":false,"station_name":"Univ. Indonesia","i_long":106.831474,"line":2,"station_id":"UI","i_lat":-6.360749,"time":2,"is_transit":false},{"station_id":"UP","station_name":"Univ. Pancasila","is_transit":false,"i_long":106.834175,"time":3,"transit":false,"line":2,"i_lat":-6.339291,"distance":2264},{"is_transit":false,"i_lat":-6.330363,"i_long":106.832616,"line":2,"transit":false,"time":2,"distance":1029,"station_name":"Lenteng Agung","station_id":"LNA"},{"i_lat":-6.3080680000000005,"line":2,"distance":2671,"station_id":"TNT","is_transit":false,"i_long":106.838896,"time":3,"station_name":"Tanjung Barat","transit":false},{"i_lat":-6.2842400000000005,"station_id":"PSM","line":2,"is_transit":false,"i_long":106.843999,"time":4,"distance":2820,"station_name":"Pasar Minggu","transit":false},{"station_name":"Pasar Minggu Baru","line":2,"i_lat":-6.263214,"is_transit":false,"i_long":106.851577,"time":2,"station_id":"PSMB","transit":false,"distance":2380},{"distance":824,"station_name":"Duren Kalibata","i_lat":-6.255332,"transit":false,"i_long":106.85449,"time":2,"line":2,"station_id":"DRN","is_transit":false},{"time":3,"transit":false,"i_long":106.856607,"distance":1546,"i_lat":-6.242512,"line":2,"station_id":"CW","is_transit":false,"station_name":"Cawang"},{"i_lat":-6.226659,"is_transit":false,"distance":1230,"station_id":"TEB","time":2,"transit":false,"station_name":"Tebet","i_long":106.857948,"line":2},{"time":4,"is_transit":true,"station_id":"MRI","transit":true,"distance":2610,"i_lat":-6.209883,"i_long":106.84912,"station_name":"Manggarai","line":2},{"line":1,"transit":false,"station_name":"Matraman","distance":1275,"i_lat":-6.212485,"station_id":"MTR","i_long":106.858896,"time":2,"is_transit":false},{"is_transit":true,"transit":true,"i_lat":-6.215091,"station_name":"Jatinegara","i_long":106.86807400000001,"line":1,"distance":1377,"station_id":"JNG","time":8},{"line":11,"transit":false,"is_transit":false,"time":2,"station_id":"POK","station_name":"Pondok Jati","i_long":106.861737,"distance":1236,"i_lat":-6.209188},{"distance":1829,"is_transit":false,"i_long":106.855437,"transit":false,"i_lat":-6.193792,"station_name":"Kramat","time":2,"station_id":"KMT","line":11},{"i_long":106.850107,"i_lat":-6.185975,"station_id":"GST","distance":973,"transit":false,"is_transit":false,"station_name":"Gang Sentiong","line":11,"time":1},{"is_transit":false,"station_id":"PSE","line":11,"distance":1567,"transit":false,"time":8,"station_name":"Pasar Senen","i_long":106.84368,"i_lat":-6.174784},{"transit":false,"distance":1436,"i_long":106.839204,"station_id":"KMO","line":11,"is_transit":false,"i_lat":-6.161728,"station_name":"Kemayoran","time":4},{"transit":false,"line":11,"station_name":"Rajawali","distance":1901,"i_long":106.836569,"time":5,"is_transit":false,"station_id":"RJW","i_lat":-6.14505},{"transit":true,"distance":1444,"station_id":"KPB","station_name":"Kampung Bandan","i_lat":-6.132549,"i_long":106.826365,"line":4,"time":3,"is_transit":true},{"i_lat":-6.144674,"station_name":"Angke","line":1,"station_id":"AK","is_transit":false,"transit":false,"time":9,"i_long":106.79867,"distance":4102},{"distance":1230,"line":1,"is_transit":false,"station_id":"DU","station_name":"Duri","time":4,"i_lat":-6.155215,"i_long":106.800832,"transit":false},{"station_id":"THB","transit":true,"time":8,"i_lat":-6.185545,"line":1,"distance":3632,"i_long":106.811091,"is_transit":true,"station_name":"Tanah Abang"},{"transit":false,"i_lat":-6.207404,"i_long":106.79689,"station_id":"PLM","time":6,"station_name":"Palmerah","is_transit":false,"line":6,"distance":3191},{"time":7,"station_id":"KBY","i_lat":-6.237242,"is_transit":false,"i_long":106.780334,"station_name":"Kebayoran","line":6,"distance":3737,"transit":false},{"station_id":"PDJ","station_name":"Pondokranji","i_lat":-6.276362,"time":8,"distance":6218,"line":6,"is_transit":false,"i_long":106.74273,"transit":false},{"station_name":"Jurangmangu","station_id":"JMU","distance":2179,"i_long":106.728916,"time":3,"transit":false,"i_lat":-6.288927,"line":6,"is_transit":false},{"station_name":"Sudimara","is_transit":false,"transit":false,"station_id":"SDM","i_lat":-6.296963,"distance":1994,"i_long":106.712277,"time":4,"line":6},{"time":6,"i_long":106.675475,"i_lat":-6.314823,"station_name":"Rawa Buntu","is_transit":false,"station_id":"RU","transit":false,"line":6,"distance":4566},{"transit":false,"distance":2413,"i_lat":-6.319871,"station_id":"SRP","is_transit":false,"line":6,"i_long":106.66566,"time":4,"station_name":"Serpong"},{"station_id":"CSK","is_transit":false,"time":4,"station_name":"Cisauk","i_long":106.640411,"distance":1784,"line":3,"transit":false,"i_lat":-6.32484},{"i_long":106.617853,"line":3,"station_name":"Cicayur","time":4,"station_id":"CC","i_lat":-6.329547,"distance":2519,"transit":false,"is_transit":false},{"distance":5968,"station_name":"Parung Panjang","i_lat":-6.3441410000000005,"time":8,"i_long":106.568863,"station_id":"PRP","line":6,"is_transit":false,"transit":false},{"is_transit":false,"i_lat":-6.354349,"i_long":106.508482,"time":9,"station_name":"Cilejit","transit":false,"line":3,"station_id":"CJT","distance":7025},{"station_id":"DAR","transit":false,"is_transit":false,"station_name":"Daru","i_lat":-6.338021,"time":6,"distance":2675,"i_long":106.491338,"line":0},{"station_id":"TEJ","time":5,"transit":false,"is_transit":false,"distance":3902,"station_name":"Tenjo","i_lat":-6.327251,"i_long":106.460812,"line":6},{"transit":false,"line":6,"is_transit":false,"distance":2974,"station_name":"Tigaraksa","i_lat":-6.328533,"station_id":"TGS","i_long":106.425991,"time":5},{"time":3,"station_id":"CKY","transit":false,"i_lat":-6.33561,"i_long":106.411216,"is_transit":false,"distance":2651,"station_name":"Cikoya","line":3},{"station_name":"Maja","i_long":106.394373,"line":6,"distance":1853,"i_lat":-6.332307,"is_transit":false,"time":4,"station_id":"MJ","transit":false},{"is_transit":false,"distance":7293,"i_lat":-6.334892,"station_id":"CTR","line":3,"station_name":"Citeras","time":10,"transit":false,"i_long":106.332092},{"distance":9847,"station_id":"RK","transit":false,"time":13,"station_name":"Rangkasbitung","i_long":106.250396,"i_lat":-6.352675,"is_transit":false,"line":3}]]}