{"data":[[{"is_transit":false,"line":2,"station_id":"BJD","i_lat":-6.493243,"distance":0,"time":0,"i_long":106.792719,"station_name":"Bojonggede","transit":false},{"distance":5197,"line":2,"station_id":"CTA","transit":false,"time":5,"i_lat":-6.448811,"i_long":106.800298,"is_transit":false,"station_name":"Citayam"},{"is_transit":false,"i_long":106.816926,"station_id":"DP","station_name":"Depok","time":6,"line":2,"distance":5084,"i_lat":-6.405256,"transit":false},{"time":3,"i_long":106.819451,"is_transit":false,"station_name":"Depokbaru","station_id":"DPB","i_lat":-6.391065,"distance":1584,"transit":false,"line":2},{"transit":false,"time":4,"station_id":"POC","station_name":"Pondok Cina","distance":2727,"i_lat":-6.369073,"line":2,"is_transit":false,"i_long":106.831114},{"transit":false,"i_lat":-6.360749,"is_transit":false,"station_id":"UI","station_name":"Univ. Indonesia","line":2,"time":2,"distance":1109,"i_long":106.831474},{"i_long":106.834175,"distance":2264,"is_transit":false,"station_name":"Univ. Pancasila","time":3,"station_id":"UP","transit":false,"i_lat":-6.339291,"line":2},{"distance":1029,"is_transit":false,"i_lat":-6.330363,"time":2,"i_long":106.832616,"transit":false,"station_name":"Lenteng Agung","station_id":"LNA","line":2},{"time":3,"distance":2671,"station_name":"Tanjung Barat","transit":false,"i_lat":-6.3080680000000005,"is_transit":false,"station_id":"TNT","i_long":106.838896,"line":2},{"time":4,"transit":false,"i_long":106.843999,"distance":2820,"station_id":"PSM","is_transit":false,"i_lat":-6.2842400000000005,"station_name":"Pasar Minggu","line":2},{"distance":2380,"station_name":"Pasar Minggu Baru","i_lat":-6.263214,"time":2,"station_id":"PSMB","is_transit":false,"line":2,"i_long":106.851577,"transit":false},{"line":2,"station_id":"DRN","station_name":"Duren Kalibata","time":2,"is_transit":false,"transit":false,"distance":824,"i_long":106.85449,"i_lat":-6.255332},{"i_lat":-6.242512,"time":3,"distance":1546,"station_name":"Cawang","station_id":"CW","is_transit":false,"transit":false,"i_long":106.856607,"line":2},{"is_transit":false,"station_name":"Tebet","i_lat":-6.226659,"transit":false,"i_long":106.857948,"time":2,"distance":1230,"line":2,"station_id":"TEB"},{"i_long":106.84912,"time":4,"station_id":"MRI","transit":true,"line":2,"station_name":"Manggarai","distance":2610,"is_transit":true,"i_lat":-6.209883},{"distance":3186,"line":1,"i_long":106.822649,"i_lat":-6.202263,"time":4,"is_transit":false,"station_id":"SUD","station_name":"Sudirman","transit":false},{"station_name":"Sudirman Baru","distance":280,"i_lat":-6.201433,"is_transit":false,"line":1,"station_id":"SUDB","i_long":106.819881,"transit":false,"time":1},{"i_long":106.816351,"is_transit":false,"station_id":"KAT","distance":471,"line":1,"i_lat":-6.20132,"transit":false,"station_name":"Karet","time":1},{"line":1,"time":5,"distance":2029,"is_transit":false,"i_lat":-6.185545,"transit":false,"station_id":"THB","i_long":106.811091,"station_name":"Tanah Abang"},{"is_transit":true,"station_id":"DU","station_name":"Duri","transit":true,"time":8,"i_lat":-6.155215,"i_long":106.800832,"line":1,"distance":3632},{"station_name":"Grogol","line":5,"distance":1700,"i_lat":-6.162021,"time":3,"i_long":106.788277,"transit":false,"is_transit":false,"station_id":"GRG"},{"station_id":"PSG","time":2,"is_transit":false,"station_name":"Pesing","transit":false,"i_lat":-6.161433,"line":5,"distance":2036,"i_long":106.771379},{"station_id":"TKO","i_lat":-6.1587309999999995,"transit":false,"time":2,"is_transit":false,"station_name":"Taman Kota","distance":1614,"i_long":106.756522,"line":5},{"is_transit":false,"station_name":"Bojongindah","line":5,"transit":false,"time":2,"distance":2334,"station_id":"BOI","i_long":106.737035,"i_lat":-6.159876},{"is_transit":false,"station_name":"Rawa Buaya","i_lat":-6.162758,"time":4,"distance":1152,"i_long":106.723064,"station_id":"RW","transit":false,"line":5},{"station_id":"KDS","distance":2504,"is_transit":false,"station_name":"Kalideres","i_lat":-6.166068,"time":3,"line":5,"transit":false,"i_long":106.701612},{"station_name":"Poris","station_id":"PI","is_transit":false,"transit":false,"i_lat":-6.169933,"time":3,"distance":2548,"i_long":106.679458,"line":5},{"station_name":"Batuceper","transit":false,"i_lat":-6.171811,"station_id":"BPR","is_transit":false,"line":5,"distance":1834,"time":3,"i_long":106.665036},{"i_lat":-6.17331,"station_id":"THI","transit":false,"is_transit":false,"line":5,"time":3,"i_long":106.64657,"station_name":"Tanah Tinggi","distance":2028}],[{"transit":false,"i_lat":-6.493243,"i_long":106.792719,"line":2,"station_name":"Bojonggede","station_id":"BJD","time":0,"distance":0,"is_transit":false},{"line":2,"station_id":"CTA","is_transit":false,"i_long":106.800298,"time":5,"transit":false,"distance":5197,"i_lat":-6.448811,"station_name":"Citayam"},{"line":2,"is_transit":false,"station_name":"Depok","i_long":106.816926,"transit":false,"i_lat":-6.405256,"distance":5084,"station_id":"DP","time":6},{"line":2,"is_transit":false,"distance":1584,"time":3,"i_lat":-6.391065,"station_name":"Depokbaru","i_long":106.819451,"transit":false,"station_id":"DPB"},{"time":4,"i_long":106.831114,"distance":2727,"i_lat":-6.369073,"line":2,"is_transit":false,"station_name":"Pondok Cina","transit":false,"station_id":"POC"},{"time":2,"station_name":"Univ. Indonesia","i_long":106.831474,"is_transit":false,"i_lat":-6.360749,"transit":false,"station_id":"UI","distance":1109,"line":2},{"line":2,"is_transit":false,"transit":false,"station_name":"Univ. Pancasila","station_id":"UP","distance":2264,"i_long":106.834175,"time":3,"i_lat":-6.339291},{"station_name":"Lenteng Agung","line":2,"is_transit":false,"distance":1029,"i_lat":-6.330363,"station_id":"LNA","transit":false,"i_long":106.832616,"time":2},{"is_transit":false,"time":3,"i_long":106.838896,"station_name":"Tanjung Barat","distance":2671,"transit":false,"station_id":"TNT","line":2,"i_lat":-6.3080680000000005},{"station_id":"PSM","i_lat":-6.2842400000000005,"station_name":"Pasar Minggu","transit":false,"time":4,"distance":2820,"i_long":106.843999,"line":2,"is_transit":false},{"transit":false,"station_id":"PSMB","station_name":"Pasar Minggu Baru","distance":2380,"time":2,"i_lat":-6.263214,"i_long":106.851577,"line":2,"is_transit":false},{"time":2,"transit":false,"i_lat":-6.255332,"station_name":"Duren Kalibata","i_long":106.85449,"line":2,"is_transit":false,"distance":824,"station_id":"DRN"},{"station_name":"Cawang","station_id":"CW","distance":1546,"i_lat":-6.242512,"i_long":106.856607,"time":3,"line":2,"is_transit":false,"transit":false},{"line":2,"i_lat":-6.226659,"transit":false,"is_transit":false,"station_id":"TEB","station_name":"Tebet","distance":1230,"i_long":106.857948,"time":2},{"station_name":"Manggarai","is_transit":false,"line":2,"time":4,"station_id":"MRI","transit":false,"distance":2610,"i_lat":-6.209883,"i_long":106.84912},{"distance":1590,"transit":false,"line":2,"time":4,"station_id":"CKI","is_transit":false,"station_name":"Cikini","i_lat":-6.198556,"i_long":106.840169},{"i_long":106.832183,"line":2,"station_name":"Gondangdia","is_transit":false,"station_id":"GDD","transit":false,"distance":1750,"i_lat":-6.186295,"time":3},{"transit":false,"distance":2015,"station_name":"Juanda","i_lat":-6.166716,"line":2,"i_long":106.828284,"station_id":"JUA","is_transit":false,"time":4},{"i_long":106.827103,"line":2,"distance":1149,"is_transit":false,"station_id":"SW","station_name":"Sawah Besar","time":2,"i_lat":-6.160725,"transit":false},{"is_transit":false,"transit":false,"i_lat":-6.149769,"station_id":"MGB","i_long":106.82482,"station_name":"Manggabesar","time":2,"distance":906,"line":2},{"station_name":"Jayakarta","is_transit":false,"i_lat":-6.141205,"i_long":106.820901,"station_id":"JAY","line":2,"transit":false,"time":2,"distance":1080},{"line":2,"distance":1264,"time":4,"i_lat":-6.137569,"is_transit":true,"transit":true,"station_name":"Jakarta Kota","station_id":"JAKK","i_long":106.812439},{"station_name":"Kampung Bandan","transit":true,"time":3,"i_lat":-6.132549,"i_long":106.826365,"station_id":"KPB","is_transit":true,"line":4,"distance":1364},{"distance":4102,"line":1,"station_name":"Angke","i_long":106.79867,"is_transit":false,"i_lat":-6.144674,"transit":false,"time":9,"station_id":"AK"},{"distance":1230,"line":1,"i_long":106.800832,"time":4,"station_name":"Duri","is_transit":true,"station_id":"DU","transit":true,"i_lat":-6.155215},{"i_lat":-6.162021,"i_long":106.788277,"time":3,"station_id":"GRG","line":5,"is_transit":false,"transit":false,"station_name":"Grogol","distance":1700},{"is_transit":false,"i_long":106.771379,"time":2,"transit":false,"distance":2036,"i_lat":-6.161433,"station_name":"Pesing","station_id":"PSG","line":5},{"i_lat":-6.1587309999999995,"is_transit":false,"station_id":"TKO","transit":false,"time":2,"distance":1614,"station_name":"Taman Kota","line":5,"i_long":106.756522},{"station_id":"BOI","distance":2334,"line":5,"i_long":106.737035,"time":2,"i_lat":-6.159876,"station_name":"Bojongindah","is_transit":false,"transit":false},{"station_id":"RW","line":5,"is_transit":false,"time":4,"station_name":"Rawa Buaya","i_long":106.723064,"transit":false,"i_lat":-6.162758,"distance":1152},{"i_long":106.701612,"distance":2504,"transit":false,"is_transit":false,"station_id":"KDS","line":5,"time":3,"station_name":"Kalideres","i_lat":-6.166068},{"is_transit":false,"transit":false,"station_name":"Poris","station_id":"PI","distance":2548,"i_lat":-6.169933,"time":3,"i_long":106.679458,"line":5},{"distance":1834,"is_transit":false,"time":3,"station_id":"BPR","station_name":"Batuceper","transit":false,"i_lat":-6.171811,"i_long":106.665036,"line":5},{"line":5,"station_name":"Tanah Tinggi","transit":false,"is_transit":false,"station_id":"THI","time":3,"i_lat":-6.17331,"distance":2028,"i_long":106.64657}],[{"is_transit":false,"transit":false,"station_name":"Bojonggede","time":0,"i_lat":-6.493243,"i_long":106.792719,"line":2,"distance":0,"station_id":"BJD"},{"i_lat":-6.448811,"i_long":106.800298,"is_transit":false,"station_id":"CTA","transit":false,"line":2,"station_name":"Citayam","time":5,"distance":5197},{"transit":false,"time":6,"station_id":"DP","i_lat":-6.405256,"is_transit":false,"station_name":"Depok","i_long":106.816926,"distance":5084,"line":2},{"transit":false,"station_id":"DPB","time":3,"station_name":"Depokbaru","distance":1584,"i_lat":-6.391065,"i_long":106.819451,"line":2,"is_transit":false},{"station_name":"Pondok Cina","time":4,"i_lat":-6.369073,"is_transit":false,"transit":false,"distance":2727,"line":2,"station_id":"POC","i_long":106.831114},{"i_long":106.831474,"line":2,"transit":false,"i_lat":-6.360749,"is_transit":false,"station_name":"Univ. Indonesia","station_id":"UI","time":2,"distance":1109},{"line":2,"station_name":"Univ. Pancasila","time":3,"distance":2264,"i_lat":-6.339291,"i_long":106.834175,"is_transit":false,"station_id":"UP","transit":false},{"time":2,"distance":1029,"transit":false,"line":2,"station_id":"LNA","is_transit":false,"i_long":106.832616,"i_lat":-6.330363,"station_name":"Lenteng Agung"},{"i_lat":-6.3080680000000005,"distance":2671,"station_name":"Tanjung Barat","is_transit":false,"i_long":106.838896,"line":2,"station_id":"TNT","time":3,"transit":false},{"line":2,"is_transit":false,"station_name":"Pasar Minggu","time":4,"i_long":106.843999,"i_lat":-6.2842400000000005,"transit":false,"station_id":"PSM","distance":2820},{"station_name":"Pasar Minggu Baru","transit":false,"i_lat":-6.263214,"i_long":106.851577,"time":2,"line":2,"is_transit":false,"distance":2380,"station_id":"PSMB"},{"is_transit":false,"time":2,"i_long":106.85449,"i_lat":-6.255332,"line":2,"station_id":"DRN","transit":false,"station_name":"Duren Kalibata","distance":824},{"is_transit":false,"station_id":"CW","transit":false,"i_lat":-6.242512,"i_long":106.856607,"line":2,"station_name":"Cawang","time":3,"distance":1546},{"line":2,"station_id":"TEB","time":2,"i_lat":-6.226659,"transit":false,"distance":1230,"is_transit":false,"station_name":"Tebet","i_long":106.857948},{"station_id":"MRI","i_long":106.84912,"time":4,"transit":true,"i_lat":-6.209883,"line":2,"station_name":"Manggarai","distance":2610,"is_transit":true},{"transit":false,"distance":1275,"time":2,"line":1,"i_long":106.858896,"station_id":"MTR","is_transit":false,"station_name":"Matraman","i_lat":-6.212485},{"station_name":"Jatinegara","i_long":106.86807400000001,"station_id":"JNG","time":8,"distance":1377,"transit":true,"i_lat":-6.215091,"line":1,"is_transit":true},{"i_lat":-6.209188,"time":2,"station_name":"Pondok Jati","transit":false,"line":11,"station_id":"POK","distance":1236,"is_transit":false,"i_long":106.861737},{"is_transit":false,"transit":false,"distance":1829,"i_long":106.855437,"line":11,"station_name":"Kramat","station_id":"KMT","i_lat":-6.193792,"time":2},{"is_transit":false,"station_id":"GST","transit":false,"distance":973,"station_name":"Gang Sentiong","time":1,"line":11,"i_long":106.850107,"i_lat":-6.185975},{"station_name":"Pasar Senen","station_id":"PSE","distance":1567,"line":11,"transit":false,"i_lat":-6.174784,"time":8,"i_long":106.84368,"is_transit":false},{"station_name":"Kemayoran","station_id":"KMO","i_lat":-6.161728,"time":4,"is_transit":false,"i_long":106.839204,"line":11,"distance":1436,"transit":false},{"i_lat":-6.14505,"i_long":106.836569,"distance":1901,"line":11,"transit":false,"time":5,"station_id":"RJW","is_transit":false,"station_name":"Rajawali"},{"station_name":"Kampung Bandan","is_transit":true,"station_id":"KPB","time":3,"i_long":106.826365,"i_lat":-6.132549,"line":4,"transit":true,"distance":1444},{"transit":false,"time":9,"i_lat":-6.144674,"i_long":106.79867,"station_id":"AK","station_name":"Angke","line":1,"is_transit":false,"distance":4102},{"transit":true,"distance":1230,"is_transit":true,"i_long":106.800832,"station_name":"Duri","time":4,"station_id":"DU","i_lat":-6.155215,"line":1},{"station_id":"GRG","transit":false,"time":3,"distance":1700,"i_lat":-6.162021,"i_long":106.788277,"is_transit":false,"station_name":"Grogol","line":5},{"i_long":106.771379,"line":5,"station_name":"Pesing","distance":2036,"i_lat":-6.161433,"transit":false,"is_transit":false,"station_id":"PSG","time":2},{"is_transit":false,"transit":false,"distance":1614,"i_lat":-6.1587309999999995,"line":5,"station_id":"TKO","time":2,"i_long":106.756522,"station_name":"Taman Kota"},{"is_transit":false,"i_lat":-6.159876,"transit":false,"i_long":106.737035,"station_name":"Bojongindah","line":5,"distance":2334,"station_id":"BOI","time":2},{"station_id":"RW","station_name":"Rawa Buaya","line":5,"i_long":106.723064,"time":4,"is_transit":false,"i_lat":-6.162758,"distance":1152,"transit":false},{"station_id":"KDS","is_transit":false,"transit":false,"time":3,"i_long":106.701612,"station_name":"Kalideres","distance":2504,"line":5,"i_lat":-6.166068},{"time":3,"distance":2548,"i_long":106.679458,"is_transit":false,"i_lat":-6.169933,"station_name":"Poris","station_id":"PI","transit":false,"line":5},{"station_name":"Batuceper","transit":false,"i_long":106.665036,"time":3,"line":5,"station_id":"BPR","distance":1834,"i_lat":-6.171811,"is_transit":false},{"time":3,"i_lat":-6.17331,"distance":2028,"transit":false,"i_long":106.64657,"is_transit":false,"station_id":"THI","station_name":"Tanah Tinggi","line":5}]]}