{"data":[[{"time":0,"i_long":106.792719,"station_name":"Bojonggede","i_lat":-6.493243,"distance":0,"line":2,"transit":false,"is_transit":false,"station_id":"BJD"},{"line":2,"i_long":106.800298,"is_transit":false,"distance":5197,"time":5,"station_name":"Citayam","transit":false,"station_id":"CTA","i_lat":-6.448811},{"station_id":"DP","is_transit":false,"time":6,"station_name":"Depok","distance":5084,"line":2,"i_long":106.816926,"transit":false,"i_lat":-6.405256},{"is_transit":false,"i_long":106.819451,"i_lat":-6.391065,"distance":1584,"line":2,"time":3,"station_name":"Depokbaru","transit":false,"station_id":"DPB"},{"station_id":"POC","distance":2727,"transit":false,"line":2,"is_transit":false,"time":4,"i_lat":-6.369073,"i_long":106.831114,"station_name":"Pondok Cina"},{"is_transit":false,"station_name":"Univ. Indonesia","distance":1109,"i_lat":-6.360749,"station_id":"UI","i_long":106.831474,"time":2,"line":2,"transit":false},{"transit":false,"station_name":"Univ. Pancasila","i_lat":-6.339291,"line":2,"station_id":"UP","i_long":106.834175,"distance":2264,"time":3,"is_transit":false},{"line":2,"transit":false,"distance":1029,"station_id":"LNA","i_lat":-6.330363,"is_transit":false,"station_name":"Lenteng Agung","i_long":106.832616,"time":2},{"is_transit":false,"time":3,"station_name":"Tanjung Barat","i_lat":-6.3080680000000005,"line":2,"station_id":"TNT","i_long":106.838896,"transit":false,"distance":2671},{"time":4,"station_id":"PSM","distance":2820,"i_long":106.843999,"line":2,"i_lat":-6.2842400000000005,"transit":false,"is_transit":false,"station_name":"Pasar Minggu"},{"i_lat":-6.263214,"line":2,"time":2,"distance":2380,"transit":false,"station_id":"PSMB","is_transit":false,"station_name":"Pasar Minggu Baru","i_long":106.851577},{"distance":824,"transit":false,"time":2,"station_id":"DRN","line":2,"station_name":"Duren Kalibata","is_transit":false,"i_long":106.85449,"i_lat":-6.255332},{"distance":1546,"station_name":"Cawang","i_lat":-6.242512,"station_id":"CW","i_long":106.856607,"time":3,"is_transit":false,"line":2,"transit":false},{"time":2,"i_long":106.857948,"line":2,"station_name":"Tebet","distance":1230,"station_id":"TEB","is_transit":false,"i_lat":-6.226659,"transit":false},{"is_transit":true,"station_id":"MRI","i_lat":-6.209883,"distance":2610,"station_name":"Manggarai","time":4,"line":2,"transit":true,"i_long":106.84912},{"station_name":"Sudirman","distance":3186,"time":4,"i_lat":-6.202263,"is_transit":false,"i_long":106.822649,"transit":false,"station_id":"SUD","line":1},{"time":1,"i_long":106.819881,"distance":280,"line":1,"station_id":"SUDB","station_name":"Sudirman Baru","is_transit":false,"i_lat":-6.201433,"transit":false},{"transit":false,"is_transit":false,"time":1,"line":1,"i_lat":-6.20132,"distance":471,"i_long":106.816351,"station_id":"KAT","station_name":"Karet"},{"i_long":106.811091,"i_lat":-6.185545,"station_id":"THB","line":1,"distance":2029,"time":5,"is_transit":false,"transit":false,"station_name":"Tanah Abang"},{"time":8,"station_id":"DU","transit":true,"station_name":"Duri","i_long":106.800832,"i_lat":-6.155215,"is_transit":true,"distance":3632,"line":1},{"transit":false,"line":5,"i_lat":-6.162021,"station_id":"GGL","distance":1700,"is_transit":false,"time":3,"station_name":"Grogol","i_long":106.788277},{"station_name":"Pesing","line":5,"i_long":106.771379,"station_id":"PSG","distance":2036,"i_lat":-6.161433,"time":2,"is_transit":false,"transit":false},{"distance":1614,"line":5,"station_name":"Taman Kota","i_lat":-6.1587309999999995,"time":2,"station_id":"TKO","is_transit":false,"i_long":106.756522,"transit":false},{"i_lat":-6.159876,"i_long":106.737035,"distance":2334,"station_name":"Bojongindah","station_id":"BOI","is_transit":false,"time":2,"transit":false,"line":5},{"time":4,"station_id":"RW","line":5,"transit":false,"distance":1152,"i_long":106.723064,"station_name":"Rawa Buaya","i_lat":-6.162758,"is_transit":false},{"time":3,"distance":2504,"station_id":"KDS","transit":false,"is_transit":false,"station_name":"Kalideres","i_long":106.701612,"line":5,"i_lat":-6.166068}],[{"i_long":106.792719,"distance":0,"i_lat":-6.493243,"transit":false,"is_transit":false,"station_id":"BJD","time":0,"line":2,"station_name":"Bojonggede"},{"i_long":106.800298,"station_id":"CTA","time":5,"is_transit":false,"line":2,"distance":5197,"i_lat":-6.448811,"transit":false,"station_name":"Citayam"},{"station_name":"Depok","time":6,"distance":5084,"line":2,"station_id":"DP","is_transit":false,"i_lat":-6.405256,"i_long":106.816926,"transit":false},{"line":2,"is_transit":false,"time":3,"transit":false,"station_id":"DPB","distance":1584,"station_name":"Depokbaru","i_long":106.819451,"i_lat":-6.391065},{"station_id":"POC","i_long":106.831114,"transit":false,"i_lat":-6.369073,"line":2,"time":4,"is_transit":false,"distance":2727,"station_name":"Pondok Cina"},{"station_id":"UI","i_lat":-6.360749,"is_transit":false,"distance":1109,"transit":false,"line":2,"station_name":"Univ. Indonesia","i_long":106.831474,"time":2},{"i_long":106.834175,"line":2,"station_name":"Univ. Pancasila","transit":false,"station_id":"UP","distance":2264,"time":3,"is_transit":false,"i_lat":-6.339291},{"station_id":"LNA","transit":false,"i_long":106.832616,"station_name":"Lenteng Agung","distance":1029,"line":2,"i_lat":-6.330363,"is_transit":false,"time":2},{"i_lat":-6.3080680000000005,"station_name":"Tanjung Barat","i_long":106.838896,"is_transit":false,"line":2,"distance":2671,"station_id":"TNT","time":3,"transit":false},{"distance":2820,"is_transit":false,"line":2,"transit":false,"station_id":"PSM","station_name":"Pasar Minggu","i_long":106.843999,"i_lat":-6.2842400000000005,"time":4},{"time":2,"distance":2380,"i_lat":-6.263214,"is_transit":false,"station_id":"PSMB","transit":false,"station_name":"Pasar Minggu Baru","i_long":106.851577,"line":2},{"i_long":106.85449,"line":2,"station_name":"Duren Kalibata","i_lat":-6.255332,"is_transit":false,"distance":824,"station_id":"DRN","transit":false,"time":2},{"time":3,"distance":1546,"station_id":"CW","i_lat":-6.242512,"is_transit":false,"i_long":106.856607,"line":2,"station_name":"Cawang","transit":false},{"i_lat":-6.226659,"station_name":"Tebet","i_long":106.857948,"line":2,"distance":1230,"is_transit":false,"time":2,"transit":false,"station_id":"TEB"},{"i_lat":-6.209883,"distance":2610,"station_id":"MRI","station_name":"Manggarai","time":4,"transit":false,"i_long":106.84912,"line":2,"is_transit":false},{"distance":1590,"i_lat":-6.198556,"line":2,"is_transit":false,"time":4,"transit":false,"station_name":"Cikini","i_long":106.840169,"station_id":"CKI"},{"distance":1750,"line":2,"i_long":106.832183,"transit":false,"is_transit":false,"station_name":"Gondangdia","station_id":"GDD","time":3,"i_lat":-6.186295},{"i_lat":-6.166716,"line":2,"time":4,"transit":false,"distance":2015,"is_transit":false,"station_name":"Juanda","i_long":106.828284,"station_id":"JUA"},{"distance":1149,"station_id":"SW","i_lat":-6.160725,"line":2,"station_name":"Sawah Besar","time":2,"i_long":106.827103,"is_transit":false,"transit":false},{"station_id":"MGB","is_transit":false,"line":2,"station_name":"Manggabesar","i_lat":-6.149769,"transit":false,"distance":906,"time":2,"i_long":106.82482},{"time":2,"i_lat":-6.141205,"station_name":"Jayakarta","i_long":106.820901,"line":2,"station_id":"JAY","is_transit":false,"transit":false,"distance":1080},{"transit":true,"i_lat":-6.137569,"distance":1264,"time":4,"station_id":"JAKK","is_transit":true,"i_long":106.812439,"station_name":"Jakarta Kota","line":2},{"i_long":106.826365,"is_transit":true,"station_id":"KPB","line":4,"time":3,"distance":1364,"transit":true,"i_lat":-6.132549,"station_name":"Kampung Bandan"},{"transit":false,"i_lat":-6.144674,"line":1,"i_long":106.79867,"station_id":"AK","distance":4102,"time":9,"is_transit":false,"station_name":"Angke"},{"is_transit":true,"distance":1230,"time":4,"station_id":"DU","station_name":"Duri","transit":true,"i_long":106.800832,"i_lat":-6.155215,"line":1},{"station_id":"GGL","transit":false,"time":3,"distance":1700,"station_name":"Grogol","is_transit":false,"i_lat":-6.162021,"i_long":106.788277,"line":5},{"transit":false,"station_id":"PSG","i_lat":-6.161433,"is_transit":false,"station_name":"Pesing","line":5,"i_long":106.771379,"distance":2036,"time":2},{"distance":1614,"time":2,"i_long":106.756522,"station_id":"TKO","i_lat":-6.1587309999999995,"station_name":"Taman Kota","line":5,"transit":false,"is_transit":false},{"is_transit":false,"i_lat":-6.159876,"time":2,"transit":false,"line":5,"distance":2334,"station_id":"BOI","station_name":"Bojongindah","i_long":106.737035},{"time":4,"is_transit":false,"distance":1152,"station_id":"RW","transit":false,"station_name":"Rawa Buaya","i_lat":-6.162758,"i_long":106.723064,"line":5},{"distance":2504,"station_id":"KDS","is_transit":false,"i_lat":-6.166068,"transit":false,"station_name":"Kalideres","i_long":106.701612,"line":5,"time":3}],[{"is_transit":false,"time":0,"station_id":"BJD","transit":false,"distance":0,"station_name":"Bojonggede","i_lat":-6.493243,"i_long":106.792719,"line":2},{"transit":false,"distance":5197,"station_id":"CTA","is_transit":false,"i_lat":-6.448811,"line":2,"i_long":106.800298,"time":5,"station_name":"Citayam"},{"distance":5084,"i_long":106.816926,"i_lat":-6.405256,"time":6,"line":2,"station_name":"Depok","is_transit":false,"station_id":"DP","transit":false},{"is_transit":false,"station_id":"DPB","i_long":106.819451,"i_lat":-6.391065,"time":3,"distance":1584,"transit":false,"line":2,"station_name":"Depokbaru"},{"time":4,"i_lat":-6.369073,"station_id":"POC","transit":false,"distance":2727,"is_transit":false,"station_name":"Pondok Cina","line":2,"i_long":106.831114},{"transit":false,"time":2,"is_transit":false,"i_long":106.831474,"station_id":"UI","station_name":"Univ. Indonesia","i_lat":-6.360749,"line":2,"distance":1109},{"is_transit":false,"i_long":106.834175,"time":3,"station_name":"Univ. Pancasila","line":2,"distance":2264,"i_lat":-6.339291,"station_id":"UP","transit":false},{"time":2,"transit":false,"station_name":"Lenteng Agung","line":2,"is_transit":false,"station_id":"LNA","distance":1029,"i_lat":-6.330363,"i_long":106.832616},{"i_lat":-6.3080680000000005,"line":2,"station_id":"TNT","time":3,"i_long":106.838896,"is_transit":false,"station_name":"Tanjung Barat","distance":2671,"transit":false},{"station_id":"PSM","is_transit":false,"i_long":106.843999,"transit":false,"time":4,"i_lat":-6.2842400000000005,"station_name":"Pasar Minggu","line":2,"distance":2820},{"transit":false,"time":2,"station_id":"PSMB","is_transit":false,"station_name":"Pasar Minggu Baru","i_long":106.851577,"distance":2380,"i_lat":-6.263214,"line":2},{"i_lat":-6.255332,"distance":824,"time":2,"line":2,"is_transit":false,"i_long":106.85449,"transit":false,"station_id":"DRN","station_name":"Duren Kalibata"},{"station_id":"CW","time":3,"station_name":"Cawang","i_long":106.856607,"line":2,"transit":false,"distance":1546,"i_lat":-6.242512,"is_transit":false},{"station_id":"TEB","distance":1230,"station_name":"Tebet","i_lat":-6.226659,"i_long":106.857948,"transit":false,"is_transit":false,"time":2,"line":2},{"is_transit":true,"distance":2610,"i_lat":-6.209883,"transit":true,"i_long":106.84912,"time":4,"station_id":"MRI","line":2,"station_name":"Manggarai"},{"line":1,"is_transit":false,"i_long":106.858896,"station_id":"MTR","transit":false,"time":2,"i_lat":-6.212485,"station_name":"Matraman","distance":1275},{"line":1,"station_name":"Jatinegara","time":8,"transit":true,"station_id":"JNG","is_transit":true,"i_long":106.86807400000001,"distance":1377,"i_lat":-6.215091},{"station_name":"Pondok Jati","i_lat":-6.209188,"line":11,"i_long":106.861737,"transit":false,"distance":1236,"station_id":"POK","is_transit":false,"time":2},{"transit":false,"line":11,"station_id":"KMT","distance":1829,"i_lat":-6.193792,"i_long":106.855437,"station_name":"Kramat","is_transit":false,"time":2},{"transit":false,"station_id":"GST","distance":973,"line":11,"time":1,"station_name":"Gang Sentiong","is_transit":false,"i_lat":-6.185975,"i_long":106.850107},{"station_name":"Pasar Senen","station_id":"PSE","time":8,"distance":1567,"transit":false,"is_transit":false,"i_lat":-6.174784,"i_long":106.84368,"line":11},{"time":4,"distance":1436,"station_id":"KMO","i_lat":-6.161728,"i_long":106.839204,"line":11,"is_transit":false,"transit":false,"station_name":"Kemayoran"},{"i_long":106.836569,"station_id":"RJW","transit":false,"time":5,"station_name":"Rajawali","i_lat":-6.14505,"line":11,"distance":1901,"is_transit":false},{"time":3,"i_long":106.826365,"station_name":"Kampung Bandan","is_transit":true,"station_id":"KPB","i_lat":-6.132549,"line":4,"distance":1444,"transit":true},{"line":1,"i_lat":-6.144674,"transit":false,"station_id":"AK","time":9,"is_transit":false,"distance":4102,"station_name":"Angke","i_long":106.79867},{"transit":true,"distance":1230,"time":4,"i_long":106.800832,"station_name":"Duri","line":1,"station_id":"DU","is_transit":true,"i_lat":-6.155215},{"i_lat":-6.162021,"transit":false,"station_name":"Grogol","is_transit":false,"i_long":106.788277,"line":5,"station_id":"GGL","distance":1700,"time":3},{"station_id":"PSG","transit":false,"distance":2036,"i_long":106.771379,"time":2,"line":5,"i_lat":-6.161433,"station_name":"Pesing","is_transit":false},{"time":2,"station_name":"Taman Kota","transit":false,"is_transit":false,"i_long":106.756522,"line":5,"distance":1614,"station_id":"TKO","i_lat":-6.1587309999999995},{"station_id":"BOI","transit":false,"i_long":106.737035,"is_transit":false,"i_lat":-6.159876,"line":5,"station_name":"Bojongindah","time":2,"distance":2334},{"distance":1152,"i_lat":-6.162758,"i_long":106.723064,"line":5,"time":4,"transit":false,"station_id":"RW","station_name":"Rawa Buaya","is_transit":false},{"station_id":"KDS","distance":2504,"transit":false,"is_transit":false,"line":5,"i_lat":-6.166068,"time":3,"station_name":"Kalideres","i_long":106.701612}]]}