{"data":[[{"station_id":"BJD","transit":false,"distance":0,"station_name":"Bojonggede","is_transit":false,"i_lat":-6.493243,"time":0,"i_long":106.792719,"line":0},{"is_transit":true,"i_lat":-6.448811,"station_id":"CTA","station_name":"Citayam","distance":5197,"i_long":106.800298,"transit":false,"line":1,"time":5},{"station_id":"DP","line":0,"transit":false,"station_name":"Depok","is_transit":false,"time":6,"distance":5084,"i_lat":-6.405256,"i_long":106.816926},{"time":3,"distance":1584,"station_name":"Depokbaru","transit":false,"is_transit":false,"i_lat":-6.391065,"i_long":106.819451,"line":0,"station_id":"DPB"},{"time":4,"distance":2727,"i_long":106.831114,"i_lat":-6.369073,"transit":false,"line":2,"station_name":"Pondok Cina","is_transit":false,"station_id":"POC"},{"distance":1109,"station_name":"Univ. Indonesia","transit":false,"station_id":"UI","is_transit":false,"time":2,"i_long":106.831474,"i_lat":-6.360749,"line":2},{"distance":2264,"station_name":"Univ. Pancasila","i_long":106.834175,"transit":false,"station_id":"UP","is_transit":false,"time":3,"i_lat":-6.339291,"line":2},{"i_long":106.832616,"distance":1029,"station_id":"LNA","transit":false,"is_transit":false,"time":2,"station_name":"Lenteng Agung","i_lat":-6.330363,"line":2},{"station_name":"Tanjung Barat","time":3,"is_transit":false,"station_id":"TNT","i_long":106.838896,"transit":false,"distance":2671,"i_lat":-6.3080680000000005,"line":2}]]}