{"data":[[{"transit":false,"is_transit":false,"time":0,"line":2,"station_name":"Bojonggede","station_id":"BJD","distance":0,"i_lat":-6.493243,"i_long":106.792719},{"transit":false,"station_id":"CTA","time":5,"i_lat":-6.448811,"line":2,"distance":5197,"is_transit":false,"station_name":"Citayam","i_long":106.800298},{"station_name":"Depok","is_transit":false,"line":2,"time":6,"distance":5084,"i_lat":-6.405256,"transit":false,"i_long":106.816926,"station_id":"DP"},{"i_lat":-6.391065,"station_name":"Depokbaru","transit":false,"station_id":"DPB","distance":1584,"i_long":106.819451,"line":2,"time":3,"is_transit":false},{"station_id":"POC","transit":false,"is_transit":false,"i_long":106.831114,"i_lat":-6.369073,"time":4,"line":2,"distance":2727,"station_name":"Pondok Cina"},{"line":2,"station_name":"Univ. Indonesia","distance":1109,"station_id":"UI","i_long":106.831474,"time":2,"i_lat":-6.360749,"transit":false,"is_transit":false},{"distance":2264,"i_lat":-6.339291,"i_long":106.834175,"time":3,"transit":false,"station_name":"Univ. Pancasila","is_transit":false,"line":2,"station_id":"UP"},{"transit":false,"i_long":106.832616,"line":2,"distance":1029,"station_id":"LNA","is_transit":false,"station_name":"Lenteng Agung","time":2,"i_lat":-6.330363},{"is_transit":false,"distance":2671,"transit":false,"i_long":106.838896,"time":3,"station_id":"TNT","i_lat":-6.3080680000000005,"line":2,"station_name":"Tanjung Barat"},{"time":4,"station_id":"PSM","i_lat":-6.2842400000000005,"is_transit":false,"station_name":"Pasar Minggu","distance":2820,"i_long":106.843999,"line":2,"transit":false},{"distance":2380,"station_name":"Pasar Minggu Baru","line":2,"i_lat":-6.263214,"i_long":106.851577,"station_id":"PSMB","is_transit":false,"transit":false,"time":2},{"i_long":106.85449,"line":2,"transit":false,"i_lat":-6.255332,"station_id":"DRN","distance":824,"time":2,"station_name":"Duren Kalibata","is_transit":false},{"i_lat":-6.242512,"station_name":"Cawang","time":3,"distance":1546,"i_long":106.856607,"line":2,"station_id":"CW","transit":false,"is_transit":false},{"time":2,"transit":false,"is_transit":false,"i_long":106.857948,"distance":1230,"station_id":"TEB","i_lat":-6.226659,"line":2,"station_name":"Tebet"}]]}