{"data":[[{"transit":false,"i_lat":-6.493243,"distance":0,"station_name":"Bojonggede","time":0,"i_long":106.792719,"line":2,"station_id":"BJD","is_transit":false},{"transit":false,"distance":5197,"station_id":"CTA","is_transit":false,"i_lat":-6.448811,"i_long":106.800298,"station_name":"Citayam","line":2,"time":5},{"transit":false,"station_name":"Depok","distance":5084,"i_lat":-6.405256,"is_transit":false,"time":6,"i_long":106.816926,"station_id":"DP","line":2},{"i_long":106.819451,"distance":1584,"is_transit":false,"time":3,"line":2,"transit":false,"station_name":"Depokbaru","station_id":"DPB","i_lat":-6.391065},{"station_id":"POC","i_lat":-6.369073,"station_name":"Pondok Cina","is_transit":false,"time":4,"distance":2727,"transit":false,"i_long":106.831114,"line":2},{"is_transit":false,"station_name":"Univ. Indonesia","station_id":"UI","transit":false,"distance":1109,"i_long":106.831474,"line":2,"i_lat":-6.360749,"time":2},{"is_transit":false,"i_lat":-6.339291,"transit":false,"distance":2264,"station_name":"Univ. Pancasila","line":2,"time":3,"i_long":106.834175,"station_id":"UP"},{"time":2,"distance":1029,"i_lat":-6.330363,"line":2,"transit":false,"is_transit":false,"station_id":"LNA","i_long":106.832616,"station_name":"Lenteng Agung"},{"distance":2671,"i_long":106.838896,"transit":false,"station_name":"Tanjung Barat","time":3,"line":2,"station_id":"TNT","i_lat":-6.3080680000000005,"is_transit":false},{"i_lat":-6.2842400000000005,"is_transit":false,"distance":2820,"line":2,"transit":false,"station_id":"PSM","station_name":"Pasar Minggu","i_long":106.843999,"time":4}]]}