{"data":[[{"distance":0,"i_lat":-6.236616,"line":1,"transit":false,"time":0,"station_name":"Bekasi","is_transit":false,"i_long":106.997013,"station_id":"BKS"},{"is_transit":false,"transit":false,"station_name":"Kranji","station_id":"KRI","i_long":106.977657,"distance":2520,"line":1,"time":4,"i_lat":-6.224515},{"distance":3097,"line":1,"transit":false,"station_id":"CUK","i_long":106.951283,"time":3,"station_name":"Cakung","i_lat":-6.219053,"is_transit":false},{"line":1,"transit":false,"station_id":"KLDB","distance":1385,"is_transit":false,"i_lat":-6.217455,"time":8,"station_name":"Klenderbaru","i_long":106.939679},{"station_id":"BUA","i_long":106.922662,"distance":1305,"line":1,"time":1,"station_name":"Buaran","is_transit":false,"transit":false,"i_lat":-6.215568},{"station_id":"KLD","i_long":106.899548,"is_transit":false,"line":1,"time":2,"transit":false,"distance":3100,"i_lat":-6.2135,"station_name":"Klender"},{"is_transit":false,"i_lat":-6.215091,"line":1,"distance":3395,"station_name":"Jatinegara","time":3,"transit":false,"i_long":106.86807400000001,"station_id":"JNG"},{"i_long":106.858896,"line":1,"station_id":"MTR","distance":1377,"station_name":"Matraman","transit":false,"i_lat":-6.212485,"time":2,"is_transit":false},{"is_transit":true,"station_id":"MRI","transit":true,"i_lat":-6.209883,"station_name":"Manggarai","line":2,"time":2,"distance":1275,"i_long":106.84912},{"is_transit":false,"time":4,"i_lat":-6.226659,"i_long":106.857948,"transit":false,"distance":2610,"station_id":"TEB","station_name":"Tebet","line":2},{"station_id":"CW","transit":false,"line":2,"is_transit":false,"i_lat":-6.242512,"i_long":106.856607,"time":2,"station_name":"Cawang","distance":1230},{"time":3,"i_lat":-6.255332,"transit":false,"line":2,"distance":1546,"station_id":"DRN","station_name":"Duren Kalibata","i_long":106.85449,"is_transit":false},{"is_transit":false,"station_name":"Pasar Minggu Baru","station_id":"PSMB","i_lat":-6.263214,"line":2,"distance":824,"time":2,"transit":false,"i_long":106.851577},{"station_id":"PSM","station_name":"Pasar Minggu","transit":false,"line":2,"is_transit":false,"i_lat":-6.2842400000000005,"time":2,"i_long":106.843999,"distance":2380},{"station_name":"Tanjung Barat","is_transit":false,"station_id":"TNT","time":4,"i_lat":-6.3080680000000005,"i_long":106.838896,"distance":2820,"line":2,"transit":false},{"station_id":"LNA","i_long":106.832616,"is_transit":false,"distance":2671,"station_name":"Lenteng Agung","time":3,"i_lat":-6.330363,"transit":false,"line":2},{"line":2,"station_id":"UP","i_long":106.834175,"time":2,"transit":false,"i_lat":-6.339291,"is_transit":false,"distance":1029,"station_name":"Univ. Pancasila"},{"i_lat":-6.360749,"i_long":106.831474,"distance":2264,"time":3,"station_name":"Univ. Indonesia","is_transit":false,"station_id":"UI","transit":false,"line":2},{"station_id":"POC","time":2,"is_transit":false,"i_lat":-6.369073,"distance":1109,"station_name":"Pondok Cina","transit":false,"line":2,"i_long":106.831114}],[{"distance":0,"station_name":"Bekasi","station_id":"BKS","time":0,"transit":false,"line":1,"i_lat":-6.236616,"is_transit":false,"i_long":106.997013},{"i_lat":-6.224515,"distance":2520,"station_id":"KRI","i_long":106.977657,"station_name":"Kranji","is_transit":false,"line":1,"time":4,"transit":false},{"i_long":106.951283,"line":1,"distance":3097,"station_id":"CUK","is_transit":false,"transit":false,"station_name":"Cakung","time":3,"i_lat":-6.219053},{"line":1,"time":8,"distance":1385,"station_id":"KLDB","i_long":106.939679,"station_name":"Klenderbaru","i_lat":-6.217455,"transit":false,"is_transit":false},{"distance":1305,"i_lat":-6.215568,"line":1,"station_id":"BUA","transit":false,"i_long":106.922662,"station_name":"Buaran","is_transit":false,"time":1},{"station_id":"KLD","station_name":"Klender","i_lat":-6.2135,"time":2,"transit":false,"line":1,"i_long":106.899548,"distance":3100,"is_transit":false},{"transit":true,"i_lat":-6.215091,"time":3,"i_long":106.86807400000001,"distance":3395,"station_name":"Jatinegara","is_transit":true,"station_id":"JNG","line":1},{"time":2,"transit":false,"i_long":106.861737,"is_transit":false,"station_name":"Pondok Jati","line":11,"distance":1236,"station_id":"POK","i_lat":-6.209188},{"distance":1829,"station_name":"Kramat","is_transit":false,"transit":false,"station_id":"KMT","i_long":106.855437,"i_lat":-6.193792,"time":2,"line":11},{"transit":false,"line":11,"is_transit":false,"time":1,"station_id":"GST","station_name":"Gang Sentiong","distance":973,"i_lat":-6.185975,"i_long":106.850107},{"distance":1567,"i_long":106.84368,"transit":false,"is_transit":false,"line":11,"station_name":"Pasar Senen","i_lat":-6.174784,"time":8,"station_id":"PSE"},{"time":4,"distance":1436,"i_lat":-6.161728,"i_long":106.839204,"transit":false,"line":11,"station_id":"KMO","is_transit":false,"station_name":"Kemayoran"},{"i_long":106.836569,"time":5,"is_transit":false,"transit":false,"station_name":"Rajawali","line":11,"distance":1901,"station_id":"RJW","i_lat":-6.14505},{"station_id":"KPB","transit":true,"distance":1444,"is_transit":true,"time":3,"i_lat":-6.132549,"line":4,"i_long":106.826365,"station_name":"Kampung Bandan"},{"is_transit":false,"station_name":"Angke","transit":false,"time":9,"distance":4102,"station_id":"AK","i_lat":-6.144674,"line":1,"i_long":106.79867},{"line":1,"time":4,"i_lat":-6.155215,"distance":1230,"station_name":"Duri","i_long":106.800832,"transit":false,"station_id":"DU","is_transit":false},{"distance":3632,"i_lat":-6.185545,"line":1,"transit":false,"i_long":106.811091,"station_name":"Tanah Abang","station_id":"THB","is_transit":false,"time":8},{"line":1,"distance":2029,"transit":false,"is_transit":false,"i_long":106.816351,"time":5,"station_name":"Karet","i_lat":-6.20132,"station_id":"KAT"},{"transit":false,"station_name":"Sudirman Baru","time":1,"station_id":"SUDB","i_lat":-6.201433,"is_transit":false,"i_long":106.819881,"line":1,"distance":471},{"distance":280,"is_transit":false,"station_name":"Sudirman","station_id":"SUD","time":1,"i_long":106.822649,"line":1,"transit":false,"i_lat":-6.202263},{"i_lat":-6.209883,"i_long":106.84912,"distance":3186,"is_transit":true,"line":2,"station_name":"Manggarai","station_id":"MRI","time":4,"transit":true},{"i_lat":-6.226659,"transit":false,"distance":2610,"time":4,"station_name":"Tebet","is_transit":false,"i_long":106.857948,"line":2,"station_id":"TEB"},{"transit":false,"is_transit":false,"distance":1230,"station_id":"CW","line":2,"i_long":106.856607,"i_lat":-6.242512,"station_name":"Cawang","time":2},{"time":3,"i_lat":-6.255332,"i_long":106.85449,"line":2,"is_transit":false,"transit":false,"distance":1546,"station_id":"DRN","station_name":"Duren Kalibata"},{"time":2,"station_name":"Pasar Minggu Baru","i_long":106.851577,"distance":824,"line":2,"transit":false,"i_lat":-6.263214,"station_id":"PSMB","is_transit":false},{"transit":false,"station_id":"PSM","i_lat":-6.2842400000000005,"distance":2380,"line":2,"station_name":"Pasar Minggu","is_transit":false,"time":2,"i_long":106.843999},{"transit":false,"distance":2820,"is_transit":false,"time":4,"i_long":106.838896,"line":2,"i_lat":-6.3080680000000005,"station_name":"Tanjung Barat","station_id":"TNT"},{"distance":2671,"station_name":"Lenteng Agung","time":3,"station_id":"LNA","i_lat":-6.330363,"transit":false,"i_long":106.832616,"line":2,"is_transit":false},{"station_id":"UP","is_transit":false,"transit":false,"time":2,"i_lat":-6.339291,"station_name":"Univ. Pancasila","i_long":106.834175,"line":2,"distance":1029},{"time":3,"i_lat":-6.360749,"transit":false,"line":2,"is_transit":false,"distance":2264,"i_long":106.831474,"station_name":"Univ. Indonesia","station_id":"UI"},{"is_transit":false,"line":2,"distance":1109,"transit":false,"station_name":"Pondok Cina","time":2,"i_lat":-6.369073,"i_long":106.831114,"station_id":"POC"}],[{"station_name":"Bekasi","is_transit":false,"station_id":"BKS","time":0,"i_lat":-6.236616,"line":1,"distance":0,"transit":false,"i_long":106.997013},{"is_transit":false,"distance":2520,"station_id":"KRI","time":4,"transit":false,"station_name":"Kranji","i_lat":-6.224515,"i_long":106.977657,"line":1},{"distance":3097,"station_id":"CUK","i_long":106.951283,"i_lat":-6.219053,"transit":false,"station_name":"Cakung","time":3,"line":1,"is_transit":false},{"distance":1385,"time":8,"is_transit":false,"line":1,"station_id":"KLDB","transit":false,"i_lat":-6.217455,"i_long":106.939679,"station_name":"Klenderbaru"},{"station_id":"BUA","distance":1305,"transit":false,"i_lat":-6.215568,"time":1,"line":1,"is_transit":false,"station_name":"Buaran","i_long":106.922662},{"station_name":"Klender","station_id":"KLD","time":2,"is_transit":false,"distance":3100,"transit":false,"i_long":106.899548,"line":1,"i_lat":-6.2135},{"distance":3395,"time":3,"i_lat":-6.215091,"station_id":"JNG","i_long":106.86807400000001,"is_transit":true,"line":1,"transit":true,"station_name":"Jatinegara"},{"i_lat":-6.209188,"distance":1236,"i_long":106.861737,"time":2,"transit":false,"station_name":"Pondok Jati","is_transit":false,"line":11,"station_id":"POK"},{"time":2,"line":11,"transit":false,"is_transit":false,"station_id":"KMT","station_name":"Kramat","distance":1829,"i_lat":-6.193792,"i_long":106.855437},{"station_id":"GST","i_lat":-6.185975,"distance":973,"time":1,"i_long":106.850107,"transit":false,"station_name":"Gang Sentiong","is_transit":false,"line":11},{"distance":1567,"station_id":"PSE","transit":false,"i_lat":-6.174784,"i_long":106.84368,"line":11,"station_name":"Pasar Senen","time":8,"is_transit":false},{"i_long":106.839204,"is_transit":false,"transit":false,"distance":1436,"station_name":"Kemayoran","time":4,"line":11,"i_lat":-6.161728,"station_id":"KMO"},{"station_name":"Rajawali","i_lat":-6.14505,"i_long":106.836569,"time":5,"is_transit":false,"transit":false,"distance":1901,"station_id":"RJW","line":11},{"i_lat":-6.132549,"is_transit":true,"time":3,"transit":true,"i_long":106.826365,"distance":1444,"line":4,"station_name":"Kampung Bandan","station_id":"KPB"},{"is_transit":true,"i_lat":-6.137569,"station_id":"JAKK","transit":true,"i_long":106.812439,"time":3,"distance":1364,"line":2,"station_name":"Jakarta Kota"},{"is_transit":false,"line":2,"station_name":"Jayakarta","time":4,"distance":1264,"i_lat":-6.141205,"i_long":106.820901,"station_id":"JAY","transit":false},{"station_name":"Manggabesar","station_id":"MGB","i_lat":-6.149769,"transit":false,"time":2,"is_transit":false,"distance":1080,"i_long":106.82482,"line":2},{"station_id":"SW","distance":906,"station_name":"Sawah Besar","transit":false,"is_transit":false,"time":2,"i_lat":-6.160725,"i_long":106.827103,"line":2},{"is_transit":false,"time":2,"i_long":106.828284,"line":2,"station_id":"JUA","i_lat":-6.166716,"distance":1149,"transit":false,"station_name":"Juanda"},{"time":4,"i_lat":-6.186295,"i_long":106.832183,"station_id":"GDD","is_transit":false,"transit":false,"distance":2015,"station_name":"Gondangdia","line":2},{"is_transit":false,"transit":false,"i_lat":-6.198556,"line":2,"distance":1750,"time":3,"i_long":106.840169,"station_name":"Cikini","station_id":"CKI"},{"station_id":"MRI","station_name":"Manggarai","is_transit":false,"time":4,"i_lat":-6.209883,"distance":1590,"i_long":106.84912,"line":2,"transit":false},{"line":2,"time":4,"i_lat":-6.226659,"i_long":106.857948,"is_transit":false,"station_name":"Tebet","station_id":"TEB","distance":2610,"transit":false},{"station_id":"CW","time":2,"station_name":"Cawang","is_transit":false,"distance":1230,"transit":false,"i_lat":-6.242512,"i_long":106.856607,"line":2},{"transit":false,"line":2,"distance":1546,"i_long":106.85449,"time":3,"is_transit":false,"station_name":"Duren Kalibata","station_id":"DRN","i_lat":-6.255332},{"is_transit":false,"line":2,"station_id":"PSMB","i_lat":-6.263214,"station_name":"Pasar Minggu Baru","i_long":106.851577,"time":2,"transit":false,"distance":824},{"station_name":"Pasar Minggu","i_long":106.843999,"station_id":"PSM","transit":false,"is_transit":false,"line":2,"i_lat":-6.2842400000000005,"time":2,"distance":2380},{"station_name":"Tanjung Barat","station_id":"TNT","distance":2820,"transit":false,"line":2,"i_lat":-6.3080680000000005,"is_transit":false,"time":4,"i_long":106.838896},{"i_lat":-6.330363,"distance":2671,"station_id":"LNA","transit":false,"line":2,"is_transit":false,"time":3,"i_long":106.832616,"station_name":"Lenteng Agung"},{"i_long":106.834175,"is_transit":false,"distance":1029,"transit":false,"station_name":"Univ. Pancasila","time":2,"line":2,"station_id":"UP","i_lat":-6.339291},{"line":2,"time":3,"transit":false,"i_lat":-6.360749,"station_name":"Univ. Indonesia","i_long":106.831474,"is_transit":false,"distance":2264,"station_id":"UI"},{"i_lat":-6.369073,"is_transit":false,"station_name":"Pondok Cina","distance":1109,"transit":false,"station_id":"POC","line":2,"time":2,"i_long":106.831114}]]}