{"data":[[{"i_long":106.997013,"i_lat":-6.236616,"line":1,"station_id":"BKS","time":0,"transit":false,"distance":0,"is_transit":false,"station_name":"Bekasi"},{"transit":false,"i_long":106.977657,"time":4,"i_lat":-6.224515,"station_id":"KRI","line":1,"station_name":"Kranji","is_transit":false,"distance":2520},{"station_id":"CUK","transit":false,"is_transit":false,"i_long":106.951283,"station_name":"Cakung","distance":3097,"i_lat":-6.219053,"line":1,"time":3},{"station_id":"KLDB","distance":1385,"line":1,"i_long":106.939679,"is_transit":false,"station_name":"Klenderbaru","time":8,"transit":false,"i_lat":-6.217455},{"i_long":106.922662,"i_lat":-6.215568,"transit":false,"station_name":"Buaran","station_id":"BUA","is_transit":false,"time":1,"distance":1305,"line":1},{"distance":3100,"station_id":"KLD","transit":false,"i_long":106.899548,"is_transit":false,"station_name":"Klender","line":1,"time":2,"i_lat":-6.2135},{"station_name":"Jatinegara","distance":3395,"i_lat":-6.215091,"station_id":"JNG","is_transit":false,"time":3,"i_long":106.86807400000001,"transit":false,"line":1},{"station_id":"MTR","line":1,"is_transit":false,"time":2,"station_name":"Matraman","distance":1377,"transit":false,"i_lat":-6.212485,"i_long":106.858896},{"station_name":"Manggarai","i_lat":-6.209883,"i_long":106.84912,"transit":false,"line":2,"distance":1275,"time":2,"is_transit":false,"station_id":"MRI"},{"station_id":"SUD","is_transit":false,"line":1,"i_long":106.822649,"time":4,"i_lat":-6.202263,"distance":3186,"transit":false,"station_name":"Sudirman"},{"is_transit":false,"station_id":"SUDB","distance":280,"station_name":"Sudirman Baru","time":1,"transit":false,"i_lat":-6.201433,"i_long":106.819881,"line":1},{"line":1,"is_transit":false,"time":1,"i_long":106.816351,"station_name":"Karet","transit":false,"station_id":"KAT","i_lat":-6.20132,"distance":471},{"line":1,"transit":true,"is_transit":true,"station_name":"Tanah Abang","time":5,"distance":2029,"station_id":"THB","i_lat":-6.185545,"i_long":106.811091},{"i_long":106.79689,"time":6,"line":6,"station_name":"Palmerah","station_id":"PLM","i_lat":-6.207404,"distance":3191,"is_transit":false,"transit":false}],[{"i_lat":-6.236616,"station_name":"Bekasi","is_transit":false,"transit":false,"line":1,"station_id":"BKS","distance":0,"time":0,"i_long":106.997013},{"station_id":"KRI","i_lat":-6.224515,"is_transit":false,"line":1,"distance":2520,"transit":false,"station_name":"Kranji","time":4,"i_long":106.977657},{"is_transit":false,"station_id":"CUK","i_lat":-6.219053,"station_name":"Cakung","line":1,"transit":false,"distance":3097,"time":3,"i_long":106.951283},{"station_name":"Klenderbaru","station_id":"KLDB","time":8,"transit":false,"line":1,"distance":1385,"i_long":106.939679,"is_transit":false,"i_lat":-6.217455},{"i_lat":-6.215568,"station_name":"Buaran","is_transit":false,"time":1,"station_id":"BUA","i_long":106.922662,"transit":false,"line":1,"distance":1305},{"distance":3100,"line":1,"i_lat":-6.2135,"transit":false,"i_long":106.899548,"station_id":"KLD","time":2,"station_name":"Klender","is_transit":false},{"distance":3395,"i_lat":-6.215091,"time":3,"i_long":106.86807400000001,"station_name":"Jatinegara","station_id":"JNG","is_transit":true,"line":1,"transit":true},{"line":11,"station_name":"Pondok Jati","is_transit":false,"station_id":"POK","distance":1236,"transit":false,"time":2,"i_lat":-6.209188,"i_long":106.861737},{"station_id":"KMT","time":2,"station_name":"Kramat","transit":false,"i_lat":-6.193792,"i_long":106.855437,"line":11,"is_transit":false,"distance":1829},{"time":1,"transit":false,"line":11,"station_id":"GST","station_name":"Gang Sentiong","i_lat":-6.185975,"distance":973,"i_long":106.850107,"is_transit":false},{"distance":1567,"station_id":"PSE","i_long":106.84368,"transit":false,"is_transit":false,"station_name":"Pasar Senen","i_lat":-6.174784,"line":11,"time":8},{"station_id":"KMO","time":4,"station_name":"Kemayoran","is_transit":false,"i_lat":-6.161728,"line":11,"transit":false,"i_long":106.839204,"distance":1436},{"i_long":106.836569,"line":11,"station_name":"Rajawali","transit":false,"is_transit":false,"distance":1901,"time":5,"station_id":"RJW","i_lat":-6.14505},{"line":4,"station_name":"Kampung Bandan","transit":true,"i_lat":-6.132549,"station_id":"KPB","i_long":106.826365,"time":3,"is_transit":true,"distance":1444},{"transit":false,"distance":4102,"i_long":106.79867,"line":1,"time":9,"i_lat":-6.144674,"station_name":"Angke","station_id":"AK","is_transit":false},{"station_id":"DU","transit":false,"time":4,"i_long":106.800832,"is_transit":false,"distance":1230,"i_lat":-6.155215,"line":1,"station_name":"Duri"},{"time":8,"i_long":106.811091,"transit":true,"station_id":"THB","line":1,"station_name":"Tanah Abang","is_transit":true,"distance":3632,"i_lat":-6.185545},{"transit":false,"time":6,"is_transit":false,"line":6,"i_lat":-6.207404,"i_long":106.79689,"station_name":"Palmerah","station_id":"PLM","distance":3191}],[{"distance":0,"time":0,"line":1,"station_id":"BKS","i_long":106.997013,"i_lat":-6.236616,"transit":false,"station_name":"Bekasi","is_transit":false},{"station_id":"KRI","station_name":"Kranji","line":1,"time":4,"distance":2520,"is_transit":false,"transit":false,"i_long":106.977657,"i_lat":-6.224515},{"station_id":"CUK","i_long":106.951283,"line":1,"time":3,"distance":3097,"is_transit":false,"transit":false,"i_lat":-6.219053,"station_name":"Cakung"},{"station_id":"KLDB","station_name":"Klenderbaru","line":1,"time":8,"distance":1385,"transit":false,"is_transit":false,"i_lat":-6.217455,"i_long":106.939679},{"line":1,"i_lat":-6.215568,"transit":false,"is_transit":false,"time":1,"distance":1305,"station_name":"Buaran","station_id":"BUA","i_long":106.922662},{"distance":3100,"is_transit":false,"transit":false,"i_lat":-6.2135,"line":1,"i_long":106.899548,"station_name":"Klender","station_id":"KLD","time":2},{"transit":false,"i_long":106.86807400000001,"i_lat":-6.215091,"is_transit":false,"line":1,"station_id":"JNG","time":3,"station_name":"Jatinegara","distance":3395},{"time":2,"transit":false,"line":1,"station_id":"MTR","i_long":106.858896,"is_transit":false,"station_name":"Matraman","distance":1377,"i_lat":-6.212485},{"is_transit":true,"time":2,"distance":1275,"transit":true,"line":2,"station_id":"MRI","station_name":"Manggarai","i_lat":-6.209883,"i_long":106.84912},{"is_transit":false,"station_name":"Cikini","transit":false,"i_long":106.840169,"line":2,"station_id":"CKI","distance":1590,"time":4,"i_lat":-6.198556},{"station_name":"Gondangdia","is_transit":false,"station_id":"GDD","transit":false,"i_lat":-6.186295,"i_long":106.832183,"time":3,"line":2,"distance":1750},{"station_id":"JUA","is_transit":false,"time":4,"station_name":"Juanda","i_lat":-6.166716,"i_long":106.828284,"line":2,"distance":2015,"transit":false},{"is_transit":false,"distance":1149,"i_long":106.827103,"line":2,"i_lat":-6.160725,"time":2,"station_name":"Sawah Besar","station_id":"SW","transit":false},{"i_lat":-6.149769,"i_long":106.82482,"station_id":"MGB","station_name":"Manggabesar","line":2,"time":2,"transit":false,"is_transit":false,"distance":906},{"time":2,"i_lat":-6.141205,"station_id":"JAY","i_long":106.820901,"distance":1080,"line":2,"transit":false,"station_name":"Jayakarta","is_transit":false},{"i_long":106.812439,"is_transit":true,"line":2,"i_lat":-6.137569,"transit":true,"time":4,"station_name":"Jakarta Kota","station_id":"JAKK","distance":1264},{"station_name":"Kampung Bandan","distance":1364,"time":3,"transit":true,"i_lat":-6.132549,"line":4,"station_id":"KPB","is_transit":true,"i_long":106.826365},{"station_name":"Angke","station_id":"AK","is_transit":false,"i_lat":-6.144674,"distance":4102,"transit":false,"time":9,"line":1,"i_long":106.79867},{"line":1,"transit":false,"i_lat":-6.155215,"i_long":106.800832,"is_transit":false,"time":4,"station_name":"Duri","distance":1230,"station_id":"DU"},{"transit":true,"station_name":"Tanah Abang","is_transit":true,"i_lat":-6.185545,"line":1,"distance":3632,"station_id":"THB","time":8,"i_long":106.811091},{"distance":3191,"station_name":"Palmerah","transit":false,"station_id":"PLM","i_lat":-6.207404,"is_transit":false,"i_long":106.79689,"line":6,"time":6}],[{"transit":false,"i_long":106.997013,"time":0,"i_lat":-6.236616,"station_name":"Bekasi","line":1,"station_id":"BKS","is_transit":false,"distance":0},{"line":1,"distance":2520,"time":4,"transit":false,"station_id":"KRI","is_transit":false,"station_name":"Kranji","i_lat":-6.224515,"i_long":106.977657},{"i_lat":-6.219053,"station_name":"Cakung","i_long":106.951283,"station_id":"CUK","distance":3097,"transit":false,"time":3,"is_transit":false,"line":1},{"is_transit":false,"station_name":"Klenderbaru","time":8,"i_long":106.939679,"station_id":"KLDB","transit":false,"distance":1385,"i_lat":-6.217455,"line":1},{"distance":1305,"line":1,"time":1,"i_long":106.922662,"is_transit":false,"i_lat":-6.215568,"transit":false,"station_id":"BUA","station_name":"Buaran"},{"is_transit":false,"i_lat":-6.2135,"i_long":106.899548,"station_id":"KLD","station_name":"Klender","distance":3100,"transit":false,"line":1,"time":2},{"is_transit":true,"distance":3395,"line":1,"station_id":"JNG","station_name":"Jatinegara","time":3,"transit":true,"i_lat":-6.215091,"i_long":106.86807400000001},{"line":11,"transit":false,"i_lat":-6.209188,"i_long":106.861737,"station_name":"Pondok Jati","distance":1236,"is_transit":false,"station_id":"POK","time":2},{"i_lat":-6.193792,"is_transit":false,"transit":false,"distance":1829,"station_name":"Kramat","station_id":"KMT","time":2,"line":11,"i_long":106.855437},{"station_name":"Gang Sentiong","time":1,"i_long":106.850107,"station_id":"GST","transit":false,"is_transit":false,"distance":973,"line":11,"i_lat":-6.185975},{"is_transit":false,"line":11,"i_lat":-6.174784,"station_id":"PSE","time":8,"transit":false,"distance":1567,"i_long":106.84368,"station_name":"Pasar Senen"},{"station_name":"Kemayoran","distance":1436,"i_long":106.839204,"station_id":"KMO","time":4,"is_transit":false,"transit":false,"i_lat":-6.161728,"line":11},{"distance":1901,"time":5,"station_name":"Rajawali","is_transit":false,"i_lat":-6.14505,"i_long":106.836569,"transit":false,"line":11,"station_id":"RJW"},{"line":4,"is_transit":true,"station_id":"KPB","distance":1444,"transit":true,"i_lat":-6.132549,"station_name":"Kampung Bandan","time":3,"i_long":106.826365},{"line":2,"i_lat":-6.137569,"is_transit":true,"time":3,"distance":1364,"i_long":106.812439,"transit":true,"station_name":"Jakarta Kota","station_id":"JAKK"},{"transit":false,"distance":1264,"time":4,"i_lat":-6.141205,"station_id":"JAY","station_name":"Jayakarta","is_transit":false,"line":2,"i_long":106.820901},{"is_transit":false,"distance":1080,"i_long":106.82482,"transit":false,"line":2,"time":2,"station_name":"Manggabesar","station_id":"MGB","i_lat":-6.149769},{"i_long":106.827103,"distance":906,"line":2,"is_transit":false,"station_name":"Sawah Besar","transit":false,"i_lat":-6.160725,"time":2,"station_id":"SW"},{"transit":false,"line":2,"time":2,"station_name":"Juanda","is_transit":false,"station_id":"JUA","i_long":106.828284,"i_lat":-6.166716,"distance":1149},{"is_transit":false,"i_long":106.832183,"station_id":"GDD","time":4,"transit":false,"i_lat":-6.186295,"line":2,"distance":2015,"station_name":"Gondangdia"},{"is_transit":false,"time":3,"i_lat":-6.198556,"transit":false,"station_id":"CKI","distance":1750,"station_name":"Cikini","i_long":106.840169,"line":2},{"i_long":106.84912,"distance":1590,"line":2,"transit":true,"station_id":"MRI","station_name":"Manggarai","is_transit":true,"time":4,"i_lat":-6.209883},{"station_id":"SUD","line":1,"is_transit":false,"station_name":"Sudirman","i_long":106.822649,"transit":false,"i_lat":-6.202263,"time":4,"distance":3186},{"time":1,"distance":280,"transit":false,"station_id":"SUDB","i_lat":-6.201433,"i_long":106.819881,"line":1,"is_transit":false,"station_name":"Sudirman Baru"},{"station_id":"KAT","station_name":"Karet","time":1,"distance":471,"transit":false,"i_lat":-6.20132,"i_long":106.816351,"is_transit":false,"line":1},{"time":5,"distance":2029,"transit":true,"line":1,"i_long":106.811091,"station_id":"THB","station_name":"Tanah Abang","is_transit":true,"i_lat":-6.185545},{"time":6,"station_name":"Palmerah","distance":3191,"is_transit":false,"i_lat":-6.207404,"station_id":"PLM","transit":false,"i_long":106.79689,"line":6}]]}