{"data":[[{"is_transit":false,"i_long":106.997013,"line":1,"transit":false,"station_id":"BKS","station_name":"Bekasi","i_lat":-6.236616,"distance":0,"time":0},{"i_lat":-6.224515,"station_id":"KRI","station_name":"Kranji","line":1,"i_long":106.977657,"distance":2520,"time":4,"is_transit":false,"transit":false},{"distance":3097,"i_long":106.951283,"station_name":"Cakung","i_lat":-6.219053,"transit":false,"is_transit":false,"time":3,"station_id":"CUK","line":1},{"station_name":"Klenderbaru","distance":1385,"transit":false,"line":1,"time":8,"i_lat":-6.217455,"station_id":"KLDB","i_long":106.939679,"is_transit":false},{"time":1,"station_name":"Buaran","i_long":106.922662,"station_id":"BUA","i_lat":-6.215568,"line":1,"transit":false,"distance":1305,"is_transit":false},{"line":1,"station_id":"KLD","distance":3100,"station_name":"Klender","time":2,"transit":false,"i_long":106.899548,"i_lat":-6.2135,"is_transit":false},{"station_id":"JNG","transit":false,"station_name":"Jatinegara","is_transit":false,"i_lat":-6.215091,"i_long":106.86807400000001,"line":1,"distance":3395,"time":3},{"transit":false,"i_long":106.858896,"distance":1377,"line":1,"station_id":"MTR","time":2,"is_transit":false,"i_lat":-6.212485,"station_name":"Matraman"},{"line":2,"transit":false,"time":2,"station_id":"MRI","i_long":106.84912,"i_lat":-6.209883,"distance":1275,"station_name":"Manggarai","is_transit":false},{"i_lat":-6.202263,"i_long":106.822649,"line":1,"is_transit":false,"station_id":"SUD","distance":3186,"time":4,"transit":false,"station_name":"Sudirman"},{"transit":false,"station_name":"Sudirman Baru","distance":280,"station_id":"SUDB","i_lat":-6.201433,"is_transit":false,"i_long":106.819881,"line":1,"time":1},{"station_name":"Karet","is_transit":false,"station_id":"KAT","transit":false,"i_lat":-6.20132,"line":1,"i_long":106.816351,"time":1,"distance":471},{"is_transit":false,"i_long":106.811091,"time":5,"station_id":"THB","distance":2029,"transit":false,"station_name":"Tanah Abang","line":1,"i_lat":-6.185545},{"time":8,"distance":3632,"station_name":"Duri","i_long":106.800832,"transit":true,"is_transit":true,"station_id":"DU","i_lat":-6.155215,"line":1},{"is_transit":false,"line":5,"station_name":"Grogol","transit":false,"station_id":"GRG","time":3,"i_lat":-6.162021,"distance":1700,"i_long":106.788277}],[{"line":1,"i_lat":-6.236616,"i_long":106.997013,"station_id":"BKS","time":0,"distance":0,"is_transit":false,"transit":false,"station_name":"Bekasi"},{"distance":2520,"station_name":"Kranji","transit":false,"i_long":106.977657,"line":1,"station_id":"KRI","i_lat":-6.224515,"time":4,"is_transit":false},{"station_id":"CUK","station_name":"Cakung","is_transit":false,"i_long":106.951283,"time":3,"transit":false,"line":1,"i_lat":-6.219053,"distance":3097},{"is_transit":false,"i_lat":-6.217455,"i_long":106.939679,"line":1,"station_name":"Klenderbaru","time":8,"distance":1385,"transit":false,"station_id":"KLDB"},{"i_lat":-6.215568,"line":1,"distance":1305,"station_id":"BUA","is_transit":false,"i_long":106.922662,"time":1,"station_name":"Buaran","transit":false},{"i_lat":-6.2135,"station_id":"KLD","line":1,"is_transit":false,"i_long":106.899548,"time":2,"distance":3100,"station_name":"Klender","transit":false},{"transit":true,"line":1,"i_lat":-6.215091,"is_transit":true,"i_long":106.86807400000001,"time":3,"station_id":"JNG","station_name":"Jatinegara","distance":3395},{"distance":1236,"station_name":"Pondok Jati","i_lat":-6.209188,"transit":false,"i_long":106.861737,"time":2,"line":11,"station_id":"POK","is_transit":false},{"time":2,"transit":false,"i_long":106.855437,"distance":1829,"i_lat":-6.193792,"line":11,"station_id":"KMT","is_transit":false,"station_name":"Kramat"},{"i_lat":-6.185975,"is_transit":false,"distance":973,"station_id":"GST","time":1,"transit":false,"station_name":"Gang Sentiong","i_long":106.850107,"line":11},{"time":8,"is_transit":false,"station_id":"PSE","transit":false,"distance":1567,"i_lat":-6.174784,"i_long":106.84368,"station_name":"Pasar Senen","line":11},{"line":11,"transit":false,"station_name":"Kemayoran","distance":1436,"i_lat":-6.161728,"station_id":"KMO","i_long":106.839204,"time":4,"is_transit":false},{"is_transit":false,"transit":false,"i_lat":-6.14505,"station_name":"Rajawali","i_long":106.836569,"line":11,"distance":1901,"station_id":"RJW","time":5},{"line":4,"transit":true,"is_transit":true,"time":3,"station_id":"KPB","station_name":"Kampung Bandan","i_long":106.826365,"distance":1444,"i_lat":-6.132549},{"distance":4102,"is_transit":false,"i_long":106.79867,"transit":false,"i_lat":-6.144674,"station_name":"Angke","time":9,"station_id":"AK","line":1},{"i_long":106.800832,"i_lat":-6.155215,"distance":1230,"station_id":"DU","station_name":"Duri","is_transit":true,"transit":true,"line":1,"time":4},{"is_transit":false,"station_id":"GRG","line":5,"distance":1700,"transit":false,"time":3,"station_name":"Grogol","i_long":106.788277,"i_lat":-6.162021}],[{"station_id":"BKS","time":0,"i_lat":-6.236616,"station_name":"Bekasi","i_long":106.997013,"is_transit":false,"line":1,"transit":false,"distance":0},{"i_long":106.977657,"time":4,"line":1,"distance":2520,"station_name":"Kranji","station_id":"KRI","transit":false,"is_transit":false,"i_lat":-6.224515},{"transit":false,"time":3,"i_long":106.951283,"distance":3097,"station_id":"CUK","station_name":"Cakung","i_lat":-6.219053,"line":1,"is_transit":false},{"station_name":"Klenderbaru","i_lat":-6.217455,"i_long":106.939679,"is_transit":false,"station_id":"KLDB","transit":false,"time":8,"distance":1385,"line":1},{"is_transit":false,"station_id":"BUA","station_name":"Buaran","time":1,"distance":1305,"i_long":106.922662,"transit":false,"line":1,"i_lat":-6.215568},{"station_name":"Klender","i_lat":-6.2135,"is_transit":false,"distance":3100,"i_long":106.899548,"station_id":"KLD","line":1,"time":2,"transit":false},{"station_id":"JNG","is_transit":false,"i_lat":-6.215091,"distance":3395,"transit":false,"time":3,"station_name":"Jatinegara","i_long":106.86807400000001,"line":1},{"transit":false,"station_name":"Matraman","i_long":106.858896,"distance":1377,"i_lat":-6.212485,"is_transit":false,"line":1,"station_id":"MTR","time":2},{"transit":true,"distance":1275,"station_id":"MRI","i_lat":-6.209883,"station_name":"Manggarai","line":2,"is_transit":true,"time":2,"i_long":106.84912},{"transit":false,"station_id":"CKI","station_name":"Cikini","time":4,"distance":1590,"is_transit":false,"i_long":106.840169,"line":2,"i_lat":-6.198556},{"transit":false,"i_lat":-6.186295,"is_transit":false,"i_long":106.832183,"distance":1750,"station_id":"GDD","time":3,"station_name":"Gondangdia","line":2},{"station_id":"JUA","transit":false,"is_transit":false,"time":4,"station_name":"Juanda","i_lat":-6.166716,"distance":2015,"i_long":106.828284,"line":2},{"i_long":106.827103,"transit":false,"distance":1149,"station_id":"SW","is_transit":false,"line":2,"time":2,"i_lat":-6.160725,"station_name":"Sawah Besar"},{"i_lat":-6.149769,"time":2,"station_name":"Manggabesar","distance":906,"is_transit":false,"i_long":106.82482,"station_id":"MGB","transit":false,"line":2},{"station_name":"Jayakarta","time":2,"station_id":"JAY","transit":false,"line":2,"distance":1080,"is_transit":false,"i_lat":-6.141205,"i_long":106.820901},{"i_lat":-6.137569,"distance":1264,"line":2,"i_long":106.812439,"time":4,"transit":true,"station_id":"JAKK","is_transit":true,"station_name":"Jakarta Kota"},{"distance":1364,"time":3,"is_transit":true,"station_name":"Kampung Bandan","station_id":"KPB","i_lat":-6.132549,"transit":true,"i_long":106.826365,"line":4},{"i_long":106.79867,"line":1,"transit":false,"station_id":"AK","distance":4102,"i_lat":-6.144674,"time":9,"station_name":"Angke","is_transit":false},{"is_transit":true,"line":1,"distance":1230,"time":4,"i_long":106.800832,"transit":true,"i_lat":-6.155215,"station_id":"DU","station_name":"Duri"},{"time":3,"i_long":106.788277,"is_transit":false,"station_id":"GRG","station_name":"Grogol","i_lat":-6.162021,"transit":false,"line":5,"distance":1700}],[{"i_long":106.997013,"is_transit":false,"line":1,"distance":0,"transit":false,"time":0,"station_name":"Bekasi","station_id":"BKS","i_lat":-6.236616},{"time":4,"line":1,"distance":2520,"i_long":106.977657,"station_id":"KRI","transit":false,"station_name":"Kranji","is_transit":false,"i_lat":-6.224515},{"i_long":106.951283,"time":3,"i_lat":-6.219053,"line":1,"distance":3097,"is_transit":false,"station_name":"Cakung","transit":false,"station_id":"CUK"},{"is_transit":false,"i_long":106.939679,"line":1,"station_name":"Klenderbaru","i_lat":-6.217455,"time":8,"distance":1385,"transit":false,"station_id":"KLDB"},{"i_lat":-6.215568,"i_long":106.922662,"station_id":"BUA","station_name":"Buaran","line":1,"time":1,"is_transit":false,"transit":false,"distance":1305},{"time":2,"station_id":"KLD","line":1,"distance":3100,"i_long":106.899548,"station_name":"Klender","transit":false,"is_transit":false,"i_lat":-6.2135},{"station_name":"Jatinegara","station_id":"JNG","transit":true,"i_long":106.86807400000001,"line":1,"time":3,"is_transit":true,"distance":3395,"i_lat":-6.215091},{"i_lat":-6.209188,"time":2,"station_name":"Pondok Jati","distance":1236,"i_long":106.861737,"is_transit":false,"line":11,"station_id":"POK","transit":false},{"station_id":"KMT","i_long":106.855437,"line":11,"time":2,"transit":false,"distance":1829,"i_lat":-6.193792,"station_name":"Kramat","is_transit":false},{"i_long":106.850107,"time":1,"is_transit":false,"line":11,"station_name":"Gang Sentiong","station_id":"GST","distance":973,"i_lat":-6.185975,"transit":false},{"i_long":106.84368,"line":11,"station_id":"PSE","time":8,"i_lat":-6.174784,"is_transit":false,"station_name":"Pasar Senen","distance":1567,"transit":false},{"distance":1436,"i_long":106.839204,"line":11,"station_id":"KMO","transit":false,"station_name":"Kemayoran","time":4,"is_transit":false,"i_lat":-6.161728},{"i_long":106.836569,"transit":false,"station_name":"Rajawali","is_transit":false,"station_id":"RJW","i_lat":-6.14505,"line":11,"time":5,"distance":1901},{"i_lat":-6.132549,"time":3,"transit":true,"station_id":"KPB","i_long":106.826365,"line":4,"station_name":"Kampung Bandan","distance":1444,"is_transit":true},{"time":3,"transit":true,"i_long":106.812439,"station_name":"Jakarta Kota","distance":1364,"station_id":"JAKK","i_lat":-6.137569,"line":2,"is_transit":true},{"i_long":106.820901,"station_id":"JAY","transit":false,"i_lat":-6.141205,"time":4,"is_transit":false,"distance":1264,"station_name":"Jayakarta","line":2},{"i_lat":-6.149769,"line":2,"is_transit":false,"station_id":"MGB","transit":false,"distance":1080,"station_name":"Manggabesar","i_long":106.82482,"time":2},{"i_lat":-6.160725,"line":2,"station_id":"SW","i_long":106.827103,"station_name":"Sawah Besar","time":2,"is_transit":false,"distance":906,"transit":false},{"line":2,"station_id":"JUA","distance":1149,"transit":false,"i_long":106.828284,"i_lat":-6.166716,"is_transit":false,"station_name":"Juanda","time":2},{"distance":2015,"station_id":"GDD","time":4,"station_name":"Gondangdia","line":2,"is_transit":false,"i_lat":-6.186295,"transit":false,"i_long":106.832183},{"is_transit":false,"i_lat":-6.198556,"transit":false,"line":2,"i_long":106.840169,"distance":1750,"station_id":"CKI","station_name":"Cikini","time":3},{"i_lat":-6.209883,"time":4,"station_name":"Manggarai","station_id":"MRI","distance":1590,"transit":true,"is_transit":true,"line":2,"i_long":106.84912},{"time":4,"line":1,"station_id":"SUD","transit":false,"distance":3186,"station_name":"Sudirman","is_transit":false,"i_lat":-6.202263,"i_long":106.822649},{"distance":280,"is_transit":false,"i_lat":-6.201433,"line":1,"station_id":"SUDB","transit":false,"time":1,"station_name":"Sudirman Baru","i_long":106.819881},{"station_name":"Karet","station_id":"KAT","is_transit":false,"i_lat":-6.20132,"i_long":106.816351,"line":1,"time":1,"distance":471,"transit":false},{"line":1,"time":5,"distance":2029,"station_name":"Tanah Abang","station_id":"THB","is_transit":false,"i_lat":-6.185545,"i_long":106.811091,"transit":false},{"distance":3632,"is_transit":true,"i_long":106.800832,"station_id":"DU","transit":true,"line":1,"i_lat":-6.155215,"station_name":"Duri","time":8},{"time":3,"is_transit":false,"i_long":106.788277,"distance":1700,"line":5,"station_name":"Grogol","transit":false,"station_id":"GRG","i_lat":-6.162021}]]}