{"data":[[{"station_id":"BKS","transit":false,"i_lat":-6.236616,"is_transit":false,"line":0,"time":0,"station_name":"Bekasi","i_long":106.997013,"distance":0},{"i_long":106.977657,"distance":2520,"station_name":"Kranji","line":1,"station_id":"KRI","transit":false,"time":4,"is_transit":false,"i_lat":-6.224515},{"time":3,"transit":false,"line":0,"is_transit":false,"i_lat":-6.219053,"station_name":"Cakung","i_long":106.951283,"distance":3097,"station_id":"CUK"},{"i_long":106.939679,"transit":false,"station_name":"Klenderbaru","distance":1385,"line":1,"is_transit":false,"i_lat":-6.217455,"time":8,"station_id":"KLDB"},{"line":0,"transit":false,"i_lat":-6.215568,"station_id":"BUA","is_transit":false,"station_name":"Buaran","distance":1305,"time":1,"i_long":106.922662},{"i_lat":-6.2135,"is_transit":false,"station_name":"Klender","station_id":"KLD","distance":3100,"transit":false,"i_long":106.899548,"line":1,"time":2},{"station_id":"JNG","transit":false,"station_name":"Jatinegara","time":3,"distance":3395,"i_lat":-6.215091,"line":0,"is_transit":true,"i_long":106.86807400000001},{"station_id":"MTR","station_name":"Matraman","distance":1377,"i_lat":-6.212485,"i_long":106.858896,"time":2,"is_transit":false,"line":1,"transit":false},{"is_transit":true,"i_lat":-6.209883,"station_id":"MRI","line":0,"i_long":106.84912,"distance":1275,"transit":true,"station_name":"Manggarai","time":2},{"time":4,"distance":2610,"line":2,"transit":false,"station_id":"TEB","is_transit":false,"station_name":"Tebet","i_lat":-6.226659,"i_long":106.857948},{"transit":false,"line":0,"is_transit":false,"station_id":"CW","time":2,"i_long":106.856607,"distance":1230,"station_name":"Cawang","i_lat":-6.242512},{"distance":1546,"i_long":106.85449,"station_id":"DRN","transit":false,"time":3,"line":0,"station_name":"Duren Kalibata","is_transit":false,"i_lat":-6.255332},{"station_id":"PSMB","i_lat":-6.263214,"station_name":"Pasar Minggu Baru","time":2,"i_long":106.851577,"transit":false,"distance":824,"line":2,"is_transit":false},{"line":2,"is_transit":false,"time":2,"distance":2380,"station_name":"Pasar Minggu","station_id":"PSM","i_long":106.843999,"transit":false,"i_lat":-6.2842400000000005},{"line":2,"time":4,"station_id":"TNT","transit":false,"i_lat":-6.3080680000000005,"is_transit":false,"station_name":"Tanjung Barat","distance":2820,"i_long":106.838896},{"station_name":"Lenteng Agung","line":2,"station_id":"LNA","distance":2671,"time":3,"transit":false,"i_lat":-6.330363,"is_transit":false,"i_long":106.832616},{"transit":false,"i_long":106.834175,"time":2,"is_transit":false,"station_name":"Univ. Pancasila","distance":1029,"station_id":"UP","i_lat":-6.339291,"line":2},{"time":3,"distance":2264,"i_lat":-6.360749,"is_transit":false,"station_name":"Univ. Indonesia","station_id":"UI","transit":false,"i_long":106.831474,"line":2},{"i_lat":-6.369073,"station_id":"POC","is_transit":false,"transit":false,"station_name":"Pondok Cina","line":2,"time":2,"i_long":106.831114,"distance":1109},{"station_name":"Depokbaru","is_transit":false,"time":4,"distance":2727,"station_id":"DPB","i_lat":-6.391065,"transit":false,"i_long":106.819451,"line":0}],[{"station_id":"BKS","line":0,"station_name":"Bekasi","distance":0,"i_long":106.997013,"transit":false,"is_transit":false,"time":0,"i_lat":-6.236616},{"i_lat":-6.224515,"line":1,"station_name":"Kranji","transit":false,"time":4,"distance":2520,"is_transit":false,"i_long":106.977657,"station_id":"KRI"},{"station_name":"Cakung","i_long":106.951283,"distance":3097,"is_transit":false,"line":0,"time":3,"i_lat":-6.219053,"station_id":"CUK","transit":false},{"line":1,"is_transit":false,"station_name":"Klenderbaru","time":8,"distance":1385,"i_lat":-6.217455,"i_long":106.939679,"station_id":"KLDB","transit":false},{"station_name":"Buaran","distance":1305,"transit":false,"station_id":"BUA","time":1,"i_lat":-6.215568,"i_long":106.922662,"is_transit":false,"line":0},{"station_name":"Klender","time":2,"i_lat":-6.2135,"line":1,"i_long":106.899548,"distance":3100,"station_id":"KLD","is_transit":false,"transit":false},{"station_id":"JNG","transit":true,"i_long":106.86807400000001,"is_transit":true,"line":0,"station_name":"Jatinegara","i_lat":-6.215091,"time":3,"distance":3395},{"transit":false,"station_name":"Pondok Jati","i_long":106.861737,"is_transit":false,"line":11,"distance":1236,"i_lat":-6.209188,"station_id":"POK","time":2},{"is_transit":false,"time":2,"distance":1829,"station_name":"Kramat","i_lat":-6.193792,"station_id":"KMT","i_long":106.855437,"transit":false,"line":11},{"i_long":106.850107,"is_transit":false,"time":1,"station_id":"GST","i_lat":-6.185975,"line":11,"transit":false,"station_name":"Gang Sentiong","distance":973},{"i_long":106.84368,"is_transit":false,"station_name":"Pasar Senen","time":8,"line":11,"distance":1567,"transit":false,"station_id":"PSE","i_lat":-6.174784},{"i_long":106.839204,"station_name":"Kemayoran","time":4,"distance":1436,"is_transit":false,"transit":false,"line":11,"i_lat":-6.161728,"station_id":"KMO"},{"is_transit":false,"line":11,"station_id":"RJW","time":5,"i_long":106.836569,"distance":1901,"i_lat":-6.14505,"station_name":"Rajawali","transit":false},{"i_long":106.826365,"is_transit":true,"transit":true,"station_id":"KPB","station_name":"Kampung Bandan","distance":1444,"i_lat":-6.132549,"time":3,"line":0},{"is_transit":false,"station_name":"Angke","line":0,"station_id":"AK","i_long":106.79867,"time":9,"distance":4102,"transit":false,"i_lat":-6.144674},{"i_lat":-6.155215,"line":1,"time":4,"i_long":106.800832,"is_transit":true,"distance":1230,"station_id":"DU","transit":true,"station_name":"Duri"},{"station_name":"Tanah Abang","time":8,"station_id":"THB","transit":false,"distance":3632,"i_lat":-6.185545,"line":1,"i_long":106.811091,"is_transit":true},{"i_lat":-6.20132,"station_name":"Karet","transit":false,"time":5,"distance":2029,"i_long":106.816351,"line":1,"is_transit":false,"station_id":"KAT"},{"station_name":"Sudirman Baru","time":1,"is_transit":false,"station_id":"SUDB","i_lat":-6.201433,"distance":471,"line":1,"transit":false,"i_long":106.819881},{"station_id":"SUD","i_lat":-6.202263,"transit":false,"distance":280,"is_transit":false,"station_name":"Sudirman","i_long":106.822649,"time":1,"line":1},{"station_name":"Manggarai","transit":true,"is_transit":true,"station_id":"MRI","line":0,"distance":3186,"time":4,"i_lat":-6.209883,"i_long":106.84912},{"time":4,"is_transit":false,"distance":2610,"station_id":"TEB","transit":false,"station_name":"Tebet","i_long":106.857948,"i_lat":-6.226659,"line":2},{"time":2,"transit":false,"i_long":106.856607,"line":0,"i_lat":-6.242512,"station_name":"Cawang","distance":1230,"station_id":"CW","is_transit":false},{"distance":1546,"transit":false,"is_transit":false,"station_name":"Duren Kalibata","station_id":"DRN","i_lat":-6.255332,"i_long":106.85449,"line":0,"time":3},{"i_lat":-6.263214,"station_id":"PSMB","i_long":106.851577,"station_name":"Pasar Minggu Baru","distance":824,"line":2,"transit":false,"is_transit":false,"time":2},{"line":2,"distance":2380,"station_id":"PSM","is_transit":false,"i_lat":-6.2842400000000005,"i_long":106.843999,"time":2,"transit":false,"station_name":"Pasar Minggu"},{"station_name":"Tanjung Barat","time":4,"line":2,"station_id":"TNT","i_long":106.838896,"i_lat":-6.3080680000000005,"distance":2820,"transit":false,"is_transit":false},{"station_id":"LNA","time":3,"transit":false,"i_long":106.832616,"is_transit":false,"station_name":"Lenteng Agung","distance":2671,"i_lat":-6.330363,"line":2},{"is_transit":false,"station_name":"Univ. Pancasila","station_id":"UP","transit":false,"i_lat":-6.339291,"line":2,"time":2,"distance":1029,"i_long":106.834175},{"station_name":"Univ. Indonesia","time":3,"distance":2264,"station_id":"UI","line":2,"i_long":106.831474,"i_lat":-6.360749,"transit":false,"is_transit":false},{"is_transit":false,"line":2,"station_name":"Pondok Cina","station_id":"POC","distance":1109,"i_long":106.831114,"transit":false,"time":2,"i_lat":-6.369073},{"is_transit":false,"station_name":"Depokbaru","i_lat":-6.391065,"line":0,"time":4,"distance":2727,"station_id":"DPB","transit":false,"i_long":106.819451}],[{"station_id":"BKS","distance":0,"i_long":106.997013,"is_transit":false,"time":0,"line":0,"transit":false,"i_lat":-6.236616,"station_name":"Bekasi"},{"is_transit":false,"transit":false,"station_name":"Kranji","line":1,"distance":2520,"i_long":106.977657,"i_lat":-6.224515,"station_id":"KRI","time":4},{"line":0,"transit":false,"distance":3097,"station_name":"Cakung","is_transit":false,"time":3,"station_id":"CUK","i_lat":-6.219053,"i_long":106.951283},{"time":8,"i_lat":-6.217455,"station_name":"Klenderbaru","transit":false,"line":1,"distance":1385,"station_id":"KLDB","i_long":106.939679,"is_transit":false},{"time":1,"i_long":106.922662,"station_id":"BUA","i_lat":-6.215568,"station_name":"Buaran","line":0,"transit":false,"is_transit":false,"distance":1305},{"i_lat":-6.2135,"i_long":106.899548,"distance":3100,"station_id":"KLD","is_transit":false,"station_name":"Klender","transit":false,"line":1,"time":2},{"line":0,"distance":3395,"station_name":"Jatinegara","time":3,"transit":true,"i_lat":-6.215091,"i_long":106.86807400000001,"is_transit":true,"station_id":"JNG"},{"distance":1236,"is_transit":false,"station_name":"Pondok Jati","i_lat":-6.209188,"line":11,"i_long":106.861737,"station_id":"POK","time":2,"transit":false},{"i_lat":-6.193792,"line":11,"i_long":106.855437,"distance":1829,"is_transit":false,"time":2,"station_id":"KMT","station_name":"Kramat","transit":false},{"station_name":"Gang Sentiong","i_lat":-6.185975,"i_long":106.850107,"distance":973,"is_transit":false,"time":1,"station_id":"GST","transit":false,"line":11},{"station_id":"PSE","is_transit":false,"i_long":106.84368,"i_lat":-6.174784,"time":8,"station_name":"Pasar Senen","transit":false,"distance":1567,"line":11},{"station_id":"KMO","station_name":"Kemayoran","i_long":106.839204,"time":4,"is_transit":false,"transit":false,"i_lat":-6.161728,"distance":1436,"line":11},{"time":5,"i_lat":-6.14505,"i_long":106.836569,"is_transit":false,"transit":false,"line":11,"distance":1901,"station_id":"RJW","station_name":"Rajawali"},{"time":3,"i_long":106.826365,"station_id":"KPB","transit":true,"distance":1444,"i_lat":-6.132549,"is_transit":true,"station_name":"Kampung Bandan","line":0},{"line":0,"is_transit":true,"i_long":106.812439,"time":3,"distance":1364,"station_id":"JAKK","transit":true,"i_lat":-6.137569,"station_name":"Jakarta Kota"},{"time":4,"line":7,"i_lat":-6.141205,"distance":1264,"station_id":"JAY","transit":false,"station_name":"Jayakarta","i_long":106.820901,"is_transit":false},{"i_lat":-6.149769,"is_transit":false,"station_name":"Manggabesar","line":2,"time":2,"distance":1080,"transit":false,"i_long":106.82482,"station_id":"MGB"},{"i_lat":-6.160725,"line":2,"distance":906,"station_name":"Sawah Besar","time":2,"i_long":106.827103,"station_id":"SW","transit":false,"is_transit":false},{"station_id":"JUA","distance":1149,"transit":false,"line":2,"i_long":106.828284,"time":2,"is_transit":false,"i_lat":-6.166716,"station_name":"Juanda"},{"is_transit":false,"distance":2015,"i_lat":-6.186295,"station_id":"GDD","i_long":106.832183,"station_name":"Gondangdia","time":4,"transit":false,"line":2},{"time":3,"is_transit":false,"distance":1750,"i_lat":-6.198556,"i_long":106.840169,"line":0,"station_id":"CKI","transit":false,"station_name":"Cikini"},{"is_transit":true,"station_name":"Manggarai","time":4,"station_id":"MRI","i_lat":-6.209883,"transit":true,"distance":1590,"i_long":106.84912,"line":0},{"station_id":"TEB","line":2,"station_name":"Tebet","is_transit":false,"transit":false,"i_lat":-6.226659,"i_long":106.857948,"distance":2610,"time":4},{"line":0,"is_transit":false,"time":2,"i_lat":-6.242512,"station_name":"Cawang","i_long":106.856607,"distance":1230,"station_id":"CW","transit":false},{"time":3,"i_long":106.85449,"is_transit":false,"i_lat":-6.255332,"transit":false,"line":0,"distance":1546,"station_id":"DRN","station_name":"Duren Kalibata"},{"station_id":"PSMB","time":2,"is_transit":false,"station_name":"Pasar Minggu Baru","i_lat":-6.263214,"line":2,"distance":824,"i_long":106.851577,"transit":false},{"distance":2380,"is_transit":false,"transit":false,"i_lat":-6.2842400000000005,"station_id":"PSM","i_long":106.843999,"line":2,"time":2,"station_name":"Pasar Minggu"},{"transit":false,"distance":2820,"is_transit":false,"time":4,"i_lat":-6.3080680000000005,"station_name":"Tanjung Barat","i_long":106.838896,"line":2,"station_id":"TNT"},{"is_transit":false,"station_id":"LNA","time":3,"station_name":"Lenteng Agung","transit":false,"distance":2671,"i_lat":-6.330363,"i_long":106.832616,"line":2},{"station_name":"Univ. Pancasila","i_long":106.834175,"station_id":"UP","i_lat":-6.339291,"is_transit":false,"time":2,"transit":false,"line":2,"distance":1029},{"station_name":"Univ. Indonesia","distance":2264,"line":2,"i_lat":-6.360749,"station_id":"UI","is_transit":false,"transit":false,"time":3,"i_long":106.831474},{"station_id":"POC","station_name":"Pondok Cina","is_transit":false,"i_lat":-6.369073,"line":2,"transit":false,"time":2,"distance":1109,"i_long":106.831114},{"transit":false,"station_id":"DPB","i_lat":-6.391065,"is_transit":false,"i_long":106.819451,"line":0,"distance":2727,"time":4,"station_name":"Depokbaru"}]]}