{"data":[[{"is_transit":false,"transit":false,"time":0,"station_id":"BKS","distance":0,"i_long":106.997013,"line":1,"i_lat":-6.236616,"station_name":"Bekasi"},{"station_id":"KRI","station_name":"Kranji","i_long":106.977657,"is_transit":false,"distance":2520,"line":1,"transit":false,"i_lat":-6.224515,"time":4},{"station_name":"Cakung","station_id":"CUK","transit":false,"i_lat":-6.219053,"is_transit":false,"time":3,"distance":3097,"i_long":106.951283,"line":1},{"time":8,"i_lat":-6.217455,"is_transit":false,"distance":1385,"station_name":"Klenderbaru","station_id":"KLDB","transit":false,"i_long":106.939679,"line":1},{"station_id":"BUA","i_long":106.922662,"station_name":"Buaran","i_lat":-6.215568,"line":1,"transit":false,"time":1,"is_transit":false,"distance":1305},{"i_lat":-6.2135,"transit":false,"station_name":"Klender","time":2,"i_long":106.899548,"station_id":"KLD","is_transit":false,"line":1,"distance":3100},{"station_name":"Jatinegara","is_transit":false,"station_id":"JNG","time":3,"transit":false,"distance":3395,"i_long":106.86807400000001,"line":1,"i_lat":-6.215091},{"distance":1377,"i_lat":-6.212485,"transit":false,"station_name":"Matraman","station_id":"MTR","time":2,"line":1,"is_transit":false,"i_long":106.858896},{"line":2,"station_id":"MRI","is_transit":false,"i_lat":-6.209883,"station_name":"Manggarai","time":2,"distance":1275,"transit":false,"i_long":106.84912},{"line":1,"time":4,"i_lat":-6.202263,"station_name":"Sudirman","is_transit":false,"station_id":"SUD","transit":false,"distance":3186,"i_long":106.822649},{"line":1,"time":1,"i_long":106.819881,"is_transit":false,"station_name":"Sudirman Baru","i_lat":-6.201433,"transit":false,"distance":280,"station_id":"SUDB"},{"distance":471,"transit":false,"line":1,"is_transit":false,"i_lat":-6.20132,"station_name":"Karet","station_id":"KAT","time":1,"i_long":106.816351},{"i_lat":-6.185545,"station_id":"THB","transit":true,"is_transit":true,"line":1,"station_name":"Tanah Abang","distance":2029,"i_long":106.811091,"time":5},{"i_long":106.79689,"is_transit":false,"i_lat":-6.207404,"distance":3191,"transit":false,"line":6,"station_id":"PLM","station_name":"Palmerah","time":6},{"line":6,"station_id":"KBY","time":7,"is_transit":false,"transit":false,"distance":3737,"i_lat":-6.237242,"station_name":"Kebayoran","i_long":106.780334},{"i_long":106.74273,"transit":false,"i_lat":-6.276362,"line":6,"time":8,"is_transit":false,"station_name":"Pondokranji","distance":6218,"station_id":"PDJ"},{"is_transit":false,"station_id":"JMU","i_long":106.728916,"line":6,"station_name":"Jurangmangu","transit":false,"i_lat":-6.288927,"time":3,"distance":2179},{"i_lat":-6.296963,"is_transit":false,"i_long":106.712277,"line":6,"time":4,"station_name":"Sudimara","station_id":"SDM","transit":false,"distance":1994},{"station_name":"Rawa Buntu","distance":4566,"transit":false,"is_transit":false,"time":6,"i_lat":-6.314823,"i_long":106.675475,"line":6,"station_id":"RU"},{"distance":2413,"transit":false,"is_transit":false,"station_id":"SRP","time":4,"line":6,"station_name":"Serpong","i_long":106.66566,"i_lat":-6.319871},{"transit":false,"time":4,"i_lat":-6.32484,"station_id":"CSK","i_long":106.640411,"distance":1784,"station_name":"Cisauk","is_transit":false,"line":3},{"i_long":106.617853,"station_id":"CC","time":4,"distance":2519,"transit":false,"is_transit":false,"station_name":"Cicayur","i_lat":-6.329547,"line":3},{"i_lat":-6.3441410000000005,"station_id":"PRP","time":8,"distance":5968,"i_long":106.568863,"station_name":"Parung Panjang","line":6,"transit":false,"is_transit":false},{"distance":7025,"station_name":"Cilejit","time":9,"line":3,"station_id":"CJT","is_transit":false,"transit":false,"i_lat":-6.354349,"i_long":106.508482},{"time":6,"transit":false,"i_lat":-6.338021,"station_id":"DAR","is_transit":false,"distance":2675,"station_name":"Daru","i_long":106.491338,"line":0},{"distance":3902,"time":5,"is_transit":false,"transit":false,"line":6,"i_long":106.460812,"station_name":"Tenjo","i_lat":-6.327251,"station_id":"TEJ"},{"time":5,"is_transit":false,"station_name":"Tigaraksa","i_long":106.425991,"distance":2974,"i_lat":-6.328533,"station_id":"TGS","transit":false,"line":6}],[{"distance":0,"station_id":"BKS","station_name":"Bekasi","is_transit":false,"i_lat":-6.236616,"line":1,"time":0,"i_long":106.997013,"transit":false},{"is_transit":false,"station_name":"Kranji","line":1,"station_id":"KRI","i_lat":-6.224515,"transit":false,"distance":2520,"time":4,"i_long":106.977657},{"station_id":"CUK","line":1,"station_name":"Cakung","i_lat":-6.219053,"i_long":106.951283,"distance":3097,"is_transit":false,"transit":false,"time":3},{"station_name":"Klenderbaru","time":8,"distance":1385,"i_lat":-6.217455,"i_long":106.939679,"station_id":"KLDB","is_transit":false,"transit":false,"line":1},{"station_id":"BUA","time":1,"distance":1305,"is_transit":false,"i_long":106.922662,"line":1,"i_lat":-6.215568,"station_name":"Buaran","transit":false},{"station_name":"Klender","transit":false,"i_long":106.899548,"station_id":"KLD","time":2,"is_transit":false,"i_lat":-6.2135,"distance":3100,"line":1},{"line":1,"station_id":"JNG","transit":true,"i_lat":-6.215091,"distance":3395,"station_name":"Jatinegara","i_long":106.86807400000001,"is_transit":true,"time":3},{"time":2,"i_long":106.861737,"distance":1236,"transit":false,"station_name":"Pondok Jati","i_lat":-6.209188,"line":11,"station_id":"POK","is_transit":false},{"time":2,"transit":false,"i_lat":-6.193792,"i_long":106.855437,"is_transit":false,"distance":1829,"station_id":"KMT","line":11,"station_name":"Kramat"},{"transit":false,"station_id":"GST","i_long":106.850107,"station_name":"Gang Sentiong","i_lat":-6.185975,"line":11,"distance":973,"is_transit":false,"time":1},{"time":8,"is_transit":false,"distance":1567,"station_name":"Pasar Senen","station_id":"PSE","i_long":106.84368,"i_lat":-6.174784,"transit":false,"line":11},{"transit":false,"station_id":"KMO","station_name":"Kemayoran","distance":1436,"i_lat":-6.161728,"i_long":106.839204,"line":11,"time":4,"is_transit":false},{"transit":false,"distance":1901,"line":11,"i_long":106.836569,"station_name":"Rajawali","time":5,"i_lat":-6.14505,"is_transit":false,"station_id":"RJW"},{"station_name":"Kampung Bandan","transit":true,"distance":1444,"time":3,"is_transit":true,"i_lat":-6.132549,"i_long":106.826365,"station_id":"KPB","line":4},{"i_long":106.79867,"line":1,"time":9,"station_id":"AK","station_name":"Angke","distance":4102,"transit":false,"is_transit":false,"i_lat":-6.144674},{"distance":1230,"i_lat":-6.155215,"i_long":106.800832,"transit":false,"line":1,"is_transit":false,"station_name":"Duri","station_id":"DU","time":4},{"station_name":"Tanah Abang","i_lat":-6.185545,"station_id":"THB","is_transit":true,"line":1,"i_long":106.811091,"time":8,"distance":3632,"transit":true},{"line":6,"distance":3191,"i_lat":-6.207404,"i_long":106.79689,"transit":false,"is_transit":false,"station_name":"Palmerah","station_id":"PLM","time":6},{"station_id":"KBY","i_lat":-6.237242,"transit":false,"i_long":106.780334,"station_name":"Kebayoran","distance":3737,"is_transit":false,"time":7,"line":6},{"station_name":"Pondokranji","transit":false,"i_long":106.74273,"line":6,"distance":6218,"station_id":"PDJ","is_transit":false,"i_lat":-6.276362,"time":8},{"station_id":"JMU","time":3,"i_lat":-6.288927,"transit":false,"is_transit":false,"station_name":"Jurangmangu","distance":2179,"i_long":106.728916,"line":6},{"distance":1994,"line":6,"transit":false,"i_lat":-6.296963,"is_transit":false,"i_long":106.712277,"station_name":"Sudimara","station_id":"SDM","time":4},{"transit":false,"i_long":106.675475,"i_lat":-6.314823,"time":6,"station_name":"Rawa Buntu","line":6,"distance":4566,"station_id":"RU","is_transit":false},{"distance":2413,"time":4,"i_lat":-6.319871,"line":6,"transit":false,"station_id":"SRP","is_transit":false,"station_name":"Serpong","i_long":106.66566},{"station_id":"CSK","time":4,"distance":1784,"is_transit":false,"transit":false,"i_lat":-6.32484,"station_name":"Cisauk","i_long":106.640411,"line":3},{"i_lat":-6.329547,"transit":false,"time":4,"station_name":"Cicayur","i_long":106.617853,"distance":2519,"station_id":"CC","is_transit":false,"line":3},{"time":8,"i_lat":-6.3441410000000005,"i_long":106.568863,"station_id":"PRP","station_name":"Parung Panjang","transit":false,"distance":5968,"line":6,"is_transit":false},{"i_lat":-6.354349,"station_name":"Cilejit","station_id":"CJT","is_transit":false,"transit":false,"i_long":106.508482,"time":9,"distance":7025,"line":3},{"i_lat":-6.338021,"transit":false,"time":6,"station_id":"DAR","line":0,"i_long":106.491338,"station_name":"Daru","is_transit":false,"distance":2675},{"transit":false,"i_lat":-6.327251,"station_id":"TEJ","station_name":"Tenjo","time":5,"i_long":106.460812,"line":6,"distance":3902,"is_transit":false},{"station_name":"Tigaraksa","i_lat":-6.328533,"station_id":"TGS","distance":2974,"is_transit":false,"time":5,"line":6,"transit":false,"i_long":106.425991}],[{"transit":false,"line":1,"i_lat":-6.236616,"is_transit":false,"station_name":"Bekasi","i_long":106.997013,"distance":0,"station_id":"BKS","time":0},{"station_name":"Kranji","is_transit":false,"i_lat":-6.224515,"distance":2520,"line":1,"time":4,"i_long":106.977657,"station_id":"KRI","transit":false},{"time":3,"distance":3097,"station_name":"Cakung","station_id":"CUK","transit":false,"i_lat":-6.219053,"line":1,"i_long":106.951283,"is_transit":false},{"i_lat":-6.217455,"station_id":"KLDB","i_long":106.939679,"station_name":"Klenderbaru","line":1,"time":8,"transit":false,"is_transit":false,"distance":1385},{"i_lat":-6.215568,"line":1,"station_name":"Buaran","i_long":106.922662,"time":1,"station_id":"BUA","is_transit":false,"distance":1305,"transit":false},{"is_transit":false,"transit":false,"station_id":"KLD","i_long":106.899548,"line":1,"i_lat":-6.2135,"distance":3100,"time":2,"station_name":"Klender"},{"line":1,"is_transit":false,"station_id":"JNG","time":3,"i_long":106.86807400000001,"station_name":"Jatinegara","distance":3395,"transit":false,"i_lat":-6.215091},{"station_id":"MTR","distance":1377,"i_long":106.858896,"station_name":"Matraman","i_lat":-6.212485,"line":1,"is_transit":false,"transit":false,"time":2},{"transit":true,"i_long":106.84912,"line":2,"distance":1275,"i_lat":-6.209883,"time":2,"station_name":"Manggarai","is_transit":true,"station_id":"MRI"},{"time":4,"distance":1590,"station_id":"CKI","line":2,"i_lat":-6.198556,"station_name":"Cikini","is_transit":false,"transit":false,"i_long":106.840169},{"transit":false,"is_transit":false,"i_lat":-6.186295,"i_long":106.832183,"line":2,"station_id":"GDD","station_name":"Gondangdia","time":3,"distance":1750},{"station_id":"JUA","time":4,"is_transit":false,"i_long":106.828284,"distance":2015,"transit":false,"i_lat":-6.166716,"line":2,"station_name":"Juanda"},{"station_id":"SW","distance":1149,"transit":false,"i_long":106.827103,"station_name":"Sawah Besar","is_transit":false,"i_lat":-6.160725,"time":2,"line":2},{"time":2,"station_name":"Manggabesar","is_transit":false,"transit":false,"i_lat":-6.149769,"station_id":"MGB","distance":906,"line":2,"i_long":106.82482},{"time":2,"station_name":"Jayakarta","is_transit":false,"i_lat":-6.141205,"distance":1080,"station_id":"JAY","i_long":106.820901,"line":2,"transit":false},{"i_long":106.812439,"distance":1264,"line":2,"i_lat":-6.137569,"station_id":"JAKK","is_transit":true,"time":4,"station_name":"Jakarta Kota","transit":true},{"i_long":106.826365,"i_lat":-6.132549,"station_id":"KPB","line":4,"distance":1364,"time":3,"station_name":"Kampung Bandan","is_transit":true,"transit":true},{"distance":4102,"time":9,"is_transit":false,"i_lat":-6.144674,"line":1,"i_long":106.79867,"transit":false,"station_name":"Angke","station_id":"AK"},{"line":1,"station_id":"DU","i_long":106.800832,"i_lat":-6.155215,"time":4,"station_name":"Duri","is_transit":false,"distance":1230,"transit":false},{"time":8,"distance":3632,"station_id":"THB","is_transit":true,"transit":true,"i_lat":-6.185545,"station_name":"Tanah Abang","i_long":106.811091,"line":1},{"station_name":"Palmerah","transit":false,"i_long":106.79689,"i_lat":-6.207404,"line":6,"time":6,"station_id":"PLM","is_transit":false,"distance":3191},{"is_transit":false,"i_lat":-6.237242,"time":7,"station_id":"KBY","station_name":"Kebayoran","line":6,"transit":false,"i_long":106.780334,"distance":3737},{"line":6,"distance":6218,"is_transit":false,"transit":false,"station_name":"Pondokranji","station_id":"PDJ","time":8,"i_lat":-6.276362,"i_long":106.74273},{"is_transit":false,"distance":2179,"line":6,"station_id":"JMU","time":3,"transit":false,"i_lat":-6.288927,"i_long":106.728916,"station_name":"Jurangmangu"},{"i_lat":-6.296963,"is_transit":false,"station_id":"SDM","time":4,"distance":1994,"transit":false,"i_long":106.712277,"station_name":"Sudimara","line":6},{"station_name":"Rawa Buntu","time":6,"i_lat":-6.314823,"transit":false,"line":6,"station_id":"RU","is_transit":false,"i_long":106.675475,"distance":4566},{"i_lat":-6.319871,"i_long":106.66566,"distance":2413,"transit":false,"line":6,"time":4,"station_name":"Serpong","station_id":"SRP","is_transit":false},{"i_long":106.640411,"i_lat":-6.32484,"time":4,"is_transit":false,"distance":1784,"station_id":"CSK","station_name":"Cisauk","transit":false,"line":3},{"distance":2519,"line":3,"station_id":"CC","time":4,"is_transit":false,"transit":false,"station_name":"Cicayur","i_lat":-6.329547,"i_long":106.617853},{"distance":5968,"station_name":"Parung Panjang","is_transit":false,"transit":false,"line":6,"i_long":106.568863,"station_id":"PRP","time":8,"i_lat":-6.3441410000000005},{"station_name":"Cilejit","i_lat":-6.354349,"i_long":106.508482,"line":3,"transit":false,"station_id":"CJT","time":9,"is_transit":false,"distance":7025},{"i_lat":-6.338021,"i_long":106.491338,"is_transit":false,"station_name":"Daru","transit":false,"station_id":"DAR","time":6,"line":0,"distance":2675},{"distance":3902,"is_transit":false,"line":6,"time":5,"station_name":"Tenjo","station_id":"TEJ","i_long":106.460812,"i_lat":-6.327251,"transit":false},{"line":6,"time":5,"is_transit":false,"station_id":"TGS","transit":false,"i_long":106.425991,"distance":2974,"i_lat":-6.328533,"station_name":"Tigaraksa"}],[{"is_transit":false,"line":1,"i_lat":-6.236616,"transit":false,"station_id":"BKS","distance":0,"time":0,"station_name":"Bekasi","i_long":106.997013},{"is_transit":false,"i_long":106.977657,"transit":false,"station_name":"Kranji","station_id":"KRI","i_lat":-6.224515,"time":4,"distance":2520,"line":1},{"line":1,"station_id":"CUK","station_name":"Cakung","i_lat":-6.219053,"is_transit":false,"distance":3097,"transit":false,"time":3,"i_long":106.951283},{"station_id":"KLDB","time":8,"distance":1385,"is_transit":false,"transit":false,"line":1,"i_long":106.939679,"i_lat":-6.217455,"station_name":"Klenderbaru"},{"distance":1305,"i_long":106.922662,"time":1,"station_id":"BUA","i_lat":-6.215568,"transit":false,"is_transit":false,"station_name":"Buaran","line":1},{"station_id":"KLD","distance":3100,"line":1,"station_name":"Klender","time":2,"i_lat":-6.2135,"transit":false,"i_long":106.899548,"is_transit":false},{"transit":true,"line":1,"time":3,"distance":3395,"is_transit":true,"i_long":106.86807400000001,"i_lat":-6.215091,"station_name":"Jatinegara","station_id":"JNG"},{"transit":false,"distance":1236,"i_long":106.861737,"station_id":"POK","line":11,"i_lat":-6.209188,"station_name":"Pondok Jati","time":2,"is_transit":false},{"line":11,"is_transit":false,"station_name":"Kramat","distance":1829,"transit":false,"i_long":106.855437,"time":2,"station_id":"KMT","i_lat":-6.193792},{"is_transit":false,"distance":973,"i_long":106.850107,"i_lat":-6.185975,"station_name":"Gang Sentiong","station_id":"GST","line":11,"time":1,"transit":false},{"i_long":106.84368,"time":8,"distance":1567,"station_name":"Pasar Senen","is_transit":false,"station_id":"PSE","i_lat":-6.174784,"transit":false,"line":11},{"time":4,"station_name":"Kemayoran","station_id":"KMO","distance":1436,"is_transit":false,"transit":false,"i_lat":-6.161728,"i_long":106.839204,"line":11},{"i_lat":-6.14505,"i_long":106.836569,"distance":1901,"station_id":"RJW","station_name":"Rajawali","is_transit":false,"time":5,"transit":false,"line":11},{"station_name":"Kampung Bandan","station_id":"KPB","i_long":106.826365,"is_transit":true,"transit":true,"i_lat":-6.132549,"line":4,"time":3,"distance":1444},{"time":3,"station_id":"JAKK","i_long":106.812439,"transit":true,"is_transit":true,"station_name":"Jakarta Kota","distance":1364,"i_lat":-6.137569,"line":2},{"is_transit":false,"station_id":"JAY","i_lat":-6.141205,"time":4,"station_name":"Jayakarta","distance":1264,"transit":false,"i_long":106.820901,"line":2},{"is_transit":false,"station_name":"Manggabesar","i_lat":-6.149769,"line":2,"distance":1080,"i_long":106.82482,"station_id":"MGB","transit":false,"time":2},{"time":2,"transit":false,"i_lat":-6.160725,"i_long":106.827103,"line":2,"is_transit":false,"distance":906,"station_id":"SW","station_name":"Sawah Besar"},{"transit":false,"i_lat":-6.166716,"is_transit":false,"i_long":106.828284,"distance":1149,"station_name":"Juanda","station_id":"JUA","line":2,"time":2},{"station_name":"Gondangdia","i_lat":-6.186295,"distance":2015,"transit":false,"is_transit":false,"line":2,"i_long":106.832183,"station_id":"GDD","time":4},{"i_long":106.840169,"station_name":"Cikini","station_id":"CKI","distance":1750,"i_lat":-6.198556,"transit":false,"time":3,"is_transit":false,"line":2},{"station_name":"Manggarai","is_transit":true,"distance":1590,"i_long":106.84912,"line":2,"transit":true,"i_lat":-6.209883,"station_id":"MRI","time":4},{"station_id":"SUD","time":4,"station_name":"Sudirman","i_lat":-6.202263,"i_long":106.822649,"line":1,"is_transit":false,"distance":3186,"transit":false},{"time":1,"station_name":"Sudirman Baru","i_long":106.819881,"line":1,"transit":false,"is_transit":false,"distance":280,"station_id":"SUDB","i_lat":-6.201433},{"line":1,"distance":471,"is_transit":false,"station_name":"Karet","station_id":"KAT","i_long":106.816351,"time":1,"transit":false,"i_lat":-6.20132},{"distance":2029,"station_id":"THB","time":5,"i_lat":-6.185545,"i_long":106.811091,"station_name":"Tanah Abang","is_transit":true,"transit":true,"line":1},{"i_lat":-6.207404,"station_name":"Palmerah","i_long":106.79689,"transit":false,"station_id":"PLM","time":6,"line":6,"distance":3191,"is_transit":false},{"is_transit":false,"transit":false,"i_long":106.780334,"station_name":"Kebayoran","distance":3737,"i_lat":-6.237242,"time":7,"line":6,"station_id":"KBY"},{"transit":false,"station_name":"Pondokranji","station_id":"PDJ","line":6,"i_lat":-6.276362,"i_long":106.74273,"distance":6218,"is_transit":false,"time":8},{"is_transit":false,"distance":2179,"i_long":106.728916,"station_id":"JMU","transit":false,"i_lat":-6.288927,"line":6,"time":3,"station_name":"Jurangmangu"},{"station_id":"SDM","distance":1994,"station_name":"Sudimara","i_lat":-6.296963,"i_long":106.712277,"line":6,"transit":false,"is_transit":false,"time":4},{"is_transit":false,"station_name":"Rawa Buntu","i_long":106.675475,"distance":4566,"i_lat":-6.314823,"transit":false,"station_id":"RU","time":6,"line":6},{"i_lat":-6.319871,"i_long":106.66566,"line":6,"station_name":"Serpong","time":4,"distance":2413,"is_transit":false,"transit":false,"station_id":"SRP"},{"distance":1784,"station_id":"CSK","line":3,"is_transit":false,"transit":false,"i_lat":-6.32484,"i_long":106.640411,"time":4,"station_name":"Cisauk"},{"i_lat":-6.329547,"station_id":"CC","transit":false,"i_long":106.617853,"is_transit":false,"station_name":"Cicayur","time":4,"line":3,"distance":2519},{"is_transit":false,"distance":5968,"i_long":106.568863,"time":8,"i_lat":-6.3441410000000005,"station_name":"Parung Panjang","station_id":"PRP","line":6,"transit":false},{"time":9,"distance":7025,"transit":false,"station_name":"Cilejit","i_lat":-6.354349,"i_long":106.508482,"line":3,"is_transit":false,"station_id":"CJT"},{"transit":false,"i_long":106.491338,"line":0,"station_name":"Daru","time":6,"is_transit":false,"i_lat":-6.338021,"distance":2675,"station_id":"DAR"},{"station_name":"Tenjo","distance":3902,"i_long":106.460812,"time":5,"is_transit":false,"station_id":"TEJ","transit":false,"i_lat":-6.327251,"line":6},{"is_transit":false,"station_name":"Tigaraksa","i_lat":-6.328533,"station_id":"TGS","time":5,"distance":2974,"i_long":106.425991,"transit":false,"line":6}]]}