{"data":[[{"station_id":"BKS","is_transit":false,"transit":false,"time":0,"i_lat":-6.236616,"i_long":106.997013,"line":1,"distance":0,"station_name":"Bekasi"},{"station_name":"Kranji","i_lat":-6.224515,"is_transit":false,"line":1,"transit":false,"distance":2520,"time":4,"station_id":"KRI","i_long":106.977657},{"transit":false,"time":3,"i_lat":-6.219053,"line":1,"distance":3097,"station_id":"CUK","station_name":"Cakung","i_long":106.951283,"is_transit":false},{"time":8,"distance":1385,"station_name":"Klenderbaru","i_lat":-6.217455,"transit":false,"line":1,"is_transit":false,"i_long":106.939679,"station_id":"KLDB"},{"station_name":"Buaran","time":1,"i_long":106.922662,"transit":false,"distance":1305,"i_lat":-6.215568,"station_id":"BUA","is_transit":false,"line":1},{"distance":3100,"transit":false,"i_lat":-6.2135,"i_long":106.899548,"station_name":"Klender","time":2,"station_id":"KLD","is_transit":false,"line":1},{"i_lat":-6.215091,"line":1,"time":3,"distance":3395,"i_long":106.86807400000001,"station_name":"Jatinegara","transit":false,"station_id":"JNG","is_transit":false},{"station_name":"Matraman","i_long":106.858896,"station_id":"MTR","distance":1377,"line":1,"is_transit":false,"transit":false,"time":2,"i_lat":-6.212485},{"is_transit":true,"distance":1275,"station_name":"Manggarai","station_id":"MRI","transit":true,"time":2,"i_lat":-6.209883,"line":2,"i_long":106.84912},{"station_name":"Tebet","station_id":"TEB","i_lat":-6.226659,"i_long":106.857948,"time":4,"is_transit":false,"distance":2610,"line":2,"transit":false},{"station_id":"CW","station_name":"Cawang","line":2,"distance":1230,"i_lat":-6.242512,"i_long":106.856607,"is_transit":false,"transit":false,"time":2},{"station_id":"DRN","distance":1546,"i_long":106.85449,"line":2,"time":3,"i_lat":-6.255332,"station_name":"Duren Kalibata","transit":false,"is_transit":false},{"is_transit":false,"distance":824,"transit":false,"time":2,"i_lat":-6.263214,"i_long":106.851577,"line":2,"station_id":"PSMB","station_name":"Pasar Minggu Baru"},{"station_name":"Pasar Minggu","i_lat":-6.2842400000000005,"line":2,"time":2,"distance":2380,"is_transit":false,"station_id":"PSM","transit":false,"i_long":106.843999},{"station_name":"Tanjung Barat","is_transit":false,"station_id":"TNT","i_lat":-6.3080680000000005,"i_long":106.838896,"line":2,"time":4,"distance":2820,"transit":false},{"station_name":"Lenteng Agung","i_lat":-6.330363,"time":3,"line":2,"distance":2671,"transit":false,"station_id":"LNA","i_long":106.832616,"is_transit":false},{"station_id":"UP","station_name":"Univ. Pancasila","i_long":106.834175,"transit":false,"distance":1029,"line":2,"is_transit":false,"time":2,"i_lat":-6.339291},{"station_name":"Univ. Indonesia","transit":false,"time":3,"line":2,"distance":2264,"station_id":"UI","i_long":106.831474,"is_transit":false,"i_lat":-6.360749},{"i_long":106.831114,"line":2,"i_lat":-6.369073,"station_id":"POC","time":2,"transit":false,"station_name":"Pondok Cina","is_transit":false,"distance":1109}],[{"distance":0,"transit":false,"i_lat":-6.236616,"i_long":106.997013,"time":0,"station_id":"BKS","is_transit":false,"line":1,"station_name":"Bekasi"},{"line":1,"station_id":"KRI","time":4,"i_long":106.977657,"transit":false,"station_name":"Kranji","is_transit":false,"distance":2520,"i_lat":-6.224515},{"i_long":106.951283,"transit":false,"is_transit":false,"distance":3097,"time":3,"station_id":"CUK","station_name":"Cakung","i_lat":-6.219053,"line":1},{"station_name":"Klenderbaru","is_transit":false,"i_long":106.939679,"line":1,"distance":1385,"transit":false,"station_id":"KLDB","i_lat":-6.217455,"time":8},{"time":1,"is_transit":false,"station_id":"BUA","i_long":106.922662,"transit":false,"station_name":"Buaran","line":1,"distance":1305,"i_lat":-6.215568},{"transit":false,"time":2,"station_name":"Klender","distance":3100,"i_lat":-6.2135,"is_transit":false,"station_id":"KLD","i_long":106.899548,"line":1},{"line":1,"is_transit":true,"distance":3395,"i_long":106.86807400000001,"station_name":"Jatinegara","transit":true,"station_id":"JNG","time":3,"i_lat":-6.215091},{"line":11,"station_id":"POK","time":2,"i_lat":-6.209188,"distance":1236,"transit":false,"i_long":106.861737,"is_transit":false,"station_name":"Pondok Jati"},{"transit":false,"station_name":"Kramat","is_transit":false,"distance":1829,"i_lat":-6.193792,"station_id":"KMT","time":2,"i_long":106.855437,"line":11},{"is_transit":false,"line":11,"i_long":106.850107,"distance":973,"station_name":"Gang Sentiong","transit":false,"i_lat":-6.185975,"station_id":"GST","time":1},{"distance":1567,"i_lat":-6.174784,"i_long":106.84368,"station_name":"Pasar Senen","transit":false,"is_transit":false,"station_id":"PSE","line":11,"time":8},{"time":4,"transit":false,"station_name":"Kemayoran","i_lat":-6.161728,"station_id":"KMO","is_transit":false,"i_long":106.839204,"line":11,"distance":1436},{"station_name":"Rajawali","line":11,"i_lat":-6.14505,"station_id":"RJW","is_transit":false,"i_long":106.836569,"transit":false,"time":5,"distance":1901},{"station_id":"KPB","i_lat":-6.132549,"i_long":106.826365,"is_transit":true,"transit":true,"station_name":"Kampung Bandan","distance":1444,"time":3,"line":4},{"line":1,"station_name":"Angke","station_id":"AK","i_lat":-6.144674,"i_long":106.79867,"time":9,"is_transit":false,"distance":4102,"transit":false},{"distance":1230,"line":1,"station_id":"DU","station_name":"Duri","i_lat":-6.155215,"transit":false,"i_long":106.800832,"is_transit":false,"time":4},{"distance":3632,"station_id":"THB","transit":false,"time":8,"i_lat":-6.185545,"station_name":"Tanah Abang","i_long":106.811091,"line":1,"is_transit":false},{"distance":2029,"line":1,"station_id":"KAT","transit":false,"is_transit":false,"time":5,"station_name":"Karet","i_lat":-6.20132,"i_long":106.816351},{"station_id":"SUDB","is_transit":false,"transit":false,"time":1,"line":1,"distance":471,"station_name":"Sudirman Baru","i_long":106.819881,"i_lat":-6.201433},{"time":1,"distance":280,"station_id":"SUD","line":1,"i_lat":-6.202263,"i_long":106.822649,"transit":false,"station_name":"Sudirman","is_transit":false},{"station_name":"Manggarai","i_long":106.84912,"line":2,"is_transit":true,"station_id":"MRI","transit":true,"time":4,"i_lat":-6.209883,"distance":3186},{"time":4,"i_lat":-6.226659,"transit":false,"station_name":"Tebet","i_long":106.857948,"is_transit":false,"line":2,"station_id":"TEB","distance":2610},{"line":2,"i_long":106.856607,"distance":1230,"time":2,"transit":false,"is_transit":false,"i_lat":-6.242512,"station_id":"CW","station_name":"Cawang"},{"transit":false,"station_id":"DRN","i_lat":-6.255332,"station_name":"Duren Kalibata","time":3,"is_transit":false,"line":2,"distance":1546,"i_long":106.85449},{"distance":824,"time":2,"i_lat":-6.263214,"i_long":106.851577,"line":2,"transit":false,"station_id":"PSMB","station_name":"Pasar Minggu Baru","is_transit":false},{"distance":2380,"i_long":106.843999,"time":2,"line":2,"station_id":"PSM","is_transit":false,"station_name":"Pasar Minggu","transit":false,"i_lat":-6.2842400000000005},{"time":4,"transit":false,"line":2,"station_name":"Tanjung Barat","is_transit":false,"station_id":"TNT","i_long":106.838896,"distance":2820,"i_lat":-6.3080680000000005},{"i_lat":-6.330363,"is_transit":false,"distance":2671,"line":2,"station_id":"LNA","transit":false,"i_long":106.832616,"station_name":"Lenteng Agung","time":3},{"time":2,"station_id":"UP","i_lat":-6.339291,"line":2,"distance":1029,"i_long":106.834175,"is_transit":false,"transit":false,"station_name":"Univ. Pancasila"},{"line":2,"station_id":"UI","is_transit":false,"transit":false,"distance":2264,"i_lat":-6.360749,"station_name":"Univ. Indonesia","time":3,"i_long":106.831474},{"is_transit":false,"transit":false,"station_name":"Pondok Cina","station_id":"POC","time":2,"distance":1109,"i_long":106.831114,"i_lat":-6.369073,"line":2}],[{"i_long":106.997013,"distance":0,"time":0,"transit":false,"station_id":"BKS","line":1,"i_lat":-6.236616,"is_transit":false,"station_name":"Bekasi"},{"i_long":106.977657,"is_transit":false,"station_id":"KRI","line":1,"time":4,"transit":false,"station_name":"Kranji","distance":2520,"i_lat":-6.224515},{"station_name":"Cakung","i_lat":-6.219053,"transit":false,"station_id":"CUK","line":1,"i_long":106.951283,"time":3,"distance":3097,"is_transit":false},{"is_transit":false,"station_name":"Klenderbaru","transit":false,"station_id":"KLDB","i_lat":-6.217455,"distance":1385,"time":8,"i_long":106.939679,"line":1},{"is_transit":false,"station_id":"BUA","time":1,"i_lat":-6.215568,"transit":false,"distance":1305,"line":1,"station_name":"Buaran","i_long":106.922662},{"station_name":"Klender","i_lat":-6.2135,"station_id":"KLD","i_long":106.899548,"is_transit":false,"line":1,"time":2,"transit":false,"distance":3100},{"transit":true,"distance":3395,"is_transit":true,"i_lat":-6.215091,"i_long":106.86807400000001,"station_id":"JNG","time":3,"station_name":"Jatinegara","line":1},{"station_id":"POK","i_lat":-6.209188,"line":11,"transit":false,"is_transit":false,"i_long":106.861737,"distance":1236,"station_name":"Pondok Jati","time":2},{"time":2,"station_name":"Kramat","distance":1829,"i_lat":-6.193792,"station_id":"KMT","transit":false,"i_long":106.855437,"line":11,"is_transit":false},{"distance":973,"time":1,"is_transit":false,"transit":false,"i_lat":-6.185975,"station_name":"Gang Sentiong","line":11,"i_long":106.850107,"station_id":"GST"},{"i_long":106.84368,"is_transit":false,"station_name":"Pasar Senen","time":8,"distance":1567,"transit":false,"i_lat":-6.174784,"line":11,"station_id":"PSE"},{"station_id":"KMO","is_transit":false,"distance":1436,"i_lat":-6.161728,"i_long":106.839204,"line":11,"transit":false,"time":4,"station_name":"Kemayoran"},{"i_lat":-6.14505,"line":11,"time":5,"is_transit":false,"i_long":106.836569,"transit":false,"station_id":"RJW","distance":1901,"station_name":"Rajawali"},{"time":3,"station_name":"Kampung Bandan","i_long":106.826365,"is_transit":true,"transit":true,"distance":1444,"line":4,"station_id":"KPB","i_lat":-6.132549},{"line":2,"distance":1364,"station_id":"JAKK","transit":true,"station_name":"Jakarta Kota","time":3,"i_lat":-6.137569,"i_long":106.812439,"is_transit":true},{"line":2,"station_name":"Jayakarta","distance":1264,"is_transit":false,"time":4,"station_id":"JAY","i_lat":-6.141205,"i_long":106.820901,"transit":false},{"line":2,"distance":1080,"i_long":106.82482,"is_transit":false,"i_lat":-6.149769,"transit":false,"time":2,"station_id":"MGB","station_name":"Manggabesar"},{"transit":false,"station_id":"SW","station_name":"Sawah Besar","distance":906,"i_lat":-6.160725,"i_long":106.827103,"line":2,"is_transit":false,"time":2},{"transit":false,"time":2,"i_lat":-6.166716,"distance":1149,"i_long":106.828284,"is_transit":false,"line":2,"station_name":"Juanda","station_id":"JUA"},{"i_lat":-6.186295,"is_transit":false,"transit":false,"time":4,"station_id":"GDD","line":2,"i_long":106.832183,"distance":2015,"station_name":"Gondangdia"},{"transit":false,"i_lat":-6.198556,"i_long":106.840169,"line":2,"time":3,"distance":1750,"station_name":"Cikini","is_transit":false,"station_id":"CKI"},{"is_transit":false,"station_id":"MRI","distance":1590,"time":4,"i_long":106.84912,"transit":false,"line":2,"station_name":"Manggarai","i_lat":-6.209883},{"station_id":"TEB","distance":2610,"i_lat":-6.226659,"station_name":"Tebet","line":2,"is_transit":false,"i_long":106.857948,"time":4,"transit":false},{"distance":1230,"time":2,"transit":false,"line":2,"station_name":"Cawang","station_id":"CW","i_lat":-6.242512,"i_long":106.856607,"is_transit":false},{"transit":false,"is_transit":false,"time":3,"line":2,"distance":1546,"i_lat":-6.255332,"station_id":"DRN","i_long":106.85449,"station_name":"Duren Kalibata"},{"i_long":106.851577,"distance":824,"station_id":"PSMB","is_transit":false,"i_lat":-6.263214,"time":2,"line":2,"transit":false,"station_name":"Pasar Minggu Baru"},{"i_long":106.843999,"time":2,"station_id":"PSM","is_transit":false,"transit":false,"distance":2380,"station_name":"Pasar Minggu","i_lat":-6.2842400000000005,"line":2},{"station_name":"Tanjung Barat","time":4,"line":2,"i_long":106.838896,"is_transit":false,"distance":2820,"transit":false,"station_id":"TNT","i_lat":-6.3080680000000005},{"station_name":"Lenteng Agung","is_transit":false,"i_lat":-6.330363,"line":2,"time":3,"distance":2671,"i_long":106.832616,"transit":false,"station_id":"LNA"},{"is_transit":false,"distance":1029,"i_lat":-6.339291,"i_long":106.834175,"station_id":"UP","station_name":"Univ. Pancasila","line":2,"transit":false,"time":2},{"line":2,"station_id":"UI","i_lat":-6.360749,"i_long":106.831474,"time":3,"station_name":"Univ. Indonesia","transit":false,"distance":2264,"is_transit":false},{"transit":false,"line":2,"distance":1109,"is_transit":false,"station_name":"Pondok Cina","station_id":"POC","i_lat":-6.369073,"time":2,"i_long":106.831114}]]}