{"data":[[{"distance":0,"i_lat":-6.236616,"transit":false,"station_name":"Bekasi","time":0,"is_transit":false,"i_long":106.997013,"line":0,"station_id":"BKS"},{"transit":false,"is_transit":false,"station_id":"KRI","distance":2520,"station_name":"Kranji","time":4,"i_long":106.977657,"line":1,"i_lat":-6.224515},{"station_name":"Cakung","distance":3097,"time":3,"i_long":106.951283,"line":0,"station_id":"CUK","i_lat":-6.219053,"is_transit":false,"transit":false},{"line":1,"station_name":"Klenderbaru","transit":false,"is_transit":false,"i_long":106.939679,"time":8,"station_id":"KLDB","distance":1385,"i_lat":-6.217455},{"transit":false,"station_id":"BUA","i_long":106.922662,"i_lat":-6.215568,"is_transit":false,"time":1,"station_name":"Buaran","line":0,"distance":1305},{"station_id":"KLD","is_transit":false,"station_name":"Klender","distance":3100,"line":1,"i_lat":-6.2135,"time":2,"i_long":106.899548,"transit":false},{"i_lat":-6.215091,"station_name":"Jatinegara","i_long":106.86807400000001,"is_transit":true,"station_id":"JNG","time":3,"transit":false,"distance":3395,"line":0},{"distance":1377,"station_id":"MTR","station_name":"Matraman","transit":false,"time":2,"i_long":106.858896,"line":1,"is_transit":false,"i_lat":-6.212485},{"line":0,"transit":true,"i_lat":-6.209883,"station_id":"MRI","is_transit":true,"time":2,"station_name":"Manggarai","i_long":106.84912,"distance":1275},{"is_transit":false,"i_long":106.857948,"station_id":"TEB","distance":2610,"line":2,"station_name":"Tebet","time":4,"i_lat":-6.226659,"transit":false},{"station_name":"Cawang","i_long":106.856607,"line":0,"transit":false,"is_transit":false,"distance":1230,"station_id":"CW","time":2,"i_lat":-6.242512},{"i_lat":-6.255332,"station_id":"DRN","is_transit":false,"i_long":106.85449,"transit":false,"line":0,"time":3,"distance":1546,"station_name":"Duren Kalibata"},{"i_long":106.851577,"transit":false,"station_id":"PSMB","time":2,"i_lat":-6.263214,"station_name":"Pasar Minggu Baru","distance":824,"line":2,"is_transit":false},{"line":2,"time":2,"distance":2380,"is_transit":false,"station_id":"PSM","i_lat":-6.2842400000000005,"transit":false,"station_name":"Pasar Minggu","i_long":106.843999},{"transit":false,"i_lat":-6.3080680000000005,"station_name":"Tanjung Barat","distance":2820,"time":4,"i_long":106.838896,"line":2,"is_transit":false,"station_id":"TNT"},{"line":2,"is_transit":false,"station_name":"Lenteng Agung","station_id":"LNA","transit":false,"i_long":106.832616,"distance":2671,"i_lat":-6.330363,"time":3},{"station_name":"Univ. Pancasila","i_lat":-6.339291,"station_id":"UP","is_transit":false,"distance":1029,"time":2,"i_long":106.834175,"transit":false,"line":2},{"transit":false,"station_id":"UI","is_transit":false,"time":3,"station_name":"Univ. Indonesia","i_long":106.831474,"line":2,"distance":2264,"i_lat":-6.360749},{"time":2,"line":2,"i_lat":-6.369073,"is_transit":false,"distance":1109,"transit":false,"i_long":106.831114,"station_id":"POC","station_name":"Pondok Cina"},{"i_lat":-6.391065,"time":4,"transit":false,"is_transit":false,"station_id":"DPB","distance":2727,"station_name":"Depokbaru","i_long":106.819451,"line":0},{"time":3,"i_long":106.816926,"distance":1584,"transit":false,"is_transit":false,"station_id":"DP","station_name":"Depok","i_lat":-6.405256,"line":0},{"station_name":"Citayam","transit":false,"i_lat":-6.448811,"line":1,"time":6,"i_long":106.800298,"station_id":"CTA","distance":5084,"is_transit":true}],[{"i_lat":-6.236616,"time":0,"i_long":106.997013,"station_name":"Bekasi","station_id":"BKS","is_transit":false,"distance":0,"transit":false,"line":0},{"transit":false,"i_long":106.977657,"time":4,"is_transit":false,"distance":2520,"station_name":"Kranji","i_lat":-6.224515,"station_id":"KRI","line":1},{"is_transit":false,"time":3,"transit":false,"line":0,"station_id":"CUK","distance":3097,"station_name":"Cakung","i_long":106.951283,"i_lat":-6.219053},{"i_long":106.939679,"station_id":"KLDB","station_name":"Klenderbaru","time":8,"transit":false,"is_transit":false,"distance":1385,"i_lat":-6.217455,"line":1},{"line":0,"station_name":"Buaran","i_lat":-6.215568,"station_id":"BUA","transit":false,"i_long":106.922662,"distance":1305,"time":1,"is_transit":false},{"line":1,"station_name":"Klender","i_lat":-6.2135,"time":2,"is_transit":false,"distance":3100,"i_long":106.899548,"transit":false,"station_id":"KLD"},{"transit":true,"distance":3395,"station_name":"Jatinegara","station_id":"JNG","is_transit":true,"time":3,"i_long":106.86807400000001,"line":0,"i_lat":-6.215091},{"station_id":"POK","transit":false,"i_lat":-6.209188,"distance":1236,"time":2,"i_long":106.861737,"is_transit":false,"station_name":"Pondok Jati","line":11},{"is_transit":false,"distance":1829,"line":11,"transit":false,"time":2,"i_lat":-6.193792,"station_id":"KMT","station_name":"Kramat","i_long":106.855437},{"line":11,"is_transit":false,"i_lat":-6.185975,"station_id":"GST","station_name":"Gang Sentiong","distance":973,"transit":false,"time":1,"i_long":106.850107},{"time":8,"transit":false,"station_name":"Pasar Senen","distance":1567,"i_lat":-6.174784,"line":11,"is_transit":false,"station_id":"PSE","i_long":106.84368},{"time":4,"line":11,"distance":1436,"is_transit":false,"station_id":"KMO","station_name":"Kemayoran","transit":false,"i_lat":-6.161728,"i_long":106.839204},{"is_transit":false,"station_id":"RJW","distance":1901,"station_name":"Rajawali","time":5,"transit":false,"i_lat":-6.14505,"i_long":106.836569,"line":11},{"station_id":"KPB","distance":1444,"is_transit":true,"i_long":106.826365,"i_lat":-6.132549,"time":3,"line":0,"station_name":"Kampung Bandan","transit":true},{"distance":4102,"transit":false,"station_id":"AK","i_long":106.79867,"is_transit":false,"line":0,"station_name":"Angke","i_lat":-6.144674,"time":9},{"transit":true,"station_id":"DU","time":4,"distance":1230,"is_transit":true,"station_name":"Duri","i_lat":-6.155215,"line":1,"i_long":106.800832},{"station_name":"Tanah Abang","i_long":106.811091,"i_lat":-6.185545,"distance":3632,"is_transit":true,"transit":false,"line":1,"time":8,"station_id":"THB"},{"station_name":"Karet","station_id":"KAT","i_long":106.816351,"line":1,"i_lat":-6.20132,"transit":false,"distance":2029,"is_transit":false,"time":5},{"time":1,"distance":471,"i_long":106.819881,"station_name":"Sudirman Baru","transit":false,"i_lat":-6.201433,"line":1,"is_transit":false,"station_id":"SUDB"},{"is_transit":false,"distance":280,"i_lat":-6.202263,"i_long":106.822649,"time":1,"transit":false,"station_id":"SUD","station_name":"Sudirman","line":1},{"is_transit":true,"station_name":"Manggarai","i_long":106.84912,"transit":true,"time":4,"distance":3186,"station_id":"MRI","line":0,"i_lat":-6.209883},{"transit":false,"station_name":"Tebet","station_id":"TEB","i_lat":-6.226659,"is_transit":false,"time":4,"i_long":106.857948,"distance":2610,"line":2},{"distance":1230,"line":0,"i_lat":-6.242512,"i_long":106.856607,"transit":false,"station_name":"Cawang","is_transit":false,"station_id":"CW","time":2},{"i_long":106.85449,"line":0,"is_transit":false,"i_lat":-6.255332,"station_name":"Duren Kalibata","distance":1546,"time":3,"transit":false,"station_id":"DRN"},{"line":2,"time":2,"transit":false,"station_id":"PSMB","i_long":106.851577,"i_lat":-6.263214,"is_transit":false,"distance":824,"station_name":"Pasar Minggu Baru"},{"time":2,"distance":2380,"station_id":"PSM","transit":false,"i_lat":-6.2842400000000005,"is_transit":false,"i_long":106.843999,"line":2,"station_name":"Pasar Minggu"},{"time":4,"distance":2820,"line":2,"is_transit":false,"transit":false,"station_id":"TNT","i_long":106.838896,"i_lat":-6.3080680000000005,"station_name":"Tanjung Barat"},{"i_long":106.832616,"line":2,"transit":false,"time":3,"is_transit":false,"station_name":"Lenteng Agung","station_id":"LNA","distance":2671,"i_lat":-6.330363},{"is_transit":false,"station_id":"UP","distance":1029,"station_name":"Univ. Pancasila","time":2,"i_lat":-6.339291,"line":2,"i_long":106.834175,"transit":false},{"station_id":"UI","is_transit":false,"time":3,"distance":2264,"line":2,"i_long":106.831474,"transit":false,"station_name":"Univ. Indonesia","i_lat":-6.360749},{"station_id":"POC","distance":1109,"time":2,"line":2,"is_transit":false,"transit":false,"i_lat":-6.369073,"i_long":106.831114,"station_name":"Pondok Cina"},{"is_transit":false,"i_long":106.819451,"transit":false,"station_id":"DPB","i_lat":-6.391065,"station_name":"Depokbaru","time":4,"distance":2727,"line":0},{"i_long":106.816926,"time":3,"is_transit":false,"transit":false,"distance":1584,"station_id":"DP","i_lat":-6.405256,"line":0,"station_name":"Depok"},{"time":6,"line":1,"is_transit":true,"transit":false,"i_long":106.800298,"station_name":"Citayam","distance":5084,"station_id":"CTA","i_lat":-6.448811}],[{"time":0,"i_long":106.997013,"station_name":"Bekasi","is_transit":false,"distance":0,"station_id":"BKS","i_lat":-6.236616,"line":0,"transit":false},{"i_lat":-6.224515,"station_name":"Kranji","is_transit":false,"distance":2520,"transit":false,"line":1,"station_id":"KRI","time":4,"i_long":106.977657},{"i_long":106.951283,"time":3,"station_id":"CUK","distance":3097,"station_name":"Cakung","is_transit":false,"line":0,"transit":false,"i_lat":-6.219053},{"line":1,"is_transit":false,"station_id":"KLDB","time":8,"i_long":106.939679,"distance":1385,"i_lat":-6.217455,"station_name":"Klenderbaru","transit":false},{"line":0,"station_id":"BUA","i_lat":-6.215568,"distance":1305,"time":1,"i_long":106.922662,"station_name":"Buaran","transit":false,"is_transit":false},{"i_long":106.899548,"time":2,"station_name":"Klender","i_lat":-6.2135,"line":1,"is_transit":false,"station_id":"KLD","distance":3100,"transit":false},{"station_name":"Jatinegara","i_lat":-6.215091,"transit":true,"is_transit":true,"i_long":106.86807400000001,"time":3,"distance":3395,"station_id":"JNG","line":0},{"i_long":106.861737,"line":11,"is_transit":false,"distance":1236,"station_id":"POK","station_name":"Pondok Jati","time":2,"transit":false,"i_lat":-6.209188},{"station_name":"Kramat","line":11,"distance":1829,"i_lat":-6.193792,"station_id":"KMT","i_long":106.855437,"is_transit":false,"transit":false,"time":2},{"is_transit":false,"station_name":"Gang Sentiong","time":1,"transit":false,"i_long":106.850107,"station_id":"GST","distance":973,"i_lat":-6.185975,"line":11},{"distance":1567,"is_transit":false,"station_name":"Pasar Senen","transit":false,"line":11,"i_long":106.84368,"station_id":"PSE","time":8,"i_lat":-6.174784},{"distance":1436,"transit":false,"i_lat":-6.161728,"i_long":106.839204,"time":4,"line":11,"station_id":"KMO","is_transit":false,"station_name":"Kemayoran"},{"time":5,"i_long":106.836569,"station_id":"RJW","i_lat":-6.14505,"is_transit":false,"station_name":"Rajawali","transit":false,"distance":1901,"line":11},{"distance":1444,"is_transit":true,"station_id":"KPB","transit":true,"i_lat":-6.132549,"time":3,"line":0,"i_long":106.826365,"station_name":"Kampung Bandan"},{"is_transit":true,"time":3,"i_lat":-6.137569,"i_long":106.812439,"transit":true,"line":0,"station_name":"Jakarta Kota","distance":1364,"station_id":"JAKK"},{"line":7,"distance":1264,"time":4,"transit":false,"station_id":"JAY","i_lat":-6.141205,"i_long":106.820901,"station_name":"Jayakarta","is_transit":false},{"station_id":"MGB","is_transit":false,"line":2,"distance":1080,"time":2,"station_name":"Manggabesar","transit":false,"i_long":106.82482,"i_lat":-6.149769},{"i_long":106.827103,"i_lat":-6.160725,"transit":false,"time":2,"line":2,"is_transit":false,"distance":906,"station_id":"SW","station_name":"Sawah Besar"},{"i_lat":-6.166716,"station_id":"JUA","is_transit":false,"station_name":"Juanda","i_long":106.828284,"distance":1149,"time":2,"transit":false,"line":2},{"station_name":"Gondangdia","time":4,"i_long":106.832183,"i_lat":-6.186295,"transit":false,"line":2,"distance":2015,"is_transit":false,"station_id":"GDD"},{"station_name":"Cikini","time":3,"distance":1750,"i_lat":-6.198556,"is_transit":false,"line":0,"transit":false,"station_id":"CKI","i_long":106.840169},{"i_long":106.84912,"i_lat":-6.209883,"transit":true,"time":4,"is_transit":true,"station_id":"MRI","line":0,"station_name":"Manggarai","distance":1590},{"is_transit":false,"station_id":"TEB","station_name":"Tebet","distance":2610,"transit":false,"i_long":106.857948,"line":2,"time":4,"i_lat":-6.226659},{"i_long":106.856607,"transit":false,"i_lat":-6.242512,"time":2,"distance":1230,"station_id":"CW","line":0,"station_name":"Cawang","is_transit":false},{"i_long":106.85449,"is_transit":false,"station_id":"DRN","time":3,"station_name":"Duren Kalibata","distance":1546,"line":0,"transit":false,"i_lat":-6.255332},{"i_long":106.851577,"line":2,"is_transit":false,"station_id":"PSMB","distance":824,"station_name":"Pasar Minggu Baru","transit":false,"time":2,"i_lat":-6.263214},{"time":2,"transit":false,"station_name":"Pasar Minggu","distance":2380,"station_id":"PSM","is_transit":false,"i_lat":-6.2842400000000005,"line":2,"i_long":106.843999},{"station_id":"TNT","station_name":"Tanjung Barat","is_transit":false,"time":4,"distance":2820,"line":2,"transit":false,"i_long":106.838896,"i_lat":-6.3080680000000005},{"time":3,"i_lat":-6.330363,"transit":false,"is_transit":false,"distance":2671,"i_long":106.832616,"line":2,"station_name":"Lenteng Agung","station_id":"LNA"},{"distance":1029,"line":2,"i_lat":-6.339291,"is_transit":false,"station_id":"UP","station_name":"Univ. Pancasila","i_long":106.834175,"transit":false,"time":2},{"is_transit":false,"station_id":"UI","station_name":"Univ. Indonesia","time":3,"distance":2264,"transit":false,"i_lat":-6.360749,"line":2,"i_long":106.831474},{"i_lat":-6.369073,"time":2,"line":2,"station_name":"Pondok Cina","distance":1109,"transit":false,"station_id":"POC","is_transit":false,"i_long":106.831114},{"transit":false,"line":0,"i_long":106.819451,"is_transit":false,"station_id":"DPB","station_name":"Depokbaru","distance":2727,"i_lat":-6.391065,"time":4},{"distance":1584,"i_lat":-6.405256,"time":3,"is_transit":false,"station_id":"DP","transit":false,"line":0,"i_long":106.816926,"station_name":"Depok"},{"station_id":"CTA","distance":5084,"transit":false,"i_long":106.800298,"i_lat":-6.448811,"is_transit":true,"line":1,"station_name":"Citayam","time":6}]]}