{"data":[[{"transit":false,"is_transit":false,"distance":0,"line":1,"station_name":"Bekasi","time":0,"i_long":106.997013,"i_lat":-6.236616,"station_id":"BKS"},{"station_id":"KRI","line":1,"is_transit":false,"transit":false,"station_name":"Kranji","distance":2520,"time":4,"i_lat":-6.224515,"i_long":106.977657},{"distance":3097,"transit":false,"is_transit":false,"station_id":"CUK","i_long":106.951283,"time":3,"line":1,"station_name":"Cakung","i_lat":-6.219053},{"i_long":106.939679,"time":8,"distance":1385,"line":1,"station_name":"Klenderbaru","i_lat":-6.217455,"is_transit":false,"station_id":"KLDB","transit":false},{"distance":1305,"i_lat":-6.215568,"station_id":"BUA","is_transit":false,"time":1,"line":1,"transit":false,"station_name":"Buaran","i_long":106.922662},{"is_transit":false,"station_id":"KLD","i_long":106.899548,"time":2,"distance":3100,"station_name":"Klender","i_lat":-6.2135,"line":1,"transit":false},{"is_transit":false,"station_name":"Jatinegara","station_id":"JNG","distance":3395,"line":1,"time":3,"i_lat":-6.215091,"transit":false,"i_long":106.86807400000001},{"is_transit":false,"station_name":"Matraman","line":1,"distance":1377,"station_id":"MTR","i_long":106.858896,"transit":false,"time":2,"i_lat":-6.212485},{"station_id":"MRI","time":2,"i_lat":-6.209883,"is_transit":false,"station_name":"Manggarai","line":2,"transit":false,"i_long":106.84912,"distance":1275},{"time":4,"station_id":"SUD","is_transit":false,"i_lat":-6.202263,"line":1,"station_name":"Sudirman","distance":3186,"i_long":106.822649,"transit":false},{"station_id":"SUDB","is_transit":false,"time":1,"i_long":106.819881,"i_lat":-6.201433,"line":1,"transit":false,"distance":280,"station_name":"Sudirman Baru"}],[{"is_transit":false,"distance":0,"i_lat":-6.236616,"time":0,"transit":false,"station_name":"Bekasi","station_id":"BKS","i_long":106.997013,"line":1},{"station_name":"Kranji","station_id":"KRI","time":4,"is_transit":false,"i_long":106.977657,"distance":2520,"i_lat":-6.224515,"line":1,"transit":false},{"station_id":"CUK","station_name":"Cakung","line":1,"time":3,"distance":3097,"i_long":106.951283,"is_transit":false,"transit":false,"i_lat":-6.219053},{"transit":false,"i_long":106.939679,"station_name":"Klenderbaru","station_id":"KLDB","i_lat":-6.217455,"distance":1385,"time":8,"line":1,"is_transit":false},{"station_name":"Buaran","time":1,"station_id":"BUA","distance":1305,"i_long":106.922662,"transit":false,"is_transit":false,"i_lat":-6.215568,"line":1},{"i_long":106.899548,"station_name":"Klender","time":2,"distance":3100,"line":1,"is_transit":false,"i_lat":-6.2135,"transit":false,"station_id":"KLD"},{"transit":true,"is_transit":true,"time":3,"i_long":106.86807400000001,"station_name":"Jatinegara","line":1,"distance":3395,"station_id":"JNG","i_lat":-6.215091},{"station_id":"POK","is_transit":false,"i_lat":-6.209188,"i_long":106.861737,"line":11,"transit":false,"time":2,"distance":1236,"station_name":"Pondok Jati"},{"station_id":"KMT","i_long":106.855437,"i_lat":-6.193792,"line":11,"transit":false,"is_transit":false,"time":2,"station_name":"Kramat","distance":1829},{"station_name":"Gang Sentiong","is_transit":false,"i_long":106.850107,"station_id":"GST","time":1,"i_lat":-6.185975,"distance":973,"transit":false,"line":11},{"station_name":"Pasar Senen","station_id":"PSE","transit":false,"is_transit":false,"distance":1567,"i_lat":-6.174784,"i_long":106.84368,"line":11,"time":8},{"distance":1436,"i_lat":-6.161728,"station_id":"KMO","station_name":"Kemayoran","i_long":106.839204,"transit":false,"line":11,"is_transit":false,"time":4},{"line":11,"station_name":"Rajawali","station_id":"RJW","distance":1901,"is_transit":false,"transit":false,"i_lat":-6.14505,"time":5,"i_long":106.836569},{"i_lat":-6.132549,"is_transit":true,"transit":true,"time":3,"line":4,"distance":1444,"i_long":106.826365,"station_name":"Kampung Bandan","station_id":"KPB"},{"is_transit":false,"transit":false,"station_id":"AK","line":1,"station_name":"Angke","i_lat":-6.144674,"time":9,"distance":4102,"i_long":106.79867},{"i_long":106.800832,"line":1,"station_name":"Duri","transit":false,"i_lat":-6.155215,"station_id":"DU","is_transit":false,"time":4,"distance":1230},{"station_id":"THB","i_lat":-6.185545,"time":8,"i_long":106.811091,"line":1,"station_name":"Tanah Abang","distance":3632,"transit":false,"is_transit":false},{"is_transit":false,"time":5,"i_lat":-6.20132,"transit":false,"station_id":"KAT","i_long":106.816351,"station_name":"Karet","distance":2029,"line":1},{"station_name":"Sudirman Baru","is_transit":false,"time":1,"transit":false,"i_long":106.819881,"line":1,"station_id":"SUDB","distance":471,"i_lat":-6.201433}],[{"time":0,"i_lat":-6.236616,"i_long":106.997013,"transit":false,"is_transit":false,"station_id":"BKS","distance":0,"station_name":"Bekasi","line":1},{"station_name":"Kranji","distance":2520,"station_id":"KRI","line":1,"i_lat":-6.224515,"i_long":106.977657,"time":4,"transit":false,"is_transit":false},{"line":1,"time":3,"i_lat":-6.219053,"is_transit":false,"i_long":106.951283,"station_name":"Cakung","station_id":"CUK","transit":false,"distance":3097},{"is_transit":false,"line":1,"time":8,"distance":1385,"station_id":"KLDB","i_lat":-6.217455,"i_long":106.939679,"transit":false,"station_name":"Klenderbaru"},{"station_name":"Buaran","is_transit":false,"line":1,"time":1,"distance":1305,"transit":false,"station_id":"BUA","i_long":106.922662,"i_lat":-6.215568},{"is_transit":false,"transit":false,"station_id":"KLD","i_lat":-6.2135,"i_long":106.899548,"line":1,"station_name":"Klender","distance":3100,"time":2},{"i_lat":-6.215091,"i_long":106.86807400000001,"time":3,"station_id":"JNG","station_name":"Jatinegara","is_transit":false,"distance":3395,"line":1,"transit":false},{"i_long":106.858896,"distance":1377,"station_name":"Matraman","i_lat":-6.212485,"station_id":"MTR","time":2,"is_transit":false,"line":1,"transit":false},{"is_transit":true,"station_name":"Manggarai","i_long":106.84912,"distance":1275,"transit":true,"line":2,"time":2,"i_lat":-6.209883,"station_id":"MRI"},{"is_transit":false,"time":4,"transit":false,"station_id":"CKI","line":2,"distance":1590,"i_long":106.840169,"i_lat":-6.198556,"station_name":"Cikini"},{"i_long":106.832183,"station_name":"Gondangdia","distance":1750,"is_transit":false,"line":2,"time":3,"i_lat":-6.186295,"transit":false,"station_id":"GDD"},{"i_lat":-6.166716,"is_transit":false,"time":4,"line":2,"station_name":"Juanda","i_long":106.828284,"transit":false,"station_id":"JUA","distance":2015},{"i_long":106.827103,"station_name":"Sawah Besar","transit":false,"time":2,"line":2,"distance":1149,"station_id":"SW","i_lat":-6.160725,"is_transit":false},{"transit":false,"station_id":"MGB","line":2,"i_long":106.82482,"time":2,"distance":906,"i_lat":-6.149769,"station_name":"Manggabesar","is_transit":false},{"line":2,"time":2,"i_long":106.820901,"station_id":"JAY","i_lat":-6.141205,"is_transit":false,"transit":false,"station_name":"Jayakarta","distance":1080},{"station_name":"Jakarta Kota","transit":true,"distance":1264,"line":2,"i_lat":-6.137569,"i_long":106.812439,"is_transit":true,"station_id":"JAKK","time":4},{"transit":true,"is_transit":true,"i_long":106.826365,"station_name":"Kampung Bandan","station_id":"KPB","line":4,"distance":1364,"time":3,"i_lat":-6.132549},{"distance":4102,"time":9,"line":1,"is_transit":false,"i_long":106.79867,"station_name":"Angke","transit":false,"i_lat":-6.144674,"station_id":"AK"},{"i_long":106.800832,"station_id":"DU","time":4,"line":1,"station_name":"Duri","is_transit":false,"transit":false,"i_lat":-6.155215,"distance":1230},{"line":1,"transit":false,"station_name":"Tanah Abang","i_long":106.811091,"time":8,"distance":3632,"station_id":"THB","is_transit":false,"i_lat":-6.185545},{"time":5,"station_id":"KAT","i_lat":-6.20132,"is_transit":false,"distance":2029,"transit":false,"i_long":106.816351,"line":1,"station_name":"Karet"},{"line":1,"i_long":106.819881,"distance":471,"transit":false,"is_transit":false,"station_name":"Sudirman Baru","time":1,"i_lat":-6.201433,"station_id":"SUDB"}],[{"station_id":"BKS","i_lat":-6.236616,"distance":0,"is_transit":false,"time":0,"i_long":106.997013,"line":1,"transit":false,"station_name":"Bekasi"},{"transit":false,"is_transit":false,"i_lat":-6.224515,"station_name":"Kranji","i_long":106.977657,"station_id":"KRI","line":1,"time":4,"distance":2520},{"station_name":"Cakung","i_long":106.951283,"time":3,"distance":3097,"station_id":"CUK","transit":false,"line":1,"i_lat":-6.219053,"is_transit":false},{"distance":1385,"is_transit":false,"station_id":"KLDB","i_lat":-6.217455,"i_long":106.939679,"line":1,"transit":false,"station_name":"Klenderbaru","time":8},{"line":1,"i_lat":-6.215568,"i_long":106.922662,"station_name":"Buaran","is_transit":false,"distance":1305,"time":1,"transit":false,"station_id":"BUA"},{"i_lat":-6.2135,"i_long":106.899548,"station_name":"Klender","is_transit":false,"station_id":"KLD","line":1,"time":2,"transit":false,"distance":3100},{"station_id":"JNG","distance":3395,"transit":true,"i_long":106.86807400000001,"station_name":"Jatinegara","time":3,"is_transit":true,"i_lat":-6.215091,"line":1},{"line":11,"station_name":"Pondok Jati","distance":1236,"time":2,"station_id":"POK","transit":false,"i_long":106.861737,"i_lat":-6.209188,"is_transit":false},{"i_lat":-6.193792,"transit":false,"station_id":"KMT","is_transit":false,"station_name":"Kramat","time":2,"distance":1829,"i_long":106.855437,"line":11},{"line":11,"i_long":106.850107,"station_name":"Gang Sentiong","station_id":"GST","transit":false,"distance":973,"time":1,"is_transit":false,"i_lat":-6.185975},{"transit":false,"station_name":"Pasar Senen","station_id":"PSE","time":8,"line":11,"distance":1567,"i_lat":-6.174784,"is_transit":false,"i_long":106.84368},{"station_name":"Kemayoran","time":4,"transit":false,"station_id":"KMO","i_long":106.839204,"distance":1436,"is_transit":false,"i_lat":-6.161728,"line":11},{"station_id":"RJW","time":5,"transit":false,"i_long":106.836569,"distance":1901,"station_name":"Rajawali","i_lat":-6.14505,"line":11,"is_transit":false},{"station_id":"KPB","station_name":"Kampung Bandan","distance":1444,"i_long":106.826365,"time":3,"line":4,"i_lat":-6.132549,"transit":true,"is_transit":true},{"i_lat":-6.137569,"transit":true,"station_id":"JAKK","is_transit":true,"time":3,"i_long":106.812439,"station_name":"Jakarta Kota","line":2,"distance":1364},{"station_name":"Jayakarta","is_transit":false,"transit":false,"distance":1264,"i_lat":-6.141205,"i_long":106.820901,"time":4,"line":2,"station_id":"JAY"},{"time":2,"i_long":106.82482,"i_lat":-6.149769,"station_name":"Manggabesar","line":2,"distance":1080,"is_transit":false,"station_id":"MGB","transit":false},{"i_lat":-6.160725,"line":2,"transit":false,"station_name":"Sawah Besar","station_id":"SW","time":2,"distance":906,"i_long":106.827103,"is_transit":false},{"transit":false,"station_id":"JUA","line":2,"time":2,"distance":1149,"i_lat":-6.166716,"is_transit":false,"i_long":106.828284,"station_name":"Juanda"},{"station_name":"Gondangdia","station_id":"GDD","is_transit":false,"time":4,"distance":2015,"transit":false,"i_long":106.832183,"line":2,"i_lat":-6.186295},{"i_lat":-6.198556,"i_long":106.840169,"station_name":"Cikini","station_id":"CKI","transit":false,"is_transit":false,"time":3,"line":2,"distance":1750},{"transit":true,"line":2,"station_name":"Manggarai","i_long":106.84912,"is_transit":true,"time":4,"distance":1590,"station_id":"MRI","i_lat":-6.209883},{"transit":false,"i_lat":-6.202263,"i_long":106.822649,"line":1,"station_id":"SUD","time":4,"distance":3186,"is_transit":false,"station_name":"Sudirman"},{"transit":false,"distance":280,"i_lat":-6.201433,"line":1,"station_name":"Sudirman Baru","is_transit":false,"i_long":106.819881,"time":1,"station_id":"SUDB"}]]}