{"data":[[{"line":1,"is_transit":false,"transit":false,"time":0,"station_name":"Bekasi","i_lat":-6.236616,"distance":0,"i_long":106.997013,"station_id":"BKS"},{"station_name":"Kranji","i_lat":-6.224515,"line":1,"is_transit":false,"distance":2520,"i_long":106.977657,"time":4,"station_id":"KRI","transit":false},{"i_long":106.951283,"time":3,"transit":false,"i_lat":-6.219053,"is_transit":false,"station_name":"Cakung","distance":3097,"station_id":"CUK","line":1},{"transit":false,"is_transit":false,"time":8,"distance":1385,"i_lat":-6.217455,"line":1,"station_id":"KLDB","i_long":106.939679,"station_name":"Klenderbaru"},{"station_id":"BUA","transit":false,"is_transit":false,"i_lat":-6.215568,"line":1,"i_long":106.922662,"station_name":"Buaran","time":1,"distance":1305},{"transit":false,"i_lat":-6.2135,"time":2,"station_id":"KLD","station_name":"Klender","i_long":106.899548,"line":1,"distance":3100,"is_transit":false},{"i_lat":-6.215091,"distance":3395,"i_long":106.86807400000001,"transit":false,"station_name":"Jatinegara","station_id":"JNG","time":3,"line":1,"is_transit":false},{"station_name":"Matraman","i_lat":-6.212485,"is_transit":false,"distance":1377,"i_long":106.858896,"line":1,"transit":false,"time":2,"station_id":"MTR"},{"time":2,"is_transit":false,"transit":false,"i_lat":-6.209883,"i_long":106.84912,"station_id":"MRI","station_name":"Manggarai","distance":1275,"line":2},{"i_long":106.822649,"station_name":"Sudirman","transit":false,"line":1,"distance":3186,"time":4,"i_lat":-6.202263,"is_transit":false,"station_id":"SUD"},{"time":1,"is_transit":false,"station_name":"Sudirman Baru","transit":false,"station_id":"SUDB","i_lat":-6.201433,"i_long":106.819881,"line":1,"distance":280},{"time":1,"transit":false,"i_lat":-6.20132,"station_id":"KAT","is_transit":false,"station_name":"Karet","i_long":106.816351,"line":1,"distance":471},{"line":1,"time":5,"station_id":"THB","i_lat":-6.185545,"i_long":106.811091,"station_name":"Tanah Abang","transit":false,"distance":2029,"is_transit":false},{"is_transit":true,"distance":3632,"station_name":"Duri","time":8,"i_lat":-6.155215,"station_id":"DU","line":1,"i_long":106.800832,"transit":true},{"time":3,"transit":false,"i_lat":-6.162021,"distance":1700,"i_long":106.788277,"station_name":"Grogol","is_transit":false,"line":5,"station_id":"GGL"},{"i_lat":-6.161433,"is_transit":false,"station_name":"Pesing","i_long":106.771379,"line":5,"distance":2036,"station_id":"PSG","time":2,"transit":false},{"station_name":"Taman Kota","is_transit":false,"line":5,"distance":1614,"i_lat":-6.1587309999999995,"i_long":106.756522,"time":2,"station_id":"TKO","transit":false}],[{"station_name":"Bekasi","i_long":106.997013,"transit":false,"station_id":"BKS","distance":0,"line":1,"i_lat":-6.236616,"is_transit":false,"time":0},{"transit":false,"i_long":106.977657,"station_id":"KRI","line":1,"is_transit":false,"i_lat":-6.224515,"time":4,"distance":2520,"station_name":"Kranji"},{"station_id":"CUK","is_transit":false,"transit":false,"time":3,"i_long":106.951283,"distance":3097,"i_lat":-6.219053,"line":1,"station_name":"Cakung"},{"station_id":"KLDB","station_name":"Klenderbaru","i_lat":-6.217455,"line":1,"distance":1385,"transit":false,"is_transit":false,"i_long":106.939679,"time":8},{"station_name":"Buaran","is_transit":false,"time":1,"line":1,"transit":false,"station_id":"BUA","distance":1305,"i_lat":-6.215568,"i_long":106.922662},{"distance":3100,"is_transit":false,"time":2,"i_lat":-6.2135,"line":1,"transit":false,"i_long":106.899548,"station_id":"KLD","station_name":"Klender"},{"station_name":"Jatinegara","line":1,"i_long":106.86807400000001,"is_transit":true,"time":3,"station_id":"JNG","distance":3395,"transit":true,"i_lat":-6.215091},{"i_long":106.861737,"line":11,"distance":1236,"is_transit":false,"station_name":"Pondok Jati","station_id":"POK","i_lat":-6.209188,"time":2,"transit":false},{"i_lat":-6.193792,"i_long":106.855437,"line":11,"is_transit":false,"distance":1829,"time":2,"station_id":"KMT","transit":false,"station_name":"Kramat"},{"is_transit":false,"station_name":"Gang Sentiong","line":11,"time":1,"station_id":"GST","distance":973,"transit":false,"i_lat":-6.185975,"i_long":106.850107},{"i_lat":-6.174784,"line":11,"distance":1567,"station_name":"Pasar Senen","time":8,"transit":false,"is_transit":false,"i_long":106.84368,"station_id":"PSE"},{"station_id":"KMO","station_name":"Kemayoran","i_long":106.839204,"line":11,"is_transit":false,"time":4,"transit":false,"i_lat":-6.161728,"distance":1436},{"station_name":"Rajawali","station_id":"RJW","time":5,"is_transit":false,"distance":1901,"transit":false,"line":11,"i_long":106.836569,"i_lat":-6.14505},{"i_long":106.826365,"distance":1444,"line":4,"station_id":"KPB","time":3,"transit":true,"i_lat":-6.132549,"station_name":"Kampung Bandan","is_transit":true},{"transit":false,"line":1,"station_id":"AK","station_name":"Angke","is_transit":false,"distance":4102,"i_lat":-6.144674,"time":9,"i_long":106.79867},{"station_name":"Duri","distance":1230,"i_long":106.800832,"station_id":"DU","transit":true,"i_lat":-6.155215,"line":1,"time":4,"is_transit":true},{"transit":false,"is_transit":false,"i_long":106.788277,"i_lat":-6.162021,"line":5,"time":3,"station_name":"Grogol","distance":1700,"station_id":"GGL"},{"station_id":"PSG","time":2,"station_name":"Pesing","i_long":106.771379,"i_lat":-6.161433,"line":5,"is_transit":false,"distance":2036,"transit":false},{"distance":1614,"station_id":"TKO","transit":false,"i_lat":-6.1587309999999995,"line":5,"time":2,"is_transit":false,"station_name":"Taman Kota","i_long":106.756522}],[{"transit":false,"i_long":106.997013,"is_transit":false,"station_id":"BKS","line":1,"station_name":"Bekasi","i_lat":-6.236616,"distance":0,"time":0},{"distance":2520,"i_long":106.977657,"station_id":"KRI","time":4,"line":1,"transit":false,"is_transit":false,"station_name":"Kranji","i_lat":-6.224515},{"transit":false,"station_id":"CUK","is_transit":false,"station_name":"Cakung","time":3,"i_long":106.951283,"distance":3097,"line":1,"i_lat":-6.219053},{"distance":1385,"time":8,"station_name":"Klenderbaru","station_id":"KLDB","i_lat":-6.217455,"i_long":106.939679,"line":1,"transit":false,"is_transit":false},{"is_transit":false,"station_id":"BUA","i_lat":-6.215568,"station_name":"Buaran","transit":false,"line":1,"distance":1305,"time":1,"i_long":106.922662},{"is_transit":false,"time":2,"station_name":"Klender","i_long":106.899548,"transit":false,"distance":3100,"line":1,"station_id":"KLD","i_lat":-6.2135},{"i_lat":-6.215091,"line":1,"station_id":"JNG","is_transit":false,"time":3,"station_name":"Jatinegara","transit":false,"distance":3395,"i_long":106.86807400000001},{"station_name":"Matraman","i_long":106.858896,"is_transit":false,"time":2,"distance":1377,"i_lat":-6.212485,"line":1,"station_id":"MTR","transit":false},{"line":2,"time":2,"i_lat":-6.209883,"i_long":106.84912,"distance":1275,"is_transit":true,"station_id":"MRI","transit":true,"station_name":"Manggarai"},{"distance":1590,"time":4,"i_long":106.840169,"station_name":"Cikini","i_lat":-6.198556,"is_transit":false,"line":2,"station_id":"CKI","transit":false},{"transit":false,"station_name":"Gondangdia","station_id":"GDD","line":2,"i_long":106.832183,"is_transit":false,"time":3,"i_lat":-6.186295,"distance":1750},{"transit":false,"is_transit":false,"station_id":"JUA","i_lat":-6.166716,"i_long":106.828284,"line":2,"time":4,"station_name":"Juanda","distance":2015},{"i_long":106.827103,"time":2,"transit":false,"distance":1149,"i_lat":-6.160725,"station_id":"SW","station_name":"Sawah Besar","line":2,"is_transit":false},{"line":2,"time":2,"i_lat":-6.149769,"i_long":106.82482,"is_transit":false,"station_name":"Manggabesar","station_id":"MGB","distance":906,"transit":false},{"station_id":"JAY","station_name":"Jayakarta","is_transit":false,"i_lat":-6.141205,"line":2,"time":2,"distance":1080,"transit":false,"i_long":106.820901},{"station_name":"Jakarta Kota","transit":true,"time":4,"line":2,"is_transit":true,"station_id":"JAKK","i_lat":-6.137569,"distance":1264,"i_long":106.812439},{"i_lat":-6.132549,"i_long":106.826365,"is_transit":true,"station_name":"Kampung Bandan","time":3,"distance":1364,"transit":true,"station_id":"KPB","line":4},{"station_id":"AK","i_lat":-6.144674,"distance":4102,"time":9,"i_long":106.79867,"transit":false,"station_name":"Angke","is_transit":false,"line":1},{"distance":1230,"station_id":"DU","transit":true,"i_lat":-6.155215,"i_long":106.800832,"line":1,"station_name":"Duri","time":4,"is_transit":true},{"i_long":106.788277,"is_transit":false,"transit":false,"distance":1700,"station_name":"Grogol","time":3,"line":5,"i_lat":-6.162021,"station_id":"GGL"},{"station_name":"Pesing","i_lat":-6.161433,"i_long":106.771379,"time":2,"is_transit":false,"transit":false,"distance":2036,"station_id":"PSG","line":5},{"i_lat":-6.1587309999999995,"is_transit":false,"time":2,"transit":false,"i_long":106.756522,"distance":1614,"line":5,"station_name":"Taman Kota","station_id":"TKO"}],[{"is_transit":false,"i_lat":-6.236616,"station_id":"BKS","transit":false,"i_long":106.997013,"time":0,"distance":0,"line":1,"station_name":"Bekasi"},{"is_transit":false,"line":1,"station_name":"Kranji","time":4,"distance":2520,"i_lat":-6.224515,"i_long":106.977657,"station_id":"KRI","transit":false},{"station_id":"CUK","station_name":"Cakung","i_lat":-6.219053,"transit":false,"time":3,"is_transit":false,"distance":3097,"i_long":106.951283,"line":1},{"i_lat":-6.217455,"is_transit":false,"line":1,"transit":false,"time":8,"distance":1385,"i_long":106.939679,"station_name":"Klenderbaru","station_id":"KLDB"},{"i_long":106.922662,"time":1,"transit":false,"is_transit":false,"station_name":"Buaran","distance":1305,"i_lat":-6.215568,"station_id":"BUA","line":1},{"station_id":"KLD","i_long":106.899548,"line":1,"station_name":"Klender","distance":3100,"is_transit":false,"time":2,"i_lat":-6.2135,"transit":false},{"transit":true,"i_lat":-6.215091,"station_name":"Jatinegara","is_transit":true,"i_long":106.86807400000001,"line":1,"distance":3395,"station_id":"JNG","time":3},{"transit":false,"line":11,"is_transit":false,"distance":1236,"station_id":"POK","i_lat":-6.209188,"i_long":106.861737,"station_name":"Pondok Jati","time":2},{"transit":false,"station_name":"Kramat","station_id":"KMT","time":2,"distance":1829,"i_long":106.855437,"is_transit":false,"i_lat":-6.193792,"line":11},{"station_name":"Gang Sentiong","distance":973,"time":1,"station_id":"GST","is_transit":false,"transit":false,"i_lat":-6.185975,"i_long":106.850107,"line":11},{"i_lat":-6.174784,"time":8,"is_transit":false,"transit":false,"i_long":106.84368,"line":11,"distance":1567,"station_name":"Pasar Senen","station_id":"PSE"},{"station_id":"KMO","distance":1436,"line":11,"i_lat":-6.161728,"i_long":106.839204,"station_name":"Kemayoran","is_transit":false,"time":4,"transit":false},{"time":5,"is_transit":false,"i_long":106.836569,"station_id":"RJW","distance":1901,"transit":false,"i_lat":-6.14505,"station_name":"Rajawali","line":11},{"transit":true,"i_long":106.826365,"is_transit":true,"distance":1444,"station_id":"KPB","i_lat":-6.132549,"line":4,"time":3,"station_name":"Kampung Bandan"},{"transit":true,"time":3,"i_long":106.812439,"line":2,"station_id":"JAKK","i_lat":-6.137569,"distance":1364,"is_transit":true,"station_name":"Jakarta Kota"},{"i_lat":-6.141205,"time":4,"station_name":"Jayakarta","station_id":"JAY","is_transit":false,"transit":false,"i_long":106.820901,"distance":1264,"line":2},{"i_lat":-6.149769,"station_id":"MGB","transit":false,"line":2,"time":2,"station_name":"Manggabesar","i_long":106.82482,"is_transit":false,"distance":1080},{"i_lat":-6.160725,"is_transit":false,"station_name":"Sawah Besar","distance":906,"transit":false,"station_id":"SW","line":2,"time":2,"i_long":106.827103},{"line":2,"station_id":"JUA","station_name":"Juanda","transit":false,"i_lat":-6.166716,"is_transit":false,"time":2,"i_long":106.828284,"distance":1149},{"is_transit":false,"i_lat":-6.186295,"station_id":"GDD","time":4,"station_name":"Gondangdia","distance":2015,"line":2,"transit":false,"i_long":106.832183},{"i_lat":-6.198556,"distance":1750,"time":3,"station_id":"CKI","station_name":"Cikini","i_long":106.840169,"is_transit":false,"transit":false,"line":2},{"is_transit":true,"line":2,"time":4,"transit":true,"i_long":106.84912,"station_name":"Manggarai","i_lat":-6.209883,"station_id":"MRI","distance":1590},{"time":4,"station_id":"SUD","transit":false,"station_name":"Sudirman","distance":3186,"i_long":106.822649,"is_transit":false,"i_lat":-6.202263,"line":1},{"time":1,"distance":280,"transit":false,"i_long":106.819881,"is_transit":false,"station_name":"Sudirman Baru","i_lat":-6.201433,"line":1,"station_id":"SUDB"},{"transit":false,"station_name":"Karet","i_lat":-6.20132,"time":1,"i_long":106.816351,"line":1,"is_transit":false,"distance":471,"station_id":"KAT"},{"distance":2029,"i_lat":-6.185545,"line":1,"is_transit":false,"transit":false,"station_id":"THB","i_long":106.811091,"time":5,"station_name":"Tanah Abang"},{"is_transit":true,"station_name":"Duri","distance":3632,"i_long":106.800832,"station_id":"DU","i_lat":-6.155215,"time":8,"line":1,"transit":true},{"is_transit":false,"i_long":106.788277,"transit":false,"line":5,"i_lat":-6.162021,"time":3,"station_name":"Grogol","distance":1700,"station_id":"GGL"},{"line":5,"station_name":"Pesing","time":2,"transit":false,"distance":2036,"i_long":106.771379,"is_transit":false,"i_lat":-6.161433,"station_id":"PSG"},{"i_lat":-6.1587309999999995,"time":2,"i_long":106.756522,"distance":1614,"line":5,"station_id":"TKO","station_name":"Taman Kota","transit":false,"is_transit":false}]]}