{"data":[[{"distance":0,"station_id":"BKS","i_lat":-6.236616,"time":0,"line":0,"station_name":"Bekasi","is_transit":false,"transit":false,"i_long":106.997013},{"line":1,"time":4,"is_transit":false,"station_name":"Kranji","station_id":"KRI","transit":false,"distance":2520,"i_lat":-6.224515,"i_long":106.977657},{"distance":3097,"station_name":"Cakung","transit":false,"i_lat":-6.219053,"line":0,"station_id":"CUK","time":3,"is_transit":false,"i_long":106.951283},{"time":8,"line":1,"is_transit":false,"i_lat":-6.217455,"station_name":"Klenderbaru","distance":1385,"station_id":"KLDB","transit":false,"i_long":106.939679},{"line":0,"station_id":"BUA","time":1,"is_transit":false,"transit":false,"station_name":"Buaran","i_lat":-6.215568,"i_long":106.922662,"distance":1305},{"i_long":106.899548,"line":1,"distance":3100,"transit":false,"station_id":"KLD","is_transit":false,"time":2,"station_name":"Klender","i_lat":-6.2135},{"transit":false,"distance":3395,"i_lat":-6.215091,"line":0,"station_id":"JNG","time":3,"station_name":"Jatinegara","i_long":106.86807400000001,"is_transit":true},{"station_id":"MTR","transit":false,"time":2,"is_transit":false,"i_lat":-6.212485,"line":1,"station_name":"Matraman","distance":1377,"i_long":106.858896},{"station_name":"Manggarai","i_lat":-6.209883,"is_transit":true,"transit":false,"distance":1275,"line":0,"i_long":106.84912,"station_id":"MRI","time":2},{"station_name":"Sudirman","station_id":"SUD","is_transit":false,"line":1,"transit":false,"i_long":106.822649,"i_lat":-6.202263,"time":4,"distance":3186},{"i_lat":-6.201433,"i_long":106.819881,"line":1,"time":1,"distance":280,"is_transit":false,"station_id":"SUDB","station_name":"Sudirman Baru","transit":false},{"time":1,"i_long":106.816351,"is_transit":false,"station_name":"Karet","station_id":"KAT","transit":false,"distance":471,"line":1,"i_lat":-6.20132},{"time":5,"is_transit":true,"station_name":"Tanah Abang","transit":true,"i_lat":-6.185545,"i_long":106.811091,"distance":2029,"line":1,"station_id":"THB"},{"distance":3191,"transit":false,"is_transit":false,"time":6,"line":6,"i_long":106.79689,"i_lat":-6.207404,"station_name":"Palmerah","station_id":"PLM"},{"i_lat":-6.237242,"time":7,"station_name":"Kebayoran","i_long":106.780334,"is_transit":false,"distance":3737,"station_id":"KBY","transit":false,"line":6},{"is_transit":false,"distance":6218,"time":8,"station_name":"Pondokranji","i_lat":-6.276362,"transit":false,"i_long":106.74273,"line":6,"station_id":"PDJ"},{"station_id":"JMU","i_long":106.728916,"station_name":"Jurangmangu","distance":2179,"line":6,"transit":false,"i_lat":-6.288927,"time":3,"is_transit":false},{"is_transit":false,"distance":1994,"i_long":106.712277,"station_id":"SDM","transit":false,"line":6,"time":4,"i_lat":-6.296963,"station_name":"Sudimara"},{"time":6,"is_transit":false,"i_lat":-6.314823,"line":6,"transit":false,"station_id":"RU","distance":4566,"station_name":"Rawa Buntu","i_long":106.675475},{"i_long":106.66566,"transit":false,"is_transit":false,"i_lat":-6.319871,"station_name":"Serpong","line":6,"station_id":"SRP","time":4,"distance":2413},{"is_transit":false,"station_name":"Cisauk","distance":1784,"line":0,"i_lat":-6.32484,"i_long":106.640411,"time":4,"transit":false,"station_id":"CSK"},{"is_transit":false,"station_name":"Cicayur","transit":false,"station_id":"CC","distance":2519,"i_lat":-6.329547,"line":0,"i_long":106.617853,"time":4},{"station_id":"PRP","transit":false,"distance":5968,"time":8,"is_transit":false,"i_lat":-6.3441410000000005,"i_long":106.568863,"station_name":"Parung Panjang","line":6},{"i_long":106.508482,"distance":7025,"station_name":"Cilejit","line":0,"station_id":"CJT","is_transit":false,"time":9,"transit":false,"i_lat":-6.354349},{"is_transit":false,"time":6,"i_lat":-6.338021,"transit":false,"station_id":"DAR","distance":2675,"i_long":106.491338,"station_name":"Daru","line":0},{"station_name":"Tenjo","is_transit":false,"transit":false,"i_lat":-6.327251,"station_id":"TEJ","time":5,"distance":3902,"line":6,"i_long":106.460812},{"station_id":"TGS","line":6,"is_transit":false,"station_name":"Tigaraksa","distance":2974,"transit":false,"i_lat":-6.328533,"i_long":106.425991,"time":5},{"station_name":"Cikoya","station_id":"CKY","time":3,"is_transit":false,"transit":false,"line":0,"i_long":106.411216,"i_lat":-6.33561,"distance":2651},{"station_name":"Maja","i_lat":-6.332307,"transit":false,"station_id":"MJ","line":6,"i_long":106.394373,"is_transit":false,"distance":1853,"time":4},{"time":10,"station_id":"CTR","distance":7293,"transit":false,"i_long":106.332092,"line":0,"station_name":"Citeras","i_lat":-6.334892,"is_transit":false}],[{"line":0,"transit":false,"station_id":"BKS","is_transit":false,"time":0,"distance":0,"i_lat":-6.236616,"station_name":"Bekasi","i_long":106.997013},{"line":1,"station_id":"KRI","is_transit":false,"station_name":"Kranji","i_lat":-6.224515,"transit":false,"time":4,"i_long":106.977657,"distance":2520},{"transit":false,"station_id":"CUK","is_transit":false,"time":3,"i_lat":-6.219053,"distance":3097,"line":0,"station_name":"Cakung","i_long":106.951283},{"i_lat":-6.217455,"line":1,"distance":1385,"time":8,"i_long":106.939679,"transit":false,"station_id":"KLDB","station_name":"Klenderbaru","is_transit":false},{"distance":1305,"is_transit":false,"transit":false,"line":0,"i_long":106.922662,"time":1,"station_id":"BUA","station_name":"Buaran","i_lat":-6.215568},{"line":1,"time":2,"distance":3100,"is_transit":false,"i_lat":-6.2135,"station_name":"Klender","transit":false,"station_id":"KLD","i_long":106.899548},{"time":3,"i_long":106.86807400000001,"i_lat":-6.215091,"is_transit":true,"station_name":"Jatinegara","transit":true,"distance":3395,"line":0,"station_id":"JNG"},{"time":2,"station_id":"POK","i_lat":-6.209188,"transit":false,"i_long":106.861737,"line":11,"is_transit":false,"station_name":"Pondok Jati","distance":1236},{"is_transit":false,"distance":1829,"i_lat":-6.193792,"line":11,"time":2,"transit":false,"station_id":"KMT","station_name":"Kramat","i_long":106.855437},{"transit":false,"station_id":"GST","i_lat":-6.185975,"line":11,"time":1,"i_long":106.850107,"is_transit":false,"distance":973,"station_name":"Gang Sentiong"},{"i_long":106.84368,"i_lat":-6.174784,"line":11,"station_id":"PSE","distance":1567,"transit":false,"station_name":"Pasar Senen","time":8,"is_transit":false},{"distance":1436,"is_transit":false,"transit":false,"time":4,"station_id":"KMO","i_long":106.839204,"i_lat":-6.161728,"line":11,"station_name":"Kemayoran"},{"station_name":"Rajawali","transit":false,"i_lat":-6.14505,"line":11,"time":5,"distance":1901,"station_id":"RJW","is_transit":false,"i_long":106.836569},{"is_transit":true,"time":3,"line":0,"distance":1444,"transit":true,"i_lat":-6.132549,"i_long":106.826365,"station_id":"KPB","station_name":"Kampung Bandan"},{"distance":4102,"station_id":"AK","time":9,"is_transit":false,"station_name":"Angke","i_lat":-6.144674,"transit":false,"line":0,"i_long":106.79867},{"transit":true,"is_transit":true,"time":4,"distance":1230,"i_long":106.800832,"station_name":"Duri","line":1,"station_id":"DU","i_lat":-6.155215},{"transit":true,"is_transit":true,"station_id":"THB","i_long":106.811091,"i_lat":-6.185545,"line":1,"station_name":"Tanah Abang","time":8,"distance":3632},{"station_id":"PLM","is_transit":false,"distance":3191,"i_long":106.79689,"line":6,"station_name":"Palmerah","time":6,"transit":false,"i_lat":-6.207404},{"transit":false,"line":6,"station_id":"KBY","station_name":"Kebayoran","time":7,"is_transit":false,"distance":3737,"i_lat":-6.237242,"i_long":106.780334},{"is_transit":false,"time":8,"distance":6218,"i_lat":-6.276362,"i_long":106.74273,"station_id":"PDJ","station_name":"Pondokranji","transit":false,"line":6},{"i_lat":-6.288927,"i_long":106.728916,"line":6,"is_transit":false,"distance":2179,"station_name":"Jurangmangu","station_id":"JMU","transit":false,"time":3},{"i_long":106.712277,"station_name":"Sudimara","distance":1994,"i_lat":-6.296963,"station_id":"SDM","line":6,"time":4,"is_transit":false,"transit":false},{"distance":4566,"transit":false,"station_id":"RU","line":6,"i_long":106.675475,"time":6,"i_lat":-6.314823,"is_transit":false,"station_name":"Rawa Buntu"},{"transit":false,"time":4,"distance":2413,"i_lat":-6.319871,"is_transit":false,"line":6,"station_name":"Serpong","station_id":"SRP","i_long":106.66566},{"transit":false,"station_name":"Cisauk","line":0,"time":4,"distance":1784,"i_long":106.640411,"station_id":"CSK","i_lat":-6.32484,"is_transit":false},{"station_name":"Cicayur","line":0,"station_id":"CC","time":4,"transit":false,"i_long":106.617853,"is_transit":false,"i_lat":-6.329547,"distance":2519},{"time":8,"i_long":106.568863,"distance":5968,"i_lat":-6.3441410000000005,"station_id":"PRP","is_transit":false,"station_name":"Parung Panjang","transit":false,"line":6},{"time":9,"transit":false,"i_long":106.508482,"station_id":"CJT","is_transit":false,"station_name":"Cilejit","distance":7025,"line":0,"i_lat":-6.354349},{"is_transit":false,"distance":2675,"time":6,"station_id":"DAR","i_lat":-6.338021,"line":0,"i_long":106.491338,"station_name":"Daru","transit":false},{"transit":false,"station_id":"TEJ","i_lat":-6.327251,"distance":3902,"time":5,"line":6,"is_transit":false,"i_long":106.460812,"station_name":"Tenjo"},{"station_id":"TGS","time":5,"station_name":"Tigaraksa","is_transit":false,"i_long":106.425991,"line":6,"transit":false,"distance":2974,"i_lat":-6.328533},{"i_lat":-6.33561,"is_transit":false,"i_long":106.411216,"station_id":"CKY","time":3,"transit":false,"distance":2651,"line":0,"station_name":"Cikoya"},{"line":6,"transit":false,"station_name":"Maja","i_long":106.394373,"is_transit":false,"distance":1853,"i_lat":-6.332307,"time":4,"station_id":"MJ"},{"line":0,"station_name":"Citeras","distance":7293,"time":10,"i_lat":-6.334892,"is_transit":false,"i_long":106.332092,"station_id":"CTR","transit":false}],[{"time":0,"station_id":"BKS","is_transit":false,"i_lat":-6.236616,"i_long":106.997013,"station_name":"Bekasi","transit":false,"distance":0,"line":0},{"i_lat":-6.224515,"station_name":"Kranji","distance":2520,"station_id":"KRI","i_long":106.977657,"is_transit":false,"line":1,"time":4,"transit":false},{"transit":false,"line":0,"station_id":"CUK","distance":3097,"is_transit":false,"i_lat":-6.219053,"i_long":106.951283,"time":3,"station_name":"Cakung"},{"line":1,"time":8,"station_id":"KLDB","transit":false,"distance":1385,"i_long":106.939679,"station_name":"Klenderbaru","is_transit":false,"i_lat":-6.217455},{"transit":false,"i_long":106.922662,"time":1,"station_id":"BUA","line":0,"i_lat":-6.215568,"distance":1305,"station_name":"Buaran","is_transit":false},{"i_lat":-6.2135,"line":1,"i_long":106.899548,"transit":false,"station_id":"KLD","distance":3100,"time":2,"is_transit":false,"station_name":"Klender"},{"i_long":106.86807400000001,"time":3,"station_id":"JNG","line":0,"is_transit":true,"station_name":"Jatinegara","distance":3395,"i_lat":-6.215091,"transit":false},{"i_lat":-6.212485,"distance":1377,"is_transit":false,"i_long":106.858896,"transit":false,"line":1,"time":2,"station_id":"MTR","station_name":"Matraman"},{"station_id":"MRI","line":0,"i_lat":-6.209883,"transit":true,"time":2,"is_transit":true,"distance":1275,"station_name":"Manggarai","i_long":106.84912},{"i_long":106.840169,"transit":false,"distance":1590,"i_lat":-6.198556,"is_transit":false,"station_name":"Cikini","line":0,"time":4,"station_id":"CKI"},{"is_transit":false,"station_name":"Gondangdia","i_long":106.832183,"time":3,"transit":false,"distance":1750,"i_lat":-6.186295,"line":2,"station_id":"GDD"},{"line":2,"i_lat":-6.166716,"i_long":106.828284,"transit":false,"time":4,"distance":2015,"station_name":"Juanda","is_transit":false,"station_id":"JUA"},{"station_id":"SW","distance":1149,"line":2,"i_long":106.827103,"transit":false,"is_transit":false,"station_name":"Sawah Besar","i_lat":-6.160725,"time":2},{"time":2,"station_name":"Manggabesar","i_lat":-6.149769,"line":2,"is_transit":false,"distance":906,"i_long":106.82482,"transit":false,"station_id":"MGB"},{"line":7,"station_id":"JAY","i_lat":-6.141205,"time":2,"i_long":106.820901,"station_name":"Jayakarta","transit":false,"distance":1080,"is_transit":false},{"time":4,"transit":true,"line":0,"i_lat":-6.137569,"distance":1264,"i_long":106.812439,"is_transit":true,"station_name":"Jakarta Kota","station_id":"JAKK"},{"line":0,"i_long":106.826365,"is_transit":true,"distance":1364,"i_lat":-6.132549,"station_id":"KPB","station_name":"Kampung Bandan","transit":false,"time":3},{"station_name":"Angke","transit":false,"station_id":"AK","time":9,"distance":4102,"i_lat":-6.144674,"line":0,"is_transit":false,"i_long":106.79867},{"transit":true,"line":1,"station_id":"DU","distance":1230,"time":4,"i_long":106.800832,"i_lat":-6.155215,"is_transit":true,"station_name":"Duri"},{"i_long":106.811091,"station_name":"Tanah Abang","transit":true,"station_id":"THB","line":1,"time":8,"is_transit":true,"distance":3632,"i_lat":-6.185545},{"distance":3191,"line":6,"i_long":106.79689,"is_transit":false,"time":6,"station_id":"PLM","station_name":"Palmerah","i_lat":-6.207404,"transit":false},{"station_name":"Kebayoran","station_id":"KBY","is_transit":false,"distance":3737,"transit":false,"time":7,"i_lat":-6.237242,"line":6,"i_long":106.780334},{"distance":6218,"i_long":106.74273,"i_lat":-6.276362,"is_transit":false,"station_id":"PDJ","line":6,"transit":false,"station_name":"Pondokranji","time":8},{"distance":2179,"station_name":"Jurangmangu","station_id":"JMU","transit":false,"i_long":106.728916,"i_lat":-6.288927,"is_transit":false,"line":6,"time":3},{"station_name":"Sudimara","line":6,"i_long":106.712277,"is_transit":false,"time":4,"distance":1994,"transit":false,"station_id":"SDM","i_lat":-6.296963},{"i_long":106.675475,"is_transit":false,"line":6,"distance":4566,"station_id":"RU","time":6,"station_name":"Rawa Buntu","transit":false,"i_lat":-6.314823},{"time":4,"i_long":106.66566,"station_name":"Serpong","distance":2413,"i_lat":-6.319871,"station_id":"SRP","line":6,"is_transit":false,"transit":false},{"transit":false,"line":0,"station_id":"CSK","station_name":"Cisauk","i_lat":-6.32484,"i_long":106.640411,"is_transit":false,"distance":1784,"time":4},{"station_name":"Cicayur","time":4,"is_transit":false,"transit":false,"line":0,"i_long":106.617853,"i_lat":-6.329547,"station_id":"CC","distance":2519},{"station_name":"Parung Panjang","line":6,"i_lat":-6.3441410000000005,"distance":5968,"station_id":"PRP","time":8,"i_long":106.568863,"is_transit":false,"transit":false},{"station_id":"CJT","time":9,"line":0,"distance":7025,"station_name":"Cilejit","i_lat":-6.354349,"transit":false,"i_long":106.508482,"is_transit":false},{"station_id":"DAR","time":6,"i_lat":-6.338021,"transit":false,"distance":2675,"i_long":106.491338,"line":0,"station_name":"Daru","is_transit":false},{"distance":3902,"time":5,"transit":false,"station_id":"TEJ","is_transit":false,"i_lat":-6.327251,"line":6,"station_name":"Tenjo","i_long":106.460812},{"time":5,"i_long":106.425991,"station_id":"TGS","line":6,"station_name":"Tigaraksa","i_lat":-6.328533,"distance":2974,"transit":false,"is_transit":false},{"line":0,"is_transit":false,"station_id":"CKY","i_lat":-6.33561,"transit":false,"time":3,"station_name":"Cikoya","distance":2651,"i_long":106.411216},{"i_lat":-6.332307,"station_id":"MJ","station_name":"Maja","i_long":106.394373,"is_transit":false,"distance":1853,"time":4,"line":6,"transit":false},{"time":10,"i_long":106.332092,"distance":7293,"i_lat":-6.334892,"transit":false,"line":0,"station_id":"CTR","is_transit":false,"station_name":"Citeras"}],[{"station_id":"BKS","line":0,"time":0,"transit":false,"distance":0,"i_lat":-6.236616,"is_transit":false,"i_long":106.997013,"station_name":"Bekasi"},{"i_long":106.977657,"line":1,"station_id":"KRI","i_lat":-6.224515,"station_name":"Kranji","is_transit":false,"time":4,"transit":false,"distance":2520},{"i_long":106.951283,"is_transit":false,"time":3,"station_id":"CUK","station_name":"Cakung","line":0,"i_lat":-6.219053,"transit":false,"distance":3097},{"station_name":"Klenderbaru","is_transit":false,"time":8,"distance":1385,"i_long":106.939679,"line":1,"i_lat":-6.217455,"transit":false,"station_id":"KLDB"},{"distance":1305,"station_name":"Buaran","transit":false,"line":0,"station_id":"BUA","i_long":106.922662,"i_lat":-6.215568,"is_transit":false,"time":1},{"distance":3100,"line":1,"i_lat":-6.2135,"station_name":"Klender","i_long":106.899548,"station_id":"KLD","time":2,"is_transit":false,"transit":false},{"is_transit":true,"time":3,"distance":3395,"i_lat":-6.215091,"i_long":106.86807400000001,"transit":true,"line":0,"station_id":"JNG","station_name":"Jatinegara"},{"time":2,"station_name":"Pondok Jati","i_long":106.861737,"line":11,"distance":1236,"i_lat":-6.209188,"station_id":"POK","transit":false,"is_transit":false},{"station_id":"KMT","time":2,"i_lat":-6.193792,"i_long":106.855437,"distance":1829,"station_name":"Kramat","transit":false,"line":11,"is_transit":false},{"transit":false,"station_name":"Gang Sentiong","time":1,"i_long":106.850107,"station_id":"GST","distance":973,"line":11,"i_lat":-6.185975,"is_transit":false},{"station_name":"Pasar Senen","time":8,"distance":1567,"is_transit":false,"i_long":106.84368,"station_id":"PSE","line":11,"transit":false,"i_lat":-6.174784},{"is_transit":false,"i_lat":-6.161728,"station_id":"KMO","station_name":"Kemayoran","transit":false,"i_long":106.839204,"distance":1436,"line":11,"time":4},{"line":11,"i_lat":-6.14505,"i_long":106.836569,"transit":false,"distance":1901,"station_name":"Rajawali","is_transit":false,"time":5,"station_id":"RJW"},{"station_id":"KPB","i_lat":-6.132549,"time":3,"i_long":106.826365,"transit":true,"line":0,"station_name":"Kampung Bandan","is_transit":true,"distance":1444},{"station_id":"JAKK","station_name":"Jakarta Kota","distance":1364,"i_lat":-6.137569,"time":3,"is_transit":true,"i_long":106.812439,"transit":true,"line":0},{"i_lat":-6.141205,"is_transit":false,"line":7,"station_name":"Jayakarta","distance":1264,"i_long":106.820901,"transit":false,"station_id":"JAY","time":4},{"time":2,"station_name":"Manggabesar","distance":1080,"i_lat":-6.149769,"line":2,"is_transit":false,"transit":false,"station_id":"MGB","i_long":106.82482},{"transit":false,"station_name":"Sawah Besar","distance":906,"i_lat":-6.160725,"i_long":106.827103,"line":2,"time":2,"is_transit":false,"station_id":"SW"},{"station_name":"Juanda","line":2,"time":2,"i_long":106.828284,"transit":false,"is_transit":false,"i_lat":-6.166716,"station_id":"JUA","distance":1149},{"station_id":"GDD","time":4,"i_lat":-6.186295,"is_transit":false,"station_name":"Gondangdia","transit":false,"line":2,"distance":2015,"i_long":106.832183},{"is_transit":false,"transit":false,"i_lat":-6.198556,"line":0,"station_id":"CKI","i_long":106.840169,"station_name":"Cikini","distance":1750,"time":3},{"time":4,"station_id":"MRI","distance":1590,"is_transit":true,"i_long":106.84912,"station_name":"Manggarai","i_lat":-6.209883,"line":0,"transit":true},{"is_transit":false,"station_name":"Sudirman","i_long":106.822649,"station_id":"SUD","i_lat":-6.202263,"line":1,"transit":false,"distance":3186,"time":4},{"transit":false,"i_long":106.819881,"line":1,"station_name":"Sudirman Baru","station_id":"SUDB","time":1,"distance":280,"i_lat":-6.201433,"is_transit":false},{"station_id":"KAT","distance":471,"time":1,"is_transit":false,"i_long":106.816351,"station_name":"Karet","i_lat":-6.20132,"line":1,"transit":false},{"i_long":106.811091,"line":1,"is_transit":true,"station_name":"Tanah Abang","i_lat":-6.185545,"distance":2029,"station_id":"THB","transit":true,"time":5},{"line":6,"i_long":106.79689,"time":6,"distance":3191,"station_id":"PLM","is_transit":false,"station_name":"Palmerah","transit":false,"i_lat":-6.207404},{"i_long":106.780334,"i_lat":-6.237242,"is_transit":false,"transit":false,"distance":3737,"line":6,"station_id":"KBY","time":7,"station_name":"Kebayoran"},{"transit":false,"time":8,"is_transit":false,"station_name":"Pondokranji","station_id":"PDJ","i_lat":-6.276362,"line":6,"i_long":106.74273,"distance":6218},{"transit":false,"distance":2179,"station_name":"Jurangmangu","i_lat":-6.288927,"i_long":106.728916,"station_id":"JMU","time":3,"is_transit":false,"line":6},{"i_long":106.712277,"i_lat":-6.296963,"station_name":"Sudimara","line":6,"station_id":"SDM","time":4,"distance":1994,"transit":false,"is_transit":false},{"line":6,"distance":4566,"time":6,"station_id":"RU","is_transit":false,"station_name":"Rawa Buntu","transit":false,"i_lat":-6.314823,"i_long":106.675475},{"distance":2413,"i_lat":-6.319871,"station_name":"Serpong","is_transit":false,"line":6,"time":4,"i_long":106.66566,"station_id":"SRP","transit":false},{"is_transit":false,"transit":false,"distance":1784,"i_lat":-6.32484,"i_long":106.640411,"station_name":"Cisauk","station_id":"CSK","line":0,"time":4},{"station_id":"CC","is_transit":false,"i_long":106.617853,"line":0,"i_lat":-6.329547,"station_name":"Cicayur","time":4,"transit":false,"distance":2519},{"station_id":"PRP","station_name":"Parung Panjang","distance":5968,"is_transit":false,"transit":false,"time":8,"i_lat":-6.3441410000000005,"i_long":106.568863,"line":6},{"is_transit":false,"station_id":"CJT","i_long":106.508482,"transit":false,"station_name":"Cilejit","time":9,"distance":7025,"i_lat":-6.354349,"line":0},{"station_id":"DAR","i_long":106.491338,"is_transit":false,"transit":false,"time":6,"line":0,"distance":2675,"station_name":"Daru","i_lat":-6.338021},{"line":6,"station_name":"Tenjo","is_transit":false,"i_lat":-6.327251,"time":5,"transit":false,"station_id":"TEJ","distance":3902,"i_long":106.460812},{"i_lat":-6.328533,"time":5,"i_long":106.425991,"station_id":"TGS","is_transit":false,"station_name":"Tigaraksa","transit":false,"line":6,"distance":2974},{"time":3,"i_lat":-6.33561,"is_transit":false,"line":0,"transit":false,"station_name":"Cikoya","distance":2651,"i_long":106.411216,"station_id":"CKY"},{"station_id":"MJ","i_long":106.394373,"time":4,"station_name":"Maja","distance":1853,"is_transit":false,"transit":false,"i_lat":-6.332307,"line":6},{"distance":7293,"i_lat":-6.334892,"i_long":106.332092,"line":0,"station_id":"CTR","is_transit":false,"transit":false,"station_name":"Citeras","time":10}]]}