{"data":[[{"time":0,"i_lat":-6.236616,"station_name":"Bekasi","transit":false,"station_id":"BKS","i_long":106.997013,"line":1,"distance":0,"is_transit":false},{"is_transit":false,"i_long":106.977657,"station_name":"Kranji","i_lat":-6.224515,"distance":2520,"line":1,"time":4,"transit":false,"station_id":"KRI"},{"line":1,"time":3,"distance":3097,"i_long":106.951283,"station_id":"CUK","transit":false,"station_name":"Cakung","is_transit":false,"i_lat":-6.219053},{"transit":false,"station_id":"KLDB","i_long":106.939679,"station_name":"Klenderbaru","line":1,"time":8,"is_transit":false,"distance":1385,"i_lat":-6.217455},{"transit":false,"station_id":"BUA","i_long":106.922662,"is_transit":false,"i_lat":-6.215568,"station_name":"Buaran","time":1,"distance":1305,"line":1},{"transit":false,"station_id":"KLD","i_lat":-6.2135,"station_name":"Klender","distance":3100,"is_transit":false,"i_long":106.899548,"line":1,"time":2},{"station_name":"Jatinegara","is_transit":false,"station_id":"JNG","time":3,"transit":false,"distance":3395,"i_lat":-6.215091,"line":1,"i_long":106.86807400000001},{"is_transit":false,"station_id":"MTR","i_long":106.858896,"i_lat":-6.212485,"distance":1377,"station_name":"Matraman","line":1,"time":2,"transit":false},{"station_name":"Manggarai","line":2,"distance":1275,"station_id":"MRI","transit":false,"i_long":106.84912,"is_transit":false,"i_lat":-6.209883,"time":2},{"station_name":"Sudirman","time":4,"i_lat":-6.202263,"is_transit":false,"station_id":"SUD","transit":false,"i_long":106.822649,"distance":3186,"line":1},{"time":1,"is_transit":false,"i_lat":-6.201433,"i_long":106.819881,"station_name":"Sudirman Baru","distance":280,"station_id":"SUDB","line":1,"transit":false},{"transit":false,"is_transit":false,"i_long":106.816351,"time":1,"station_id":"KAT","station_name":"Karet","distance":471,"i_lat":-6.20132,"line":1},{"i_long":106.811091,"line":1,"is_transit":true,"station_name":"Tanah Abang","station_id":"THB","time":5,"distance":2029,"i_lat":-6.185545,"transit":true},{"line":6,"station_name":"Palmerah","transit":false,"station_id":"PLM","i_lat":-6.207404,"time":6,"i_long":106.79689,"distance":3191,"is_transit":false}],[{"station_id":"BKS","i_long":106.997013,"line":1,"distance":0,"transit":false,"time":0,"station_name":"Bekasi","is_transit":false,"i_lat":-6.236616},{"station_id":"KRI","distance":2520,"i_lat":-6.224515,"line":1,"is_transit":false,"station_name":"Kranji","i_long":106.977657,"time":4,"transit":false},{"station_name":"Cakung","is_transit":false,"line":1,"time":3,"station_id":"CUK","i_lat":-6.219053,"distance":3097,"i_long":106.951283,"transit":false},{"station_name":"Klenderbaru","distance":1385,"station_id":"KLDB","line":1,"transit":false,"time":8,"i_lat":-6.217455,"i_long":106.939679,"is_transit":false},{"line":1,"distance":1305,"i_long":106.922662,"station_name":"Buaran","transit":false,"time":1,"is_transit":false,"station_id":"BUA","i_lat":-6.215568},{"distance":3100,"station_name":"Klender","i_lat":-6.2135,"station_id":"KLD","line":1,"time":2,"transit":false,"is_transit":false,"i_long":106.899548},{"station_name":"Jatinegara","station_id":"JNG","is_transit":true,"transit":true,"line":1,"time":3,"i_lat":-6.215091,"distance":3395,"i_long":106.86807400000001},{"i_long":106.861737,"i_lat":-6.209188,"is_transit":false,"time":2,"station_name":"Pondok Jati","transit":false,"line":11,"station_id":"POK","distance":1236},{"time":2,"station_id":"KMT","i_long":106.855437,"i_lat":-6.193792,"transit":false,"station_name":"Kramat","distance":1829,"line":11,"is_transit":false},{"i_long":106.850107,"transit":false,"station_id":"GST","is_transit":false,"i_lat":-6.185975,"line":11,"station_name":"Gang Sentiong","distance":973,"time":1},{"station_id":"PSE","i_lat":-6.174784,"distance":1567,"time":8,"station_name":"Pasar Senen","transit":false,"line":11,"is_transit":false,"i_long":106.84368},{"line":11,"time":4,"transit":false,"station_name":"Kemayoran","is_transit":false,"i_lat":-6.161728,"distance":1436,"station_id":"KMO","i_long":106.839204},{"time":5,"station_name":"Rajawali","i_long":106.836569,"station_id":"RJW","transit":false,"distance":1901,"i_lat":-6.14505,"is_transit":false,"line":11},{"i_lat":-6.132549,"time":3,"station_name":"Kampung Bandan","station_id":"KPB","i_long":106.826365,"is_transit":true,"distance":1444,"transit":true,"line":4},{"station_name":"Angke","i_lat":-6.144674,"i_long":106.79867,"is_transit":false,"time":9,"distance":4102,"line":1,"station_id":"AK","transit":false},{"line":1,"time":4,"distance":1230,"i_lat":-6.155215,"i_long":106.800832,"station_id":"DU","transit":false,"station_name":"Duri","is_transit":false},{"i_long":106.811091,"transit":true,"line":1,"is_transit":true,"i_lat":-6.185545,"station_id":"THB","distance":3632,"station_name":"Tanah Abang","time":8},{"time":6,"is_transit":false,"i_long":106.79689,"distance":3191,"station_id":"PLM","i_lat":-6.207404,"transit":false,"line":6,"station_name":"Palmerah"}],[{"station_id":"BKS","i_lat":-6.236616,"time":0,"i_long":106.997013,"is_transit":false,"distance":0,"transit":false,"station_name":"Bekasi","line":1},{"line":1,"time":4,"is_transit":false,"i_lat":-6.224515,"station_id":"KRI","transit":false,"distance":2520,"i_long":106.977657,"station_name":"Kranji"},{"time":3,"is_transit":false,"line":1,"station_id":"CUK","i_lat":-6.219053,"i_long":106.951283,"distance":3097,"station_name":"Cakung","transit":false},{"i_lat":-6.217455,"station_name":"Klenderbaru","transit":false,"is_transit":false,"i_long":106.939679,"distance":1385,"time":8,"station_id":"KLDB","line":1},{"is_transit":false,"i_lat":-6.215568,"time":1,"station_id":"BUA","line":1,"station_name":"Buaran","i_long":106.922662,"transit":false,"distance":1305},{"transit":false,"time":2,"line":1,"distance":3100,"is_transit":false,"i_long":106.899548,"i_lat":-6.2135,"station_id":"KLD","station_name":"Klender"},{"is_transit":false,"station_name":"Jatinegara","i_lat":-6.215091,"i_long":106.86807400000001,"station_id":"JNG","distance":3395,"time":3,"line":1,"transit":false},{"distance":1377,"is_transit":false,"i_lat":-6.212485,"i_long":106.858896,"transit":false,"time":2,"station_id":"MTR","station_name":"Matraman","line":1},{"line":2,"station_name":"Manggarai","distance":1275,"transit":true,"i_lat":-6.209883,"station_id":"MRI","time":2,"is_transit":true,"i_long":106.84912},{"i_lat":-6.198556,"is_transit":false,"distance":1590,"i_long":106.840169,"line":2,"station_name":"Cikini","time":4,"station_id":"CKI","transit":false},{"line":2,"distance":1750,"is_transit":false,"station_name":"Gondangdia","i_lat":-6.186295,"time":3,"i_long":106.832183,"transit":false,"station_id":"GDD"},{"station_name":"Juanda","i_lat":-6.166716,"i_long":106.828284,"is_transit":false,"distance":2015,"time":4,"transit":false,"station_id":"JUA","line":2},{"time":2,"station_id":"SW","distance":1149,"i_lat":-6.160725,"i_long":106.827103,"is_transit":false,"line":2,"station_name":"Sawah Besar","transit":false},{"i_lat":-6.149769,"station_name":"Manggabesar","time":2,"line":2,"i_long":106.82482,"transit":false,"station_id":"MGB","distance":906,"is_transit":false},{"i_lat":-6.141205,"i_long":106.820901,"time":2,"distance":1080,"transit":false,"station_name":"Jayakarta","station_id":"JAY","line":2,"is_transit":false},{"station_name":"Jakarta Kota","station_id":"JAKK","distance":1264,"time":4,"i_long":106.812439,"is_transit":true,"transit":true,"i_lat":-6.137569,"line":2},{"time":3,"distance":1364,"i_lat":-6.132549,"i_long":106.826365,"transit":true,"station_id":"KPB","station_name":"Kampung Bandan","is_transit":true,"line":4},{"station_name":"Angke","i_long":106.79867,"is_transit":false,"line":1,"transit":false,"i_lat":-6.144674,"distance":4102,"time":9,"station_id":"AK"},{"transit":false,"is_transit":false,"i_lat":-6.155215,"time":4,"distance":1230,"station_name":"Duri","i_long":106.800832,"station_id":"DU","line":1},{"i_long":106.811091,"time":8,"transit":true,"line":1,"distance":3632,"station_name":"Tanah Abang","i_lat":-6.185545,"station_id":"THB","is_transit":true},{"is_transit":false,"distance":3191,"i_long":106.79689,"transit":false,"station_name":"Palmerah","station_id":"PLM","time":6,"i_lat":-6.207404,"line":6}],[{"i_long":106.997013,"station_id":"BKS","distance":0,"transit":false,"line":1,"is_transit":false,"i_lat":-6.236616,"time":0,"station_name":"Bekasi"},{"distance":2520,"i_lat":-6.224515,"station_id":"KRI","line":1,"transit":false,"is_transit":false,"i_long":106.977657,"station_name":"Kranji","time":4},{"station_id":"CUK","distance":3097,"i_long":106.951283,"i_lat":-6.219053,"time":3,"transit":false,"line":1,"is_transit":false,"station_name":"Cakung"},{"station_id":"KLDB","i_lat":-6.217455,"time":8,"distance":1385,"is_transit":false,"i_long":106.939679,"line":1,"station_name":"Klenderbaru","transit":false},{"distance":1305,"station_name":"Buaran","transit":false,"is_transit":false,"i_lat":-6.215568,"time":1,"i_long":106.922662,"station_id":"BUA","line":1},{"transit":false,"station_name":"Klender","i_long":106.899548,"line":1,"is_transit":false,"distance":3100,"station_id":"KLD","i_lat":-6.2135,"time":2},{"i_long":106.86807400000001,"station_id":"JNG","transit":true,"time":3,"station_name":"Jatinegara","is_transit":true,"distance":3395,"i_lat":-6.215091,"line":1},{"time":2,"transit":false,"is_transit":false,"distance":1236,"i_long":106.861737,"i_lat":-6.209188,"station_id":"POK","station_name":"Pondok Jati","line":11},{"station_id":"KMT","time":2,"transit":false,"is_transit":false,"i_lat":-6.193792,"line":11,"distance":1829,"i_long":106.855437,"station_name":"Kramat"},{"line":11,"transit":false,"is_transit":false,"distance":973,"time":1,"station_name":"Gang Sentiong","i_long":106.850107,"i_lat":-6.185975,"station_id":"GST"},{"distance":1567,"line":11,"transit":false,"station_name":"Pasar Senen","station_id":"PSE","i_lat":-6.174784,"i_long":106.84368,"is_transit":false,"time":8},{"station_id":"KMO","line":11,"time":4,"is_transit":false,"distance":1436,"transit":false,"station_name":"Kemayoran","i_long":106.839204,"i_lat":-6.161728},{"is_transit":false,"i_long":106.836569,"time":5,"i_lat":-6.14505,"station_id":"RJW","distance":1901,"transit":false,"station_name":"Rajawali","line":11},{"line":4,"station_name":"Kampung Bandan","is_transit":true,"i_long":106.826365,"time":3,"station_id":"KPB","transit":true,"distance":1444,"i_lat":-6.132549},{"line":2,"transit":true,"time":3,"station_name":"Jakarta Kota","i_lat":-6.137569,"is_transit":true,"distance":1364,"i_long":106.812439,"station_id":"JAKK"},{"transit":false,"is_transit":false,"station_id":"JAY","distance":1264,"line":2,"i_lat":-6.141205,"station_name":"Jayakarta","i_long":106.820901,"time":4},{"distance":1080,"is_transit":false,"i_lat":-6.149769,"time":2,"station_name":"Manggabesar","i_long":106.82482,"transit":false,"line":2,"station_id":"MGB"},{"i_lat":-6.160725,"distance":906,"station_id":"SW","time":2,"transit":false,"is_transit":false,"station_name":"Sawah Besar","i_long":106.827103,"line":2},{"station_id":"JUA","station_name":"Juanda","i_long":106.828284,"time":2,"line":2,"i_lat":-6.166716,"transit":false,"is_transit":false,"distance":1149},{"i_long":106.832183,"station_id":"GDD","i_lat":-6.186295,"transit":false,"is_transit":false,"distance":2015,"time":4,"line":2,"station_name":"Gondangdia"},{"time":3,"station_id":"CKI","i_lat":-6.198556,"is_transit":false,"transit":false,"distance":1750,"line":2,"i_long":106.840169,"station_name":"Cikini"},{"station_name":"Manggarai","station_id":"MRI","transit":true,"time":4,"distance":1590,"is_transit":true,"line":2,"i_long":106.84912,"i_lat":-6.209883},{"line":1,"i_lat":-6.202263,"transit":false,"station_name":"Sudirman","is_transit":false,"distance":3186,"time":4,"station_id":"SUD","i_long":106.822649},{"i_long":106.819881,"transit":false,"i_lat":-6.201433,"time":1,"station_name":"Sudirman Baru","is_transit":false,"line":1,"station_id":"SUDB","distance":280},{"station_id":"KAT","time":1,"station_name":"Karet","i_long":106.816351,"line":1,"is_transit":false,"transit":false,"distance":471,"i_lat":-6.20132},{"is_transit":true,"station_id":"THB","time":5,"transit":true,"station_name":"Tanah Abang","distance":2029,"i_lat":-6.185545,"line":1,"i_long":106.811091},{"i_lat":-6.207404,"time":6,"i_long":106.79689,"station_id":"PLM","line":6,"is_transit":false,"distance":3191,"transit":false,"station_name":"Palmerah"}]]}