{"data":[[{"station_id":"BKS","line":1,"distance":0,"time":0,"station_name":"Bekasi","i_lat":-6.236616,"is_transit":false,"transit":false,"i_long":106.997013},{"station_id":"KRI","i_long":106.977657,"station_name":"Kranji","time":4,"distance":2520,"transit":false,"i_lat":-6.224515,"line":1,"is_transit":false},{"station_name":"Cakung","station_id":"CUK","i_lat":-6.219053,"i_long":106.951283,"line":1,"is_transit":false,"distance":3097,"transit":false,"time":3},{"i_long":106.939679,"line":1,"station_id":"KLDB","is_transit":false,"station_name":"Klenderbaru","time":8,"transit":false,"distance":1385,"i_lat":-6.217455},{"station_name":"Buaran","transit":false,"i_long":106.922662,"time":1,"is_transit":false,"line":1,"distance":1305,"station_id":"BUA","i_lat":-6.215568},{"distance":3100,"is_transit":false,"i_lat":-6.2135,"station_name":"Klender","time":2,"line":1,"transit":false,"i_long":106.899548,"station_id":"KLD"},{"is_transit":false,"i_long":106.86807400000001,"station_name":"Jatinegara","distance":3395,"line":1,"station_id":"JNG","time":3,"i_lat":-6.215091,"transit":false},{"i_lat":-6.212485,"distance":1377,"is_transit":false,"transit":false,"station_id":"MTR","time":2,"i_long":106.858896,"line":1,"station_name":"Matraman"},{"is_transit":false,"station_id":"MRI","transit":false,"line":2,"time":2,"station_name":"Manggarai","i_long":106.84912,"distance":1275,"i_lat":-6.209883},{"station_id":"SUD","station_name":"Sudirman","time":4,"line":1,"i_long":106.822649,"transit":false,"is_transit":false,"distance":3186,"i_lat":-6.202263},{"time":1,"line":1,"is_transit":false,"i_long":106.819881,"distance":280,"station_name":"Sudirman Baru","transit":false,"station_id":"SUDB","i_lat":-6.201433},{"station_id":"KAT","transit":false,"station_name":"Karet","time":1,"is_transit":false,"i_lat":-6.20132,"distance":471,"line":1,"i_long":106.816351},{"distance":2029,"station_id":"THB","is_transit":true,"i_long":106.811091,"time":5,"line":1,"i_lat":-6.185545,"station_name":"Tanah Abang","transit":true},{"is_transit":false,"time":6,"distance":3191,"i_lat":-6.207404,"station_name":"Palmerah","transit":false,"line":6,"station_id":"PLM","i_long":106.79689}],[{"station_name":"Bekasi","is_transit":false,"time":0,"transit":false,"distance":0,"i_long":106.997013,"line":1,"i_lat":-6.236616,"station_id":"BKS"},{"transit":false,"i_lat":-6.224515,"is_transit":false,"station_id":"KRI","i_long":106.977657,"line":1,"distance":2520,"time":4,"station_name":"Kranji"},{"is_transit":false,"station_id":"CUK","station_name":"Cakung","transit":false,"distance":3097,"line":1,"time":3,"i_lat":-6.219053,"i_long":106.951283},{"distance":1385,"station_id":"KLDB","is_transit":false,"time":8,"transit":false,"station_name":"Klenderbaru","i_lat":-6.217455,"i_long":106.939679,"line":1},{"time":1,"station_name":"Buaran","station_id":"BUA","distance":1305,"is_transit":false,"transit":false,"i_lat":-6.215568,"i_long":106.922662,"line":1},{"is_transit":false,"i_lat":-6.2135,"distance":3100,"line":1,"i_long":106.899548,"transit":false,"time":2,"station_id":"KLD","station_name":"Klender"},{"station_name":"Jatinegara","is_transit":true,"transit":true,"station_id":"JNG","line":1,"i_lat":-6.215091,"distance":3395,"i_long":106.86807400000001,"time":3},{"i_lat":-6.209188,"transit":false,"time":2,"distance":1236,"station_name":"Pondok Jati","i_long":106.861737,"is_transit":false,"line":11,"station_id":"POK"},{"transit":false,"time":2,"i_long":106.855437,"station_name":"Kramat","station_id":"KMT","distance":1829,"is_transit":false,"i_lat":-6.193792,"line":11},{"i_lat":-6.185975,"line":11,"is_transit":false,"station_id":"GST","i_long":106.850107,"time":1,"distance":973,"station_name":"Gang Sentiong","transit":false},{"i_long":106.84368,"time":8,"station_id":"PSE","distance":1567,"i_lat":-6.174784,"is_transit":false,"line":11,"transit":false,"station_name":"Pasar Senen"},{"transit":false,"distance":1436,"i_lat":-6.161728,"i_long":106.839204,"station_name":"Kemayoran","station_id":"KMO","time":4,"is_transit":false,"line":11},{"distance":1901,"is_transit":false,"transit":false,"station_name":"Rajawali","station_id":"RJW","line":11,"i_lat":-6.14505,"i_long":106.836569,"time":5},{"station_name":"Kampung Bandan","station_id":"KPB","is_transit":true,"time":3,"distance":1444,"i_long":106.826365,"transit":true,"i_lat":-6.132549,"line":4},{"station_id":"AK","is_transit":false,"transit":false,"line":1,"distance":4102,"station_name":"Angke","i_lat":-6.144674,"i_long":106.79867,"time":9},{"distance":1230,"time":4,"station_name":"Duri","transit":false,"is_transit":false,"station_id":"DU","i_lat":-6.155215,"i_long":106.800832,"line":1},{"is_transit":true,"transit":true,"distance":3632,"i_lat":-6.185545,"line":1,"time":8,"station_id":"THB","i_long":106.811091,"station_name":"Tanah Abang"},{"time":6,"line":6,"distance":3191,"i_long":106.79689,"i_lat":-6.207404,"is_transit":false,"station_name":"Palmerah","station_id":"PLM","transit":false}],[{"station_name":"Bekasi","transit":false,"time":0,"i_long":106.997013,"i_lat":-6.236616,"is_transit":false,"line":1,"station_id":"BKS","distance":0},{"i_lat":-6.224515,"line":1,"station_id":"KRI","i_long":106.977657,"station_name":"Kranji","time":4,"is_transit":false,"distance":2520,"transit":false},{"line":1,"station_id":"CUK","distance":3097,"transit":false,"i_long":106.951283,"i_lat":-6.219053,"is_transit":false,"station_name":"Cakung","time":3},{"distance":1385,"station_id":"KLDB","time":8,"station_name":"Klenderbaru","line":1,"is_transit":false,"i_lat":-6.217455,"transit":false,"i_long":106.939679},{"is_transit":false,"i_lat":-6.215568,"transit":false,"line":1,"i_long":106.922662,"distance":1305,"station_id":"BUA","station_name":"Buaran","time":1},{"i_lat":-6.2135,"time":2,"station_id":"KLD","station_name":"Klender","is_transit":false,"distance":3100,"transit":false,"line":1,"i_long":106.899548},{"time":3,"line":1,"station_id":"JNG","is_transit":false,"distance":3395,"station_name":"Jatinegara","transit":false,"i_lat":-6.215091,"i_long":106.86807400000001},{"distance":1377,"is_transit":false,"i_lat":-6.212485,"line":1,"station_id":"MTR","time":2,"station_name":"Matraman","transit":false,"i_long":106.858896},{"station_name":"Manggarai","distance":1275,"transit":true,"i_lat":-6.209883,"i_long":106.84912,"line":2,"time":2,"is_transit":true,"station_id":"MRI"},{"line":2,"time":4,"distance":1590,"station_name":"Cikini","station_id":"CKI","is_transit":false,"i_lat":-6.198556,"i_long":106.840169,"transit":false},{"is_transit":false,"distance":1750,"i_long":106.832183,"station_id":"GDD","transit":false,"line":2,"i_lat":-6.186295,"station_name":"Gondangdia","time":3},{"is_transit":false,"time":4,"i_long":106.828284,"distance":2015,"line":2,"station_name":"Juanda","transit":false,"station_id":"JUA","i_lat":-6.166716},{"station_id":"SW","distance":1149,"time":2,"transit":false,"i_long":106.827103,"is_transit":false,"line":2,"station_name":"Sawah Besar","i_lat":-6.160725},{"time":2,"distance":906,"transit":false,"line":2,"station_id":"MGB","is_transit":false,"i_lat":-6.149769,"i_long":106.82482,"station_name":"Manggabesar"},{"i_long":106.820901,"is_transit":false,"distance":1080,"i_lat":-6.141205,"station_name":"Jayakarta","time":2,"station_id":"JAY","line":2,"transit":false},{"station_name":"Jakarta Kota","transit":true,"station_id":"JAKK","time":4,"line":2,"i_long":106.812439,"distance":1264,"is_transit":true,"i_lat":-6.137569},{"is_transit":true,"station_name":"Kampung Bandan","i_lat":-6.132549,"distance":1364,"station_id":"KPB","i_long":106.826365,"time":3,"line":4,"transit":true},{"i_long":106.79867,"station_name":"Angke","i_lat":-6.144674,"transit":false,"time":9,"line":1,"station_id":"AK","is_transit":false,"distance":4102},{"station_name":"Duri","distance":1230,"transit":false,"time":4,"station_id":"DU","i_long":106.800832,"line":1,"is_transit":false,"i_lat":-6.155215},{"i_lat":-6.185545,"i_long":106.811091,"distance":3632,"transit":true,"station_name":"Tanah Abang","station_id":"THB","is_transit":true,"time":8,"line":1},{"station_name":"Palmerah","is_transit":false,"line":6,"time":6,"i_long":106.79689,"transit":false,"i_lat":-6.207404,"distance":3191,"station_id":"PLM"}],[{"time":0,"transit":false,"i_lat":-6.236616,"i_long":106.997013,"is_transit":false,"station_name":"Bekasi","line":1,"distance":0,"station_id":"BKS"},{"time":4,"station_id":"KRI","transit":false,"distance":2520,"i_lat":-6.224515,"station_name":"Kranji","i_long":106.977657,"line":1,"is_transit":false},{"i_lat":-6.219053,"station_id":"CUK","is_transit":false,"transit":false,"time":3,"distance":3097,"line":1,"i_long":106.951283,"station_name":"Cakung"},{"transit":false,"distance":1385,"station_id":"KLDB","line":1,"station_name":"Klenderbaru","time":8,"i_lat":-6.217455,"is_transit":false,"i_long":106.939679},{"line":1,"is_transit":false,"transit":false,"time":1,"i_lat":-6.215568,"station_name":"Buaran","station_id":"BUA","distance":1305,"i_long":106.922662},{"station_id":"KLD","time":2,"is_transit":false,"station_name":"Klender","transit":false,"line":1,"distance":3100,"i_lat":-6.2135,"i_long":106.899548},{"station_name":"Jatinegara","transit":true,"is_transit":true,"i_long":106.86807400000001,"time":3,"line":1,"distance":3395,"i_lat":-6.215091,"station_id":"JNG"},{"i_long":106.861737,"time":2,"transit":false,"station_id":"POK","is_transit":false,"distance":1236,"line":11,"station_name":"Pondok Jati","i_lat":-6.209188},{"time":2,"transit":false,"i_lat":-6.193792,"station_name":"Kramat","distance":1829,"i_long":106.855437,"station_id":"KMT","line":11,"is_transit":false},{"is_transit":false,"line":11,"time":1,"i_long":106.850107,"transit":false,"i_lat":-6.185975,"station_name":"Gang Sentiong","distance":973,"station_id":"GST"},{"transit":false,"is_transit":false,"time":8,"i_lat":-6.174784,"station_name":"Pasar Senen","distance":1567,"i_long":106.84368,"line":11,"station_id":"PSE"},{"time":4,"line":11,"transit":false,"i_lat":-6.161728,"i_long":106.839204,"station_name":"Kemayoran","is_transit":false,"station_id":"KMO","distance":1436},{"station_name":"Rajawali","station_id":"RJW","i_long":106.836569,"is_transit":false,"line":11,"time":5,"i_lat":-6.14505,"distance":1901,"transit":false},{"transit":true,"station_id":"KPB","i_lat":-6.132549,"i_long":106.826365,"time":3,"is_transit":true,"line":4,"station_name":"Kampung Bandan","distance":1444},{"i_lat":-6.137569,"transit":true,"distance":1364,"i_long":106.812439,"line":2,"is_transit":true,"station_name":"Jakarta Kota","station_id":"JAKK","time":3},{"i_lat":-6.141205,"line":2,"is_transit":false,"transit":false,"i_long":106.820901,"distance":1264,"station_name":"Jayakarta","time":4,"station_id":"JAY"},{"i_lat":-6.149769,"time":2,"line":2,"distance":1080,"i_long":106.82482,"is_transit":false,"station_name":"Manggabesar","transit":false,"station_id":"MGB"},{"transit":false,"i_long":106.827103,"line":2,"time":2,"distance":906,"i_lat":-6.160725,"station_id":"SW","station_name":"Sawah Besar","is_transit":false},{"is_transit":false,"line":2,"i_lat":-6.166716,"station_id":"JUA","station_name":"Juanda","time":2,"distance":1149,"transit":false,"i_long":106.828284},{"i_long":106.832183,"distance":2015,"station_name":"Gondangdia","transit":false,"station_id":"GDD","i_lat":-6.186295,"is_transit":false,"line":2,"time":4},{"i_lat":-6.198556,"station_id":"CKI","is_transit":false,"station_name":"Cikini","distance":1750,"transit":false,"i_long":106.840169,"line":2,"time":3},{"station_id":"MRI","is_transit":true,"transit":true,"time":4,"i_long":106.84912,"station_name":"Manggarai","line":2,"i_lat":-6.209883,"distance":1590},{"line":1,"is_transit":false,"station_id":"SUD","distance":3186,"station_name":"Sudirman","time":4,"i_lat":-6.202263,"i_long":106.822649,"transit":false},{"station_name":"Sudirman Baru","time":1,"i_lat":-6.201433,"i_long":106.819881,"transit":false,"line":1,"is_transit":false,"station_id":"SUDB","distance":280},{"i_lat":-6.20132,"line":1,"distance":471,"is_transit":false,"station_name":"Karet","station_id":"KAT","time":1,"i_long":106.816351,"transit":false},{"i_lat":-6.185545,"is_transit":true,"i_long":106.811091,"transit":true,"line":1,"station_id":"THB","station_name":"Tanah Abang","distance":2029,"time":5},{"transit":false,"is_transit":false,"time":6,"i_long":106.79689,"line":6,"station_name":"Palmerah","distance":3191,"station_id":"PLM","i_lat":-6.207404}]]}