{"data":[[{"distance":0,"i_long":106.997013,"line":1,"i_lat":-6.236616,"station_id":"BKS","is_transit":false,"station_name":"Bekasi","time":0,"transit":false},{"transit":false,"i_long":106.977657,"station_id":"KRI","is_transit":false,"time":4,"station_name":"Kranji","i_lat":-6.224515,"distance":2520,"line":1},{"distance":3097,"transit":false,"station_id":"CUK","station_name":"Cakung","time":3,"i_long":106.951283,"line":1,"is_transit":false,"i_lat":-6.219053},{"i_long":106.939679,"line":1,"station_name":"Klenderbaru","station_id":"KLDB","i_lat":-6.217455,"transit":false,"distance":1385,"time":8,"is_transit":false},{"station_id":"BUA","i_long":106.922662,"is_transit":false,"i_lat":-6.215568,"line":1,"station_name":"Buaran","time":1,"distance":1305,"transit":false},{"station_name":"Klender","i_lat":-6.2135,"transit":false,"station_id":"KLD","i_long":106.899548,"is_transit":false,"time":2,"line":1,"distance":3100},{"transit":false,"station_id":"JNG","i_long":106.86807400000001,"line":1,"station_name":"Jatinegara","is_transit":false,"i_lat":-6.215091,"time":3,"distance":3395},{"station_id":"MTR","transit":false,"station_name":"Matraman","i_lat":-6.212485,"time":2,"i_long":106.858896,"line":1,"distance":1377,"is_transit":false},{"station_id":"MRI","is_transit":false,"transit":false,"distance":1275,"line":2,"time":2,"i_long":106.84912,"i_lat":-6.209883,"station_name":"Manggarai"},{"is_transit":false,"i_lat":-6.202263,"line":1,"station_id":"SUD","time":4,"distance":3186,"transit":false,"station_name":"Sudirman","i_long":106.822649},{"is_transit":false,"i_long":106.819881,"i_lat":-6.201433,"line":1,"time":1,"distance":280,"transit":false,"station_id":"SUDB","station_name":"Sudirman Baru"}],[{"i_long":106.997013,"station_id":"BKS","transit":false,"station_name":"Bekasi","distance":0,"line":1,"is_transit":false,"time":0,"i_lat":-6.236616},{"i_lat":-6.224515,"station_id":"KRI","line":1,"time":4,"distance":2520,"station_name":"Kranji","transit":false,"is_transit":false,"i_long":106.977657},{"transit":false,"time":3,"distance":3097,"station_name":"Cakung","i_long":106.951283,"is_transit":false,"station_id":"CUK","line":1,"i_lat":-6.219053},{"i_long":106.939679,"station_id":"KLDB","is_transit":false,"transit":false,"line":1,"i_lat":-6.217455,"time":8,"station_name":"Klenderbaru","distance":1385},{"distance":1305,"i_long":106.922662,"station_name":"Buaran","is_transit":false,"time":1,"i_lat":-6.215568,"station_id":"BUA","transit":false,"line":1},{"i_lat":-6.2135,"station_id":"KLD","station_name":"Klender","distance":3100,"is_transit":false,"time":2,"transit":false,"i_long":106.899548,"line":1},{"i_lat":-6.215091,"station_id":"JNG","i_long":106.86807400000001,"is_transit":true,"distance":3395,"station_name":"Jatinegara","line":1,"time":3,"transit":true},{"i_long":106.861737,"station_id":"POK","time":2,"distance":1236,"line":11,"transit":false,"station_name":"Pondok Jati","is_transit":false,"i_lat":-6.209188},{"transit":false,"i_lat":-6.193792,"station_name":"Kramat","i_long":106.855437,"time":2,"station_id":"KMT","distance":1829,"line":11,"is_transit":false},{"station_id":"GST","is_transit":false,"transit":false,"time":1,"distance":973,"i_long":106.850107,"station_name":"Gang Sentiong","line":11,"i_lat":-6.185975},{"distance":1567,"i_long":106.84368,"station_id":"PSE","i_lat":-6.174784,"is_transit":false,"transit":false,"time":8,"station_name":"Pasar Senen","line":11},{"line":11,"station_id":"KMO","i_lat":-6.161728,"is_transit":false,"distance":1436,"station_name":"Kemayoran","time":4,"i_long":106.839204,"transit":false},{"transit":false,"distance":1901,"i_lat":-6.14505,"i_long":106.836569,"station_name":"Rajawali","station_id":"RJW","line":11,"is_transit":false,"time":5},{"station_id":"KPB","distance":1444,"i_long":106.826365,"i_lat":-6.132549,"time":3,"transit":true,"station_name":"Kampung Bandan","line":4,"is_transit":true},{"station_id":"AK","line":1,"i_lat":-6.144674,"transit":false,"distance":4102,"is_transit":false,"station_name":"Angke","i_long":106.79867,"time":9},{"i_long":106.800832,"is_transit":false,"station_id":"DU","transit":false,"time":4,"i_lat":-6.155215,"station_name":"Duri","distance":1230,"line":1},{"is_transit":false,"i_long":106.811091,"station_name":"Tanah Abang","transit":false,"time":8,"distance":3632,"i_lat":-6.185545,"line":1,"station_id":"THB"},{"line":1,"time":5,"transit":false,"i_lat":-6.20132,"i_long":106.816351,"is_transit":false,"distance":2029,"station_name":"Karet","station_id":"KAT"},{"transit":false,"distance":471,"station_id":"SUDB","time":1,"line":1,"i_long":106.819881,"is_transit":false,"station_name":"Sudirman Baru","i_lat":-6.201433}],[{"transit":false,"distance":0,"station_id":"BKS","i_lat":-6.236616,"is_transit":false,"time":0,"i_long":106.997013,"station_name":"Bekasi","line":1},{"is_transit":false,"station_name":"Kranji","station_id":"KRI","time":4,"transit":false,"distance":2520,"i_lat":-6.224515,"line":1,"i_long":106.977657},{"is_transit":false,"line":1,"i_lat":-6.219053,"i_long":106.951283,"transit":false,"time":3,"station_id":"CUK","distance":3097,"station_name":"Cakung"},{"is_transit":false,"line":1,"station_id":"KLDB","time":8,"i_long":106.939679,"transit":false,"distance":1385,"station_name":"Klenderbaru","i_lat":-6.217455},{"i_long":106.922662,"transit":false,"is_transit":false,"station_id":"BUA","i_lat":-6.215568,"line":1,"station_name":"Buaran","time":1,"distance":1305},{"is_transit":false,"i_lat":-6.2135,"i_long":106.899548,"line":1,"station_id":"KLD","time":2,"station_name":"Klender","transit":false,"distance":3100},{"time":3,"transit":false,"i_long":106.86807400000001,"line":1,"is_transit":false,"station_id":"JNG","station_name":"Jatinegara","i_lat":-6.215091,"distance":3395},{"station_id":"MTR","station_name":"Matraman","transit":false,"line":1,"time":2,"i_lat":-6.212485,"distance":1377,"is_transit":false,"i_long":106.858896},{"i_lat":-6.209883,"station_name":"Manggarai","time":2,"i_long":106.84912,"is_transit":true,"distance":1275,"station_id":"MRI","line":2,"transit":true},{"station_id":"CKI","transit":false,"i_lat":-6.198556,"time":4,"line":2,"station_name":"Cikini","is_transit":false,"i_long":106.840169,"distance":1590},{"station_name":"Gondangdia","line":2,"is_transit":false,"transit":false,"station_id":"GDD","time":3,"i_long":106.832183,"distance":1750,"i_lat":-6.186295},{"station_name":"Juanda","i_long":106.828284,"line":2,"station_id":"JUA","i_lat":-6.166716,"transit":false,"time":4,"is_transit":false,"distance":2015},{"distance":1149,"station_name":"Sawah Besar","line":2,"i_long":106.827103,"station_id":"SW","transit":false,"time":2,"i_lat":-6.160725,"is_transit":false},{"station_id":"MGB","transit":false,"station_name":"Manggabesar","i_lat":-6.149769,"time":2,"i_long":106.82482,"line":2,"is_transit":false,"distance":906},{"transit":false,"line":2,"time":2,"i_long":106.820901,"station_name":"Jayakarta","station_id":"JAY","distance":1080,"i_lat":-6.141205,"is_transit":false},{"station_id":"JAKK","distance":1264,"i_lat":-6.137569,"line":2,"station_name":"Jakarta Kota","is_transit":true,"transit":true,"time":4,"i_long":106.812439},{"i_long":106.826365,"line":4,"station_name":"Kampung Bandan","i_lat":-6.132549,"transit":true,"time":3,"distance":1364,"station_id":"KPB","is_transit":true},{"time":9,"line":1,"i_long":106.79867,"is_transit":false,"transit":false,"station_name":"Angke","distance":4102,"station_id":"AK","i_lat":-6.144674},{"line":1,"station_name":"Duri","i_long":106.800832,"time":4,"i_lat":-6.155215,"station_id":"DU","is_transit":false,"transit":false,"distance":1230},{"line":1,"transit":false,"i_long":106.811091,"distance":3632,"station_id":"THB","time":8,"is_transit":false,"station_name":"Tanah Abang","i_lat":-6.185545},{"i_long":106.816351,"station_name":"Karet","station_id":"KAT","transit":false,"line":1,"time":5,"distance":2029,"is_transit":false,"i_lat":-6.20132},{"is_transit":false,"distance":471,"station_id":"SUDB","time":1,"line":1,"i_lat":-6.201433,"i_long":106.819881,"transit":false,"station_name":"Sudirman Baru"}],[{"line":1,"station_name":"Bekasi","station_id":"BKS","transit":false,"time":0,"is_transit":false,"distance":0,"i_long":106.997013,"i_lat":-6.236616},{"i_lat":-6.224515,"is_transit":false,"i_long":106.977657,"line":1,"transit":false,"station_name":"Kranji","time":4,"distance":2520,"station_id":"KRI"},{"station_name":"Cakung","time":3,"i_lat":-6.219053,"line":1,"distance":3097,"station_id":"CUK","i_long":106.951283,"is_transit":false,"transit":false},{"time":8,"station_id":"KLDB","transit":false,"distance":1385,"is_transit":false,"i_lat":-6.217455,"i_long":106.939679,"line":1,"station_name":"Klenderbaru"},{"station_id":"BUA","is_transit":false,"distance":1305,"i_lat":-6.215568,"station_name":"Buaran","transit":false,"time":1,"i_long":106.922662,"line":1},{"time":2,"distance":3100,"i_long":106.899548,"transit":false,"station_name":"Klender","line":1,"station_id":"KLD","is_transit":false,"i_lat":-6.2135},{"line":1,"i_long":106.86807400000001,"station_name":"Jatinegara","distance":3395,"transit":true,"i_lat":-6.215091,"is_transit":true,"time":3,"station_id":"JNG"},{"transit":false,"time":2,"station_name":"Pondok Jati","i_long":106.861737,"station_id":"POK","line":11,"distance":1236,"is_transit":false,"i_lat":-6.209188},{"i_long":106.855437,"line":11,"is_transit":false,"time":2,"station_name":"Kramat","station_id":"KMT","transit":false,"distance":1829,"i_lat":-6.193792},{"time":1,"distance":973,"is_transit":false,"station_id":"GST","i_lat":-6.185975,"i_long":106.850107,"transit":false,"line":11,"station_name":"Gang Sentiong"},{"i_lat":-6.174784,"station_id":"PSE","line":11,"i_long":106.84368,"is_transit":false,"transit":false,"station_name":"Pasar Senen","distance":1567,"time":8},{"is_transit":false,"transit":false,"station_name":"Kemayoran","i_lat":-6.161728,"i_long":106.839204,"line":11,"time":4,"station_id":"KMO","distance":1436},{"station_name":"Rajawali","line":11,"i_lat":-6.14505,"i_long":106.836569,"station_id":"RJW","is_transit":false,"transit":false,"distance":1901,"time":5},{"transit":true,"station_name":"Kampung Bandan","time":3,"distance":1444,"i_long":106.826365,"i_lat":-6.132549,"line":4,"station_id":"KPB","is_transit":true},{"is_transit":true,"i_long":106.812439,"time":3,"i_lat":-6.137569,"distance":1364,"line":2,"transit":true,"station_name":"Jakarta Kota","station_id":"JAKK"},{"i_long":106.820901,"station_name":"Jayakarta","station_id":"JAY","line":2,"is_transit":false,"transit":false,"time":4,"distance":1264,"i_lat":-6.141205},{"i_lat":-6.149769,"station_name":"Manggabesar","time":2,"distance":1080,"transit":false,"i_long":106.82482,"line":2,"station_id":"MGB","is_transit":false},{"i_long":106.827103,"is_transit":false,"station_id":"SW","distance":906,"i_lat":-6.160725,"line":2,"transit":false,"time":2,"station_name":"Sawah Besar"},{"line":2,"is_transit":false,"transit":false,"distance":1149,"i_lat":-6.166716,"i_long":106.828284,"station_name":"Juanda","station_id":"JUA","time":2},{"time":4,"station_id":"GDD","i_lat":-6.186295,"line":2,"distance":2015,"is_transit":false,"i_long":106.832183,"station_name":"Gondangdia","transit":false},{"i_lat":-6.198556,"station_name":"Cikini","is_transit":false,"distance":1750,"transit":false,"line":2,"station_id":"CKI","time":3,"i_long":106.840169},{"i_lat":-6.209883,"transit":true,"line":2,"i_long":106.84912,"station_id":"MRI","is_transit":true,"station_name":"Manggarai","time":4,"distance":1590},{"time":4,"i_lat":-6.202263,"i_long":106.822649,"distance":3186,"line":1,"is_transit":false,"transit":false,"station_id":"SUD","station_name":"Sudirman"},{"distance":280,"transit":false,"station_id":"SUDB","station_name":"Sudirman Baru","time":1,"i_long":106.819881,"is_transit":false,"line":1,"i_lat":-6.201433}]]}