{"data":[[{"i_lat":-6.236616,"station_name":"Bekasi","line":0,"station_id":"BKS","is_transit":false,"distance":0,"time":0,"i_long":106.997013,"transit":false},{"transit":false,"time":4,"distance":2520,"i_long":106.977657,"is_transit":false,"i_lat":-6.224515,"station_name":"Kranji","line":1,"station_id":"KRI"},{"line":0,"time":3,"station_name":"Cakung","transit":false,"i_long":106.951283,"i_lat":-6.219053,"is_transit":false,"distance":3097,"station_id":"CUK"},{"station_name":"Klenderbaru","transit":false,"i_long":106.939679,"time":8,"line":1,"station_id":"KLDB","is_transit":false,"distance":1385,"i_lat":-6.217455},{"i_lat":-6.215568,"station_name":"Buaran","transit":false,"is_transit":false,"station_id":"BUA","time":1,"distance":1305,"i_long":106.922662,"line":0},{"station_name":"Klender","time":2,"i_lat":-6.2135,"station_id":"KLD","is_transit":false,"i_long":106.899548,"line":1,"distance":3100,"transit":false},{"is_transit":true,"transit":false,"station_name":"Jatinegara","time":3,"distance":3395,"i_long":106.86807400000001,"i_lat":-6.215091,"line":0,"station_id":"JNG"},{"i_lat":-6.212485,"station_name":"Matraman","is_transit":false,"transit":false,"station_id":"MTR","i_long":106.858896,"time":2,"distance":1377,"line":1},{"distance":1275,"station_id":"MRI","transit":true,"i_long":106.84912,"is_transit":true,"line":0,"station_name":"Manggarai","time":2,"i_lat":-6.209883},{"station_name":"Tebet","distance":2610,"is_transit":false,"time":4,"transit":false,"i_lat":-6.226659,"line":2,"station_id":"TEB","i_long":106.857948},{"station_id":"CW","distance":1230,"time":2,"line":0,"i_lat":-6.242512,"is_transit":false,"transit":false,"i_long":106.856607,"station_name":"Cawang"},{"line":0,"station_id":"DRN","i_lat":-6.255332,"station_name":"Duren Kalibata","time":3,"i_long":106.85449,"transit":false,"is_transit":false,"distance":1546},{"i_long":106.851577,"line":2,"station_id":"PSMB","transit":false,"station_name":"Pasar Minggu Baru","time":2,"is_transit":false,"distance":824,"i_lat":-6.263214},{"distance":2380,"transit":false,"i_long":106.843999,"line":2,"station_name":"Pasar Minggu","time":2,"i_lat":-6.2842400000000005,"station_id":"PSM","is_transit":false},{"line":2,"station_name":"Tanjung Barat","i_lat":-6.3080680000000005,"distance":2820,"transit":false,"time":4,"station_id":"TNT","is_transit":false,"i_long":106.838896},{"is_transit":false,"distance":2671,"transit":false,"i_lat":-6.330363,"i_long":106.832616,"station_name":"Lenteng Agung","time":3,"station_id":"LNA","line":2},{"station_name":"Univ. Pancasila","is_transit":false,"line":2,"station_id":"UP","time":2,"i_long":106.834175,"i_lat":-6.339291,"distance":1029,"transit":false},{"time":3,"distance":2264,"transit":false,"i_long":106.831474,"line":2,"station_id":"UI","is_transit":false,"station_name":"Univ. Indonesia","i_lat":-6.360749},{"distance":1109,"transit":false,"station_name":"Pondok Cina","station_id":"POC","i_long":106.831114,"line":2,"i_lat":-6.369073,"time":2,"is_transit":false}],[{"time":0,"distance":0,"station_name":"Bekasi","line":0,"is_transit":false,"station_id":"BKS","transit":false,"i_long":106.997013,"i_lat":-6.236616},{"time":4,"station_id":"KRI","transit":false,"i_lat":-6.224515,"line":1,"i_long":106.977657,"is_transit":false,"station_name":"Kranji","distance":2520},{"time":3,"i_lat":-6.219053,"i_long":106.951283,"transit":false,"station_id":"CUK","station_name":"Cakung","line":0,"distance":3097,"is_transit":false},{"is_transit":false,"station_name":"Klenderbaru","i_lat":-6.217455,"time":8,"line":1,"i_long":106.939679,"transit":false,"station_id":"KLDB","distance":1385},{"i_long":106.922662,"station_name":"Buaran","time":1,"station_id":"BUA","distance":1305,"transit":false,"is_transit":false,"i_lat":-6.215568,"line":0},{"distance":3100,"line":1,"station_name":"Klender","i_lat":-6.2135,"i_long":106.899548,"is_transit":false,"time":2,"station_id":"KLD","transit":false},{"line":0,"i_lat":-6.215091,"station_id":"JNG","transit":true,"i_long":106.86807400000001,"station_name":"Jatinegara","time":3,"distance":3395,"is_transit":true},{"time":2,"station_id":"POK","distance":1236,"transit":false,"i_lat":-6.209188,"i_long":106.861737,"is_transit":false,"line":11,"station_name":"Pondok Jati"},{"distance":1829,"station_id":"KMT","station_name":"Kramat","line":11,"time":2,"i_long":106.855437,"transit":false,"is_transit":false,"i_lat":-6.193792},{"i_long":106.850107,"station_id":"GST","is_transit":false,"distance":973,"time":1,"i_lat":-6.185975,"line":11,"transit":false,"station_name":"Gang Sentiong"},{"time":8,"distance":1567,"line":11,"i_lat":-6.174784,"i_long":106.84368,"is_transit":false,"station_id":"PSE","station_name":"Pasar Senen","transit":false},{"line":11,"distance":1436,"i_long":106.839204,"station_id":"KMO","station_name":"Kemayoran","transit":false,"i_lat":-6.161728,"time":4,"is_transit":false},{"distance":1901,"station_id":"RJW","time":5,"i_long":106.836569,"station_name":"Rajawali","line":11,"is_transit":false,"transit":false,"i_lat":-6.14505},{"i_lat":-6.132549,"transit":true,"station_name":"Kampung Bandan","i_long":106.826365,"is_transit":true,"station_id":"KPB","time":3,"distance":1444,"line":0},{"distance":4102,"i_lat":-6.144674,"is_transit":false,"station_name":"Angke","station_id":"AK","time":9,"i_long":106.79867,"transit":false,"line":0},{"transit":true,"i_long":106.800832,"is_transit":true,"station_id":"DU","line":1,"distance":1230,"i_lat":-6.155215,"station_name":"Duri","time":4},{"i_long":106.811091,"station_id":"THB","time":8,"distance":3632,"transit":false,"station_name":"Tanah Abang","line":1,"i_lat":-6.185545,"is_transit":true},{"i_long":106.816351,"station_name":"Karet","station_id":"KAT","time":5,"transit":false,"distance":2029,"line":1,"i_lat":-6.20132,"is_transit":false},{"station_id":"SUDB","transit":false,"time":1,"is_transit":false,"i_long":106.819881,"station_name":"Sudirman Baru","i_lat":-6.201433,"line":1,"distance":471},{"time":1,"is_transit":false,"i_lat":-6.202263,"station_id":"SUD","transit":false,"station_name":"Sudirman","i_long":106.822649,"distance":280,"line":1},{"station_name":"Manggarai","time":4,"station_id":"MRI","is_transit":true,"line":0,"i_long":106.84912,"i_lat":-6.209883,"distance":3186,"transit":true},{"transit":false,"i_long":106.857948,"is_transit":false,"i_lat":-6.226659,"line":2,"distance":2610,"station_name":"Tebet","station_id":"TEB","time":4},{"i_lat":-6.242512,"i_long":106.856607,"station_id":"CW","station_name":"Cawang","is_transit":false,"line":0,"distance":1230,"time":2,"transit":false},{"i_lat":-6.255332,"station_id":"DRN","time":3,"transit":false,"station_name":"Duren Kalibata","distance":1546,"i_long":106.85449,"is_transit":false,"line":0},{"i_long":106.851577,"is_transit":false,"station_id":"PSMB","time":2,"distance":824,"i_lat":-6.263214,"station_name":"Pasar Minggu Baru","transit":false,"line":2},{"transit":false,"is_transit":false,"i_lat":-6.2842400000000005,"station_name":"Pasar Minggu","distance":2380,"station_id":"PSM","time":2,"i_long":106.843999,"line":2},{"is_transit":false,"i_lat":-6.3080680000000005,"time":4,"distance":2820,"station_name":"Tanjung Barat","transit":false,"line":2,"station_id":"TNT","i_long":106.838896},{"is_transit":false,"station_id":"LNA","station_name":"Lenteng Agung","i_long":106.832616,"line":2,"time":3,"i_lat":-6.330363,"distance":2671,"transit":false},{"line":2,"station_id":"UP","transit":false,"station_name":"Univ. Pancasila","time":2,"distance":1029,"is_transit":false,"i_lat":-6.339291,"i_long":106.834175},{"line":2,"is_transit":false,"time":3,"station_id":"UI","distance":2264,"i_long":106.831474,"transit":false,"station_name":"Univ. Indonesia","i_lat":-6.360749},{"i_long":106.831114,"station_name":"Pondok Cina","i_lat":-6.369073,"time":2,"distance":1109,"is_transit":false,"station_id":"POC","line":2,"transit":false}],[{"station_id":"BKS","time":0,"station_name":"Bekasi","transit":false,"is_transit":false,"i_lat":-6.236616,"distance":0,"line":0,"i_long":106.997013},{"distance":2520,"station_id":"KRI","is_transit":false,"transit":false,"i_lat":-6.224515,"station_name":"Kranji","time":4,"i_long":106.977657,"line":1},{"transit":false,"line":0,"station_id":"CUK","time":3,"i_long":106.951283,"station_name":"Cakung","i_lat":-6.219053,"is_transit":false,"distance":3097},{"i_long":106.939679,"time":8,"transit":false,"is_transit":false,"station_id":"KLDB","i_lat":-6.217455,"distance":1385,"line":1,"station_name":"Klenderbaru"},{"time":1,"transit":false,"line":0,"station_id":"BUA","station_name":"Buaran","distance":1305,"is_transit":false,"i_lat":-6.215568,"i_long":106.922662},{"station_name":"Klender","transit":false,"distance":3100,"line":1,"i_long":106.899548,"is_transit":false,"station_id":"KLD","time":2,"i_lat":-6.2135},{"is_transit":true,"transit":true,"time":3,"i_lat":-6.215091,"station_id":"JNG","i_long":106.86807400000001,"station_name":"Jatinegara","distance":3395,"line":0},{"time":2,"is_transit":false,"station_id":"POK","i_lat":-6.209188,"distance":1236,"station_name":"Pondok Jati","i_long":106.861737,"line":11,"transit":false},{"i_lat":-6.193792,"time":2,"distance":1829,"line":11,"station_id":"KMT","is_transit":false,"i_long":106.855437,"station_name":"Kramat","transit":false},{"station_name":"Gang Sentiong","is_transit":false,"distance":973,"i_lat":-6.185975,"line":11,"time":1,"transit":false,"i_long":106.850107,"station_id":"GST"},{"station_name":"Pasar Senen","i_long":106.84368,"line":11,"i_lat":-6.174784,"time":8,"station_id":"PSE","distance":1567,"transit":false,"is_transit":false},{"is_transit":false,"station_name":"Kemayoran","transit":false,"time":4,"station_id":"KMO","distance":1436,"i_lat":-6.161728,"i_long":106.839204,"line":11},{"station_name":"Rajawali","distance":1901,"transit":false,"i_long":106.836569,"is_transit":false,"time":5,"i_lat":-6.14505,"line":11,"station_id":"RJW"},{"is_transit":true,"distance":1444,"i_long":106.826365,"time":3,"i_lat":-6.132549,"transit":true,"line":0,"station_id":"KPB","station_name":"Kampung Bandan"},{"i_long":106.812439,"station_name":"Jakarta Kota","time":3,"station_id":"JAKK","i_lat":-6.137569,"is_transit":true,"line":0,"distance":1364,"transit":true},{"time":4,"station_id":"JAY","distance":1264,"transit":false,"station_name":"Jayakarta","i_long":106.820901,"i_lat":-6.141205,"line":7,"is_transit":false},{"i_long":106.82482,"line":2,"time":2,"distance":1080,"station_id":"MGB","i_lat":-6.149769,"station_name":"Manggabesar","is_transit":false,"transit":false},{"is_transit":false,"i_lat":-6.160725,"time":2,"i_long":106.827103,"distance":906,"station_id":"SW","transit":false,"station_name":"Sawah Besar","line":2},{"station_id":"JUA","i_lat":-6.166716,"line":2,"time":2,"is_transit":false,"station_name":"Juanda","transit":false,"distance":1149,"i_long":106.828284},{"is_transit":false,"i_long":106.832183,"time":4,"distance":2015,"transit":false,"i_lat":-6.186295,"line":2,"station_id":"GDD","station_name":"Gondangdia"},{"transit":false,"i_lat":-6.198556,"distance":1750,"station_id":"CKI","line":0,"station_name":"Cikini","is_transit":false,"time":3,"i_long":106.840169},{"is_transit":true,"station_name":"Manggarai","distance":1590,"transit":true,"i_long":106.84912,"station_id":"MRI","time":4,"line":0,"i_lat":-6.209883},{"line":2,"station_name":"Tebet","station_id":"TEB","i_long":106.857948,"is_transit":false,"transit":false,"time":4,"distance":2610,"i_lat":-6.226659},{"is_transit":false,"line":0,"station_name":"Cawang","i_lat":-6.242512,"i_long":106.856607,"distance":1230,"time":2,"transit":false,"station_id":"CW"},{"line":0,"is_transit":false,"station_name":"Duren Kalibata","distance":1546,"transit":false,"time":3,"station_id":"DRN","i_lat":-6.255332,"i_long":106.85449},{"time":2,"distance":824,"transit":false,"station_id":"PSMB","is_transit":false,"station_name":"Pasar Minggu Baru","i_lat":-6.263214,"line":2,"i_long":106.851577},{"station_name":"Pasar Minggu","line":2,"i_long":106.843999,"distance":2380,"is_transit":false,"i_lat":-6.2842400000000005,"station_id":"PSM","time":2,"transit":false},{"is_transit":false,"distance":2820,"transit":false,"i_lat":-6.3080680000000005,"station_name":"Tanjung Barat","time":4,"i_long":106.838896,"line":2,"station_id":"TNT"},{"transit":false,"distance":2671,"i_lat":-6.330363,"station_id":"LNA","is_transit":false,"i_long":106.832616,"line":2,"station_name":"Lenteng Agung","time":3},{"station_id":"UP","i_long":106.834175,"is_transit":false,"distance":1029,"line":2,"i_lat":-6.339291,"time":2,"transit":false,"station_name":"Univ. Pancasila"},{"is_transit":false,"station_id":"UI","i_lat":-6.360749,"transit":false,"i_long":106.831474,"station_name":"Univ. Indonesia","distance":2264,"time":3,"line":2},{"station_name":"Pondok Cina","line":2,"is_transit":false,"i_lat":-6.369073,"i_long":106.831114,"transit":false,"time":2,"distance":1109,"station_id":"POC"}]]}