{"data":[[{"distance":0,"station_name":"Bekasi","time":0,"is_transit":false,"line":1,"i_long":106.997013,"transit":false,"i_lat":-6.236616,"station_id":"BKS"},{"i_long":106.977657,"station_id":"KRI","station_name":"Kranji","time":4,"i_lat":-6.224515,"transit":false,"is_transit":false,"distance":2520,"line":1},{"transit":false,"distance":3097,"i_lat":-6.219053,"i_long":106.951283,"line":1,"station_id":"CUK","is_transit":false,"time":3,"station_name":"Cakung"},{"station_name":"Klenderbaru","is_transit":false,"i_long":106.939679,"distance":1385,"i_lat":-6.217455,"time":8,"transit":false,"line":1,"station_id":"KLDB"},{"station_name":"Buaran","station_id":"BUA","i_lat":-6.215568,"time":1,"transit":false,"i_long":106.922662,"distance":1305,"is_transit":false,"line":1},{"station_name":"Klender","i_lat":-6.2135,"station_id":"KLD","distance":3100,"i_long":106.899548,"transit":false,"is_transit":false,"time":2,"line":1},{"i_long":106.86807400000001,"station_id":"JNG","is_transit":false,"distance":3395,"line":1,"transit":false,"station_name":"Jatinegara","time":3,"i_lat":-6.215091},{"distance":1377,"time":2,"transit":false,"station_name":"Matraman","is_transit":false,"line":1,"station_id":"MTR","i_lat":-6.212485,"i_long":106.858896},{"time":2,"distance":1275,"i_long":106.84912,"station_name":"Manggarai","transit":true,"line":2,"station_id":"MRI","is_transit":true,"i_lat":-6.209883},{"i_long":106.857948,"transit":false,"station_name":"Tebet","station_id":"TEB","time":4,"distance":2610,"is_transit":false,"i_lat":-6.226659,"line":2},{"transit":false,"distance":1230,"station_name":"Cawang","is_transit":false,"i_long":106.856607,"station_id":"CW","time":2,"i_lat":-6.242512,"line":2},{"distance":1546,"i_long":106.85449,"is_transit":false,"time":3,"station_name":"Duren Kalibata","i_lat":-6.255332,"line":2,"transit":false,"station_id":"DRN"},{"distance":824,"i_long":106.851577,"station_id":"PSMB","transit":false,"line":2,"is_transit":false,"time":2,"station_name":"Pasar Minggu Baru","i_lat":-6.263214},{"i_lat":-6.2842400000000005,"is_transit":false,"distance":2380,"line":2,"transit":false,"i_long":106.843999,"time":2,"station_name":"Pasar Minggu","station_id":"PSM"},{"is_transit":false,"time":4,"transit":false,"station_name":"Tanjung Barat","station_id":"TNT","distance":2820,"i_long":106.838896,"line":2,"i_lat":-6.3080680000000005},{"station_name":"Lenteng Agung","i_long":106.832616,"line":2,"i_lat":-6.330363,"is_transit":false,"time":3,"distance":2671,"station_id":"LNA","transit":false},{"line":2,"time":2,"i_lat":-6.339291,"i_long":106.834175,"transit":false,"station_name":"Univ. Pancasila","station_id":"UP","is_transit":false,"distance":1029},{"station_id":"UI","station_name":"Univ. Indonesia","transit":false,"i_lat":-6.360749,"distance":2264,"is_transit":false,"line":2,"i_long":106.831474,"time":3},{"time":2,"i_long":106.831114,"line":2,"transit":false,"is_transit":false,"distance":1109,"i_lat":-6.369073,"station_id":"POC","station_name":"Pondok Cina"},{"is_transit":false,"time":4,"transit":false,"i_long":106.819451,"station_name":"Depokbaru","distance":2727,"line":2,"station_id":"DPB","i_lat":-6.391065},{"station_name":"Depok","line":2,"transit":false,"station_id":"DP","time":3,"i_long":106.816926,"i_lat":-6.405256,"is_transit":false,"distance":1584},{"transit":false,"is_transit":false,"station_id":"CTA","station_name":"Citayam","i_lat":-6.448811,"line":2,"i_long":106.800298,"distance":5084,"time":6}],[{"time":0,"station_name":"Bekasi","distance":0,"i_lat":-6.236616,"station_id":"BKS","is_transit":false,"i_long":106.997013,"line":1,"transit":false},{"time":4,"station_id":"KRI","i_long":106.977657,"line":1,"transit":false,"is_transit":false,"distance":2520,"i_lat":-6.224515,"station_name":"Kranji"},{"time":3,"transit":false,"station_id":"CUK","distance":3097,"station_name":"Cakung","is_transit":false,"i_lat":-6.219053,"line":1,"i_long":106.951283},{"distance":1385,"line":1,"transit":false,"station_id":"KLDB","station_name":"Klenderbaru","i_long":106.939679,"i_lat":-6.217455,"time":8,"is_transit":false},{"station_id":"BUA","i_long":106.922662,"i_lat":-6.215568,"station_name":"Buaran","time":1,"transit":false,"is_transit":false,"distance":1305,"line":1},{"station_id":"KLD","station_name":"Klender","is_transit":false,"time":2,"transit":false,"distance":3100,"i_long":106.899548,"line":1,"i_lat":-6.2135},{"station_id":"JNG","i_long":106.86807400000001,"time":3,"transit":true,"is_transit":true,"distance":3395,"i_lat":-6.215091,"line":1,"station_name":"Jatinegara"},{"i_long":106.861737,"transit":false,"station_id":"POK","line":11,"time":2,"is_transit":false,"station_name":"Pondok Jati","distance":1236,"i_lat":-6.209188},{"time":2,"transit":false,"station_id":"KMT","distance":1829,"station_name":"Kramat","i_lat":-6.193792,"line":11,"is_transit":false,"i_long":106.855437},{"i_long":106.850107,"transit":false,"station_id":"GST","i_lat":-6.185975,"is_transit":false,"time":1,"line":11,"station_name":"Gang Sentiong","distance":973},{"is_transit":false,"distance":1567,"i_lat":-6.174784,"i_long":106.84368,"transit":false,"station_id":"PSE","line":11,"station_name":"Pasar Senen","time":8},{"transit":false,"station_name":"Kemayoran","is_transit":false,"distance":1436,"line":11,"time":4,"i_lat":-6.161728,"station_id":"KMO","i_long":106.839204},{"station_name":"Rajawali","time":5,"i_long":106.836569,"distance":1901,"station_id":"RJW","transit":false,"is_transit":false,"i_lat":-6.14505,"line":11},{"station_id":"KPB","i_long":106.826365,"station_name":"Kampung Bandan","time":3,"line":4,"transit":true,"is_transit":true,"distance":1444,"i_lat":-6.132549},{"time":9,"transit":false,"station_name":"Angke","is_transit":false,"i_long":106.79867,"distance":4102,"line":1,"station_id":"AK","i_lat":-6.144674},{"transit":false,"station_id":"DU","is_transit":false,"i_long":106.800832,"station_name":"Duri","time":4,"line":1,"distance":1230,"i_lat":-6.155215},{"transit":false,"distance":3632,"i_long":106.811091,"line":1,"station_id":"THB","station_name":"Tanah Abang","is_transit":false,"i_lat":-6.185545,"time":8},{"distance":2029,"station_id":"KAT","i_lat":-6.20132,"is_transit":false,"station_name":"Karet","line":1,"i_long":106.816351,"transit":false,"time":5},{"is_transit":false,"station_id":"SUDB","i_lat":-6.201433,"time":1,"line":1,"distance":471,"station_name":"Sudirman Baru","transit":false,"i_long":106.819881},{"transit":false,"i_lat":-6.202263,"station_name":"Sudirman","i_long":106.822649,"time":1,"is_transit":false,"station_id":"SUD","distance":280,"line":1},{"is_transit":true,"i_long":106.84912,"line":2,"station_name":"Manggarai","distance":3186,"station_id":"MRI","time":4,"i_lat":-6.209883,"transit":true},{"time":4,"i_long":106.857948,"station_id":"TEB","is_transit":false,"station_name":"Tebet","distance":2610,"line":2,"transit":false,"i_lat":-6.226659},{"distance":1230,"i_lat":-6.242512,"time":2,"i_long":106.856607,"line":2,"transit":false,"station_name":"Cawang","station_id":"CW","is_transit":false},{"station_id":"DRN","station_name":"Duren Kalibata","time":3,"is_transit":false,"i_long":106.85449,"line":2,"transit":false,"distance":1546,"i_lat":-6.255332},{"station_id":"PSMB","transit":false,"distance":824,"i_lat":-6.263214,"is_transit":false,"i_long":106.851577,"line":2,"station_name":"Pasar Minggu Baru","time":2},{"time":2,"is_transit":false,"i_lat":-6.2842400000000005,"i_long":106.843999,"distance":2380,"transit":false,"station_name":"Pasar Minggu","line":2,"station_id":"PSM"},{"line":2,"station_name":"Tanjung Barat","distance":2820,"i_lat":-6.3080680000000005,"time":4,"transit":false,"station_id":"TNT","i_long":106.838896,"is_transit":false},{"i_long":106.832616,"station_id":"LNA","transit":false,"is_transit":false,"time":3,"distance":2671,"i_lat":-6.330363,"line":2,"station_name":"Lenteng Agung"},{"station_name":"Univ. Pancasila","i_lat":-6.339291,"time":2,"distance":1029,"is_transit":false,"transit":false,"station_id":"UP","i_long":106.834175,"line":2},{"time":3,"station_name":"Univ. Indonesia","transit":false,"line":2,"distance":2264,"i_lat":-6.360749,"is_transit":false,"station_id":"UI","i_long":106.831474},{"time":2,"transit":false,"station_id":"POC","i_long":106.831114,"line":2,"distance":1109,"station_name":"Pondok Cina","is_transit":false,"i_lat":-6.369073},{"station_name":"Depokbaru","transit":false,"i_long":106.819451,"line":2,"time":4,"i_lat":-6.391065,"distance":2727,"station_id":"DPB","is_transit":false},{"distance":1584,"is_transit":false,"time":3,"line":2,"transit":false,"station_name":"Depok","i_lat":-6.405256,"i_long":106.816926,"station_id":"DP"},{"i_lat":-6.448811,"i_long":106.800298,"is_transit":false,"transit":false,"time":6,"station_id":"CTA","station_name":"Citayam","line":2,"distance":5084}],[{"i_lat":-6.236616,"is_transit":false,"time":0,"distance":0,"i_long":106.997013,"transit":false,"station_name":"Bekasi","line":1,"station_id":"BKS"},{"i_long":106.977657,"station_id":"KRI","i_lat":-6.224515,"line":1,"distance":2520,"time":4,"is_transit":false,"transit":false,"station_name":"Kranji"},{"transit":false,"station_name":"Cakung","time":3,"is_transit":false,"i_lat":-6.219053,"i_long":106.951283,"distance":3097,"station_id":"CUK","line":1},{"transit":false,"line":1,"distance":1385,"time":8,"i_lat":-6.217455,"station_id":"KLDB","i_long":106.939679,"is_transit":false,"station_name":"Klenderbaru"},{"line":1,"is_transit":false,"distance":1305,"station_name":"Buaran","time":1,"i_long":106.922662,"transit":false,"station_id":"BUA","i_lat":-6.215568},{"i_long":106.899548,"transit":false,"station_name":"Klender","is_transit":false,"time":2,"line":1,"station_id":"KLD","distance":3100,"i_lat":-6.2135},{"transit":true,"time":3,"distance":3395,"station_name":"Jatinegara","line":1,"i_long":106.86807400000001,"station_id":"JNG","is_transit":true,"i_lat":-6.215091},{"station_name":"Pondok Jati","transit":false,"i_long":106.861737,"station_id":"POK","is_transit":false,"time":2,"distance":1236,"i_lat":-6.209188,"line":11},{"station_id":"KMT","i_lat":-6.193792,"i_long":106.855437,"transit":false,"line":11,"is_transit":false,"distance":1829,"station_name":"Kramat","time":2},{"time":1,"i_lat":-6.185975,"is_transit":false,"distance":973,"i_long":106.850107,"station_name":"Gang Sentiong","line":11,"transit":false,"station_id":"GST"},{"i_lat":-6.174784,"time":8,"i_long":106.84368,"is_transit":false,"line":11,"station_name":"Pasar Senen","station_id":"PSE","transit":false,"distance":1567},{"transit":false,"line":11,"distance":1436,"i_long":106.839204,"is_transit":false,"i_lat":-6.161728,"station_id":"KMO","time":4,"station_name":"Kemayoran"},{"distance":1901,"time":5,"line":11,"transit":false,"station_id":"RJW","i_lat":-6.14505,"is_transit":false,"station_name":"Rajawali","i_long":106.836569},{"transit":true,"is_transit":true,"station_name":"Kampung Bandan","station_id":"KPB","time":3,"i_lat":-6.132549,"line":4,"distance":1444,"i_long":106.826365},{"time":3,"distance":1364,"station_id":"JAKK","i_long":106.812439,"i_lat":-6.137569,"is_transit":true,"line":2,"transit":true,"station_name":"Jakarta Kota"},{"is_transit":false,"i_long":106.820901,"line":2,"transit":false,"i_lat":-6.141205,"station_name":"Jayakarta","station_id":"JAY","time":4,"distance":1264},{"station_id":"MGB","transit":false,"i_lat":-6.149769,"distance":1080,"station_name":"Manggabesar","i_long":106.82482,"time":2,"line":2,"is_transit":false},{"transit":false,"line":2,"i_long":106.827103,"station_id":"SW","station_name":"Sawah Besar","time":2,"i_lat":-6.160725,"is_transit":false,"distance":906},{"time":2,"distance":1149,"i_long":106.828284,"transit":false,"station_id":"JUA","station_name":"Juanda","is_transit":false,"i_lat":-6.166716,"line":2},{"time":4,"station_name":"Gondangdia","station_id":"GDD","i_long":106.832183,"is_transit":false,"i_lat":-6.186295,"transit":false,"line":2,"distance":2015},{"station_id":"CKI","distance":1750,"is_transit":false,"line":2,"transit":false,"i_long":106.840169,"time":3,"i_lat":-6.198556,"station_name":"Cikini"},{"i_lat":-6.209883,"station_id":"MRI","time":4,"i_long":106.84912,"station_name":"Manggarai","line":2,"transit":false,"distance":1590,"is_transit":false},{"station_name":"Tebet","is_transit":false,"transit":false,"distance":2610,"i_lat":-6.226659,"i_long":106.857948,"line":2,"station_id":"TEB","time":4},{"transit":false,"station_id":"CW","is_transit":false,"time":2,"i_long":106.856607,"distance":1230,"i_lat":-6.242512,"station_name":"Cawang","line":2},{"is_transit":false,"time":3,"i_long":106.85449,"line":2,"i_lat":-6.255332,"distance":1546,"transit":false,"station_id":"DRN","station_name":"Duren Kalibata"},{"i_long":106.851577,"is_transit":false,"line":2,"time":2,"transit":false,"station_name":"Pasar Minggu Baru","i_lat":-6.263214,"station_id":"PSMB","distance":824},{"station_id":"PSM","is_transit":false,"station_name":"Pasar Minggu","line":2,"i_long":106.843999,"time":2,"i_lat":-6.2842400000000005,"transit":false,"distance":2380},{"station_name":"Tanjung Barat","is_transit":false,"i_lat":-6.3080680000000005,"i_long":106.838896,"line":2,"distance":2820,"station_id":"TNT","time":4,"transit":false},{"station_id":"LNA","transit":false,"is_transit":false,"distance":2671,"i_long":106.832616,"station_name":"Lenteng Agung","i_lat":-6.330363,"line":2,"time":3},{"time":2,"station_id":"UP","is_transit":false,"line":2,"i_long":106.834175,"transit":false,"i_lat":-6.339291,"distance":1029,"station_name":"Univ. Pancasila"},{"transit":false,"time":3,"i_long":106.831474,"station_id":"UI","station_name":"Univ. Indonesia","line":2,"distance":2264,"i_lat":-6.360749,"is_transit":false},{"distance":1109,"i_long":106.831114,"transit":false,"station_id":"POC","is_transit":false,"time":2,"station_name":"Pondok Cina","i_lat":-6.369073,"line":2},{"is_transit":false,"station_id":"DPB","station_name":"Depokbaru","distance":2727,"transit":false,"time":4,"i_lat":-6.391065,"line":2,"i_long":106.819451},{"time":3,"i_long":106.816926,"line":2,"is_transit":false,"distance":1584,"station_id":"DP","i_lat":-6.405256,"station_name":"Depok","transit":false},{"time":6,"i_long":106.800298,"transit":false,"station_id":"CTA","i_lat":-6.448811,"station_name":"Citayam","distance":5084,"is_transit":false,"line":2}]]}