{"data":[[{"transit":false,"station_id":"BKS","is_transit":false,"station_name":"Bekasi","i_long":106.997013,"line":1,"time":0,"i_lat":-6.236616,"distance":0},{"station_id":"KRI","line":1,"distance":2520,"i_long":106.977657,"station_name":"Kranji","is_transit":false,"transit":false,"time":4,"i_lat":-6.224515},{"i_lat":-6.219053,"line":1,"station_id":"CUK","is_transit":false,"transit":false,"station_name":"Cakung","i_long":106.951283,"time":3,"distance":3097},{"distance":1385,"station_id":"KLDB","is_transit":false,"i_long":106.939679,"i_lat":-6.217455,"time":8,"line":1,"transit":false,"station_name":"Klenderbaru"},{"distance":1305,"station_id":"BUA","is_transit":false,"i_long":106.922662,"time":1,"station_name":"Buaran","i_lat":-6.215568,"line":1,"transit":false},{"is_transit":false,"station_name":"Klender","station_id":"KLD","time":2,"i_long":106.899548,"transit":false,"i_lat":-6.2135,"distance":3100,"line":1},{"station_name":"Jatinegara","line":1,"distance":3395,"station_id":"JNG","is_transit":false,"transit":false,"time":3,"i_lat":-6.215091,"i_long":106.86807400000001},{"is_transit":false,"i_long":106.858896,"time":2,"distance":1377,"station_name":"Matraman","line":1,"transit":false,"station_id":"MTR","i_lat":-6.212485},{"distance":1275,"station_id":"MRI","is_transit":false,"line":2,"time":2,"transit":false,"station_name":"Manggarai","i_lat":-6.209883,"i_long":106.84912},{"i_long":106.822649,"i_lat":-6.202263,"line":1,"station_id":"SUD","station_name":"Sudirman","time":4,"is_transit":false,"transit":false,"distance":3186},{"time":1,"i_lat":-6.201433,"line":1,"station_id":"SUDB","is_transit":false,"distance":280,"i_long":106.819881,"station_name":"Sudirman Baru","transit":false},{"i_long":106.816351,"i_lat":-6.20132,"station_id":"KAT","station_name":"Karet","time":1,"transit":false,"distance":471,"is_transit":false,"line":1},{"time":5,"distance":2029,"station_id":"THB","line":1,"i_long":106.811091,"station_name":"Tanah Abang","is_transit":true,"transit":true,"i_lat":-6.185545},{"time":6,"line":6,"transit":false,"is_transit":false,"station_id":"PLM","station_name":"Palmerah","i_long":106.79689,"distance":3191,"i_lat":-6.207404},{"time":7,"is_transit":false,"station_name":"Kebayoran","i_lat":-6.237242,"station_id":"KBY","i_long":106.780334,"distance":3737,"transit":false,"line":6},{"distance":6218,"transit":false,"i_lat":-6.276362,"station_id":"PDJ","station_name":"Pondokranji","i_long":106.74273,"is_transit":false,"line":6,"time":8},{"i_long":106.728916,"station_name":"Jurangmangu","i_lat":-6.288927,"distance":2179,"transit":false,"line":6,"time":3,"is_transit":false,"station_id":"JMU"},{"distance":1994,"is_transit":false,"time":4,"transit":false,"i_long":106.712277,"station_id":"SDM","i_lat":-6.296963,"line":6,"station_name":"Sudimara"},{"station_name":"Rawa Buntu","i_long":106.675475,"transit":false,"time":6,"station_id":"RU","distance":4566,"line":6,"is_transit":false,"i_lat":-6.314823},{"station_id":"SRP","is_transit":false,"i_long":106.66566,"station_name":"Serpong","i_lat":-6.319871,"time":4,"line":6,"transit":false,"distance":2413},{"is_transit":false,"i_long":106.640411,"line":3,"station_id":"CSK","station_name":"Cisauk","i_lat":-6.32484,"transit":false,"time":4,"distance":1784},{"distance":2519,"i_long":106.617853,"station_id":"CC","is_transit":false,"time":4,"station_name":"Cicayur","transit":false,"i_lat":-6.329547,"line":3},{"i_long":106.568863,"is_transit":false,"station_id":"PRP","i_lat":-6.3441410000000005,"line":6,"distance":5968,"time":8,"station_name":"Parung Panjang","transit":false},{"station_id":"CJT","transit":false,"time":9,"line":3,"is_transit":false,"i_lat":-6.354349,"station_name":"Cilejit","i_long":106.508482,"distance":7025},{"i_long":106.491338,"is_transit":false,"station_id":"DAR","station_name":"Daru","time":6,"i_lat":-6.338021,"line":0,"transit":false,"distance":2675},{"is_transit":false,"distance":3902,"station_id":"TEJ","i_long":106.460812,"station_name":"Tenjo","i_lat":-6.327251,"line":6,"transit":false,"time":5},{"line":6,"distance":2974,"i_lat":-6.328533,"i_long":106.425991,"transit":false,"is_transit":false,"station_name":"Tigaraksa","time":5,"station_id":"TGS"}],[{"station_id":"BKS","distance":0,"transit":false,"line":1,"time":0,"i_long":106.997013,"is_transit":false,"station_name":"Bekasi","i_lat":-6.236616},{"station_name":"Kranji","line":1,"transit":false,"distance":2520,"is_transit":false,"i_lat":-6.224515,"station_id":"KRI","time":4,"i_long":106.977657},{"time":3,"transit":false,"station_name":"Cakung","i_lat":-6.219053,"distance":3097,"is_transit":false,"i_long":106.951283,"station_id":"CUK","line":1},{"i_lat":-6.217455,"i_long":106.939679,"transit":false,"time":8,"distance":1385,"station_name":"Klenderbaru","station_id":"KLDB","is_transit":false,"line":1},{"i_long":106.922662,"distance":1305,"is_transit":false,"station_id":"BUA","transit":false,"station_name":"Buaran","time":1,"line":1,"i_lat":-6.215568},{"i_lat":-6.2135,"station_name":"Klender","station_id":"KLD","distance":3100,"time":2,"i_long":106.899548,"line":1,"transit":false,"is_transit":false},{"time":3,"is_transit":true,"i_lat":-6.215091,"transit":true,"station_name":"Jatinegara","line":1,"station_id":"JNG","distance":3395,"i_long":106.86807400000001},{"is_transit":false,"station_id":"POK","distance":1236,"station_name":"Pondok Jati","line":11,"transit":false,"i_lat":-6.209188,"time":2,"i_long":106.861737},{"station_id":"KMT","time":2,"transit":false,"is_transit":false,"i_lat":-6.193792,"i_long":106.855437,"line":11,"distance":1829,"station_name":"Kramat"},{"station_name":"Gang Sentiong","is_transit":false,"i_lat":-6.185975,"station_id":"GST","i_long":106.850107,"distance":973,"time":1,"transit":false,"line":11},{"transit":false,"i_long":106.84368,"i_lat":-6.174784,"station_id":"PSE","time":8,"distance":1567,"station_name":"Pasar Senen","line":11,"is_transit":false},{"station_id":"KMO","distance":1436,"is_transit":false,"time":4,"transit":false,"line":11,"i_lat":-6.161728,"i_long":106.839204,"station_name":"Kemayoran"},{"i_lat":-6.14505,"station_name":"Rajawali","is_transit":false,"i_long":106.836569,"line":11,"distance":1901,"transit":false,"station_id":"RJW","time":5},{"line":4,"time":3,"is_transit":true,"distance":1444,"i_lat":-6.132549,"station_id":"KPB","i_long":106.826365,"transit":true,"station_name":"Kampung Bandan"},{"i_long":106.79867,"station_id":"AK","i_lat":-6.144674,"transit":false,"distance":4102,"is_transit":false,"station_name":"Angke","time":9,"line":1},{"i_long":106.800832,"i_lat":-6.155215,"transit":false,"is_transit":false,"station_name":"Duri","line":1,"station_id":"DU","distance":1230,"time":4},{"is_transit":true,"station_id":"THB","station_name":"Tanah Abang","i_lat":-6.185545,"i_long":106.811091,"time":8,"line":1,"transit":true,"distance":3632},{"distance":3191,"i_lat":-6.207404,"line":6,"is_transit":false,"i_long":106.79689,"time":6,"transit":false,"station_id":"PLM","station_name":"Palmerah"},{"time":7,"line":6,"is_transit":false,"transit":false,"station_name":"Kebayoran","station_id":"KBY","i_lat":-6.237242,"distance":3737,"i_long":106.780334},{"time":8,"line":6,"transit":false,"station_id":"PDJ","i_lat":-6.276362,"distance":6218,"is_transit":false,"station_name":"Pondokranji","i_long":106.74273},{"station_id":"JMU","station_name":"Jurangmangu","distance":2179,"time":3,"i_lat":-6.288927,"i_long":106.728916,"line":6,"is_transit":false,"transit":false},{"i_lat":-6.296963,"transit":false,"distance":1994,"station_name":"Sudimara","time":4,"line":6,"i_long":106.712277,"is_transit":false,"station_id":"SDM"},{"i_lat":-6.314823,"i_long":106.675475,"time":6,"station_name":"Rawa Buntu","transit":false,"is_transit":false,"line":6,"distance":4566,"station_id":"RU"},{"is_transit":false,"station_id":"SRP","transit":false,"station_name":"Serpong","distance":2413,"time":4,"i_lat":-6.319871,"i_long":106.66566,"line":6},{"i_long":106.640411,"line":3,"station_name":"Cisauk","time":4,"transit":false,"distance":1784,"station_id":"CSK","is_transit":false,"i_lat":-6.32484},{"i_lat":-6.329547,"station_id":"CC","is_transit":false,"i_long":106.617853,"line":3,"time":4,"distance":2519,"station_name":"Cicayur","transit":false},{"station_id":"PRP","line":6,"transit":false,"distance":5968,"is_transit":false,"station_name":"Parung Panjang","time":8,"i_lat":-6.3441410000000005,"i_long":106.568863},{"i_long":106.508482,"line":3,"station_name":"Cilejit","time":9,"transit":false,"i_lat":-6.354349,"station_id":"CJT","distance":7025,"is_transit":false},{"transit":false,"distance":2675,"line":0,"station_name":"Daru","i_lat":-6.338021,"i_long":106.491338,"time":6,"is_transit":false,"station_id":"DAR"},{"station_name":"Tenjo","station_id":"TEJ","i_lat":-6.327251,"i_long":106.460812,"time":5,"line":6,"transit":false,"distance":3902,"is_transit":false},{"station_id":"TGS","i_long":106.425991,"distance":2974,"is_transit":false,"time":5,"line":6,"station_name":"Tigaraksa","transit":false,"i_lat":-6.328533}],[{"time":0,"station_id":"BKS","is_transit":false,"station_name":"Bekasi","distance":0,"i_lat":-6.236616,"i_long":106.997013,"line":1,"transit":false},{"is_transit":false,"station_name":"Kranji","station_id":"KRI","distance":2520,"line":1,"i_lat":-6.224515,"transit":false,"i_long":106.977657,"time":4},{"station_name":"Cakung","i_long":106.951283,"transit":false,"station_id":"CUK","time":3,"i_lat":-6.219053,"is_transit":false,"line":1,"distance":3097},{"distance":1385,"i_lat":-6.217455,"transit":false,"station_name":"Klenderbaru","time":8,"is_transit":false,"station_id":"KLDB","line":1,"i_long":106.939679},{"i_lat":-6.215568,"i_long":106.922662,"station_name":"Buaran","transit":false,"station_id":"BUA","time":1,"line":1,"distance":1305,"is_transit":false},{"is_transit":false,"station_name":"Klender","time":2,"i_lat":-6.2135,"transit":false,"line":1,"i_long":106.899548,"distance":3100,"station_id":"KLD"},{"time":3,"distance":3395,"is_transit":false,"line":1,"transit":false,"station_id":"JNG","station_name":"Jatinegara","i_lat":-6.215091,"i_long":106.86807400000001},{"is_transit":false,"station_name":"Matraman","station_id":"MTR","line":1,"transit":false,"time":2,"i_lat":-6.212485,"i_long":106.858896,"distance":1377},{"line":2,"i_lat":-6.209883,"distance":1275,"i_long":106.84912,"is_transit":true,"station_id":"MRI","station_name":"Manggarai","time":2,"transit":true},{"time":4,"i_lat":-6.198556,"transit":false,"i_long":106.840169,"line":2,"is_transit":false,"distance":1590,"station_id":"CKI","station_name":"Cikini"},{"i_lat":-6.186295,"time":3,"station_name":"Gondangdia","transit":false,"station_id":"GDD","line":2,"i_long":106.832183,"distance":1750,"is_transit":false},{"station_name":"Juanda","station_id":"JUA","i_lat":-6.166716,"transit":false,"i_long":106.828284,"line":2,"distance":2015,"is_transit":false,"time":4},{"transit":false,"distance":1149,"i_lat":-6.160725,"line":2,"i_long":106.827103,"station_name":"Sawah Besar","station_id":"SW","time":2,"is_transit":false},{"is_transit":false,"station_name":"Manggabesar","station_id":"MGB","time":2,"i_lat":-6.149769,"i_long":106.82482,"distance":906,"line":2,"transit":false},{"station_name":"Jayakarta","is_transit":false,"time":2,"distance":1080,"transit":false,"station_id":"JAY","line":2,"i_long":106.820901,"i_lat":-6.141205},{"station_name":"Jakarta Kota","i_long":106.812439,"line":2,"station_id":"JAKK","distance":1264,"transit":true,"time":4,"is_transit":true,"i_lat":-6.137569},{"station_id":"KPB","transit":true,"distance":1364,"time":3,"i_lat":-6.132549,"i_long":106.826365,"line":4,"station_name":"Kampung Bandan","is_transit":true},{"time":9,"station_name":"Angke","distance":4102,"i_lat":-6.144674,"i_long":106.79867,"station_id":"AK","line":1,"transit":false,"is_transit":false},{"distance":1230,"is_transit":false,"i_lat":-6.155215,"time":4,"station_id":"DU","transit":false,"station_name":"Duri","line":1,"i_long":106.800832},{"transit":true,"is_transit":true,"time":8,"i_long":106.811091,"distance":3632,"station_name":"Tanah Abang","line":1,"i_lat":-6.185545,"station_id":"THB"},{"transit":false,"time":6,"i_long":106.79689,"is_transit":false,"distance":3191,"station_id":"PLM","i_lat":-6.207404,"line":6,"station_name":"Palmerah"},{"is_transit":false,"station_id":"KBY","time":7,"line":6,"i_lat":-6.237242,"transit":false,"distance":3737,"station_name":"Kebayoran","i_long":106.780334},{"time":8,"i_long":106.74273,"line":6,"transit":false,"station_name":"Pondokranji","i_lat":-6.276362,"distance":6218,"station_id":"PDJ","is_transit":false},{"i_long":106.728916,"i_lat":-6.288927,"transit":false,"station_name":"Jurangmangu","line":6,"station_id":"JMU","distance":2179,"time":3,"is_transit":false},{"time":4,"distance":1994,"transit":false,"station_id":"SDM","is_transit":false,"station_name":"Sudimara","line":6,"i_lat":-6.296963,"i_long":106.712277},{"line":6,"station_name":"Rawa Buntu","station_id":"RU","distance":4566,"is_transit":false,"time":6,"i_lat":-6.314823,"transit":false,"i_long":106.675475},{"station_id":"SRP","transit":false,"i_long":106.66566,"time":4,"is_transit":false,"i_lat":-6.319871,"station_name":"Serpong","line":6,"distance":2413},{"transit":false,"is_transit":false,"station_id":"CSK","station_name":"Cisauk","time":4,"line":3,"distance":1784,"i_lat":-6.32484,"i_long":106.640411},{"station_name":"Cicayur","distance":2519,"time":4,"i_lat":-6.329547,"i_long":106.617853,"line":3,"transit":false,"is_transit":false,"station_id":"CC"},{"station_name":"Parung Panjang","transit":false,"i_lat":-6.3441410000000005,"time":8,"is_transit":false,"distance":5968,"station_id":"PRP","i_long":106.568863,"line":6},{"i_long":106.508482,"is_transit":false,"time":9,"line":3,"station_id":"CJT","distance":7025,"transit":false,"station_name":"Cilejit","i_lat":-6.354349},{"distance":2675,"i_long":106.491338,"transit":false,"time":6,"i_lat":-6.338021,"station_id":"DAR","station_name":"Daru","line":0,"is_transit":false},{"transit":false,"line":6,"i_long":106.460812,"i_lat":-6.327251,"is_transit":false,"station_id":"TEJ","distance":3902,"station_name":"Tenjo","time":5},{"transit":false,"i_long":106.425991,"time":5,"station_name":"Tigaraksa","line":6,"i_lat":-6.328533,"distance":2974,"is_transit":false,"station_id":"TGS"}],[{"time":0,"station_name":"Bekasi","line":1,"transit":false,"i_lat":-6.236616,"station_id":"BKS","i_long":106.997013,"distance":0,"is_transit":false},{"station_name":"Kranji","line":1,"is_transit":false,"time":4,"station_id":"KRI","i_lat":-6.224515,"distance":2520,"i_long":106.977657,"transit":false},{"time":3,"i_lat":-6.219053,"line":1,"transit":false,"distance":3097,"station_id":"CUK","is_transit":false,"i_long":106.951283,"station_name":"Cakung"},{"line":1,"is_transit":false,"station_id":"KLDB","i_lat":-6.217455,"station_name":"Klenderbaru","i_long":106.939679,"transit":false,"distance":1385,"time":8},{"transit":false,"station_id":"BUA","is_transit":false,"station_name":"Buaran","time":1,"i_lat":-6.215568,"i_long":106.922662,"distance":1305,"line":1},{"time":2,"line":1,"station_id":"KLD","transit":false,"i_long":106.899548,"distance":3100,"station_name":"Klender","is_transit":false,"i_lat":-6.2135},{"i_lat":-6.215091,"time":3,"transit":true,"distance":3395,"station_id":"JNG","i_long":106.86807400000001,"is_transit":true,"station_name":"Jatinegara","line":1},{"station_id":"POK","transit":false,"time":2,"is_transit":false,"station_name":"Pondok Jati","i_long":106.861737,"line":11,"i_lat":-6.209188,"distance":1236},{"station_name":"Kramat","i_long":106.855437,"station_id":"KMT","distance":1829,"i_lat":-6.193792,"line":11,"transit":false,"time":2,"is_transit":false},{"i_lat":-6.185975,"station_id":"GST","line":11,"distance":973,"station_name":"Gang Sentiong","transit":false,"i_long":106.850107,"time":1,"is_transit":false},{"station_id":"PSE","i_lat":-6.174784,"i_long":106.84368,"time":8,"line":11,"is_transit":false,"transit":false,"station_name":"Pasar Senen","distance":1567},{"station_id":"KMO","is_transit":false,"time":4,"transit":false,"line":11,"station_name":"Kemayoran","i_lat":-6.161728,"distance":1436,"i_long":106.839204},{"time":5,"station_id":"RJW","distance":1901,"i_long":106.836569,"is_transit":false,"transit":false,"station_name":"Rajawali","i_lat":-6.14505,"line":11},{"is_transit":true,"i_long":106.826365,"distance":1444,"time":3,"line":4,"station_id":"KPB","i_lat":-6.132549,"transit":true,"station_name":"Kampung Bandan"},{"station_id":"JAKK","i_lat":-6.137569,"station_name":"Jakarta Kota","time":3,"is_transit":true,"i_long":106.812439,"distance":1364,"transit":true,"line":2},{"line":2,"time":4,"i_lat":-6.141205,"station_name":"Jayakarta","is_transit":false,"i_long":106.820901,"station_id":"JAY","transit":false,"distance":1264},{"time":2,"line":2,"station_id":"MGB","i_lat":-6.149769,"distance":1080,"i_long":106.82482,"transit":false,"station_name":"Manggabesar","is_transit":false},{"transit":false,"line":2,"time":2,"station_name":"Sawah Besar","distance":906,"is_transit":false,"i_lat":-6.160725,"station_id":"SW","i_long":106.827103},{"transit":false,"station_id":"JUA","time":2,"distance":1149,"station_name":"Juanda","line":2,"i_long":106.828284,"i_lat":-6.166716,"is_transit":false},{"is_transit":false,"i_lat":-6.186295,"time":4,"transit":false,"station_name":"Gondangdia","station_id":"GDD","line":2,"i_long":106.832183,"distance":2015},{"time":3,"i_lat":-6.198556,"i_long":106.840169,"line":2,"transit":false,"station_id":"CKI","distance":1750,"is_transit":false,"station_name":"Cikini"},{"is_transit":true,"time":4,"station_id":"MRI","i_lat":-6.209883,"line":2,"distance":1590,"station_name":"Manggarai","transit":true,"i_long":106.84912},{"transit":false,"station_id":"SUD","i_long":106.822649,"i_lat":-6.202263,"is_transit":false,"distance":3186,"station_name":"Sudirman","time":4,"line":1},{"is_transit":false,"station_name":"Sudirman Baru","i_lat":-6.201433,"i_long":106.819881,"line":1,"station_id":"SUDB","time":1,"transit":false,"distance":280},{"distance":471,"time":1,"i_lat":-6.20132,"is_transit":false,"i_long":106.816351,"station_name":"Karet","line":1,"station_id":"KAT","transit":false},{"time":5,"transit":true,"station_id":"THB","is_transit":true,"i_lat":-6.185545,"station_name":"Tanah Abang","distance":2029,"i_long":106.811091,"line":1},{"station_name":"Palmerah","line":6,"i_long":106.79689,"transit":false,"station_id":"PLM","i_lat":-6.207404,"is_transit":false,"distance":3191,"time":6},{"i_long":106.780334,"line":6,"transit":false,"station_id":"KBY","i_lat":-6.237242,"time":7,"distance":3737,"is_transit":false,"station_name":"Kebayoran"},{"distance":6218,"station_id":"PDJ","is_transit":false,"station_name":"Pondokranji","time":8,"i_lat":-6.276362,"line":6,"i_long":106.74273,"transit":false},{"time":3,"transit":false,"station_name":"Jurangmangu","distance":2179,"i_lat":-6.288927,"station_id":"JMU","is_transit":false,"i_long":106.728916,"line":6},{"transit":false,"is_transit":false,"i_long":106.712277,"station_id":"SDM","time":4,"i_lat":-6.296963,"distance":1994,"station_name":"Sudimara","line":6},{"is_transit":false,"station_name":"Rawa Buntu","i_lat":-6.314823,"station_id":"RU","i_long":106.675475,"transit":false,"time":6,"line":6,"distance":4566},{"distance":2413,"transit":false,"station_id":"SRP","station_name":"Serpong","i_long":106.66566,"is_transit":false,"time":4,"i_lat":-6.319871,"line":6},{"i_lat":-6.32484,"is_transit":false,"i_long":106.640411,"line":3,"station_name":"Cisauk","station_id":"CSK","transit":false,"distance":1784,"time":4},{"station_id":"CC","transit":false,"distance":2519,"station_name":"Cicayur","line":3,"i_long":106.617853,"i_lat":-6.329547,"time":4,"is_transit":false},{"line":6,"i_long":106.568863,"station_name":"Parung Panjang","station_id":"PRP","time":8,"transit":false,"distance":5968,"i_lat":-6.3441410000000005,"is_transit":false},{"distance":7025,"i_long":106.508482,"i_lat":-6.354349,"station_name":"Cilejit","is_transit":false,"station_id":"CJT","transit":false,"line":3,"time":9},{"distance":2675,"time":6,"transit":false,"is_transit":false,"station_id":"DAR","station_name":"Daru","i_long":106.491338,"i_lat":-6.338021,"line":0},{"transit":false,"distance":3902,"is_transit":false,"line":6,"station_id":"TEJ","station_name":"Tenjo","i_lat":-6.327251,"i_long":106.460812,"time":5},{"i_lat":-6.328533,"is_transit":false,"time":5,"station_id":"TGS","i_long":106.425991,"station_name":"Tigaraksa","distance":2974,"transit":false,"line":6}]]}