{"data":[[{"i_long":106.997013,"line":1,"i_lat":-6.236616,"station_id":"BKS","time":0,"transit":false,"station_name":"Bekasi","is_transit":false,"distance":0},{"distance":2520,"transit":false,"i_lat":-6.224515,"i_long":106.977657,"time":4,"station_id":"KRI","is_transit":false,"line":1,"station_name":"Kranji"},{"line":1,"station_id":"CUK","time":3,"i_long":106.951283,"transit":false,"station_name":"Cakung","is_transit":false,"distance":3097,"i_lat":-6.219053},{"i_long":106.939679,"transit":false,"is_transit":false,"distance":1385,"time":8,"station_id":"KLDB","station_name":"Klenderbaru","i_lat":-6.217455,"line":1},{"station_name":"Buaran","is_transit":false,"i_long":106.922662,"line":1,"distance":1305,"transit":false,"station_id":"BUA","i_lat":-6.215568,"time":1},{"time":2,"is_transit":false,"station_id":"KLD","i_long":106.899548,"transit":false,"station_name":"Klender","line":1,"distance":3100,"i_lat":-6.2135},{"transit":false,"time":3,"station_name":"Jatinegara","distance":3395,"i_lat":-6.215091,"is_transit":false,"station_id":"JNG","i_long":106.86807400000001,"line":1},{"line":1,"is_transit":false,"distance":1377,"i_long":106.858896,"station_name":"Matraman","transit":false,"station_id":"MTR","time":2,"i_lat":-6.212485},{"line":2,"station_id":"MRI","time":2,"i_lat":-6.209883,"distance":1275,"transit":false,"i_long":106.84912,"is_transit":false,"station_name":"Manggarai"},{"transit":false,"station_name":"Sudirman","is_transit":false,"distance":3186,"i_lat":-6.202263,"station_id":"SUD","time":4,"i_long":106.822649,"line":1},{"is_transit":false,"line":1,"i_long":106.819881,"distance":280,"station_name":"Sudirman Baru","transit":false,"i_lat":-6.201433,"station_id":"SUDB","time":1},{"distance":471,"i_lat":-6.20132,"i_long":106.816351,"station_name":"Karet","transit":false,"is_transit":false,"station_id":"KAT","line":1,"time":1},{"time":5,"transit":false,"station_name":"Tanah Abang","i_lat":-6.185545,"station_id":"THB","is_transit":false,"i_long":106.811091,"line":1,"distance":2029},{"station_name":"Duri","line":1,"i_lat":-6.155215,"station_id":"DU","is_transit":true,"i_long":106.800832,"transit":true,"time":8,"distance":3632},{"station_id":"GGL","i_lat":-6.162021,"i_long":106.788277,"is_transit":false,"transit":false,"station_name":"Grogol","distance":1700,"time":3,"line":5},{"line":5,"station_name":"Pesing","station_id":"PSG","i_lat":-6.161433,"i_long":106.771379,"time":2,"is_transit":false,"distance":2036,"transit":false},{"distance":1614,"line":5,"station_id":"TKO","station_name":"Taman Kota","i_lat":-6.1587309999999995,"transit":false,"i_long":106.756522,"is_transit":false,"time":2}],[{"station_name":"Bekasi","i_lat":-6.236616,"distance":0,"time":0,"transit":false,"station_id":"BKS","is_transit":false,"line":1,"i_long":106.997013},{"distance":2520,"line":1,"station_id":"KRI","transit":false,"is_transit":false,"time":4,"station_name":"Kranji","i_lat":-6.224515,"i_long":106.977657},{"station_id":"CUK","is_transit":false,"transit":false,"time":3,"line":1,"distance":3097,"station_name":"Cakung","i_long":106.951283,"i_lat":-6.219053},{"time":8,"distance":1385,"station_id":"KLDB","line":1,"i_lat":-6.217455,"i_long":106.939679,"transit":false,"station_name":"Klenderbaru","is_transit":false},{"station_name":"Buaran","i_long":106.922662,"line":1,"is_transit":false,"station_id":"BUA","transit":false,"time":1,"i_lat":-6.215568,"distance":1305},{"time":2,"i_lat":-6.2135,"transit":false,"station_name":"Klender","i_long":106.899548,"is_transit":false,"line":1,"station_id":"KLD","distance":3100},{"line":1,"i_long":106.86807400000001,"distance":3395,"time":3,"transit":true,"is_transit":true,"i_lat":-6.215091,"station_id":"JNG","station_name":"Jatinegara"},{"transit":false,"station_id":"POK","i_lat":-6.209188,"station_name":"Pondok Jati","time":2,"is_transit":false,"line":11,"distance":1236,"i_long":106.861737},{"distance":1829,"time":2,"i_lat":-6.193792,"i_long":106.855437,"line":11,"transit":false,"station_id":"KMT","station_name":"Kramat","is_transit":false},{"distance":973,"i_long":106.850107,"time":1,"line":11,"station_id":"GST","is_transit":false,"station_name":"Gang Sentiong","transit":false,"i_lat":-6.185975},{"time":8,"transit":false,"line":11,"station_name":"Pasar Senen","is_transit":false,"station_id":"PSE","i_long":106.84368,"distance":1567,"i_lat":-6.174784},{"i_lat":-6.161728,"is_transit":false,"distance":1436,"line":11,"station_id":"KMO","transit":false,"i_long":106.839204,"station_name":"Kemayoran","time":4},{"time":5,"station_id":"RJW","i_lat":-6.14505,"line":11,"distance":1901,"i_long":106.836569,"is_transit":false,"transit":false,"station_name":"Rajawali"},{"line":4,"station_id":"KPB","is_transit":true,"transit":true,"distance":1444,"i_lat":-6.132549,"station_name":"Kampung Bandan","time":3,"i_long":106.826365},{"is_transit":false,"transit":false,"station_name":"Angke","station_id":"AK","time":9,"distance":4102,"i_long":106.79867,"i_lat":-6.144674,"line":1},{"i_long":106.800832,"distance":1230,"time":4,"transit":true,"station_id":"DU","line":1,"i_lat":-6.155215,"is_transit":true,"station_name":"Duri"},{"i_long":106.788277,"is_transit":false,"station_id":"GGL","line":5,"time":3,"transit":false,"station_name":"Grogol","distance":1700,"i_lat":-6.162021},{"station_name":"Pesing","line":5,"time":2,"is_transit":false,"distance":2036,"station_id":"PSG","transit":false,"i_lat":-6.161433,"i_long":106.771379},{"station_name":"Taman Kota","transit":false,"is_transit":false,"station_id":"TKO","time":2,"distance":1614,"i_lat":-6.1587309999999995,"i_long":106.756522,"line":5}],[{"distance":0,"transit":false,"i_lat":-6.236616,"time":0,"i_long":106.997013,"line":1,"station_id":"BKS","station_name":"Bekasi","is_transit":false},{"transit":false,"i_lat":-6.224515,"station_name":"Kranji","station_id":"KRI","time":4,"is_transit":false,"i_long":106.977657,"line":1,"distance":2520},{"i_lat":-6.219053,"i_long":106.951283,"line":1,"time":3,"transit":false,"station_name":"Cakung","station_id":"CUK","is_transit":false,"distance":3097},{"transit":false,"i_long":106.939679,"i_lat":-6.217455,"line":1,"station_name":"Klenderbaru","is_transit":false,"distance":1385,"time":8,"station_id":"KLDB"},{"station_id":"BUA","is_transit":false,"line":1,"station_name":"Buaran","transit":false,"time":1,"distance":1305,"i_long":106.922662,"i_lat":-6.215568},{"station_name":"Klender","distance":3100,"transit":false,"station_id":"KLD","time":2,"i_lat":-6.2135,"line":1,"is_transit":false,"i_long":106.899548},{"distance":3395,"i_long":106.86807400000001,"line":1,"is_transit":false,"station_id":"JNG","transit":false,"station_name":"Jatinegara","time":3,"i_lat":-6.215091},{"line":1,"station_id":"MTR","time":2,"i_lat":-6.212485,"is_transit":false,"i_long":106.858896,"distance":1377,"transit":false,"station_name":"Matraman"},{"time":2,"line":2,"is_transit":true,"transit":true,"station_id":"MRI","distance":1275,"station_name":"Manggarai","i_lat":-6.209883,"i_long":106.84912},{"station_id":"CKI","distance":1590,"transit":false,"line":2,"time":4,"station_name":"Cikini","i_long":106.840169,"i_lat":-6.198556,"is_transit":false},{"i_long":106.832183,"station_id":"GDD","i_lat":-6.186295,"line":2,"time":3,"transit":false,"is_transit":false,"distance":1750,"station_name":"Gondangdia"},{"station_name":"Juanda","i_lat":-6.166716,"is_transit":false,"distance":2015,"time":4,"line":2,"transit":false,"i_long":106.828284,"station_id":"JUA"},{"i_lat":-6.160725,"line":2,"is_transit":false,"station_name":"Sawah Besar","time":2,"i_long":106.827103,"transit":false,"distance":1149,"station_id":"SW"},{"transit":false,"station_id":"MGB","station_name":"Manggabesar","distance":906,"i_lat":-6.149769,"i_long":106.82482,"line":2,"is_transit":false,"time":2},{"transit":false,"time":2,"i_lat":-6.141205,"distance":1080,"i_long":106.820901,"is_transit":false,"line":2,"station_name":"Jayakarta","station_id":"JAY"},{"i_lat":-6.137569,"is_transit":true,"transit":true,"time":4,"station_id":"JAKK","line":2,"i_long":106.812439,"distance":1264,"station_name":"Jakarta Kota"},{"transit":true,"i_lat":-6.132549,"i_long":106.826365,"line":4,"time":3,"distance":1364,"station_name":"Kampung Bandan","is_transit":true,"station_id":"KPB"},{"i_long":106.79867,"transit":false,"is_transit":false,"station_id":"AK","line":1,"station_name":"Angke","time":9,"i_lat":-6.144674,"distance":4102},{"station_id":"DU","i_long":106.800832,"i_lat":-6.155215,"transit":true,"is_transit":true,"time":4,"station_name":"Duri","distance":1230,"line":1},{"is_transit":false,"distance":1700,"station_name":"Grogol","transit":false,"i_long":106.788277,"line":5,"i_lat":-6.162021,"station_id":"GGL","time":3},{"i_lat":-6.161433,"i_long":106.771379,"station_name":"Pesing","is_transit":false,"time":2,"line":5,"transit":false,"station_id":"PSG","distance":2036},{"i_long":106.756522,"is_transit":false,"line":5,"transit":false,"distance":1614,"time":2,"i_lat":-6.1587309999999995,"station_name":"Taman Kota","station_id":"TKO"}],[{"station_name":"Bekasi","i_lat":-6.236616,"i_long":106.997013,"time":0,"distance":0,"station_id":"BKS","line":1,"is_transit":false,"transit":false},{"station_name":"Kranji","station_id":"KRI","distance":2520,"i_lat":-6.224515,"i_long":106.977657,"transit":false,"line":1,"is_transit":false,"time":4},{"i_lat":-6.219053,"i_long":106.951283,"time":3,"line":1,"station_name":"Cakung","is_transit":false,"transit":false,"station_id":"CUK","distance":3097},{"i_long":106.939679,"station_id":"KLDB","distance":1385,"transit":false,"is_transit":false,"time":8,"line":1,"station_name":"Klenderbaru","i_lat":-6.217455},{"i_long":106.922662,"distance":1305,"line":1,"i_lat":-6.215568,"station_name":"Buaran","is_transit":false,"time":1,"transit":false,"station_id":"BUA"},{"is_transit":false,"i_lat":-6.2135,"station_id":"KLD","time":2,"transit":false,"station_name":"Klender","i_long":106.899548,"distance":3100,"line":1},{"time":3,"distance":3395,"station_name":"Jatinegara","station_id":"JNG","line":1,"i_lat":-6.215091,"transit":true,"is_transit":true,"i_long":106.86807400000001},{"i_long":106.861737,"station_id":"POK","station_name":"Pondok Jati","is_transit":false,"i_lat":-6.209188,"time":2,"line":11,"transit":false,"distance":1236},{"transit":false,"distance":1829,"line":11,"station_name":"Kramat","is_transit":false,"time":2,"i_lat":-6.193792,"station_id":"KMT","i_long":106.855437},{"time":1,"distance":973,"transit":false,"is_transit":false,"i_long":106.850107,"line":11,"i_lat":-6.185975,"station_name":"Gang Sentiong","station_id":"GST"},{"transit":false,"is_transit":false,"i_lat":-6.174784,"station_name":"Pasar Senen","station_id":"PSE","i_long":106.84368,"distance":1567,"line":11,"time":8},{"is_transit":false,"line":11,"station_id":"KMO","i_lat":-6.161728,"distance":1436,"time":4,"transit":false,"station_name":"Kemayoran","i_long":106.839204},{"i_long":106.836569,"time":5,"station_id":"RJW","station_name":"Rajawali","is_transit":false,"i_lat":-6.14505,"line":11,"distance":1901,"transit":false},{"distance":1444,"i_long":106.826365,"station_id":"KPB","is_transit":true,"transit":true,"station_name":"Kampung Bandan","line":4,"i_lat":-6.132549,"time":3},{"station_id":"JAKK","is_transit":true,"i_lat":-6.137569,"line":2,"station_name":"Jakarta Kota","transit":true,"i_long":106.812439,"distance":1364,"time":3},{"distance":1264,"i_long":106.820901,"transit":false,"station_name":"Jayakarta","is_transit":false,"time":4,"line":2,"station_id":"JAY","i_lat":-6.141205},{"station_name":"Manggabesar","line":2,"i_long":106.82482,"distance":1080,"i_lat":-6.149769,"station_id":"MGB","time":2,"is_transit":false,"transit":false},{"station_id":"SW","line":2,"transit":false,"distance":906,"time":2,"i_long":106.827103,"station_name":"Sawah Besar","i_lat":-6.160725,"is_transit":false},{"i_long":106.828284,"transit":false,"station_id":"JUA","time":2,"i_lat":-6.166716,"line":2,"is_transit":false,"station_name":"Juanda","distance":1149},{"i_long":106.832183,"transit":false,"station_name":"Gondangdia","is_transit":false,"i_lat":-6.186295,"time":4,"distance":2015,"station_id":"GDD","line":2},{"i_long":106.840169,"distance":1750,"is_transit":false,"line":2,"station_name":"Cikini","time":3,"transit":false,"station_id":"CKI","i_lat":-6.198556},{"line":2,"is_transit":true,"station_id":"MRI","i_lat":-6.209883,"i_long":106.84912,"station_name":"Manggarai","distance":1590,"time":4,"transit":true},{"is_transit":false,"time":4,"i_long":106.822649,"station_name":"Sudirman","i_lat":-6.202263,"line":1,"distance":3186,"transit":false,"station_id":"SUD"},{"distance":280,"is_transit":false,"i_long":106.819881,"line":1,"station_id":"SUDB","time":1,"i_lat":-6.201433,"transit":false,"station_name":"Sudirman Baru"},{"distance":471,"i_lat":-6.20132,"station_name":"Karet","i_long":106.816351,"station_id":"KAT","time":1,"is_transit":false,"transit":false,"line":1},{"i_long":106.811091,"is_transit":false,"line":1,"transit":false,"station_name":"Tanah Abang","distance":2029,"i_lat":-6.185545,"station_id":"THB","time":5},{"i_lat":-6.155215,"transit":true,"station_id":"DU","is_transit":true,"time":8,"line":1,"station_name":"Duri","i_long":106.800832,"distance":3632},{"time":3,"i_long":106.788277,"i_lat":-6.162021,"transit":false,"line":5,"station_name":"Grogol","station_id":"GGL","distance":1700,"is_transit":false},{"is_transit":false,"distance":2036,"line":5,"i_lat":-6.161433,"time":2,"transit":false,"station_name":"Pesing","station_id":"PSG","i_long":106.771379},{"station_id":"TKO","distance":1614,"is_transit":false,"time":2,"transit":false,"station_name":"Taman Kota","i_lat":-6.1587309999999995,"line":5,"i_long":106.756522}]]}