{"data":[[{"i_long":106.997013,"station_name":"Bekasi","time":0,"line":1,"transit":false,"station_id":"BKS","is_transit":false,"distance":0,"i_lat":-6.236616},{"distance":2520,"i_lat":-6.224515,"time":4,"transit":false,"i_long":106.977657,"line":1,"is_transit":false,"station_name":"Kranji","station_id":"KRI"},{"station_name":"Cakung","station_id":"CUK","i_lat":-6.219053,"time":3,"transit":false,"is_transit":false,"i_long":106.951283,"line":1,"distance":3097},{"station_name":"Klenderbaru","station_id":"KLDB","i_lat":-6.217455,"line":1,"time":8,"is_transit":false,"distance":1385,"i_long":106.939679,"transit":false},{"transit":false,"time":1,"station_id":"BUA","i_lat":-6.215568,"i_long":106.922662,"station_name":"Buaran","distance":1305,"line":1,"is_transit":false},{"station_id":"KLD","is_transit":false,"distance":3100,"i_lat":-6.2135,"time":2,"transit":false,"line":1,"i_long":106.899548,"station_name":"Klender"},{"i_long":106.86807400000001,"line":1,"distance":3395,"transit":false,"time":3,"station_id":"JNG","station_name":"Jatinegara","is_transit":false,"i_lat":-6.215091},{"i_lat":-6.212485,"station_id":"MTR","distance":1377,"line":1,"station_name":"Matraman","is_transit":false,"i_long":106.858896,"transit":false,"time":2},{"distance":1275,"time":2,"i_long":106.84912,"transit":true,"station_id":"MRI","i_lat":-6.209883,"line":2,"is_transit":true,"station_name":"Manggarai"},{"time":4,"station_name":"Tebet","i_lat":-6.226659,"i_long":106.857948,"line":2,"transit":false,"is_transit":false,"distance":2610,"station_id":"TEB"},{"station_id":"CW","is_transit":false,"i_lat":-6.242512,"station_name":"Cawang","transit":false,"distance":1230,"time":2,"i_long":106.856607,"line":2},{"is_transit":false,"distance":1546,"station_id":"DRN","transit":false,"station_name":"Duren Kalibata","time":3,"i_lat":-6.255332,"i_long":106.85449,"line":2},{"i_long":106.851577,"line":2,"is_transit":false,"time":2,"i_lat":-6.263214,"distance":824,"transit":false,"station_name":"Pasar Minggu Baru","station_id":"PSMB"},{"is_transit":false,"transit":false,"station_name":"Pasar Minggu","i_lat":-6.2842400000000005,"line":2,"station_id":"PSM","time":2,"distance":2380,"i_long":106.843999},{"station_id":"TNT","station_name":"Tanjung Barat","i_long":106.838896,"distance":2820,"time":4,"is_transit":false,"i_lat":-6.3080680000000005,"transit":false,"line":2},{"i_long":106.832616,"line":2,"station_name":"Lenteng Agung","station_id":"LNA","time":3,"distance":2671,"is_transit":false,"i_lat":-6.330363,"transit":false},{"line":2,"is_transit":false,"transit":false,"i_lat":-6.339291,"station_id":"UP","time":2,"station_name":"Univ. Pancasila","distance":1029,"i_long":106.834175},{"i_lat":-6.360749,"i_long":106.831474,"line":2,"distance":2264,"transit":false,"station_id":"UI","time":3,"is_transit":false,"station_name":"Univ. Indonesia"},{"i_long":106.831114,"i_lat":-6.369073,"is_transit":false,"transit":false,"time":2,"station_name":"Pondok Cina","distance":1109,"station_id":"POC","line":2},{"station_id":"DPB","is_transit":false,"transit":false,"time":4,"i_long":106.819451,"station_name":"Depokbaru","distance":2727,"i_lat":-6.391065,"line":2},{"station_id":"DP","time":3,"station_name":"Depok","line":2,"is_transit":false,"transit":false,"distance":1584,"i_long":106.816926,"i_lat":-6.405256},{"station_name":"Citayam","line":2,"station_id":"CTA","time":6,"transit":false,"i_long":106.800298,"distance":5084,"i_lat":-6.448811,"is_transit":false},{"transit":false,"is_transit":false,"time":5,"station_name":"Bojonggede","i_long":106.792719,"line":2,"station_id":"BJD","distance":5197,"i_lat":-6.493243}],[{"i_long":106.997013,"station_id":"BKS","time":0,"line":1,"station_name":"Bekasi","is_transit":false,"transit":false,"i_lat":-6.236616,"distance":0},{"i_long":106.977657,"line":1,"i_lat":-6.224515,"distance":2520,"time":4,"transit":false,"station_id":"KRI","is_transit":false,"station_name":"Kranji"},{"i_lat":-6.219053,"i_long":106.951283,"distance":3097,"station_name":"Cakung","line":1,"transit":false,"is_transit":false,"time":3,"station_id":"CUK"},{"transit":false,"distance":1385,"station_id":"KLDB","time":8,"station_name":"Klenderbaru","is_transit":false,"i_lat":-6.217455,"i_long":106.939679,"line":1},{"time":1,"i_lat":-6.215568,"is_transit":false,"transit":false,"line":1,"station_id":"BUA","distance":1305,"i_long":106.922662,"station_name":"Buaran"},{"i_lat":-6.2135,"is_transit":false,"line":1,"distance":3100,"station_name":"Klender","i_long":106.899548,"time":2,"transit":false,"station_id":"KLD"},{"transit":true,"station_id":"JNG","i_lat":-6.215091,"is_transit":true,"time":3,"distance":3395,"i_long":106.86807400000001,"station_name":"Jatinegara","line":1},{"station_name":"Pondok Jati","i_lat":-6.209188,"line":11,"distance":1236,"is_transit":false,"time":2,"station_id":"POK","transit":false,"i_long":106.861737},{"distance":1829,"station_id":"KMT","time":2,"line":11,"is_transit":false,"i_lat":-6.193792,"station_name":"Kramat","i_long":106.855437,"transit":false},{"i_lat":-6.185975,"station_name":"Gang Sentiong","time":1,"i_long":106.850107,"line":11,"station_id":"GST","transit":false,"is_transit":false,"distance":973},{"station_name":"Pasar Senen","distance":1567,"line":11,"transit":false,"i_long":106.84368,"time":8,"station_id":"PSE","i_lat":-6.174784,"is_transit":false},{"i_long":106.839204,"station_name":"Kemayoran","line":11,"station_id":"KMO","is_transit":false,"distance":1436,"transit":false,"time":4,"i_lat":-6.161728},{"time":5,"is_transit":false,"distance":1901,"station_name":"Rajawali","line":11,"transit":false,"i_lat":-6.14505,"i_long":106.836569,"station_id":"RJW"},{"station_id":"KPB","i_lat":-6.132549,"transit":true,"station_name":"Kampung Bandan","distance":1444,"is_transit":true,"time":3,"i_long":106.826365,"line":4},{"time":9,"distance":4102,"station_id":"AK","is_transit":false,"line":1,"station_name":"Angke","i_lat":-6.144674,"i_long":106.79867,"transit":false},{"station_id":"DU","is_transit":false,"station_name":"Duri","distance":1230,"transit":false,"time":4,"i_lat":-6.155215,"i_long":106.800832,"line":1},{"station_id":"THB","distance":3632,"i_long":106.811091,"i_lat":-6.185545,"station_name":"Tanah Abang","is_transit":false,"transit":false,"line":1,"time":8},{"is_transit":false,"i_long":106.816351,"line":1,"time":5,"station_id":"KAT","distance":2029,"transit":false,"station_name":"Karet","i_lat":-6.20132},{"transit":false,"i_long":106.819881,"i_lat":-6.201433,"is_transit":false,"station_id":"SUDB","distance":471,"station_name":"Sudirman Baru","line":1,"time":1},{"is_transit":false,"transit":false,"station_name":"Sudirman","time":1,"line":1,"i_long":106.822649,"station_id":"SUD","distance":280,"i_lat":-6.202263},{"transit":true,"i_lat":-6.209883,"station_name":"Manggarai","time":4,"is_transit":true,"line":2,"station_id":"MRI","i_long":106.84912,"distance":3186},{"station_id":"TEB","time":4,"station_name":"Tebet","i_lat":-6.226659,"distance":2610,"transit":false,"i_long":106.857948,"line":2,"is_transit":false},{"station_id":"CW","time":2,"station_name":"Cawang","distance":1230,"is_transit":false,"transit":false,"i_long":106.856607,"i_lat":-6.242512,"line":2},{"distance":1546,"is_transit":false,"station_name":"Duren Kalibata","line":2,"station_id":"DRN","i_long":106.85449,"time":3,"transit":false,"i_lat":-6.255332},{"distance":824,"line":2,"is_transit":false,"station_id":"PSMB","i_lat":-6.263214,"transit":false,"station_name":"Pasar Minggu Baru","i_long":106.851577,"time":2},{"station_name":"Pasar Minggu","i_lat":-6.2842400000000005,"i_long":106.843999,"line":2,"distance":2380,"station_id":"PSM","is_transit":false,"transit":false,"time":2},{"line":2,"i_long":106.838896,"time":4,"is_transit":false,"distance":2820,"station_name":"Tanjung Barat","i_lat":-6.3080680000000005,"transit":false,"station_id":"TNT"},{"is_transit":false,"time":3,"station_name":"Lenteng Agung","i_long":106.832616,"distance":2671,"transit":false,"i_lat":-6.330363,"line":2,"station_id":"LNA"},{"transit":false,"station_name":"Univ. Pancasila","line":2,"i_long":106.834175,"distance":1029,"station_id":"UP","is_transit":false,"time":2,"i_lat":-6.339291},{"station_id":"UI","station_name":"Univ. Indonesia","i_long":106.831474,"line":2,"is_transit":false,"transit":false,"i_lat":-6.360749,"distance":2264,"time":3},{"time":2,"line":2,"station_id":"POC","i_lat":-6.369073,"i_long":106.831114,"station_name":"Pondok Cina","transit":false,"distance":1109,"is_transit":false},{"station_name":"Depokbaru","line":2,"i_lat":-6.391065,"i_long":106.819451,"is_transit":false,"station_id":"DPB","transit":false,"time":4,"distance":2727},{"transit":false,"line":2,"station_id":"DP","station_name":"Depok","is_transit":false,"distance":1584,"time":3,"i_lat":-6.405256,"i_long":106.816926},{"is_transit":false,"i_long":106.800298,"line":2,"station_name":"Citayam","time":6,"i_lat":-6.448811,"station_id":"CTA","transit":false,"distance":5084},{"time":5,"station_name":"Bojonggede","station_id":"BJD","is_transit":false,"i_long":106.792719,"i_lat":-6.493243,"line":2,"distance":5197,"transit":false}],[{"station_id":"BKS","time":0,"station_name":"Bekasi","i_lat":-6.236616,"distance":0,"is_transit":false,"line":1,"transit":false,"i_long":106.997013},{"i_long":106.977657,"time":4,"station_id":"KRI","transit":false,"station_name":"Kranji","i_lat":-6.224515,"distance":2520,"is_transit":false,"line":1},{"station_id":"CUK","station_name":"Cakung","distance":3097,"line":1,"i_long":106.951283,"is_transit":false,"time":3,"transit":false,"i_lat":-6.219053},{"is_transit":false,"station_name":"Klenderbaru","i_lat":-6.217455,"i_long":106.939679,"line":1,"time":8,"distance":1385,"transit":false,"station_id":"KLDB"},{"i_long":106.922662,"i_lat":-6.215568,"distance":1305,"is_transit":false,"time":1,"line":1,"transit":false,"station_name":"Buaran","station_id":"BUA"},{"i_lat":-6.2135,"station_name":"Klender","distance":3100,"is_transit":false,"i_long":106.899548,"line":1,"transit":false,"time":2,"station_id":"KLD"},{"distance":3395,"station_name":"Jatinegara","station_id":"JNG","is_transit":true,"i_long":106.86807400000001,"time":3,"transit":true,"i_lat":-6.215091,"line":1},{"station_name":"Pondok Jati","station_id":"POK","i_lat":-6.209188,"time":2,"distance":1236,"transit":false,"i_long":106.861737,"line":11,"is_transit":false},{"is_transit":false,"distance":1829,"station_id":"KMT","line":11,"transit":false,"time":2,"i_long":106.855437,"station_name":"Kramat","i_lat":-6.193792},{"station_name":"Gang Sentiong","i_lat":-6.185975,"distance":973,"transit":false,"station_id":"GST","is_transit":false,"i_long":106.850107,"time":1,"line":11},{"transit":false,"line":11,"i_long":106.84368,"station_name":"Pasar Senen","i_lat":-6.174784,"time":8,"distance":1567,"is_transit":false,"station_id":"PSE"},{"station_name":"Kemayoran","distance":1436,"i_lat":-6.161728,"transit":false,"line":11,"i_long":106.839204,"is_transit":false,"time":4,"station_id":"KMO"},{"is_transit":false,"station_id":"RJW","i_lat":-6.14505,"i_long":106.836569,"line":11,"transit":false,"time":5,"distance":1901,"station_name":"Rajawali"},{"station_id":"KPB","i_lat":-6.132549,"line":4,"time":3,"distance":1444,"transit":true,"i_long":106.826365,"is_transit":true,"station_name":"Kampung Bandan"},{"is_transit":true,"line":2,"station_id":"JAKK","transit":true,"i_long":106.812439,"time":3,"i_lat":-6.137569,"distance":1364,"station_name":"Jakarta Kota"},{"station_id":"JAY","time":4,"i_long":106.820901,"distance":1264,"station_name":"Jayakarta","i_lat":-6.141205,"line":2,"transit":false,"is_transit":false},{"i_lat":-6.149769,"is_transit":false,"transit":false,"time":2,"station_id":"MGB","line":2,"distance":1080,"i_long":106.82482,"station_name":"Manggabesar"},{"line":2,"station_id":"SW","distance":906,"transit":false,"is_transit":false,"time":2,"i_long":106.827103,"station_name":"Sawah Besar","i_lat":-6.160725},{"transit":false,"is_transit":false,"station_id":"JUA","line":2,"i_long":106.828284,"time":2,"station_name":"Juanda","distance":1149,"i_lat":-6.166716},{"transit":false,"station_name":"Gondangdia","is_transit":false,"station_id":"GDD","i_lat":-6.186295,"time":4,"line":2,"distance":2015,"i_long":106.832183},{"time":3,"i_long":106.840169,"station_id":"CKI","transit":false,"distance":1750,"i_lat":-6.198556,"line":2,"station_name":"Cikini","is_transit":false},{"station_id":"MRI","transit":false,"station_name":"Manggarai","line":2,"time":4,"i_lat":-6.209883,"i_long":106.84912,"is_transit":false,"distance":1590},{"transit":false,"i_long":106.857948,"station_id":"TEB","i_lat":-6.226659,"is_transit":false,"station_name":"Tebet","line":2,"distance":2610,"time":4},{"distance":1230,"i_lat":-6.242512,"is_transit":false,"line":2,"station_id":"CW","station_name":"Cawang","time":2,"transit":false,"i_long":106.856607},{"station_name":"Duren Kalibata","distance":1546,"time":3,"line":2,"transit":false,"i_lat":-6.255332,"station_id":"DRN","is_transit":false,"i_long":106.85449},{"line":2,"transit":false,"distance":824,"station_id":"PSMB","is_transit":false,"i_lat":-6.263214,"time":2,"station_name":"Pasar Minggu Baru","i_long":106.851577},{"transit":false,"time":2,"is_transit":false,"distance":2380,"station_id":"PSM","station_name":"Pasar Minggu","i_lat":-6.2842400000000005,"i_long":106.843999,"line":2},{"time":4,"station_name":"Tanjung Barat","i_lat":-6.3080680000000005,"line":2,"distance":2820,"i_long":106.838896,"transit":false,"station_id":"TNT","is_transit":false},{"transit":false,"i_long":106.832616,"distance":2671,"is_transit":false,"line":2,"time":3,"i_lat":-6.330363,"station_id":"LNA","station_name":"Lenteng Agung"},{"distance":1029,"line":2,"i_lat":-6.339291,"is_transit":false,"station_id":"UP","station_name":"Univ. Pancasila","i_long":106.834175,"transit":false,"time":2},{"distance":2264,"line":2,"i_long":106.831474,"i_lat":-6.360749,"time":3,"transit":false,"station_name":"Univ. Indonesia","station_id":"UI","is_transit":false},{"line":2,"transit":false,"i_lat":-6.369073,"distance":1109,"station_id":"POC","i_long":106.831114,"is_transit":false,"station_name":"Pondok Cina","time":2},{"transit":false,"station_id":"DPB","station_name":"Depokbaru","time":4,"distance":2727,"is_transit":false,"i_lat":-6.391065,"line":2,"i_long":106.819451},{"is_transit":false,"i_lat":-6.405256,"station_name":"Depok","distance":1584,"line":2,"station_id":"DP","i_long":106.816926,"transit":false,"time":3},{"i_lat":-6.448811,"line":2,"i_long":106.800298,"station_id":"CTA","is_transit":false,"time":6,"station_name":"Citayam","transit":false,"distance":5084},{"is_transit":false,"station_id":"BJD","distance":5197,"time":5,"transit":false,"i_lat":-6.493243,"station_name":"Bojonggede","i_long":106.792719,"line":2}]]}