{"data":[[{"distance":0,"station_name":"Bekasi","is_transit":false,"transit":false,"station_id":"BKS","i_long":106.997013,"time":0,"line":1,"i_lat":-6.236616},{"is_transit":false,"distance":2520,"i_long":106.977657,"station_name":"Kranji","transit":false,"line":1,"i_lat":-6.224515,"time":4,"station_id":"KRI"},{"transit":false,"distance":3097,"station_name":"Cakung","i_long":106.951283,"i_lat":-6.219053,"station_id":"CUK","line":1,"is_transit":false,"time":3},{"station_name":"Klenderbaru","time":8,"station_id":"KLDB","i_long":106.939679,"is_transit":false,"transit":false,"distance":1385,"i_lat":-6.217455,"line":1},{"time":1,"i_lat":-6.215568,"station_name":"Buaran","transit":false,"distance":1305,"station_id":"BUA","is_transit":false,"i_long":106.922662,"line":1},{"distance":3100,"i_long":106.899548,"is_transit":false,"transit":false,"line":1,"station_name":"Klender","i_lat":-6.2135,"time":2,"station_id":"KLD"},{"station_id":"JNG","distance":3395,"i_lat":-6.215091,"line":1,"time":3,"transit":true,"i_long":106.86807400000001,"station_name":"Jatinegara","is_transit":true},{"i_lat":-6.209188,"transit":false,"line":11,"i_long":106.861737,"time":2,"station_id":"POK","distance":1236,"station_name":"Pondok Jati","is_transit":false},{"distance":1829,"station_name":"Kramat","station_id":"KMT","i_lat":-6.193792,"time":2,"line":11,"is_transit":false,"i_long":106.855437,"transit":false},{"transit":false,"line":11,"station_name":"Gang Sentiong","is_transit":false,"station_id":"GST","distance":973,"i_long":106.850107,"time":1,"i_lat":-6.185975}],[{"transit":false,"i_lat":-6.236616,"time":0,"line":1,"station_name":"Bekasi","station_id":"BKS","is_transit":false,"i_long":106.997013,"distance":0},{"is_transit":false,"station_id":"KRI","i_long":106.977657,"i_lat":-6.224515,"distance":2520,"time":4,"station_name":"Kranji","transit":false,"line":1},{"i_lat":-6.219053,"distance":3097,"i_long":106.951283,"time":3,"station_id":"CUK","line":1,"is_transit":false,"station_name":"Cakung","transit":false},{"i_lat":-6.217455,"station_name":"Klenderbaru","distance":1385,"transit":false,"i_long":106.939679,"station_id":"KLDB","is_transit":false,"line":1,"time":8},{"distance":1305,"station_name":"Buaran","line":1,"station_id":"BUA","is_transit":false,"time":1,"transit":false,"i_long":106.922662,"i_lat":-6.215568},{"is_transit":false,"transit":false,"distance":3100,"line":1,"time":2,"i_lat":-6.2135,"i_long":106.899548,"station_name":"Klender","station_id":"KLD"},{"is_transit":false,"station_name":"Jatinegara","station_id":"JNG","i_long":106.86807400000001,"distance":3395,"i_lat":-6.215091,"line":1,"time":3,"transit":false},{"distance":1377,"is_transit":false,"i_lat":-6.212485,"line":1,"station_name":"Matraman","station_id":"MTR","time":2,"i_long":106.858896,"transit":false},{"i_lat":-6.209883,"distance":1275,"is_transit":false,"station_id":"MRI","time":2,"transit":false,"i_long":106.84912,"station_name":"Manggarai","line":2},{"is_transit":false,"distance":3186,"line":1,"station_name":"Sudirman","i_lat":-6.202263,"station_id":"SUD","time":4,"transit":false,"i_long":106.822649},{"line":1,"i_lat":-6.201433,"is_transit":false,"distance":280,"station_id":"SUDB","i_long":106.819881,"station_name":"Sudirman Baru","time":1,"transit":false},{"i_lat":-6.20132,"is_transit":false,"transit":false,"station_name":"Karet","distance":471,"i_long":106.816351,"line":1,"time":1,"station_id":"KAT"},{"distance":2029,"i_lat":-6.185545,"station_name":"Tanah Abang","i_long":106.811091,"line":1,"station_id":"THB","time":5,"is_transit":false,"transit":false},{"i_lat":-6.155215,"i_long":106.800832,"line":1,"distance":3632,"station_id":"DU","station_name":"Duri","transit":false,"time":8,"is_transit":false},{"station_id":"AK","line":1,"i_long":106.79867,"is_transit":false,"transit":false,"distance":1230,"time":4,"station_name":"Angke","i_lat":-6.144674},{"transit":true,"station_name":"Kampung Bandan","is_transit":true,"distance":4102,"i_long":106.826365,"line":4,"station_id":"KPB","time":9,"i_lat":-6.132549},{"station_name":"Rajawali","station_id":"RJW","transit":false,"distance":1444,"i_long":106.836569,"time":3,"line":11,"is_transit":false,"i_lat":-6.14505},{"time":5,"station_id":"KMO","transit":false,"i_long":106.839204,"line":11,"is_transit":false,"station_name":"Kemayoran","distance":1901,"i_lat":-6.161728},{"line":11,"i_long":106.84368,"station_id":"PSE","station_name":"Pasar Senen","distance":1436,"i_lat":-6.174784,"time":4,"transit":false,"is_transit":false},{"distance":1567,"i_long":106.850107,"transit":false,"i_lat":-6.185975,"time":8,"station_name":"Gang Sentiong","station_id":"GST","line":11,"is_transit":false}],[{"time":0,"distance":0,"i_long":106.997013,"line":1,"station_id":"BKS","station_name":"Bekasi","is_transit":false,"transit":false,"i_lat":-6.236616},{"is_transit":false,"distance":2520,"i_lat":-6.224515,"i_long":106.977657,"station_name":"Kranji","time":4,"transit":false,"line":1,"station_id":"KRI"},{"time":3,"distance":3097,"transit":false,"i_lat":-6.219053,"station_id":"CUK","is_transit":false,"i_long":106.951283,"line":1,"station_name":"Cakung"},{"time":8,"transit":false,"is_transit":false,"i_lat":-6.217455,"station_name":"Klenderbaru","i_long":106.939679,"line":1,"distance":1385,"station_id":"KLDB"},{"i_long":106.922662,"station_id":"BUA","line":1,"distance":1305,"is_transit":false,"transit":false,"station_name":"Buaran","time":1,"i_lat":-6.215568},{"distance":3100,"station_id":"KLD","is_transit":false,"transit":false,"i_long":106.899548,"line":1,"station_name":"Klender","i_lat":-6.2135,"time":2},{"line":1,"station_name":"Jatinegara","distance":3395,"is_transit":false,"transit":false,"time":3,"station_id":"JNG","i_lat":-6.215091,"i_long":106.86807400000001},{"transit":false,"station_id":"MTR","distance":1377,"i_lat":-6.212485,"line":1,"station_name":"Matraman","time":2,"is_transit":false,"i_long":106.858896},{"transit":true,"i_lat":-6.209883,"time":2,"i_long":106.84912,"line":2,"is_transit":true,"station_name":"Manggarai","station_id":"MRI","distance":1275},{"time":4,"distance":1590,"i_long":106.840169,"station_name":"Cikini","i_lat":-6.198556,"transit":false,"line":2,"is_transit":false,"station_id":"CKI"},{"station_name":"Gondangdia","transit":false,"time":3,"is_transit":false,"i_lat":-6.186295,"i_long":106.832183,"distance":1750,"station_id":"GDD","line":2},{"time":4,"i_lat":-6.166716,"station_name":"Juanda","station_id":"JUA","i_long":106.828284,"is_transit":false,"transit":false,"distance":2015,"line":2},{"i_long":106.827103,"station_name":"Sawah Besar","line":2,"transit":false,"station_id":"SW","is_transit":false,"distance":1149,"i_lat":-6.160725,"time":2},{"i_long":106.82482,"line":2,"station_name":"Manggabesar","is_transit":false,"i_lat":-6.149769,"transit":false,"distance":906,"station_id":"MGB","time":2},{"station_id":"JAY","station_name":"Jayakarta","time":2,"line":2,"transit":false,"distance":1080,"i_long":106.820901,"i_lat":-6.141205,"is_transit":false},{"is_transit":true,"station_id":"JAKK","transit":true,"station_name":"Jakarta Kota","i_lat":-6.137569,"i_long":106.812439,"time":4,"distance":1264,"line":2},{"transit":true,"i_lat":-6.132549,"station_name":"Kampung Bandan","time":3,"station_id":"KPB","line":4,"i_long":106.826365,"distance":1364,"is_transit":true},{"time":3,"i_long":106.836569,"is_transit":false,"distance":1444,"station_name":"Rajawali","transit":false,"station_id":"RJW","line":11,"i_lat":-6.14505},{"station_name":"Kemayoran","i_lat":-6.161728,"line":11,"is_transit":false,"distance":1901,"time":5,"i_long":106.839204,"transit":false,"station_id":"KMO"},{"time":4,"transit":false,"distance":1436,"i_lat":-6.174784,"i_long":106.84368,"line":11,"is_transit":false,"station_id":"PSE","station_name":"Pasar Senen"},{"station_id":"GST","i_lat":-6.185975,"is_transit":false,"transit":false,"line":11,"station_name":"Gang Sentiong","time":8,"i_long":106.850107,"distance":1567}]]}