{"data":[[{"i_long":106.997013,"time":0,"is_transit":false,"i_lat":-6.236616,"station_name":"Bekasi","line":1,"station_id":"BKS","distance":0,"transit":false},{"is_transit":false,"distance":2520,"transit":false,"i_lat":-6.224515,"i_long":106.977657,"station_id":"KRI","time":4,"station_name":"Kranji","line":1},{"i_lat":-6.219053,"station_id":"CUK","i_long":106.951283,"station_name":"Cakung","time":3,"line":1,"distance":3097,"is_transit":false,"transit":false},{"i_long":106.939679,"i_lat":-6.217455,"time":8,"station_id":"KLDB","is_transit":false,"station_name":"Klenderbaru","line":1,"transit":false,"distance":1385},{"distance":1305,"station_id":"BUA","station_name":"Buaran","is_transit":false,"transit":false,"time":1,"i_lat":-6.215568,"i_long":106.922662,"line":1},{"transit":false,"i_long":106.899548,"i_lat":-6.2135,"time":2,"is_transit":false,"line":1,"distance":3100,"station_id":"KLD","station_name":"Klender"},{"transit":false,"station_name":"Jatinegara","i_long":106.86807400000001,"station_id":"JNG","i_lat":-6.215091,"time":3,"distance":3395,"is_transit":false,"line":1}]]}