{"data":[[{"i_lat":-6.236616,"time":0,"i_long":106.997013,"station_name":"Bekasi","line":1,"distance":0,"transit":false,"is_transit":false,"station_id":"BKS"},{"line":1,"is_transit":false,"i_lat":-6.224515,"distance":2520,"i_long":106.977657,"station_id":"KRI","transit":false,"time":4,"station_name":"Kranji"},{"station_id":"CUK","station_name":"Cakung","is_transit":false,"time":3,"i_lat":-6.219053,"line":1,"distance":3097,"transit":false,"i_long":106.951283},{"is_transit":false,"station_name":"Klenderbaru","time":8,"i_lat":-6.217455,"line":1,"station_id":"KLDB","transit":false,"distance":1385,"i_long":106.939679},{"time":1,"station_id":"BUA","distance":1305,"station_name":"Buaran","line":1,"i_lat":-6.215568,"i_long":106.922662,"is_transit":false,"transit":false},{"station_id":"KLD","line":1,"distance":3100,"i_lat":-6.2135,"station_name":"Klender","time":2,"transit":false,"i_long":106.899548,"is_transit":false},{"line":1,"station_id":"JNG","transit":false,"station_name":"Jatinegara","distance":3395,"time":3,"i_lat":-6.215091,"is_transit":false,"i_long":106.86807400000001},{"station_id":"MTR","station_name":"Matraman","i_long":106.858896,"line":1,"transit":false,"distance":1377,"is_transit":false,"i_lat":-6.212485,"time":2},{"distance":1275,"station_id":"MRI","i_lat":-6.209883,"line":2,"i_long":106.84912,"time":2,"station_name":"Manggarai","is_transit":true,"transit":true},{"station_name":"Tebet","distance":2610,"station_id":"TEB","time":4,"i_long":106.857948,"line":2,"transit":false,"i_lat":-6.226659,"is_transit":false},{"i_lat":-6.242512,"station_id":"CW","transit":false,"station_name":"Cawang","time":2,"line":2,"distance":1230,"is_transit":false,"i_long":106.856607},{"line":2,"is_transit":false,"distance":1546,"station_id":"DRN","i_lat":-6.255332,"i_long":106.85449,"time":3,"station_name":"Duren Kalibata","transit":false},{"transit":false,"station_id":"PSMB","is_transit":false,"i_lat":-6.263214,"time":2,"distance":824,"station_name":"Pasar Minggu Baru","i_long":106.851577,"line":2},{"time":2,"line":2,"distance":2380,"station_id":"PSM","is_transit":false,"transit":false,"station_name":"Pasar Minggu","i_lat":-6.2842400000000005,"i_long":106.843999},{"distance":2820,"transit":false,"i_lat":-6.3080680000000005,"i_long":106.838896,"station_name":"Tanjung Barat","time":4,"is_transit":false,"line":2,"station_id":"TNT"},{"line":2,"station_id":"LNA","distance":2671,"transit":false,"is_transit":false,"station_name":"Lenteng Agung","time":3,"i_lat":-6.330363,"i_long":106.832616},{"i_lat":-6.339291,"i_long":106.834175,"line":2,"transit":false,"station_id":"UP","is_transit":false,"time":2,"distance":1029,"station_name":"Univ. Pancasila"},{"i_lat":-6.360749,"i_long":106.831474,"line":2,"transit":false,"station_id":"UI","station_name":"Univ. Indonesia","is_transit":false,"time":3,"distance":2264},{"is_transit":false,"i_lat":-6.369073,"distance":1109,"station_id":"POC","station_name":"Pondok Cina","transit":false,"time":2,"i_long":106.831114,"line":2},{"line":2,"time":4,"station_id":"DPB","i_lat":-6.391065,"is_transit":false,"i_long":106.819451,"transit":false,"station_name":"Depokbaru","distance":2727},{"station_id":"DP","distance":1584,"transit":false,"is_transit":false,"i_lat":-6.405256,"line":2,"time":3,"i_long":106.816926,"station_name":"Depok"},{"is_transit":false,"i_long":106.800298,"distance":5084,"transit":false,"station_name":"Citayam","time":6,"line":2,"station_id":"CTA","i_lat":-6.448811}],[{"transit":false,"station_name":"Bekasi","i_lat":-6.236616,"is_transit":false,"distance":0,"station_id":"BKS","i_long":106.997013,"time":0,"line":1},{"station_id":"KRI","line":1,"time":4,"i_lat":-6.224515,"is_transit":false,"transit":false,"station_name":"Kranji","distance":2520,"i_long":106.977657},{"i_lat":-6.219053,"is_transit":false,"station_name":"Cakung","line":1,"distance":3097,"i_long":106.951283,"station_id":"CUK","transit":false,"time":3},{"station_name":"Klenderbaru","i_lat":-6.217455,"station_id":"KLDB","distance":1385,"i_long":106.939679,"is_transit":false,"line":1,"time":8,"transit":false},{"station_id":"BUA","station_name":"Buaran","distance":1305,"transit":false,"time":1,"i_long":106.922662,"line":1,"is_transit":false,"i_lat":-6.215568},{"is_transit":false,"time":2,"i_long":106.899548,"line":1,"station_name":"Klender","transit":false,"distance":3100,"i_lat":-6.2135,"station_id":"KLD"},{"i_long":106.86807400000001,"line":1,"distance":3395,"station_id":"JNG","is_transit":true,"time":3,"i_lat":-6.215091,"transit":true,"station_name":"Jatinegara"},{"station_id":"POK","line":11,"time":2,"distance":1236,"i_long":106.861737,"transit":false,"is_transit":false,"station_name":"Pondok Jati","i_lat":-6.209188},{"transit":false,"distance":1829,"time":2,"line":11,"i_lat":-6.193792,"station_name":"Kramat","station_id":"KMT","is_transit":false,"i_long":106.855437},{"line":11,"is_transit":false,"transit":false,"i_lat":-6.185975,"i_long":106.850107,"distance":973,"time":1,"station_id":"GST","station_name":"Gang Sentiong"},{"station_id":"PSE","distance":1567,"i_lat":-6.174784,"is_transit":false,"station_name":"Pasar Senen","line":11,"transit":false,"i_long":106.84368,"time":8},{"transit":false,"station_id":"KMO","line":11,"distance":1436,"station_name":"Kemayoran","i_lat":-6.161728,"i_long":106.839204,"is_transit":false,"time":4},{"distance":1901,"is_transit":false,"station_name":"Rajawali","station_id":"RJW","time":5,"i_lat":-6.14505,"transit":false,"i_long":106.836569,"line":11},{"i_long":106.826365,"i_lat":-6.132549,"is_transit":true,"time":3,"station_id":"KPB","distance":1444,"transit":true,"station_name":"Kampung Bandan","line":4},{"distance":4102,"station_name":"Angke","is_transit":false,"i_lat":-6.144674,"i_long":106.79867,"transit":false,"time":9,"line":1,"station_id":"AK"},{"distance":1230,"station_id":"DU","time":4,"i_long":106.800832,"transit":false,"i_lat":-6.155215,"station_name":"Duri","is_transit":false,"line":1},{"line":1,"transit":false,"distance":3632,"is_transit":false,"station_id":"THB","i_lat":-6.185545,"station_name":"Tanah Abang","time":8,"i_long":106.811091},{"line":1,"is_transit":false,"time":5,"station_id":"KAT","i_lat":-6.20132,"station_name":"Karet","i_long":106.816351,"transit":false,"distance":2029},{"i_lat":-6.201433,"station_name":"Sudirman Baru","i_long":106.819881,"line":1,"station_id":"SUDB","distance":471,"is_transit":false,"time":1,"transit":false},{"i_long":106.822649,"distance":280,"station_name":"Sudirman","transit":false,"station_id":"SUD","i_lat":-6.202263,"line":1,"is_transit":false,"time":1},{"i_long":106.84912,"distance":3186,"station_name":"Manggarai","line":2,"is_transit":true,"time":4,"transit":true,"i_lat":-6.209883,"station_id":"MRI"},{"i_lat":-6.226659,"line":2,"is_transit":false,"station_name":"Tebet","time":4,"distance":2610,"i_long":106.857948,"transit":false,"station_id":"TEB"},{"line":2,"station_id":"CW","distance":1230,"time":2,"station_name":"Cawang","is_transit":false,"i_lat":-6.242512,"transit":false,"i_long":106.856607},{"is_transit":false,"transit":false,"station_id":"DRN","i_long":106.85449,"distance":1546,"station_name":"Duren Kalibata","time":3,"line":2,"i_lat":-6.255332},{"line":2,"time":2,"station_id":"PSMB","transit":false,"is_transit":false,"i_lat":-6.263214,"distance":824,"station_name":"Pasar Minggu Baru","i_long":106.851577},{"station_id":"PSM","station_name":"Pasar Minggu","transit":false,"line":2,"distance":2380,"is_transit":false,"i_long":106.843999,"time":2,"i_lat":-6.2842400000000005},{"line":2,"time":4,"station_id":"TNT","is_transit":false,"transit":false,"station_name":"Tanjung Barat","i_lat":-6.3080680000000005,"i_long":106.838896,"distance":2820},{"transit":false,"time":3,"station_name":"Lenteng Agung","line":2,"i_long":106.832616,"distance":2671,"i_lat":-6.330363,"is_transit":false,"station_id":"LNA"},{"i_lat":-6.339291,"time":2,"station_id":"UP","distance":1029,"is_transit":false,"transit":false,"i_long":106.834175,"line":2,"station_name":"Univ. Pancasila"},{"line":2,"station_name":"Univ. Indonesia","i_long":106.831474,"transit":false,"station_id":"UI","is_transit":false,"time":3,"i_lat":-6.360749,"distance":2264},{"line":2,"i_long":106.831114,"distance":1109,"transit":false,"time":2,"station_id":"POC","is_transit":false,"station_name":"Pondok Cina","i_lat":-6.369073},{"distance":2727,"station_id":"DPB","i_long":106.819451,"transit":false,"line":2,"is_transit":false,"i_lat":-6.391065,"time":4,"station_name":"Depokbaru"},{"time":3,"station_id":"DP","i_long":106.816926,"transit":false,"is_transit":false,"i_lat":-6.405256,"line":2,"station_name":"Depok","distance":1584},{"line":2,"time":6,"i_lat":-6.448811,"is_transit":false,"transit":false,"station_id":"CTA","station_name":"Citayam","distance":5084,"i_long":106.800298}],[{"line":1,"time":0,"i_long":106.997013,"is_transit":false,"station_name":"Bekasi","i_lat":-6.236616,"transit":false,"distance":0,"station_id":"BKS"},{"distance":2520,"transit":false,"line":1,"is_transit":false,"i_lat":-6.224515,"station_name":"Kranji","station_id":"KRI","time":4,"i_long":106.977657},{"i_lat":-6.219053,"station_id":"CUK","transit":false,"is_transit":false,"line":1,"station_name":"Cakung","distance":3097,"i_long":106.951283,"time":3},{"i_long":106.939679,"is_transit":false,"i_lat":-6.217455,"distance":1385,"transit":false,"line":1,"station_id":"KLDB","station_name":"Klenderbaru","time":8},{"line":1,"station_id":"BUA","time":1,"is_transit":false,"transit":false,"distance":1305,"i_lat":-6.215568,"station_name":"Buaran","i_long":106.922662},{"i_long":106.899548,"transit":false,"i_lat":-6.2135,"line":1,"time":2,"is_transit":false,"station_name":"Klender","distance":3100,"station_id":"KLD"},{"is_transit":true,"station_id":"JNG","i_long":106.86807400000001,"line":1,"station_name":"Jatinegara","transit":true,"i_lat":-6.215091,"time":3,"distance":3395},{"station_name":"Pondok Jati","i_long":106.861737,"transit":false,"i_lat":-6.209188,"distance":1236,"time":2,"station_id":"POK","is_transit":false,"line":11},{"time":2,"i_long":106.855437,"station_id":"KMT","transit":false,"distance":1829,"i_lat":-6.193792,"line":11,"is_transit":false,"station_name":"Kramat"},{"line":11,"transit":false,"station_id":"GST","time":1,"i_lat":-6.185975,"distance":973,"station_name":"Gang Sentiong","is_transit":false,"i_long":106.850107},{"is_transit":false,"station_name":"Pasar Senen","i_long":106.84368,"distance":1567,"time":8,"station_id":"PSE","transit":false,"line":11,"i_lat":-6.174784},{"distance":1436,"is_transit":false,"i_lat":-6.161728,"line":11,"station_id":"KMO","i_long":106.839204,"station_name":"Kemayoran","time":4,"transit":false},{"i_lat":-6.14505,"is_transit":false,"line":11,"i_long":106.836569,"station_id":"RJW","transit":false,"time":5,"distance":1901,"station_name":"Rajawali"},{"transit":true,"is_transit":true,"i_lat":-6.132549,"time":3,"i_long":106.826365,"line":4,"station_id":"KPB","distance":1444,"station_name":"Kampung Bandan"},{"time":3,"transit":true,"is_transit":true,"line":2,"distance":1364,"station_name":"Jakarta Kota","station_id":"JAKK","i_lat":-6.137569,"i_long":106.812439},{"time":4,"distance":1264,"i_long":106.820901,"line":2,"station_name":"Jayakarta","i_lat":-6.141205,"station_id":"JAY","transit":false,"is_transit":false},{"is_transit":false,"i_long":106.82482,"distance":1080,"line":2,"transit":false,"station_name":"Manggabesar","station_id":"MGB","i_lat":-6.149769,"time":2},{"station_id":"SW","distance":906,"i_long":106.827103,"i_lat":-6.160725,"line":2,"transit":false,"is_transit":false,"time":2,"station_name":"Sawah Besar"},{"i_long":106.828284,"i_lat":-6.166716,"transit":false,"is_transit":false,"distance":1149,"station_id":"JUA","time":2,"line":2,"station_name":"Juanda"},{"time":4,"is_transit":false,"i_lat":-6.186295,"distance":2015,"station_id":"GDD","i_long":106.832183,"station_name":"Gondangdia","transit":false,"line":2},{"station_id":"CKI","station_name":"Cikini","distance":1750,"is_transit":false,"transit":false,"time":3,"i_lat":-6.198556,"i_long":106.840169,"line":2},{"i_lat":-6.209883,"distance":1590,"station_name":"Manggarai","station_id":"MRI","i_long":106.84912,"line":2,"is_transit":false,"time":4,"transit":false},{"i_long":106.857948,"is_transit":false,"distance":2610,"time":4,"station_name":"Tebet","i_lat":-6.226659,"line":2,"station_id":"TEB","transit":false},{"station_name":"Cawang","distance":1230,"station_id":"CW","i_lat":-6.242512,"transit":false,"i_long":106.856607,"is_transit":false,"line":2,"time":2},{"time":3,"is_transit":false,"transit":false,"i_lat":-6.255332,"i_long":106.85449,"line":2,"distance":1546,"station_id":"DRN","station_name":"Duren Kalibata"},{"time":2,"i_long":106.851577,"line":2,"i_lat":-6.263214,"station_name":"Pasar Minggu Baru","transit":false,"distance":824,"is_transit":false,"station_id":"PSMB"},{"station_name":"Pasar Minggu","transit":false,"i_long":106.843999,"distance":2380,"is_transit":false,"i_lat":-6.2842400000000005,"station_id":"PSM","time":2,"line":2},{"distance":2820,"station_name":"Tanjung Barat","i_long":106.838896,"line":2,"time":4,"is_transit":false,"transit":false,"station_id":"TNT","i_lat":-6.3080680000000005},{"time":3,"is_transit":false,"i_lat":-6.330363,"line":2,"station_id":"LNA","station_name":"Lenteng Agung","distance":2671,"transit":false,"i_long":106.832616},{"line":2,"transit":false,"is_transit":false,"i_lat":-6.339291,"station_name":"Univ. Pancasila","i_long":106.834175,"station_id":"UP","distance":1029,"time":2},{"time":3,"distance":2264,"is_transit":false,"transit":false,"line":2,"station_id":"UI","i_lat":-6.360749,"station_name":"Univ. Indonesia","i_long":106.831474},{"is_transit":false,"i_lat":-6.369073,"line":2,"station_name":"Pondok Cina","station_id":"POC","time":2,"i_long":106.831114,"transit":false,"distance":1109},{"i_long":106.819451,"line":2,"is_transit":false,"station_id":"DPB","transit":false,"station_name":"Depokbaru","distance":2727,"time":4,"i_lat":-6.391065},{"is_transit":false,"i_lat":-6.405256,"i_long":106.816926,"station_name":"Depok","station_id":"DP","line":2,"time":3,"transit":false,"distance":1584},{"time":6,"transit":false,"distance":5084,"is_transit":false,"station_name":"Citayam","station_id":"CTA","i_lat":-6.448811,"line":2,"i_long":106.800298}]]}