{"data":[[{"station_name":"Bekasi","time":0,"i_lat":-6.236616,"i_long":106.997013,"line":1,"station_id":"BKS","is_transit":false,"distance":0,"transit":false},{"distance":2520,"i_lat":-6.224515,"is_transit":false,"station_id":"KRI","line":1,"time":4,"i_long":106.977657,"transit":false,"station_name":"Kranji"},{"station_name":"Cakung","station_id":"CUK","time":3,"is_transit":false,"transit":false,"distance":3097,"i_lat":-6.219053,"line":1,"i_long":106.951283},{"is_transit":false,"station_name":"Klenderbaru","i_long":106.939679,"line":1,"time":8,"transit":false,"station_id":"KLDB","i_lat":-6.217455,"distance":1385},{"station_id":"BUA","line":1,"i_lat":-6.215568,"distance":1305,"transit":false,"i_long":106.922662,"time":1,"is_transit":false,"station_name":"Buaran"},{"time":2,"station_id":"KLD","distance":3100,"line":1,"station_name":"Klender","transit":false,"i_long":106.899548,"is_transit":false,"i_lat":-6.2135},{"time":3,"transit":false,"line":1,"is_transit":false,"i_long":106.86807400000001,"distance":3395,"station_id":"JNG","station_name":"Jatinegara","i_lat":-6.215091},{"i_lat":-6.212485,"line":1,"transit":false,"station_name":"Matraman","distance":1377,"time":2,"i_long":106.858896,"station_id":"MTR","is_transit":false},{"station_name":"Manggarai","line":2,"station_id":"MRI","is_transit":false,"i_long":106.84912,"i_lat":-6.209883,"distance":1275,"time":2,"transit":false},{"distance":3186,"transit":false,"i_lat":-6.202263,"station_name":"Sudirman","i_long":106.822649,"station_id":"SUD","time":4,"is_transit":false,"line":1},{"time":1,"station_name":"Sudirman Baru","line":1,"transit":false,"distance":280,"is_transit":false,"i_long":106.819881,"station_id":"SUDB","i_lat":-6.201433},{"time":1,"i_lat":-6.20132,"station_id":"KAT","transit":false,"station_name":"Karet","is_transit":false,"distance":471,"i_long":106.816351,"line":1},{"i_long":106.811091,"time":5,"transit":true,"distance":2029,"i_lat":-6.185545,"is_transit":true,"line":1,"station_id":"THB","station_name":"Tanah Abang"},{"transit":false,"i_long":106.79689,"line":6,"station_id":"PLM","i_lat":-6.207404,"time":6,"station_name":"Palmerah","is_transit":false,"distance":3191},{"transit":false,"station_id":"KBY","is_transit":false,"time":7,"distance":3737,"line":6,"i_lat":-6.237242,"station_name":"Kebayoran","i_long":106.780334},{"distance":6218,"i_lat":-6.276362,"transit":false,"line":6,"station_name":"Pondokranji","is_transit":false,"time":8,"i_long":106.74273,"station_id":"PDJ"},{"line":6,"is_transit":false,"station_name":"Jurangmangu","transit":false,"i_lat":-6.288927,"distance":2179,"i_long":106.728916,"time":3,"station_id":"JMU"},{"i_long":106.712277,"distance":1994,"time":4,"i_lat":-6.296963,"transit":false,"station_name":"Sudimara","is_transit":false,"line":6,"station_id":"SDM"},{"station_name":"Rawa Buntu","transit":false,"is_transit":false,"i_lat":-6.314823,"line":6,"station_id":"RU","time":6,"distance":4566,"i_long":106.675475},{"line":6,"station_id":"SRP","distance":2413,"time":4,"station_name":"Serpong","transit":false,"i_lat":-6.319871,"i_long":106.66566,"is_transit":false},{"transit":false,"distance":1784,"time":4,"i_lat":-6.32484,"station_id":"CSK","station_name":"Cisauk","line":3,"is_transit":false,"i_long":106.640411},{"station_id":"CC","time":4,"distance":2519,"line":3,"transit":false,"i_long":106.617853,"station_name":"Cicayur","is_transit":false,"i_lat":-6.329547},{"station_name":"Parung Panjang","distance":5968,"time":8,"line":6,"transit":false,"i_long":106.568863,"station_id":"PRP","i_lat":-6.3441410000000005,"is_transit":false},{"distance":7025,"i_lat":-6.354349,"is_transit":false,"transit":false,"i_long":106.508482,"station_id":"CJT","line":3,"time":9,"station_name":"Cilejit"},{"transit":false,"station_id":"DAR","time":6,"distance":2675,"is_transit":false,"station_name":"Daru","i_lat":-6.338021,"line":0,"i_long":106.491338},{"station_name":"Tenjo","time":5,"station_id":"TEJ","i_lat":-6.327251,"line":6,"i_long":106.460812,"distance":3902,"is_transit":false,"transit":false},{"station_name":"Tigaraksa","distance":2974,"i_lat":-6.328533,"is_transit":false,"transit":false,"station_id":"TGS","time":5,"i_long":106.425991,"line":6}],[{"line":1,"distance":0,"station_id":"BKS","is_transit":false,"station_name":"Bekasi","transit":false,"i_lat":-6.236616,"time":0,"i_long":106.997013},{"is_transit":false,"time":4,"i_long":106.977657,"distance":2520,"line":1,"station_name":"Kranji","transit":false,"i_lat":-6.224515,"station_id":"KRI"},{"station_id":"CUK","line":1,"transit":false,"time":3,"station_name":"Cakung","i_long":106.951283,"distance":3097,"is_transit":false,"i_lat":-6.219053},{"line":1,"i_lat":-6.217455,"is_transit":false,"i_long":106.939679,"transit":false,"station_name":"Klenderbaru","station_id":"KLDB","time":8,"distance":1385},{"transit":false,"time":1,"i_lat":-6.215568,"line":1,"is_transit":false,"station_name":"Buaran","station_id":"BUA","distance":1305,"i_long":106.922662},{"line":1,"station_id":"KLD","distance":3100,"station_name":"Klender","transit":false,"i_lat":-6.2135,"is_transit":false,"time":2,"i_long":106.899548},{"station_name":"Jatinegara","distance":3395,"line":1,"i_lat":-6.215091,"station_id":"JNG","transit":true,"is_transit":true,"time":3,"i_long":106.86807400000001},{"time":2,"i_lat":-6.209188,"i_long":106.861737,"station_name":"Pondok Jati","line":11,"is_transit":false,"station_id":"POK","transit":false,"distance":1236},{"distance":1829,"station_name":"Kramat","time":2,"i_long":106.855437,"line":11,"is_transit":false,"station_id":"KMT","transit":false,"i_lat":-6.193792},{"i_long":106.850107,"station_id":"GST","time":1,"distance":973,"i_lat":-6.185975,"is_transit":false,"transit":false,"line":11,"station_name":"Gang Sentiong"},{"i_lat":-6.174784,"is_transit":false,"station_id":"PSE","time":8,"i_long":106.84368,"line":11,"distance":1567,"transit":false,"station_name":"Pasar Senen"},{"transit":false,"i_lat":-6.161728,"station_name":"Kemayoran","station_id":"KMO","time":4,"line":11,"i_long":106.839204,"is_transit":false,"distance":1436},{"is_transit":false,"station_name":"Rajawali","i_lat":-6.14505,"line":11,"station_id":"RJW","distance":1901,"i_long":106.836569,"transit":false,"time":5},{"i_lat":-6.132549,"transit":true,"station_id":"KPB","time":3,"line":4,"station_name":"Kampung Bandan","i_long":106.826365,"is_transit":true,"distance":1444},{"i_lat":-6.144674,"i_long":106.79867,"time":9,"station_name":"Angke","station_id":"AK","line":1,"is_transit":false,"transit":false,"distance":4102},{"i_lat":-6.155215,"station_id":"DU","line":1,"time":4,"i_long":106.800832,"station_name":"Duri","is_transit":false,"distance":1230,"transit":false},{"time":8,"i_lat":-6.185545,"distance":3632,"i_long":106.811091,"line":1,"transit":true,"station_name":"Tanah Abang","station_id":"THB","is_transit":true},{"line":6,"station_name":"Palmerah","station_id":"PLM","distance":3191,"transit":false,"time":6,"i_lat":-6.207404,"i_long":106.79689,"is_transit":false},{"transit":false,"line":6,"is_transit":false,"i_long":106.780334,"station_id":"KBY","i_lat":-6.237242,"station_name":"Kebayoran","time":7,"distance":3737},{"i_long":106.74273,"transit":false,"time":8,"distance":6218,"i_lat":-6.276362,"line":6,"is_transit":false,"station_id":"PDJ","station_name":"Pondokranji"},{"i_lat":-6.288927,"station_id":"JMU","transit":false,"is_transit":false,"i_long":106.728916,"station_name":"Jurangmangu","time":3,"line":6,"distance":2179},{"is_transit":false,"i_lat":-6.296963,"transit":false,"distance":1994,"i_long":106.712277,"station_id":"SDM","time":4,"station_name":"Sudimara","line":6},{"time":6,"station_id":"RU","station_name":"Rawa Buntu","transit":false,"i_lat":-6.314823,"i_long":106.675475,"is_transit":false,"line":6,"distance":4566},{"i_lat":-6.319871,"line":6,"transit":false,"is_transit":false,"time":4,"station_id":"SRP","i_long":106.66566,"station_name":"Serpong","distance":2413},{"is_transit":false,"i_long":106.640411,"transit":false,"station_id":"CSK","i_lat":-6.32484,"time":4,"distance":1784,"station_name":"Cisauk","line":3},{"time":4,"distance":2519,"i_lat":-6.329547,"is_transit":false,"station_id":"CC","i_long":106.617853,"transit":false,"station_name":"Cicayur","line":3},{"time":8,"distance":5968,"station_id":"PRP","i_lat":-6.3441410000000005,"line":6,"transit":false,"is_transit":false,"i_long":106.568863,"station_name":"Parung Panjang"},{"station_id":"CJT","is_transit":false,"transit":false,"distance":7025,"i_lat":-6.354349,"i_long":106.508482,"line":3,"station_name":"Cilejit","time":9},{"is_transit":false,"i_lat":-6.338021,"line":0,"distance":2675,"station_name":"Daru","time":6,"i_long":106.491338,"transit":false,"station_id":"DAR"},{"station_name":"Tenjo","i_lat":-6.327251,"distance":3902,"is_transit":false,"time":5,"i_long":106.460812,"station_id":"TEJ","line":6,"transit":false},{"transit":false,"station_name":"Tigaraksa","is_transit":false,"i_lat":-6.328533,"station_id":"TGS","line":6,"distance":2974,"i_long":106.425991,"time":5}],[{"is_transit":false,"distance":0,"i_lat":-6.236616,"line":1,"station_id":"BKS","time":0,"i_long":106.997013,"transit":false,"station_name":"Bekasi"},{"station_id":"KRI","station_name":"Kranji","distance":2520,"time":4,"line":1,"i_lat":-6.224515,"i_long":106.977657,"transit":false,"is_transit":false},{"time":3,"is_transit":false,"line":1,"distance":3097,"i_lat":-6.219053,"i_long":106.951283,"transit":false,"station_name":"Cakung","station_id":"CUK"},{"time":8,"transit":false,"distance":1385,"station_name":"Klenderbaru","i_lat":-6.217455,"line":1,"i_long":106.939679,"is_transit":false,"station_id":"KLDB"},{"i_long":106.922662,"station_name":"Buaran","station_id":"BUA","is_transit":false,"line":1,"transit":false,"distance":1305,"time":1,"i_lat":-6.215568},{"station_id":"KLD","transit":false,"is_transit":false,"distance":3100,"i_lat":-6.2135,"line":1,"i_long":106.899548,"time":2,"station_name":"Klender"},{"i_long":106.86807400000001,"transit":false,"distance":3395,"time":3,"station_name":"Jatinegara","station_id":"JNG","line":1,"is_transit":false,"i_lat":-6.215091},{"i_long":106.858896,"station_id":"MTR","distance":1377,"station_name":"Matraman","line":1,"time":2,"transit":false,"i_lat":-6.212485,"is_transit":false},{"i_lat":-6.209883,"station_id":"MRI","is_transit":true,"line":2,"time":2,"distance":1275,"transit":true,"i_long":106.84912,"station_name":"Manggarai"},{"transit":false,"i_long":106.840169,"station_name":"Cikini","line":2,"time":4,"station_id":"CKI","distance":1590,"i_lat":-6.198556,"is_transit":false},{"is_transit":false,"distance":1750,"transit":false,"line":2,"time":3,"i_lat":-6.186295,"station_id":"GDD","i_long":106.832183,"station_name":"Gondangdia"},{"station_name":"Juanda","station_id":"JUA","is_transit":false,"i_long":106.828284,"time":4,"i_lat":-6.166716,"distance":2015,"transit":false,"line":2},{"time":2,"transit":false,"station_name":"Sawah Besar","station_id":"SW","i_long":106.827103,"line":2,"is_transit":false,"distance":1149,"i_lat":-6.160725},{"transit":false,"distance":906,"i_long":106.82482,"line":2,"time":2,"i_lat":-6.149769,"station_id":"MGB","is_transit":false,"station_name":"Manggabesar"},{"transit":false,"i_long":106.820901,"line":2,"time":2,"i_lat":-6.141205,"station_id":"JAY","distance":1080,"is_transit":false,"station_name":"Jayakarta"},{"station_name":"Jakarta Kota","station_id":"JAKK","time":4,"i_lat":-6.137569,"is_transit":true,"distance":1264,"transit":true,"i_long":106.812439,"line":2},{"line":4,"is_transit":true,"time":3,"station_id":"KPB","transit":true,"distance":1364,"i_lat":-6.132549,"station_name":"Kampung Bandan","i_long":106.826365},{"time":9,"line":1,"i_long":106.79867,"transit":false,"station_id":"AK","is_transit":false,"distance":4102,"i_lat":-6.144674,"station_name":"Angke"},{"transit":false,"distance":1230,"station_name":"Duri","i_lat":-6.155215,"line":1,"is_transit":false,"time":4,"station_id":"DU","i_long":106.800832},{"is_transit":true,"distance":3632,"i_long":106.811091,"station_id":"THB","transit":true,"station_name":"Tanah Abang","time":8,"i_lat":-6.185545,"line":1},{"station_id":"PLM","i_lat":-6.207404,"transit":false,"station_name":"Palmerah","time":6,"line":6,"distance":3191,"i_long":106.79689,"is_transit":false},{"i_long":106.780334,"line":6,"transit":false,"distance":3737,"station_name":"Kebayoran","time":7,"station_id":"KBY","is_transit":false,"i_lat":-6.237242},{"is_transit":false,"time":8,"station_name":"Pondokranji","station_id":"PDJ","i_long":106.74273,"distance":6218,"i_lat":-6.276362,"line":6,"transit":false},{"i_long":106.728916,"station_name":"Jurangmangu","station_id":"JMU","is_transit":false,"time":3,"line":6,"i_lat":-6.288927,"distance":2179,"transit":false},{"transit":false,"i_long":106.712277,"distance":1994,"station_id":"SDM","time":4,"station_name":"Sudimara","is_transit":false,"i_lat":-6.296963,"line":6},{"time":6,"station_id":"RU","station_name":"Rawa Buntu","i_long":106.675475,"i_lat":-6.314823,"line":6,"transit":false,"is_transit":false,"distance":4566},{"station_name":"Serpong","line":6,"transit":false,"i_long":106.66566,"station_id":"SRP","i_lat":-6.319871,"time":4,"is_transit":false,"distance":2413},{"time":4,"transit":false,"i_long":106.640411,"is_transit":false,"station_name":"Cisauk","station_id":"CSK","distance":1784,"line":3,"i_lat":-6.32484},{"line":3,"is_transit":false,"i_long":106.617853,"transit":false,"station_name":"Cicayur","station_id":"CC","i_lat":-6.329547,"distance":2519,"time":4},{"is_transit":false,"i_lat":-6.3441410000000005,"station_id":"PRP","transit":false,"station_name":"Parung Panjang","time":8,"distance":5968,"i_long":106.568863,"line":6},{"time":9,"transit":false,"i_long":106.508482,"line":3,"station_id":"CJT","i_lat":-6.354349,"station_name":"Cilejit","is_transit":false,"distance":7025},{"is_transit":false,"time":6,"station_name":"Daru","transit":false,"station_id":"DAR","i_lat":-6.338021,"i_long":106.491338,"distance":2675,"line":0},{"transit":false,"is_transit":false,"i_lat":-6.327251,"i_long":106.460812,"distance":3902,"station_name":"Tenjo","time":5,"line":6,"station_id":"TEJ"},{"time":5,"is_transit":false,"station_id":"TGS","distance":2974,"i_long":106.425991,"transit":false,"station_name":"Tigaraksa","i_lat":-6.328533,"line":6}],[{"i_long":106.997013,"distance":0,"station_name":"Bekasi","transit":false,"station_id":"BKS","is_transit":false,"time":0,"i_lat":-6.236616,"line":1},{"time":4,"distance":2520,"i_long":106.977657,"station_name":"Kranji","line":1,"i_lat":-6.224515,"transit":false,"station_id":"KRI","is_transit":false},{"station_name":"Cakung","station_id":"CUK","time":3,"i_long":106.951283,"transit":false,"i_lat":-6.219053,"line":1,"is_transit":false,"distance":3097},{"time":8,"is_transit":false,"transit":false,"line":1,"station_id":"KLDB","i_lat":-6.217455,"station_name":"Klenderbaru","distance":1385,"i_long":106.939679},{"station_id":"BUA","i_lat":-6.215568,"distance":1305,"i_long":106.922662,"station_name":"Buaran","transit":false,"is_transit":false,"line":1,"time":1},{"time":2,"station_name":"Klender","i_long":106.899548,"transit":false,"distance":3100,"i_lat":-6.2135,"station_id":"KLD","is_transit":false,"line":1},{"i_long":106.86807400000001,"line":1,"i_lat":-6.215091,"transit":true,"is_transit":true,"station_name":"Jatinegara","station_id":"JNG","time":3,"distance":3395},{"station_id":"POK","station_name":"Pondok Jati","is_transit":false,"time":2,"i_long":106.861737,"i_lat":-6.209188,"line":11,"distance":1236,"transit":false},{"station_id":"KMT","line":11,"is_transit":false,"i_lat":-6.193792,"time":2,"i_long":106.855437,"station_name":"Kramat","distance":1829,"transit":false},{"station_id":"GST","time":1,"transit":false,"station_name":"Gang Sentiong","i_long":106.850107,"distance":973,"is_transit":false,"i_lat":-6.185975,"line":11},{"distance":1567,"line":11,"station_name":"Pasar Senen","is_transit":false,"i_long":106.84368,"i_lat":-6.174784,"transit":false,"time":8,"station_id":"PSE"},{"time":4,"i_lat":-6.161728,"line":11,"i_long":106.839204,"station_name":"Kemayoran","transit":false,"station_id":"KMO","is_transit":false,"distance":1436},{"is_transit":false,"distance":1901,"i_long":106.836569,"time":5,"station_id":"RJW","line":11,"transit":false,"i_lat":-6.14505,"station_name":"Rajawali"},{"station_id":"KPB","time":3,"distance":1444,"i_long":106.826365,"line":4,"station_name":"Kampung Bandan","transit":true,"is_transit":true,"i_lat":-6.132549},{"time":3,"is_transit":true,"station_id":"JAKK","distance":1364,"i_lat":-6.137569,"i_long":106.812439,"line":2,"station_name":"Jakarta Kota","transit":true},{"distance":1264,"is_transit":false,"transit":false,"time":4,"line":2,"i_lat":-6.141205,"station_name":"Jayakarta","station_id":"JAY","i_long":106.820901},{"i_long":106.82482,"station_id":"MGB","station_name":"Manggabesar","i_lat":-6.149769,"is_transit":false,"distance":1080,"transit":false,"time":2,"line":2},{"line":2,"distance":906,"station_name":"Sawah Besar","transit":false,"station_id":"SW","time":2,"i_lat":-6.160725,"i_long":106.827103,"is_transit":false},{"station_name":"Juanda","transit":false,"time":2,"distance":1149,"is_transit":false,"i_long":106.828284,"line":2,"station_id":"JUA","i_lat":-6.166716},{"station_id":"GDD","i_long":106.832183,"station_name":"Gondangdia","line":2,"is_transit":false,"transit":false,"distance":2015,"time":4,"i_lat":-6.186295},{"station_name":"Cikini","station_id":"CKI","is_transit":false,"time":3,"transit":false,"i_lat":-6.198556,"i_long":106.840169,"distance":1750,"line":2},{"time":4,"is_transit":true,"transit":true,"distance":1590,"i_long":106.84912,"line":2,"station_name":"Manggarai","i_lat":-6.209883,"station_id":"MRI"},{"i_long":106.822649,"is_transit":false,"i_lat":-6.202263,"time":4,"station_name":"Sudirman","distance":3186,"station_id":"SUD","transit":false,"line":1},{"station_name":"Sudirman Baru","line":1,"time":1,"station_id":"SUDB","i_long":106.819881,"transit":false,"i_lat":-6.201433,"distance":280,"is_transit":false},{"i_lat":-6.20132,"distance":471,"is_transit":false,"station_name":"Karet","station_id":"KAT","line":1,"time":1,"transit":false,"i_long":106.816351},{"transit":true,"is_transit":true,"line":1,"i_long":106.811091,"distance":2029,"station_name":"Tanah Abang","station_id":"THB","time":5,"i_lat":-6.185545},{"station_name":"Palmerah","distance":3191,"station_id":"PLM","time":6,"transit":false,"i_lat":-6.207404,"is_transit":false,"i_long":106.79689,"line":6},{"transit":false,"station_name":"Kebayoran","station_id":"KBY","is_transit":false,"time":7,"distance":3737,"i_long":106.780334,"i_lat":-6.237242,"line":6},{"distance":6218,"is_transit":false,"station_id":"PDJ","transit":false,"i_lat":-6.276362,"i_long":106.74273,"line":6,"time":8,"station_name":"Pondokranji"},{"i_long":106.728916,"is_transit":false,"distance":2179,"transit":false,"time":3,"i_lat":-6.288927,"line":6,"station_name":"Jurangmangu","station_id":"JMU"},{"station_name":"Sudimara","is_transit":false,"time":4,"distance":1994,"i_lat":-6.296963,"station_id":"SDM","line":6,"transit":false,"i_long":106.712277},{"station_id":"RU","time":6,"is_transit":false,"distance":4566,"i_lat":-6.314823,"i_long":106.675475,"line":6,"transit":false,"station_name":"Rawa Buntu"},{"distance":2413,"is_transit":false,"i_lat":-6.319871,"i_long":106.66566,"station_id":"SRP","station_name":"Serpong","time":4,"line":6,"transit":false},{"distance":1784,"station_name":"Cisauk","i_long":106.640411,"is_transit":false,"station_id":"CSK","time":4,"transit":false,"line":3,"i_lat":-6.32484},{"transit":false,"station_name":"Cicayur","i_long":106.617853,"time":4,"is_transit":false,"station_id":"CC","distance":2519,"i_lat":-6.329547,"line":3},{"time":8,"distance":5968,"line":6,"station_name":"Parung Panjang","i_lat":-6.3441410000000005,"transit":false,"station_id":"PRP","i_long":106.568863,"is_transit":false},{"time":9,"line":3,"i_long":106.508482,"i_lat":-6.354349,"distance":7025,"is_transit":false,"transit":false,"station_name":"Cilejit","station_id":"CJT"},{"i_long":106.491338,"transit":false,"is_transit":false,"station_id":"DAR","distance":2675,"station_name":"Daru","time":6,"line":0,"i_lat":-6.338021},{"transit":false,"distance":3902,"i_lat":-6.327251,"is_transit":false,"line":6,"time":5,"station_id":"TEJ","i_long":106.460812,"station_name":"Tenjo"},{"distance":2974,"time":5,"i_lat":-6.328533,"i_long":106.425991,"line":6,"station_id":"TGS","transit":false,"station_name":"Tigaraksa","is_transit":false}]]}