{"data":[[{"transit":false,"station_id":"BKS","distance":0,"station_name":"Bekasi","i_long":106.997013,"line":1,"time":0,"i_lat":-6.236616,"is_transit":false},{"station_id":"KRI","station_name":"Kranji","distance":2520,"i_lat":-6.224515,"transit":false,"line":1,"time":4,"i_long":106.977657,"is_transit":false},{"i_long":106.951283,"distance":3097,"station_id":"CUK","time":3,"line":1,"station_name":"Cakung","is_transit":false,"transit":false,"i_lat":-6.219053},{"time":8,"distance":1385,"i_lat":-6.217455,"is_transit":false,"transit":false,"station_id":"KLDB","line":1,"station_name":"Klenderbaru","i_long":106.939679},{"station_id":"BUA","is_transit":false,"distance":1305,"time":1,"transit":false,"i_long":106.922662,"line":1,"station_name":"Buaran","i_lat":-6.215568},{"station_name":"Klender","transit":false,"is_transit":false,"time":2,"i_long":106.899548,"distance":3100,"i_lat":-6.2135,"station_id":"KLD","line":1},{"line":1,"distance":3395,"transit":false,"station_name":"Jatinegara","time":3,"i_lat":-6.215091,"i_long":106.86807400000001,"station_id":"JNG","is_transit":false},{"station_id":"MTR","distance":1377,"transit":false,"i_lat":-6.212485,"station_name":"Matraman","time":2,"line":1,"i_long":106.858896,"is_transit":false},{"station_name":"Manggarai","transit":false,"i_lat":-6.209883,"is_transit":false,"station_id":"MRI","i_long":106.84912,"time":2,"line":2,"distance":1275},{"is_transit":false,"line":1,"i_lat":-6.202263,"station_id":"SUD","distance":3186,"transit":false,"time":4,"i_long":106.822649,"station_name":"Sudirman"},{"time":1,"distance":280,"i_lat":-6.201433,"is_transit":false,"transit":false,"station_name":"Sudirman Baru","station_id":"SUDB","i_long":106.819881,"line":1},{"station_id":"KAT","i_lat":-6.20132,"station_name":"Karet","is_transit":false,"distance":471,"transit":false,"i_long":106.816351,"line":1,"time":1}],[{"is_transit":false,"time":0,"transit":false,"station_name":"Bekasi","station_id":"BKS","line":1,"i_long":106.997013,"i_lat":-6.236616,"distance":0},{"station_id":"KRI","station_name":"Kranji","is_transit":false,"distance":2520,"line":1,"transit":false,"i_long":106.977657,"time":4,"i_lat":-6.224515},{"distance":3097,"time":3,"station_name":"Cakung","transit":false,"station_id":"CUK","is_transit":false,"i_lat":-6.219053,"i_long":106.951283,"line":1},{"time":8,"i_lat":-6.217455,"station_id":"KLDB","distance":1385,"station_name":"Klenderbaru","transit":false,"i_long":106.939679,"line":1,"is_transit":false},{"transit":false,"time":1,"distance":1305,"is_transit":false,"station_id":"BUA","station_name":"Buaran","i_lat":-6.215568,"line":1,"i_long":106.922662},{"i_lat":-6.2135,"is_transit":false,"distance":3100,"i_long":106.899548,"transit":false,"time":2,"station_id":"KLD","line":1,"station_name":"Klender"},{"transit":true,"is_transit":true,"i_lat":-6.215091,"i_long":106.86807400000001,"time":3,"distance":3395,"line":1,"station_id":"JNG","station_name":"Jatinegara"},{"distance":1236,"station_id":"POK","is_transit":false,"station_name":"Pondok Jati","transit":false,"time":2,"i_long":106.861737,"line":11,"i_lat":-6.209188},{"i_long":106.855437,"is_transit":false,"station_name":"Kramat","i_lat":-6.193792,"line":11,"transit":false,"distance":1829,"time":2,"station_id":"KMT"},{"transit":false,"station_id":"GST","is_transit":false,"station_name":"Gang Sentiong","distance":973,"i_lat":-6.185975,"time":1,"line":11,"i_long":106.850107},{"is_transit":false,"station_name":"Pasar Senen","distance":1567,"i_lat":-6.174784,"line":11,"time":8,"i_long":106.84368,"station_id":"PSE","transit":false},{"i_lat":-6.161728,"i_long":106.839204,"distance":1436,"time":4,"station_name":"Kemayoran","is_transit":false,"station_id":"KMO","transit":false,"line":11},{"station_id":"RJW","time":5,"is_transit":false,"i_lat":-6.14505,"transit":false,"station_name":"Rajawali","distance":1901,"line":11,"i_long":106.836569},{"station_name":"Kampung Bandan","distance":1444,"station_id":"KPB","time":3,"transit":true,"line":4,"i_lat":-6.132549,"is_transit":true,"i_long":106.826365},{"i_lat":-6.144674,"distance":4102,"station_id":"AK","i_long":106.79867,"station_name":"Angke","is_transit":false,"line":1,"transit":false,"time":9},{"i_long":106.800832,"line":1,"station_id":"DU","distance":1230,"is_transit":false,"transit":false,"station_name":"Duri","time":4,"i_lat":-6.155215},{"line":1,"time":8,"station_id":"THB","distance":3632,"i_long":106.811091,"station_name":"Tanah Abang","i_lat":-6.185545,"transit":false,"is_transit":false},{"station_id":"KAT","station_name":"Karet","distance":2029,"transit":false,"i_long":106.816351,"time":5,"is_transit":false,"i_lat":-6.20132,"line":1}],[{"station_name":"Bekasi","transit":false,"distance":0,"is_transit":false,"time":0,"i_long":106.997013,"line":1,"station_id":"BKS","i_lat":-6.236616},{"transit":false,"is_transit":false,"distance":2520,"line":1,"i_lat":-6.224515,"station_id":"KRI","i_long":106.977657,"station_name":"Kranji","time":4},{"i_long":106.951283,"station_id":"CUK","line":1,"i_lat":-6.219053,"distance":3097,"is_transit":false,"transit":false,"station_name":"Cakung","time":3},{"is_transit":false,"station_id":"KLDB","i_lat":-6.217455,"station_name":"Klenderbaru","distance":1385,"line":1,"transit":false,"time":8,"i_long":106.939679},{"transit":false,"station_name":"Buaran","distance":1305,"i_lat":-6.215568,"i_long":106.922662,"line":1,"station_id":"BUA","time":1,"is_transit":false},{"i_long":106.899548,"distance":3100,"is_transit":false,"station_id":"KLD","time":2,"line":1,"i_lat":-6.2135,"transit":false,"station_name":"Klender"},{"station_id":"JNG","i_lat":-6.215091,"transit":false,"time":3,"distance":3395,"station_name":"Jatinegara","i_long":106.86807400000001,"is_transit":false,"line":1},{"line":1,"station_id":"MTR","distance":1377,"i_lat":-6.212485,"i_long":106.858896,"is_transit":false,"station_name":"Matraman","transit":false,"time":2},{"is_transit":true,"i_lat":-6.209883,"station_name":"Manggarai","i_long":106.84912,"transit":true,"time":2,"station_id":"MRI","line":2,"distance":1275},{"transit":false,"i_lat":-6.198556,"station_name":"Cikini","time":4,"line":2,"i_long":106.840169,"distance":1590,"is_transit":false,"station_id":"CKI"},{"line":2,"transit":false,"i_lat":-6.186295,"i_long":106.832183,"distance":1750,"station_name":"Gondangdia","time":3,"is_transit":false,"station_id":"GDD"},{"i_long":106.828284,"distance":2015,"station_id":"JUA","station_name":"Juanda","is_transit":false,"transit":false,"i_lat":-6.166716,"time":4,"line":2},{"line":2,"transit":false,"distance":1149,"is_transit":false,"i_long":106.827103,"time":2,"station_name":"Sawah Besar","i_lat":-6.160725,"station_id":"SW"},{"transit":false,"station_name":"Manggabesar","time":2,"station_id":"MGB","i_lat":-6.149769,"is_transit":false,"i_long":106.82482,"line":2,"distance":906},{"distance":1080,"is_transit":false,"station_id":"JAY","station_name":"Jayakarta","time":2,"i_long":106.820901,"line":2,"transit":false,"i_lat":-6.141205},{"i_lat":-6.137569,"i_long":106.812439,"distance":1264,"is_transit":true,"line":2,"station_name":"Jakarta Kota","station_id":"JAKK","transit":true,"time":4},{"i_lat":-6.132549,"transit":true,"distance":1364,"time":3,"station_name":"Kampung Bandan","is_transit":true,"i_long":106.826365,"line":4,"station_id":"KPB"},{"is_transit":false,"line":1,"distance":4102,"station_id":"AK","station_name":"Angke","time":9,"i_lat":-6.144674,"i_long":106.79867,"transit":false},{"is_transit":false,"transit":false,"line":1,"station_id":"DU","i_long":106.800832,"distance":1230,"time":4,"station_name":"Duri","i_lat":-6.155215},{"transit":false,"distance":3632,"is_transit":false,"i_lat":-6.185545,"i_long":106.811091,"time":8,"station_id":"THB","line":1,"station_name":"Tanah Abang"},{"transit":false,"i_lat":-6.20132,"station_name":"Karet","time":5,"distance":2029,"line":1,"i_long":106.816351,"station_id":"KAT","is_transit":false}],[{"distance":0,"station_name":"Bekasi","time":0,"i_lat":-6.236616,"station_id":"BKS","i_long":106.997013,"line":1,"transit":false,"is_transit":false},{"station_name":"Kranji","distance":2520,"is_transit":false,"line":1,"station_id":"KRI","i_lat":-6.224515,"time":4,"i_long":106.977657,"transit":false},{"station_name":"Cakung","i_long":106.951283,"distance":3097,"is_transit":false,"station_id":"CUK","transit":false,"line":1,"i_lat":-6.219053,"time":3},{"station_name":"Klenderbaru","is_transit":false,"line":1,"transit":false,"distance":1385,"station_id":"KLDB","time":8,"i_long":106.939679,"i_lat":-6.217455},{"is_transit":false,"station_name":"Buaran","distance":1305,"time":1,"i_lat":-6.215568,"i_long":106.922662,"station_id":"BUA","line":1,"transit":false},{"time":2,"distance":3100,"i_long":106.899548,"is_transit":false,"i_lat":-6.2135,"station_name":"Klender","transit":false,"station_id":"KLD","line":1},{"i_lat":-6.215091,"station_id":"JNG","time":3,"station_name":"Jatinegara","distance":3395,"i_long":106.86807400000001,"transit":true,"is_transit":true,"line":1},{"station_id":"POK","station_name":"Pondok Jati","time":2,"i_lat":-6.209188,"is_transit":false,"transit":false,"distance":1236,"line":11,"i_long":106.861737},{"distance":1829,"station_name":"Kramat","line":11,"i_long":106.855437,"station_id":"KMT","transit":false,"i_lat":-6.193792,"time":2,"is_transit":false},{"station_name":"Gang Sentiong","transit":false,"i_lat":-6.185975,"line":11,"distance":973,"time":1,"is_transit":false,"i_long":106.850107,"station_id":"GST"},{"station_id":"PSE","station_name":"Pasar Senen","i_long":106.84368,"is_transit":false,"transit":false,"line":11,"time":8,"distance":1567,"i_lat":-6.174784},{"distance":1436,"transit":false,"station_id":"KMO","station_name":"Kemayoran","is_transit":false,"line":11,"i_lat":-6.161728,"time":4,"i_long":106.839204},{"station_id":"RJW","line":11,"i_long":106.836569,"is_transit":false,"transit":false,"time":5,"station_name":"Rajawali","distance":1901,"i_lat":-6.14505},{"time":3,"distance":1444,"i_long":106.826365,"i_lat":-6.132549,"line":4,"is_transit":true,"station_name":"Kampung Bandan","transit":true,"station_id":"KPB"},{"station_id":"JAKK","time":3,"is_transit":true,"i_lat":-6.137569,"transit":true,"distance":1364,"i_long":106.812439,"station_name":"Jakarta Kota","line":2},{"station_name":"Jayakarta","distance":1264,"i_lat":-6.141205,"line":2,"time":4,"i_long":106.820901,"transit":false,"is_transit":false,"station_id":"JAY"},{"time":2,"distance":1080,"line":2,"transit":false,"is_transit":false,"i_lat":-6.149769,"station_id":"MGB","i_long":106.82482,"station_name":"Manggabesar"},{"time":2,"transit":false,"station_id":"SW","is_transit":false,"station_name":"Sawah Besar","distance":906,"i_lat":-6.160725,"i_long":106.827103,"line":2},{"transit":false,"distance":1149,"station_name":"Juanda","is_transit":false,"i_lat":-6.166716,"line":2,"i_long":106.828284,"station_id":"JUA","time":2},{"station_id":"GDD","i_long":106.832183,"line":2,"transit":false,"distance":2015,"is_transit":false,"station_name":"Gondangdia","time":4,"i_lat":-6.186295},{"is_transit":false,"i_long":106.840169,"transit":false,"station_name":"Cikini","distance":1750,"line":2,"station_id":"CKI","i_lat":-6.198556,"time":3},{"station_name":"Manggarai","is_transit":true,"station_id":"MRI","distance":1590,"time":4,"i_lat":-6.209883,"line":2,"transit":true,"i_long":106.84912},{"station_id":"SUD","transit":false,"i_lat":-6.202263,"station_name":"Sudirman","line":1,"i_long":106.822649,"is_transit":false,"time":4,"distance":3186},{"transit":false,"i_lat":-6.201433,"station_id":"SUDB","distance":280,"time":1,"i_long":106.819881,"line":1,"is_transit":false,"station_name":"Sudirman Baru"},{"line":1,"is_transit":false,"transit":false,"station_id":"KAT","time":1,"i_lat":-6.20132,"i_long":106.816351,"distance":471,"station_name":"Karet"}]]}