{"data":[[{"station_name":"Bekasi","transit":false,"i_long":106.997013,"station_id":"BKS","is_transit":false,"time":0,"distance":0,"i_lat":-6.236616,"line":1},{"distance":2520,"is_transit":false,"time":4,"station_id":"KRI","station_name":"Kranji","transit":false,"i_lat":-6.224515,"i_long":106.977657,"line":1},{"i_lat":-6.219053,"is_transit":false,"line":1,"station_id":"CUK","station_name":"Cakung","i_long":106.951283,"transit":false,"distance":3097,"time":3},{"i_long":106.939679,"line":1,"time":8,"station_id":"KLDB","is_transit":false,"station_name":"Klenderbaru","transit":false,"distance":1385,"i_lat":-6.217455},{"is_transit":false,"transit":false,"i_lat":-6.215568,"time":1,"distance":1305,"line":1,"station_name":"Buaran","station_id":"BUA","i_long":106.922662},{"station_id":"KLD","line":1,"i_lat":-6.2135,"station_name":"Klender","distance":3100,"time":2,"is_transit":false,"i_long":106.899548,"transit":false},{"station_id":"JNG","distance":3395,"transit":false,"i_lat":-6.215091,"i_long":106.86807400000001,"station_name":"Jatinegara","line":1,"time":3,"is_transit":false},{"station_name":"Matraman","time":2,"station_id":"MTR","i_lat":-6.212485,"line":1,"transit":false,"is_transit":false,"i_long":106.858896,"distance":1377},{"i_lat":-6.209883,"distance":1275,"is_transit":true,"i_long":106.84912,"time":2,"station_name":"Manggarai","transit":true,"station_id":"MRI","line":2},{"time":4,"transit":false,"i_lat":-6.226659,"distance":2610,"line":2,"station_name":"Tebet","station_id":"TEB","is_transit":false,"i_long":106.857948},{"is_transit":false,"transit":false,"station_name":"Cawang","time":2,"i_lat":-6.242512,"station_id":"CW","i_long":106.856607,"line":2,"distance":1230},{"i_lat":-6.255332,"line":2,"station_id":"DRN","time":3,"i_long":106.85449,"distance":1546,"station_name":"Duren Kalibata","transit":false,"is_transit":false},{"is_transit":false,"station_name":"Pasar Minggu Baru","station_id":"PSMB","i_lat":-6.263214,"time":2,"i_long":106.851577,"line":2,"distance":824,"transit":false},{"time":2,"line":2,"transit":false,"distance":2380,"station_name":"Pasar Minggu","station_id":"PSM","is_transit":false,"i_lat":-6.2842400000000005,"i_long":106.843999},{"i_long":106.838896,"line":2,"time":4,"station_id":"TNT","distance":2820,"station_name":"Tanjung Barat","transit":false,"i_lat":-6.3080680000000005,"is_transit":false},{"time":3,"distance":2671,"is_transit":false,"i_lat":-6.330363,"transit":false,"line":2,"station_id":"LNA","station_name":"Lenteng Agung","i_long":106.832616},{"time":2,"station_id":"UP","transit":false,"station_name":"Univ. Pancasila","line":2,"distance":1029,"is_transit":false,"i_lat":-6.339291,"i_long":106.834175},{"station_id":"UI","i_lat":-6.360749,"transit":false,"i_long":106.831474,"station_name":"Univ. Indonesia","time":3,"line":2,"is_transit":false,"distance":2264},{"transit":false,"time":2,"station_name":"Pondok Cina","distance":1109,"is_transit":false,"i_lat":-6.369073,"i_long":106.831114,"line":2,"station_id":"POC"},{"i_long":106.819451,"station_name":"Depokbaru","line":2,"station_id":"DPB","transit":false,"is_transit":false,"distance":2727,"time":4,"i_lat":-6.391065},{"time":3,"station_name":"Depok","i_long":106.816926,"station_id":"DP","i_lat":-6.405256,"distance":1584,"is_transit":false,"transit":false,"line":2},{"is_transit":false,"time":6,"transit":false,"i_lat":-6.448811,"i_long":106.800298,"line":2,"station_name":"Citayam","station_id":"CTA","distance":5084},{"transit":false,"i_long":106.792719,"station_id":"BJD","station_name":"Bojonggede","distance":5197,"line":2,"is_transit":false,"i_lat":-6.493243,"time":5}],[{"line":1,"station_id":"BKS","time":0,"i_lat":-6.236616,"transit":false,"i_long":106.997013,"is_transit":false,"distance":0,"station_name":"Bekasi"},{"station_name":"Kranji","i_long":106.977657,"distance":2520,"station_id":"KRI","time":4,"i_lat":-6.224515,"line":1,"transit":false,"is_transit":false},{"transit":false,"line":1,"is_transit":false,"time":3,"i_lat":-6.219053,"i_long":106.951283,"distance":3097,"station_name":"Cakung","station_id":"CUK"},{"i_long":106.939679,"transit":false,"station_name":"Klenderbaru","is_transit":false,"station_id":"KLDB","time":8,"distance":1385,"i_lat":-6.217455,"line":1},{"distance":1305,"i_lat":-6.215568,"station_name":"Buaran","line":1,"transit":false,"time":1,"i_long":106.922662,"is_transit":false,"station_id":"BUA"},{"i_long":106.899548,"station_id":"KLD","i_lat":-6.2135,"time":2,"is_transit":false,"distance":3100,"transit":false,"station_name":"Klender","line":1},{"transit":true,"distance":3395,"station_id":"JNG","is_transit":true,"time":3,"i_lat":-6.215091,"i_long":106.86807400000001,"line":1,"station_name":"Jatinegara"},{"time":2,"i_lat":-6.209188,"is_transit":false,"station_name":"Pondok Jati","line":11,"distance":1236,"i_long":106.861737,"station_id":"POK","transit":false},{"i_long":106.855437,"is_transit":false,"line":11,"station_name":"Kramat","station_id":"KMT","transit":false,"distance":1829,"time":2,"i_lat":-6.193792},{"station_name":"Gang Sentiong","distance":973,"transit":false,"i_lat":-6.185975,"i_long":106.850107,"is_transit":false,"line":11,"time":1,"station_id":"GST"},{"station_name":"Pasar Senen","distance":1567,"is_transit":false,"station_id":"PSE","transit":false,"time":8,"line":11,"i_long":106.84368,"i_lat":-6.174784},{"i_long":106.839204,"transit":false,"is_transit":false,"station_id":"KMO","distance":1436,"station_name":"Kemayoran","line":11,"time":4,"i_lat":-6.161728},{"time":5,"distance":1901,"i_long":106.836569,"station_name":"Rajawali","transit":false,"i_lat":-6.14505,"line":11,"is_transit":false,"station_id":"RJW"},{"transit":true,"i_long":106.826365,"station_id":"KPB","line":4,"time":3,"distance":1444,"i_lat":-6.132549,"station_name":"Kampung Bandan","is_transit":true},{"station_name":"Angke","is_transit":false,"transit":false,"line":1,"i_long":106.79867,"station_id":"AK","distance":4102,"i_lat":-6.144674,"time":9},{"is_transit":false,"transit":false,"i_lat":-6.155215,"station_id":"DU","line":1,"time":4,"station_name":"Duri","distance":1230,"i_long":106.800832},{"station_name":"Tanah Abang","is_transit":false,"distance":3632,"transit":false,"station_id":"THB","i_lat":-6.185545,"line":1,"time":8,"i_long":106.811091},{"distance":2029,"line":1,"station_name":"Karet","is_transit":false,"transit":false,"station_id":"KAT","i_long":106.816351,"i_lat":-6.20132,"time":5},{"i_long":106.819881,"distance":471,"time":1,"station_name":"Sudirman Baru","transit":false,"is_transit":false,"station_id":"SUDB","i_lat":-6.201433,"line":1},{"is_transit":false,"station_id":"SUD","distance":280,"i_long":106.822649,"station_name":"Sudirman","transit":false,"i_lat":-6.202263,"time":1,"line":1},{"station_name":"Manggarai","transit":true,"i_long":106.84912,"station_id":"MRI","is_transit":true,"i_lat":-6.209883,"line":2,"distance":3186,"time":4},{"line":2,"i_long":106.857948,"i_lat":-6.226659,"station_id":"TEB","time":4,"transit":false,"distance":2610,"is_transit":false,"station_name":"Tebet"},{"station_name":"Cawang","distance":1230,"station_id":"CW","is_transit":false,"transit":false,"time":2,"i_lat":-6.242512,"i_long":106.856607,"line":2},{"distance":1546,"i_lat":-6.255332,"i_long":106.85449,"station_name":"Duren Kalibata","station_id":"DRN","is_transit":false,"time":3,"transit":false,"line":2},{"i_lat":-6.263214,"station_id":"PSMB","is_transit":false,"time":2,"transit":false,"distance":824,"i_long":106.851577,"station_name":"Pasar Minggu Baru","line":2},{"distance":2380,"station_id":"PSM","time":2,"station_name":"Pasar Minggu","is_transit":false,"transit":false,"i_lat":-6.2842400000000005,"i_long":106.843999,"line":2},{"station_name":"Tanjung Barat","line":2,"i_long":106.838896,"is_transit":false,"distance":2820,"station_id":"TNT","i_lat":-6.3080680000000005,"transit":false,"time":4},{"time":3,"transit":false,"i_long":106.832616,"line":2,"station_name":"Lenteng Agung","is_transit":false,"distance":2671,"i_lat":-6.330363,"station_id":"LNA"},{"station_name":"Univ. Pancasila","line":2,"i_long":106.834175,"is_transit":false,"transit":false,"distance":1029,"i_lat":-6.339291,"time":2,"station_id":"UP"},{"distance":2264,"station_name":"Univ. Indonesia","i_long":106.831474,"transit":false,"i_lat":-6.360749,"station_id":"UI","line":2,"is_transit":false,"time":3},{"station_name":"Pondok Cina","is_transit":false,"time":2,"transit":false,"station_id":"POC","i_lat":-6.369073,"i_long":106.831114,"line":2,"distance":1109},{"line":2,"station_id":"DPB","is_transit":false,"i_long":106.819451,"distance":2727,"time":4,"station_name":"Depokbaru","transit":false,"i_lat":-6.391065},{"i_lat":-6.405256,"line":2,"station_id":"DP","time":3,"is_transit":false,"distance":1584,"station_name":"Depok","transit":false,"i_long":106.816926},{"line":2,"i_long":106.800298,"time":6,"is_transit":false,"distance":5084,"station_id":"CTA","i_lat":-6.448811,"station_name":"Citayam","transit":false},{"is_transit":false,"line":2,"station_name":"Bojonggede","distance":5197,"transit":false,"station_id":"BJD","i_lat":-6.493243,"i_long":106.792719,"time":5}],[{"time":0,"station_name":"Bekasi","distance":0,"line":1,"i_long":106.997013,"i_lat":-6.236616,"transit":false,"station_id":"BKS","is_transit":false},{"i_long":106.977657,"station_id":"KRI","line":1,"station_name":"Kranji","is_transit":false,"distance":2520,"time":4,"transit":false,"i_lat":-6.224515},{"is_transit":false,"distance":3097,"transit":false,"line":1,"i_long":106.951283,"i_lat":-6.219053,"time":3,"station_id":"CUK","station_name":"Cakung"},{"distance":1385,"station_id":"KLDB","time":8,"line":1,"station_name":"Klenderbaru","transit":false,"i_lat":-6.217455,"i_long":106.939679,"is_transit":false},{"is_transit":false,"i_long":106.922662,"station_id":"BUA","time":1,"transit":false,"distance":1305,"station_name":"Buaran","i_lat":-6.215568,"line":1},{"distance":3100,"time":2,"station_name":"Klender","line":1,"i_long":106.899548,"transit":false,"station_id":"KLD","i_lat":-6.2135,"is_transit":false},{"i_long":106.86807400000001,"i_lat":-6.215091,"distance":3395,"station_id":"JNG","time":3,"transit":true,"line":1,"is_transit":true,"station_name":"Jatinegara"},{"station_id":"POK","station_name":"Pondok Jati","line":11,"is_transit":false,"time":2,"i_long":106.861737,"distance":1236,"transit":false,"i_lat":-6.209188},{"distance":1829,"time":2,"station_id":"KMT","i_lat":-6.193792,"line":11,"is_transit":false,"i_long":106.855437,"station_name":"Kramat","transit":false},{"i_long":106.850107,"station_id":"GST","is_transit":false,"i_lat":-6.185975,"transit":false,"line":11,"time":1,"distance":973,"station_name":"Gang Sentiong"},{"distance":1567,"i_long":106.84368,"station_name":"Pasar Senen","is_transit":false,"i_lat":-6.174784,"line":11,"time":8,"transit":false,"station_id":"PSE"},{"station_id":"KMO","line":11,"distance":1436,"time":4,"station_name":"Kemayoran","i_lat":-6.161728,"is_transit":false,"transit":false,"i_long":106.839204},{"station_id":"RJW","i_long":106.836569,"station_name":"Rajawali","time":5,"distance":1901,"transit":false,"i_lat":-6.14505,"line":11,"is_transit":false},{"station_name":"Kampung Bandan","station_id":"KPB","i_lat":-6.132549,"i_long":106.826365,"line":4,"is_transit":true,"distance":1444,"transit":true,"time":3},{"i_long":106.812439,"line":2,"station_id":"JAKK","is_transit":true,"station_name":"Jakarta Kota","time":3,"transit":true,"distance":1364,"i_lat":-6.137569},{"station_name":"Jayakarta","transit":false,"i_long":106.820901,"time":4,"is_transit":false,"line":2,"station_id":"JAY","distance":1264,"i_lat":-6.141205},{"distance":1080,"is_transit":false,"i_lat":-6.149769,"station_name":"Manggabesar","time":2,"line":2,"transit":false,"i_long":106.82482,"station_id":"MGB"},{"is_transit":false,"i_long":106.827103,"station_name":"Sawah Besar","distance":906,"line":2,"station_id":"SW","time":2,"i_lat":-6.160725,"transit":false},{"i_lat":-6.166716,"distance":1149,"is_transit":false,"transit":false,"station_id":"JUA","time":2,"i_long":106.828284,"line":2,"station_name":"Juanda"},{"is_transit":false,"station_id":"GDD","transit":false,"line":2,"time":4,"station_name":"Gondangdia","i_long":106.832183,"distance":2015,"i_lat":-6.186295},{"station_id":"CKI","station_name":"Cikini","time":3,"line":2,"i_long":106.840169,"transit":false,"is_transit":false,"distance":1750,"i_lat":-6.198556},{"time":4,"line":2,"is_transit":false,"i_long":106.84912,"distance":1590,"station_name":"Manggarai","transit":false,"station_id":"MRI","i_lat":-6.209883},{"station_id":"TEB","transit":false,"station_name":"Tebet","time":4,"is_transit":false,"i_lat":-6.226659,"distance":2610,"line":2,"i_long":106.857948},{"distance":1230,"station_id":"CW","is_transit":false,"i_long":106.856607,"time":2,"line":2,"i_lat":-6.242512,"station_name":"Cawang","transit":false},{"is_transit":false,"time":3,"distance":1546,"i_lat":-6.255332,"station_name":"Duren Kalibata","transit":false,"line":2,"station_id":"DRN","i_long":106.85449},{"is_transit":false,"station_name":"Pasar Minggu Baru","time":2,"transit":false,"distance":824,"i_long":106.851577,"line":2,"i_lat":-6.263214,"station_id":"PSMB"},{"transit":false,"i_lat":-6.2842400000000005,"is_transit":false,"station_id":"PSM","i_long":106.843999,"line":2,"distance":2380,"time":2,"station_name":"Pasar Minggu"},{"is_transit":false,"station_id":"TNT","station_name":"Tanjung Barat","transit":false,"distance":2820,"line":2,"time":4,"i_lat":-6.3080680000000005,"i_long":106.838896},{"is_transit":false,"station_id":"LNA","distance":2671,"time":3,"transit":false,"station_name":"Lenteng Agung","i_lat":-6.330363,"i_long":106.832616,"line":2},{"time":2,"is_transit":false,"station_id":"UP","distance":1029,"station_name":"Univ. Pancasila","transit":false,"i_lat":-6.339291,"i_long":106.834175,"line":2},{"is_transit":false,"i_lat":-6.360749,"distance":2264,"line":2,"i_long":106.831474,"transit":false,"time":3,"station_id":"UI","station_name":"Univ. Indonesia"},{"time":2,"station_name":"Pondok Cina","transit":false,"station_id":"POC","line":2,"i_lat":-6.369073,"distance":1109,"i_long":106.831114,"is_transit":false},{"i_lat":-6.391065,"transit":false,"time":4,"distance":2727,"station_name":"Depokbaru","i_long":106.819451,"is_transit":false,"line":2,"station_id":"DPB"},{"transit":false,"distance":1584,"station_id":"DP","is_transit":false,"i_lat":-6.405256,"line":2,"i_long":106.816926,"station_name":"Depok","time":3},{"time":6,"station_id":"CTA","distance":5084,"is_transit":false,"station_name":"Citayam","i_long":106.800298,"line":2,"transit":false,"i_lat":-6.448811},{"time":5,"transit":false,"station_name":"Bojonggede","is_transit":false,"i_long":106.792719,"i_lat":-6.493243,"station_id":"BJD","distance":5197,"line":2}]]}