{"data":[[{"station_name":"Bekasi","distance":0,"station_id":"BKS","time":0,"is_transit":false,"i_lat":-6.236616,"i_long":106.997013,"line":1,"transit":false},{"station_id":"KRI","distance":2520,"station_name":"Kranji","i_lat":-6.224515,"line":1,"is_transit":false,"transit":false,"time":4,"i_long":106.977657},{"transit":false,"is_transit":false,"distance":3097,"i_lat":-6.219053,"i_long":106.951283,"line":1,"station_name":"Cakung","station_id":"CUK","time":3},{"transit":false,"time":8,"station_name":"Klenderbaru","i_long":106.939679,"distance":1385,"line":1,"station_id":"KLDB","is_transit":false,"i_lat":-6.217455},{"is_transit":false,"transit":false,"i_lat":-6.215568,"station_id":"BUA","station_name":"Buaran","line":1,"i_long":106.922662,"distance":1305,"time":1},{"transit":false,"station_id":"KLD","i_lat":-6.2135,"distance":3100,"i_long":106.899548,"line":1,"time":2,"station_name":"Klender","is_transit":false},{"time":3,"station_id":"JNG","station_name":"Jatinegara","line":1,"i_long":106.86807400000001,"i_lat":-6.215091,"distance":3395,"is_transit":true,"transit":true},{"i_lat":-6.209188,"transit":false,"i_long":106.861737,"time":2,"station_id":"POK","line":11,"station_name":"Pondok Jati","is_transit":false,"distance":1236},{"station_name":"Kramat","is_transit":false,"distance":1829,"time":2,"i_long":106.855437,"line":11,"transit":false,"i_lat":-6.193792,"station_id":"KMT"},{"transit":false,"station_name":"Gang Sentiong","i_lat":-6.185975,"time":1,"station_id":"GST","is_transit":false,"line":11,"distance":973,"i_long":106.850107}],[{"station_name":"Bekasi","is_transit":false,"distance":0,"transit":false,"station_id":"BKS","i_long":106.997013,"time":0,"i_lat":-6.236616,"line":1},{"station_name":"Kranji","i_long":106.977657,"time":4,"line":1,"transit":false,"is_transit":false,"i_lat":-6.224515,"distance":2520,"station_id":"KRI"},{"line":1,"i_lat":-6.219053,"time":3,"station_id":"CUK","station_name":"Cakung","distance":3097,"i_long":106.951283,"is_transit":false,"transit":false},{"distance":1385,"i_lat":-6.217455,"station_name":"Klenderbaru","i_long":106.939679,"is_transit":false,"line":1,"station_id":"KLDB","time":8,"transit":false},{"station_name":"Buaran","time":1,"distance":1305,"station_id":"BUA","i_long":106.922662,"i_lat":-6.215568,"transit":false,"line":1,"is_transit":false},{"distance":3100,"i_lat":-6.2135,"i_long":106.899548,"time":2,"transit":false,"is_transit":false,"line":1,"station_id":"KLD","station_name":"Klender"},{"i_long":106.86807400000001,"transit":false,"i_lat":-6.215091,"station_id":"JNG","distance":3395,"time":3,"station_name":"Jatinegara","line":1,"is_transit":false},{"station_id":"MTR","transit":false,"time":2,"station_name":"Matraman","is_transit":false,"distance":1377,"i_long":106.858896,"i_lat":-6.212485,"line":1},{"station_name":"Manggarai","transit":false,"i_lat":-6.209883,"line":2,"time":2,"station_id":"MRI","i_long":106.84912,"is_transit":false,"distance":1275},{"transit":false,"i_lat":-6.202263,"line":1,"station_id":"SUD","station_name":"Sudirman","time":4,"is_transit":false,"i_long":106.822649,"distance":3186},{"transit":false,"line":1,"is_transit":false,"station_id":"SUDB","station_name":"Sudirman Baru","distance":280,"i_lat":-6.201433,"time":1,"i_long":106.819881},{"time":1,"transit":false,"i_lat":-6.20132,"line":1,"distance":471,"station_name":"Karet","station_id":"KAT","i_long":106.816351,"is_transit":false},{"station_id":"THB","transit":false,"i_lat":-6.185545,"line":1,"i_long":106.811091,"distance":2029,"is_transit":false,"time":5,"station_name":"Tanah Abang"},{"time":8,"is_transit":false,"station_id":"DU","station_name":"Duri","i_lat":-6.155215,"i_long":106.800832,"line":1,"distance":3632,"transit":false},{"distance":1230,"i_lat":-6.144674,"transit":false,"i_long":106.79867,"line":1,"time":4,"station_id":"AK","is_transit":false,"station_name":"Angke"},{"station_id":"KPB","transit":true,"station_name":"Kampung Bandan","is_transit":true,"i_lat":-6.132549,"i_long":106.826365,"line":4,"distance":4102,"time":9},{"distance":1444,"station_name":"Rajawali","is_transit":false,"i_lat":-6.14505,"i_long":106.836569,"line":11,"transit":false,"time":3,"station_id":"RJW"},{"time":5,"distance":1901,"line":11,"transit":false,"is_transit":false,"i_lat":-6.161728,"station_id":"KMO","station_name":"Kemayoran","i_long":106.839204},{"station_id":"PSE","transit":false,"line":11,"time":4,"distance":1436,"i_lat":-6.174784,"i_long":106.84368,"station_name":"Pasar Senen","is_transit":false},{"transit":false,"is_transit":false,"i_lat":-6.185975,"i_long":106.850107,"station_name":"Gang Sentiong","station_id":"GST","distance":1567,"time":8,"line":11}],[{"time":0,"i_long":106.997013,"is_transit":false,"i_lat":-6.236616,"station_id":"BKS","line":1,"transit":false,"distance":0,"station_name":"Bekasi"},{"station_name":"Kranji","i_long":106.977657,"station_id":"KRI","is_transit":false,"time":4,"distance":2520,"i_lat":-6.224515,"line":1,"transit":false},{"station_id":"CUK","i_lat":-6.219053,"distance":3097,"time":3,"line":1,"transit":false,"is_transit":false,"station_name":"Cakung","i_long":106.951283},{"station_name":"Klenderbaru","is_transit":false,"distance":1385,"line":1,"transit":false,"i_long":106.939679,"time":8,"station_id":"KLDB","i_lat":-6.217455},{"transit":false,"is_transit":false,"time":1,"station_name":"Buaran","station_id":"BUA","line":1,"i_lat":-6.215568,"i_long":106.922662,"distance":1305},{"i_long":106.899548,"distance":3100,"transit":false,"time":2,"i_lat":-6.2135,"line":1,"station_name":"Klender","is_transit":false,"station_id":"KLD"},{"distance":3395,"station_name":"Jatinegara","time":3,"transit":false,"is_transit":false,"station_id":"JNG","i_long":106.86807400000001,"i_lat":-6.215091,"line":1},{"distance":1377,"is_transit":false,"station_name":"Matraman","i_lat":-6.212485,"i_long":106.858896,"transit":false,"time":2,"station_id":"MTR","line":1},{"time":2,"distance":1275,"line":2,"i_lat":-6.209883,"station_name":"Manggarai","transit":true,"station_id":"MRI","is_transit":true,"i_long":106.84912},{"distance":1590,"station_name":"Cikini","transit":false,"station_id":"CKI","i_lat":-6.198556,"is_transit":false,"time":4,"line":2,"i_long":106.840169},{"transit":false,"station_name":"Gondangdia","time":3,"is_transit":false,"distance":1750,"station_id":"GDD","i_lat":-6.186295,"line":2,"i_long":106.832183},{"line":2,"time":4,"station_name":"Juanda","i_long":106.828284,"transit":false,"is_transit":false,"station_id":"JUA","i_lat":-6.166716,"distance":2015},{"i_long":106.827103,"line":2,"station_id":"SW","distance":1149,"transit":false,"is_transit":false,"i_lat":-6.160725,"time":2,"station_name":"Sawah Besar"},{"line":2,"i_long":106.82482,"is_transit":false,"time":2,"transit":false,"station_id":"MGB","station_name":"Manggabesar","i_lat":-6.149769,"distance":906},{"i_long":106.820901,"is_transit":false,"time":2,"line":2,"station_name":"Jayakarta","i_lat":-6.141205,"transit":false,"station_id":"JAY","distance":1080},{"line":2,"station_id":"JAKK","transit":true,"time":4,"station_name":"Jakarta Kota","is_transit":true,"i_lat":-6.137569,"i_long":106.812439,"distance":1264},{"station_name":"Kampung Bandan","transit":true,"is_transit":true,"i_lat":-6.132549,"line":4,"distance":1364,"i_long":106.826365,"time":3,"station_id":"KPB"},{"i_long":106.836569,"station_id":"RJW","distance":1444,"station_name":"Rajawali","i_lat":-6.14505,"time":3,"is_transit":false,"line":11,"transit":false},{"station_name":"Kemayoran","is_transit":false,"distance":1901,"i_long":106.839204,"time":5,"station_id":"KMO","line":11,"i_lat":-6.161728,"transit":false},{"station_id":"PSE","distance":1436,"is_transit":false,"time":4,"station_name":"Pasar Senen","line":11,"transit":false,"i_lat":-6.174784,"i_long":106.84368},{"distance":1567,"i_long":106.850107,"station_id":"GST","station_name":"Gang Sentiong","is_transit":false,"line":11,"time":8,"transit":false,"i_lat":-6.185975}]]}