{"data":[[{"station_id":"BKS","time":0,"station_name":"Bekasi","distance":0,"transit":false,"i_lat":-6.236616,"i_long":106.997013,"line":1,"is_transit":false},{"i_long":106.977657,"is_transit":false,"station_id":"KRI","transit":false,"line":1,"time":4,"station_name":"Kranji","distance":2520,"i_lat":-6.224515},{"i_lat":-6.219053,"station_id":"CUK","time":3,"station_name":"Cakung","transit":false,"i_long":106.951283,"is_transit":false,"distance":3097,"line":1},{"station_id":"KLDB","i_lat":-6.217455,"station_name":"Klenderbaru","i_long":106.939679,"is_transit":false,"transit":false,"line":1,"distance":1385,"time":8},{"is_transit":false,"station_id":"BUA","time":1,"station_name":"Buaran","distance":1305,"i_lat":-6.215568,"line":1,"transit":false,"i_long":106.922662},{"station_id":"KLD","time":2,"transit":false,"line":1,"i_long":106.899548,"distance":3100,"station_name":"Klender","is_transit":false,"i_lat":-6.2135},{"station_name":"Jatinegara","time":3,"i_long":106.86807400000001,"i_lat":-6.215091,"transit":false,"distance":3395,"line":1,"station_id":"JNG","is_transit":false},{"distance":1377,"station_id":"MTR","station_name":"Matraman","i_long":106.858896,"transit":false,"is_transit":false,"line":1,"i_lat":-6.212485,"time":2},{"is_transit":false,"station_id":"MRI","i_long":106.84912,"station_name":"Manggarai","time":2,"line":2,"transit":false,"distance":1275,"i_lat":-6.209883},{"distance":3186,"station_name":"Sudirman","time":4,"is_transit":false,"transit":false,"line":1,"i_long":106.822649,"i_lat":-6.202263,"station_id":"SUD"},{"time":1,"i_lat":-6.201433,"i_long":106.819881,"line":1,"transit":false,"station_id":"SUDB","distance":280,"station_name":"Sudirman Baru","is_transit":false},{"is_transit":false,"i_lat":-6.20132,"station_name":"Karet","i_long":106.816351,"transit":false,"distance":471,"time":1,"station_id":"KAT","line":1},{"transit":true,"distance":2029,"line":1,"station_id":"THB","station_name":"Tanah Abang","is_transit":true,"time":5,"i_lat":-6.185545,"i_long":106.811091},{"station_id":"PLM","i_lat":-6.207404,"distance":3191,"time":6,"station_name":"Palmerah","transit":false,"is_transit":false,"line":6,"i_long":106.79689},{"station_name":"Kebayoran","is_transit":false,"i_lat":-6.237242,"distance":3737,"line":6,"transit":false,"i_long":106.780334,"station_id":"KBY","time":7},{"distance":6218,"is_transit":false,"i_long":106.74273,"station_name":"Pondokranji","line":6,"i_lat":-6.276362,"time":8,"transit":false,"station_id":"PDJ"},{"i_lat":-6.288927,"station_id":"JMU","distance":2179,"transit":false,"station_name":"Jurangmangu","is_transit":false,"line":6,"time":3,"i_long":106.728916},{"station_id":"SDM","is_transit":false,"i_lat":-6.296963,"i_long":106.712277,"line":6,"distance":1994,"station_name":"Sudimara","time":4,"transit":false},{"transit":false,"station_id":"RU","i_long":106.675475,"is_transit":false,"line":6,"distance":4566,"station_name":"Rawa Buntu","time":6,"i_lat":-6.314823},{"i_lat":-6.319871,"station_name":"Serpong","i_long":106.66566,"time":4,"station_id":"SRP","distance":2413,"transit":false,"is_transit":false,"line":6},{"time":4,"transit":false,"is_transit":false,"i_lat":-6.32484,"station_id":"CSK","line":3,"i_long":106.640411,"distance":1784,"station_name":"Cisauk"},{"transit":false,"station_id":"CC","i_lat":-6.329547,"time":4,"station_name":"Cicayur","line":3,"distance":2519,"i_long":106.617853,"is_transit":false},{"line":6,"is_transit":false,"station_id":"PRP","time":8,"transit":false,"i_lat":-6.3441410000000005,"distance":5968,"station_name":"Parung Panjang","i_long":106.568863},{"transit":false,"i_long":106.508482,"time":9,"i_lat":-6.354349,"line":3,"is_transit":false,"station_id":"CJT","station_name":"Cilejit","distance":7025},{"distance":2675,"station_name":"Daru","is_transit":false,"station_id":"DAR","transit":false,"i_long":106.491338,"line":0,"i_lat":-6.338021,"time":6},{"i_lat":-6.327251,"transit":false,"is_transit":false,"i_long":106.460812,"line":6,"time":5,"station_name":"Tenjo","station_id":"TEJ","distance":3902},{"line":6,"station_id":"TGS","station_name":"Tigaraksa","i_lat":-6.328533,"distance":2974,"time":5,"transit":false,"is_transit":false,"i_long":106.425991},{"distance":2651,"station_id":"CKY","station_name":"Cikoya","time":3,"i_lat":-6.33561,"transit":false,"is_transit":false,"i_long":106.411216,"line":3},{"is_transit":false,"distance":1853,"transit":false,"time":4,"i_lat":-6.332307,"station_name":"Maja","i_long":106.394373,"station_id":"MJ","line":6},{"i_long":106.332092,"transit":false,"distance":7293,"is_transit":false,"station_id":"CTR","i_lat":-6.334892,"time":10,"line":3,"station_name":"Citeras"}],[{"i_lat":-6.236616,"station_id":"BKS","is_transit":false,"i_long":106.997013,"time":0,"distance":0,"transit":false,"station_name":"Bekasi","line":1},{"time":4,"station_name":"Kranji","i_lat":-6.224515,"station_id":"KRI","transit":false,"distance":2520,"i_long":106.977657,"is_transit":false,"line":1},{"distance":3097,"station_id":"CUK","time":3,"line":1,"i_lat":-6.219053,"transit":false,"station_name":"Cakung","is_transit":false,"i_long":106.951283},{"i_lat":-6.217455,"i_long":106.939679,"station_id":"KLDB","station_name":"Klenderbaru","time":8,"transit":false,"line":1,"distance":1385,"is_transit":false},{"distance":1305,"station_name":"Buaran","station_id":"BUA","transit":false,"i_lat":-6.215568,"i_long":106.922662,"line":1,"time":1,"is_transit":false},{"station_name":"Klender","time":2,"station_id":"KLD","distance":3100,"transit":false,"is_transit":false,"i_lat":-6.2135,"i_long":106.899548,"line":1},{"i_long":106.86807400000001,"distance":3395,"line":1,"i_lat":-6.215091,"time":3,"station_id":"JNG","station_name":"Jatinegara","transit":true,"is_transit":true},{"line":11,"transit":false,"distance":1236,"time":2,"station_name":"Pondok Jati","is_transit":false,"i_long":106.861737,"i_lat":-6.209188,"station_id":"POK"},{"transit":false,"distance":1829,"station_name":"Kramat","i_lat":-6.193792,"station_id":"KMT","time":2,"is_transit":false,"i_long":106.855437,"line":11},{"line":11,"distance":973,"time":1,"i_long":106.850107,"i_lat":-6.185975,"station_id":"GST","transit":false,"station_name":"Gang Sentiong","is_transit":false},{"station_id":"PSE","distance":1567,"is_transit":false,"i_lat":-6.174784,"line":11,"i_long":106.84368,"station_name":"Pasar Senen","transit":false,"time":8},{"is_transit":false,"i_lat":-6.161728,"station_name":"Kemayoran","transit":false,"time":4,"distance":1436,"line":11,"station_id":"KMO","i_long":106.839204},{"time":5,"transit":false,"i_lat":-6.14505,"line":11,"i_long":106.836569,"distance":1901,"is_transit":false,"station_id":"RJW","station_name":"Rajawali"},{"time":3,"i_lat":-6.132549,"i_long":106.826365,"is_transit":true,"station_name":"Kampung Bandan","transit":true,"station_id":"KPB","distance":1444,"line":4},{"station_name":"Angke","i_lat":-6.144674,"line":1,"is_transit":false,"i_long":106.79867,"station_id":"AK","time":9,"transit":false,"distance":4102},{"station_id":"DU","time":4,"i_lat":-6.155215,"i_long":106.800832,"station_name":"Duri","line":1,"transit":false,"is_transit":false,"distance":1230},{"station_id":"THB","station_name":"Tanah Abang","i_long":106.811091,"line":1,"time":8,"transit":true,"distance":3632,"i_lat":-6.185545,"is_transit":true},{"i_long":106.79689,"station_name":"Palmerah","time":6,"station_id":"PLM","is_transit":false,"line":6,"distance":3191,"transit":false,"i_lat":-6.207404},{"transit":false,"time":7,"station_name":"Kebayoran","station_id":"KBY","is_transit":false,"i_long":106.780334,"distance":3737,"line":6,"i_lat":-6.237242},{"i_lat":-6.276362,"station_name":"Pondokranji","station_id":"PDJ","time":8,"transit":false,"is_transit":false,"i_long":106.74273,"distance":6218,"line":6},{"i_lat":-6.288927,"i_long":106.728916,"station_name":"Jurangmangu","line":6,"distance":2179,"transit":false,"station_id":"JMU","time":3,"is_transit":false},{"station_name":"Sudimara","time":4,"line":6,"station_id":"SDM","is_transit":false,"transit":false,"i_long":106.712277,"distance":1994,"i_lat":-6.296963},{"i_lat":-6.314823,"line":6,"station_id":"RU","distance":4566,"is_transit":false,"transit":false,"time":6,"i_long":106.675475,"station_name":"Rawa Buntu"},{"line":6,"i_lat":-6.319871,"distance":2413,"transit":false,"i_long":106.66566,"station_id":"SRP","time":4,"station_name":"Serpong","is_transit":false},{"station_name":"Cisauk","distance":1784,"is_transit":false,"station_id":"CSK","time":4,"transit":false,"i_lat":-6.32484,"i_long":106.640411,"line":3},{"distance":2519,"time":4,"i_long":106.617853,"transit":false,"i_lat":-6.329547,"line":3,"is_transit":false,"station_id":"CC","station_name":"Cicayur"},{"station_id":"PRP","station_name":"Parung Panjang","i_lat":-6.3441410000000005,"i_long":106.568863,"distance":5968,"is_transit":false,"time":8,"transit":false,"line":6},{"station_id":"CJT","i_lat":-6.354349,"station_name":"Cilejit","time":9,"i_long":106.508482,"is_transit":false,"distance":7025,"transit":false,"line":3},{"is_transit":false,"line":0,"i_long":106.491338,"distance":2675,"station_name":"Daru","time":6,"i_lat":-6.338021,"station_id":"DAR","transit":false},{"i_lat":-6.327251,"station_name":"Tenjo","time":5,"is_transit":false,"line":6,"transit":false,"station_id":"TEJ","distance":3902,"i_long":106.460812},{"station_id":"TGS","station_name":"Tigaraksa","transit":false,"i_lat":-6.328533,"line":6,"is_transit":false,"distance":2974,"time":5,"i_long":106.425991},{"transit":false,"is_transit":false,"i_lat":-6.33561,"station_id":"CKY","distance":2651,"line":3,"station_name":"Cikoya","i_long":106.411216,"time":3},{"time":4,"is_transit":false,"i_long":106.394373,"line":6,"station_id":"MJ","i_lat":-6.332307,"distance":1853,"transit":false,"station_name":"Maja"},{"i_long":106.332092,"distance":7293,"station_name":"Citeras","line":3,"station_id":"CTR","time":10,"i_lat":-6.334892,"transit":false,"is_transit":false}],[{"time":0,"i_lat":-6.236616,"distance":0,"line":1,"transit":false,"i_long":106.997013,"station_name":"Bekasi","is_transit":false,"station_id":"BKS"},{"line":1,"i_long":106.977657,"station_name":"Kranji","is_transit":false,"transit":false,"i_lat":-6.224515,"station_id":"KRI","time":4,"distance":2520},{"is_transit":false,"line":1,"distance":3097,"i_lat":-6.219053,"station_id":"CUK","station_name":"Cakung","time":3,"i_long":106.951283,"transit":false},{"is_transit":false,"time":8,"i_long":106.939679,"line":1,"distance":1385,"transit":false,"station_id":"KLDB","i_lat":-6.217455,"station_name":"Klenderbaru"},{"station_id":"BUA","transit":false,"i_lat":-6.215568,"i_long":106.922662,"time":1,"line":1,"is_transit":false,"distance":1305,"station_name":"Buaran"},{"station_id":"KLD","i_lat":-6.2135,"time":2,"station_name":"Klender","is_transit":false,"distance":3100,"transit":false,"i_long":106.899548,"line":1},{"station_id":"JNG","time":3,"station_name":"Jatinegara","distance":3395,"i_lat":-6.215091,"i_long":106.86807400000001,"is_transit":false,"transit":false,"line":1},{"distance":1377,"transit":false,"is_transit":false,"station_id":"MTR","station_name":"Matraman","time":2,"i_lat":-6.212485,"line":1,"i_long":106.858896},{"distance":1275,"is_transit":true,"station_name":"Manggarai","station_id":"MRI","time":2,"i_lat":-6.209883,"transit":true,"i_long":106.84912,"line":2},{"time":4,"distance":1590,"station_name":"Cikini","line":2,"i_lat":-6.198556,"station_id":"CKI","transit":false,"is_transit":false,"i_long":106.840169},{"is_transit":false,"station_id":"GDD","i_long":106.832183,"station_name":"Gondangdia","transit":false,"time":3,"distance":1750,"line":2,"i_lat":-6.186295},{"station_id":"JUA","distance":2015,"transit":false,"is_transit":false,"i_long":106.828284,"line":2,"i_lat":-6.166716,"station_name":"Juanda","time":4},{"transit":false,"is_transit":false,"line":2,"i_lat":-6.160725,"i_long":106.827103,"station_id":"SW","station_name":"Sawah Besar","distance":1149,"time":2},{"station_name":"Manggabesar","i_lat":-6.149769,"time":2,"station_id":"MGB","line":2,"distance":906,"is_transit":false,"transit":false,"i_long":106.82482},{"station_name":"Jayakarta","is_transit":false,"i_lat":-6.141205,"distance":1080,"station_id":"JAY","line":2,"i_long":106.820901,"time":2,"transit":false},{"is_transit":true,"time":4,"i_long":106.812439,"transit":true,"line":2,"station_id":"JAKK","distance":1264,"station_name":"Jakarta Kota","i_lat":-6.137569},{"time":3,"transit":true,"distance":1364,"station_name":"Kampung Bandan","station_id":"KPB","is_transit":true,"i_lat":-6.132549,"i_long":106.826365,"line":4},{"distance":4102,"line":1,"i_lat":-6.144674,"is_transit":false,"station_name":"Angke","transit":false,"station_id":"AK","time":9,"i_long":106.79867},{"time":4,"is_transit":false,"i_lat":-6.155215,"station_name":"Duri","distance":1230,"station_id":"DU","transit":false,"i_long":106.800832,"line":1},{"station_name":"Tanah Abang","distance":3632,"station_id":"THB","is_transit":true,"i_long":106.811091,"transit":true,"line":1,"time":8,"i_lat":-6.185545},{"line":6,"time":6,"station_name":"Palmerah","transit":false,"station_id":"PLM","is_transit":false,"i_lat":-6.207404,"i_long":106.79689,"distance":3191},{"transit":false,"station_name":"Kebayoran","i_long":106.780334,"time":7,"line":6,"station_id":"KBY","i_lat":-6.237242,"is_transit":false,"distance":3737},{"i_lat":-6.276362,"is_transit":false,"line":6,"transit":false,"station_id":"PDJ","time":8,"i_long":106.74273,"distance":6218,"station_name":"Pondokranji"},{"time":3,"transit":false,"i_lat":-6.288927,"line":6,"station_name":"Jurangmangu","i_long":106.728916,"station_id":"JMU","distance":2179,"is_transit":false},{"line":6,"i_long":106.712277,"time":4,"transit":false,"i_lat":-6.296963,"station_name":"Sudimara","station_id":"SDM","is_transit":false,"distance":1994},{"is_transit":false,"i_lat":-6.314823,"distance":4566,"station_id":"RU","i_long":106.675475,"line":6,"station_name":"Rawa Buntu","time":6,"transit":false},{"station_name":"Serpong","distance":2413,"is_transit":false,"time":4,"transit":false,"i_lat":-6.319871,"line":6,"i_long":106.66566,"station_id":"SRP"},{"station_id":"CSK","distance":1784,"transit":false,"station_name":"Cisauk","i_lat":-6.32484,"is_transit":false,"line":3,"time":4,"i_long":106.640411},{"station_name":"Cicayur","time":4,"transit":false,"i_lat":-6.329547,"is_transit":false,"i_long":106.617853,"line":3,"distance":2519,"station_id":"CC"},{"is_transit":false,"i_long":106.568863,"time":8,"line":6,"i_lat":-6.3441410000000005,"station_name":"Parung Panjang","station_id":"PRP","distance":5968,"transit":false},{"distance":7025,"i_long":106.508482,"transit":false,"i_lat":-6.354349,"station_id":"CJT","line":3,"station_name":"Cilejit","time":9,"is_transit":false},{"i_long":106.491338,"station_id":"DAR","transit":false,"distance":2675,"line":0,"station_name":"Daru","is_transit":false,"i_lat":-6.338021,"time":6},{"time":5,"transit":false,"distance":3902,"line":6,"i_lat":-6.327251,"station_id":"TEJ","station_name":"Tenjo","i_long":106.460812,"is_transit":false},{"station_id":"TGS","i_lat":-6.328533,"station_name":"Tigaraksa","time":5,"is_transit":false,"distance":2974,"transit":false,"i_long":106.425991,"line":6},{"station_name":"Cikoya","i_lat":-6.33561,"station_id":"CKY","i_long":106.411216,"time":3,"transit":false,"line":3,"distance":2651,"is_transit":false},{"i_lat":-6.332307,"i_long":106.394373,"station_id":"MJ","distance":1853,"transit":false,"line":6,"is_transit":false,"station_name":"Maja","time":4},{"i_long":106.332092,"station_id":"CTR","station_name":"Citeras","transit":false,"line":3,"distance":7293,"time":10,"is_transit":false,"i_lat":-6.334892}],[{"is_transit":false,"i_long":106.997013,"line":1,"station_name":"Bekasi","station_id":"BKS","time":0,"i_lat":-6.236616,"distance":0,"transit":false},{"transit":false,"is_transit":false,"station_id":"KRI","station_name":"Kranji","time":4,"i_lat":-6.224515,"i_long":106.977657,"line":1,"distance":2520},{"station_id":"CUK","station_name":"Cakung","time":3,"distance":3097,"i_lat":-6.219053,"is_transit":false,"line":1,"transit":false,"i_long":106.951283},{"i_long":106.939679,"is_transit":false,"i_lat":-6.217455,"station_id":"KLDB","time":8,"transit":false,"station_name":"Klenderbaru","line":1,"distance":1385},{"i_long":106.922662,"transit":false,"station_id":"BUA","line":1,"time":1,"is_transit":false,"station_name":"Buaran","distance":1305,"i_lat":-6.215568},{"i_lat":-6.2135,"line":1,"transit":false,"distance":3100,"station_name":"Klender","i_long":106.899548,"time":2,"is_transit":false,"station_id":"KLD"},{"line":1,"distance":3395,"station_name":"Jatinegara","transit":true,"station_id":"JNG","i_lat":-6.215091,"time":3,"is_transit":true,"i_long":106.86807400000001},{"time":2,"is_transit":false,"line":11,"i_lat":-6.209188,"distance":1236,"station_id":"POK","transit":false,"i_long":106.861737,"station_name":"Pondok Jati"},{"transit":false,"is_transit":false,"i_long":106.855437,"distance":1829,"station_id":"KMT","line":11,"station_name":"Kramat","i_lat":-6.193792,"time":2},{"i_lat":-6.185975,"transit":false,"line":11,"time":1,"i_long":106.850107,"station_name":"Gang Sentiong","station_id":"GST","distance":973,"is_transit":false},{"i_lat":-6.174784,"station_name":"Pasar Senen","transit":false,"time":8,"i_long":106.84368,"distance":1567,"station_id":"PSE","line":11,"is_transit":false},{"distance":1436,"station_name":"Kemayoran","i_long":106.839204,"time":4,"transit":false,"is_transit":false,"i_lat":-6.161728,"station_id":"KMO","line":11},{"i_long":106.836569,"station_id":"RJW","distance":1901,"line":11,"time":5,"is_transit":false,"station_name":"Rajawali","transit":false,"i_lat":-6.14505},{"is_transit":true,"station_name":"Kampung Bandan","i_lat":-6.132549,"time":3,"distance":1444,"transit":true,"i_long":106.826365,"station_id":"KPB","line":4},{"distance":1364,"time":3,"i_long":106.812439,"line":2,"station_name":"Jakarta Kota","is_transit":true,"transit":true,"i_lat":-6.137569,"station_id":"JAKK"},{"i_lat":-6.141205,"station_name":"Jayakarta","station_id":"JAY","is_transit":false,"distance":1264,"time":4,"transit":false,"i_long":106.820901,"line":2},{"station_id":"MGB","distance":1080,"station_name":"Manggabesar","is_transit":false,"i_lat":-6.149769,"line":2,"transit":false,"i_long":106.82482,"time":2},{"i_lat":-6.160725,"line":2,"station_id":"SW","i_long":106.827103,"station_name":"Sawah Besar","distance":906,"is_transit":false,"time":2,"transit":false},{"line":2,"is_transit":false,"station_id":"JUA","distance":1149,"transit":false,"i_long":106.828284,"i_lat":-6.166716,"station_name":"Juanda","time":2},{"line":2,"i_lat":-6.186295,"i_long":106.832183,"distance":2015,"station_name":"Gondangdia","station_id":"GDD","is_transit":false,"time":4,"transit":false},{"line":2,"station_name":"Cikini","is_transit":false,"i_long":106.840169,"station_id":"CKI","distance":1750,"i_lat":-6.198556,"transit":false,"time":3},{"i_long":106.84912,"station_id":"MRI","station_name":"Manggarai","line":2,"distance":1590,"transit":true,"time":4,"i_lat":-6.209883,"is_transit":true},{"station_id":"SUD","time":4,"transit":false,"is_transit":false,"i_long":106.822649,"line":1,"station_name":"Sudirman","i_lat":-6.202263,"distance":3186},{"time":1,"is_transit":false,"i_long":106.819881,"line":1,"station_name":"Sudirman Baru","i_lat":-6.201433,"distance":280,"transit":false,"station_id":"SUDB"},{"line":1,"transit":false,"station_id":"KAT","is_transit":false,"station_name":"Karet","time":1,"i_lat":-6.20132,"distance":471,"i_long":106.816351},{"line":1,"is_transit":true,"time":5,"transit":true,"i_long":106.811091,"station_id":"THB","distance":2029,"i_lat":-6.185545,"station_name":"Tanah Abang"},{"distance":3191,"i_long":106.79689,"line":6,"station_id":"PLM","time":6,"is_transit":false,"transit":false,"station_name":"Palmerah","i_lat":-6.207404},{"is_transit":false,"station_id":"KBY","transit":false,"distance":3737,"i_lat":-6.237242,"station_name":"Kebayoran","time":7,"i_long":106.780334,"line":6},{"station_id":"PDJ","station_name":"Pondokranji","distance":6218,"is_transit":false,"i_lat":-6.276362,"i_long":106.74273,"time":8,"transit":false,"line":6},{"distance":2179,"is_transit":false,"i_long":106.728916,"i_lat":-6.288927,"station_id":"JMU","transit":false,"line":6,"station_name":"Jurangmangu","time":3},{"i_lat":-6.296963,"time":4,"i_long":106.712277,"is_transit":false,"distance":1994,"station_id":"SDM","transit":false,"station_name":"Sudimara","line":6},{"line":6,"station_id":"RU","distance":4566,"station_name":"Rawa Buntu","i_long":106.675475,"transit":false,"time":6,"is_transit":false,"i_lat":-6.314823},{"distance":2413,"time":4,"station_name":"Serpong","is_transit":false,"i_lat":-6.319871,"i_long":106.66566,"transit":false,"station_id":"SRP","line":6},{"line":3,"distance":1784,"station_name":"Cisauk","is_transit":false,"i_long":106.640411,"time":4,"transit":false,"i_lat":-6.32484,"station_id":"CSK"},{"time":4,"transit":false,"station_name":"Cicayur","distance":2519,"station_id":"CC","i_long":106.617853,"i_lat":-6.329547,"line":3,"is_transit":false},{"distance":5968,"time":8,"i_long":106.568863,"i_lat":-6.3441410000000005,"transit":false,"line":6,"is_transit":false,"station_id":"PRP","station_name":"Parung Panjang"},{"i_long":106.508482,"line":3,"transit":false,"station_id":"CJT","distance":7025,"is_transit":false,"time":9,"station_name":"Cilejit","i_lat":-6.354349},{"distance":2675,"time":6,"line":0,"i_long":106.491338,"is_transit":false,"station_id":"DAR","transit":false,"i_lat":-6.338021,"station_name":"Daru"},{"is_transit":false,"line":6,"station_name":"Tenjo","station_id":"TEJ","distance":3902,"i_long":106.460812,"i_lat":-6.327251,"time":5,"transit":false},{"station_id":"TGS","i_long":106.425991,"line":6,"time":5,"station_name":"Tigaraksa","transit":false,"is_transit":false,"i_lat":-6.328533,"distance":2974},{"transit":false,"distance":2651,"time":3,"line":3,"station_name":"Cikoya","station_id":"CKY","is_transit":false,"i_lat":-6.33561,"i_long":106.411216},{"is_transit":false,"station_id":"MJ","i_long":106.394373,"i_lat":-6.332307,"transit":false,"station_name":"Maja","line":6,"distance":1853,"time":4},{"is_transit":false,"i_lat":-6.334892,"i_long":106.332092,"line":3,"time":10,"station_name":"Citeras","transit":false,"station_id":"CTR","distance":7293}]]}