{"data":[[{"i_lat":-6.236616,"line":1,"transit":false,"station_id":"BKS","i_long":106.997013,"distance":0,"is_transit":false,"station_name":"Bekasi","time":0},{"i_lat":-6.224515,"transit":false,"station_name":"Kranji","station_id":"KRI","time":4,"i_long":106.977657,"is_transit":false,"distance":2520,"line":1},{"station_name":"Cakung","line":1,"time":3,"distance":3097,"transit":false,"is_transit":false,"station_id":"CUK","i_long":106.951283,"i_lat":-6.219053},{"transit":false,"is_transit":false,"time":8,"line":1,"station_name":"Klenderbaru","i_lat":-6.217455,"distance":1385,"station_id":"KLDB","i_long":106.939679},{"time":1,"transit":false,"line":1,"station_id":"BUA","i_lat":-6.215568,"is_transit":false,"i_long":106.922662,"station_name":"Buaran","distance":1305},{"i_long":106.899548,"station_id":"KLD","time":2,"station_name":"Klender","i_lat":-6.2135,"distance":3100,"transit":false,"line":1,"is_transit":false},{"time":3,"line":1,"station_id":"JNG","station_name":"Jatinegara","distance":3395,"i_lat":-6.215091,"transit":false,"is_transit":false,"i_long":106.86807400000001},{"time":2,"line":1,"station_name":"Matraman","station_id":"MTR","transit":false,"is_transit":false,"i_long":106.858896,"i_lat":-6.212485,"distance":1377},{"station_id":"MRI","line":2,"distance":1275,"i_long":106.84912,"i_lat":-6.209883,"is_transit":true,"time":2,"station_name":"Manggarai","transit":true},{"i_lat":-6.226659,"time":4,"line":2,"station_name":"Tebet","distance":2610,"transit":false,"station_id":"TEB","i_long":106.857948,"is_transit":false},{"station_name":"Cawang","is_transit":false,"line":2,"station_id":"CW","distance":1230,"i_lat":-6.242512,"i_long":106.856607,"transit":false,"time":2},{"transit":false,"is_transit":false,"time":3,"line":2,"i_long":106.85449,"station_name":"Duren Kalibata","distance":1546,"i_lat":-6.255332,"station_id":"DRN"},{"station_name":"Pasar Minggu Baru","line":2,"time":2,"is_transit":false,"distance":824,"transit":false,"i_lat":-6.263214,"station_id":"PSMB","i_long":106.851577},{"distance":2380,"station_id":"PSM","station_name":"Pasar Minggu","is_transit":false,"transit":false,"time":2,"i_long":106.843999,"i_lat":-6.2842400000000005,"line":2},{"time":4,"distance":2820,"station_name":"Tanjung Barat","transit":false,"i_long":106.838896,"station_id":"TNT","i_lat":-6.3080680000000005,"line":2,"is_transit":false},{"line":2,"transit":false,"is_transit":false,"time":3,"i_lat":-6.330363,"station_name":"Lenteng Agung","station_id":"LNA","distance":2671,"i_long":106.832616},{"time":2,"is_transit":false,"i_lat":-6.339291,"station_id":"UP","station_name":"Univ. Pancasila","line":2,"distance":1029,"i_long":106.834175,"transit":false},{"i_lat":-6.360749,"distance":2264,"i_long":106.831474,"line":2,"is_transit":false,"station_id":"UI","station_name":"Univ. Indonesia","transit":false,"time":3}],[{"time":0,"transit":false,"line":1,"distance":0,"i_lat":-6.236616,"i_long":106.997013,"is_transit":false,"station_id":"BKS","station_name":"Bekasi"},{"station_id":"KRI","is_transit":false,"distance":2520,"i_lat":-6.224515,"time":4,"station_name":"Kranji","i_long":106.977657,"transit":false,"line":1},{"line":1,"transit":false,"is_transit":false,"station_id":"CUK","i_long":106.951283,"i_lat":-6.219053,"distance":3097,"time":3,"station_name":"Cakung"},{"transit":false,"distance":1385,"is_transit":false,"i_long":106.939679,"line":1,"station_name":"Klenderbaru","i_lat":-6.217455,"station_id":"KLDB","time":8},{"transit":false,"station_name":"Buaran","time":1,"i_lat":-6.215568,"is_transit":false,"distance":1305,"line":1,"station_id":"BUA","i_long":106.922662},{"distance":3100,"i_lat":-6.2135,"is_transit":false,"line":1,"transit":false,"station_name":"Klender","station_id":"KLD","time":2,"i_long":106.899548},{"i_lat":-6.215091,"station_name":"Jatinegara","is_transit":true,"i_long":106.86807400000001,"station_id":"JNG","distance":3395,"transit":true,"line":1,"time":3},{"i_lat":-6.209188,"station_id":"POK","time":2,"is_transit":false,"line":11,"distance":1236,"station_name":"Pondok Jati","transit":false,"i_long":106.861737},{"station_id":"KMT","transit":false,"line":11,"time":2,"distance":1829,"i_lat":-6.193792,"is_transit":false,"i_long":106.855437,"station_name":"Kramat"},{"is_transit":false,"i_lat":-6.185975,"distance":973,"station_id":"GST","station_name":"Gang Sentiong","transit":false,"time":1,"i_long":106.850107,"line":11},{"is_transit":false,"transit":false,"distance":1567,"line":11,"station_id":"PSE","time":8,"station_name":"Pasar Senen","i_lat":-6.174784,"i_long":106.84368},{"i_long":106.839204,"is_transit":false,"station_name":"Kemayoran","transit":false,"time":4,"i_lat":-6.161728,"line":11,"distance":1436,"station_id":"KMO"},{"line":11,"i_long":106.836569,"i_lat":-6.14505,"distance":1901,"station_name":"Rajawali","is_transit":false,"time":5,"station_id":"RJW","transit":false},{"i_lat":-6.132549,"distance":1444,"station_id":"KPB","station_name":"Kampung Bandan","is_transit":true,"transit":true,"i_long":106.826365,"time":3,"line":4},{"i_long":106.79867,"transit":false,"time":9,"station_id":"AK","i_lat":-6.144674,"is_transit":false,"distance":4102,"station_name":"Angke","line":1},{"is_transit":false,"station_id":"DU","i_lat":-6.155215,"line":1,"time":4,"i_long":106.800832,"station_name":"Duri","distance":1230,"transit":false},{"i_long":106.811091,"line":1,"station_name":"Tanah Abang","distance":3632,"transit":false,"station_id":"THB","is_transit":false,"time":8,"i_lat":-6.185545},{"is_transit":false,"transit":false,"line":1,"i_lat":-6.20132,"station_id":"KAT","time":5,"station_name":"Karet","i_long":106.816351,"distance":2029},{"distance":471,"transit":false,"is_transit":false,"i_lat":-6.201433,"line":1,"time":1,"i_long":106.819881,"station_name":"Sudirman Baru","station_id":"SUDB"},{"distance":280,"is_transit":false,"transit":false,"i_lat":-6.202263,"line":1,"station_name":"Sudirman","time":1,"station_id":"SUD","i_long":106.822649},{"distance":3186,"i_lat":-6.209883,"i_long":106.84912,"line":2,"station_name":"Manggarai","is_transit":true,"time":4,"transit":true,"station_id":"MRI"},{"distance":2610,"transit":false,"station_id":"TEB","station_name":"Tebet","is_transit":false,"time":4,"i_lat":-6.226659,"i_long":106.857948,"line":2},{"station_name":"Cawang","time":2,"i_long":106.856607,"is_transit":false,"distance":1230,"station_id":"CW","line":2,"i_lat":-6.242512,"transit":false},{"i_long":106.85449,"station_id":"DRN","transit":false,"station_name":"Duren Kalibata","i_lat":-6.255332,"distance":1546,"time":3,"line":2,"is_transit":false},{"time":2,"i_long":106.851577,"station_name":"Pasar Minggu Baru","i_lat":-6.263214,"distance":824,"is_transit":false,"line":2,"transit":false,"station_id":"PSMB"},{"i_lat":-6.2842400000000005,"station_name":"Pasar Minggu","station_id":"PSM","distance":2380,"is_transit":false,"time":2,"transit":false,"i_long":106.843999,"line":2},{"station_id":"TNT","transit":false,"i_lat":-6.3080680000000005,"i_long":106.838896,"is_transit":false,"distance":2820,"line":2,"time":4,"station_name":"Tanjung Barat"},{"time":3,"i_lat":-6.330363,"line":2,"distance":2671,"transit":false,"is_transit":false,"i_long":106.832616,"station_name":"Lenteng Agung","station_id":"LNA"},{"i_long":106.834175,"station_id":"UP","time":2,"transit":false,"station_name":"Univ. Pancasila","is_transit":false,"i_lat":-6.339291,"distance":1029,"line":2},{"line":2,"station_name":"Univ. Indonesia","distance":2264,"i_long":106.831474,"i_lat":-6.360749,"time":3,"station_id":"UI","is_transit":false,"transit":false}],[{"is_transit":false,"station_id":"BKS","transit":false,"time":0,"line":1,"station_name":"Bekasi","distance":0,"i_long":106.997013,"i_lat":-6.236616},{"line":1,"is_transit":false,"station_name":"Kranji","distance":2520,"i_lat":-6.224515,"i_long":106.977657,"station_id":"KRI","transit":false,"time":4},{"station_name":"Cakung","transit":false,"i_long":106.951283,"time":3,"i_lat":-6.219053,"is_transit":false,"station_id":"CUK","line":1,"distance":3097},{"is_transit":false,"time":8,"i_long":106.939679,"i_lat":-6.217455,"station_name":"Klenderbaru","line":1,"distance":1385,"station_id":"KLDB","transit":false},{"transit":false,"i_lat":-6.215568,"line":1,"is_transit":false,"station_name":"Buaran","i_long":106.922662,"station_id":"BUA","time":1,"distance":1305},{"station_id":"KLD","time":2,"station_name":"Klender","transit":false,"i_lat":-6.2135,"i_long":106.899548,"is_transit":false,"distance":3100,"line":1},{"distance":3395,"line":1,"i_long":106.86807400000001,"transit":true,"is_transit":true,"station_name":"Jatinegara","station_id":"JNG","time":3,"i_lat":-6.215091},{"distance":1236,"is_transit":false,"i_lat":-6.209188,"i_long":106.861737,"time":2,"station_name":"Pondok Jati","line":11,"station_id":"POK","transit":false},{"transit":false,"station_id":"KMT","i_lat":-6.193792,"is_transit":false,"distance":1829,"station_name":"Kramat","i_long":106.855437,"time":2,"line":11},{"time":1,"i_long":106.850107,"station_name":"Gang Sentiong","line":11,"i_lat":-6.185975,"station_id":"GST","is_transit":false,"distance":973,"transit":false},{"transit":false,"time":8,"is_transit":false,"i_lat":-6.174784,"station_id":"PSE","station_name":"Pasar Senen","distance":1567,"i_long":106.84368,"line":11},{"station_id":"KMO","is_transit":false,"time":4,"i_lat":-6.161728,"line":11,"station_name":"Kemayoran","transit":false,"distance":1436,"i_long":106.839204},{"time":5,"i_lat":-6.14505,"line":11,"is_transit":false,"i_long":106.836569,"distance":1901,"station_name":"Rajawali","station_id":"RJW","transit":false},{"line":4,"i_lat":-6.132549,"time":3,"station_id":"KPB","station_name":"Kampung Bandan","is_transit":true,"i_long":106.826365,"distance":1444,"transit":true},{"station_name":"Jakarta Kota","i_lat":-6.137569,"station_id":"JAKK","i_long":106.812439,"distance":1364,"is_transit":true,"transit":true,"time":3,"line":2},{"station_id":"JAY","line":2,"i_long":106.820901,"station_name":"Jayakarta","is_transit":false,"i_lat":-6.141205,"time":4,"transit":false,"distance":1264},{"time":2,"i_long":106.82482,"is_transit":false,"station_id":"MGB","station_name":"Manggabesar","transit":false,"i_lat":-6.149769,"line":2,"distance":1080},{"is_transit":false,"line":2,"station_id":"SW","time":2,"distance":906,"station_name":"Sawah Besar","i_lat":-6.160725,"i_long":106.827103,"transit":false},{"line":2,"time":2,"distance":1149,"station_name":"Juanda","i_long":106.828284,"transit":false,"station_id":"JUA","is_transit":false,"i_lat":-6.166716},{"i_long":106.832183,"transit":false,"is_transit":false,"time":4,"line":2,"station_id":"GDD","station_name":"Gondangdia","distance":2015,"i_lat":-6.186295},{"time":3,"i_long":106.840169,"is_transit":false,"i_lat":-6.198556,"line":2,"station_id":"CKI","transit":false,"distance":1750,"station_name":"Cikini"},{"distance":1590,"transit":false,"station_id":"MRI","is_transit":false,"time":4,"i_lat":-6.209883,"station_name":"Manggarai","i_long":106.84912,"line":2},{"is_transit":false,"distance":2610,"line":2,"station_name":"Tebet","i_long":106.857948,"station_id":"TEB","transit":false,"time":4,"i_lat":-6.226659},{"i_long":106.856607,"distance":1230,"station_id":"CW","i_lat":-6.242512,"time":2,"transit":false,"line":2,"station_name":"Cawang","is_transit":false},{"transit":false,"station_id":"DRN","line":2,"i_long":106.85449,"is_transit":false,"i_lat":-6.255332,"station_name":"Duren Kalibata","distance":1546,"time":3},{"station_id":"PSMB","is_transit":false,"station_name":"Pasar Minggu Baru","distance":824,"time":2,"i_long":106.851577,"transit":false,"i_lat":-6.263214,"line":2},{"distance":2380,"station_id":"PSM","i_long":106.843999,"line":2,"station_name":"Pasar Minggu","transit":false,"i_lat":-6.2842400000000005,"is_transit":false,"time":2},{"transit":false,"distance":2820,"station_id":"TNT","station_name":"Tanjung Barat","is_transit":false,"i_lat":-6.3080680000000005,"time":4,"i_long":106.838896,"line":2},{"distance":2671,"time":3,"is_transit":false,"station_name":"Lenteng Agung","station_id":"LNA","i_lat":-6.330363,"i_long":106.832616,"transit":false,"line":2},{"distance":1029,"i_long":106.834175,"station_name":"Univ. Pancasila","station_id":"UP","is_transit":false,"time":2,"transit":false,"i_lat":-6.339291,"line":2},{"distance":2264,"time":3,"is_transit":false,"line":2,"i_lat":-6.360749,"transit":false,"station_name":"Univ. Indonesia","i_long":106.831474,"station_id":"UI"}]]}