{"data":[[{"time":0,"station_id":"BKS","i_lat":-6.236616,"i_long":106.997013,"transit":false,"distance":0,"line":1,"is_transit":false,"station_name":"Bekasi"},{"distance":2520,"station_id":"KRI","i_lat":-6.224515,"i_long":106.977657,"is_transit":false,"station_name":"Kranji","transit":false,"time":4,"line":1},{"station_id":"CUK","station_name":"Cakung","i_long":106.951283,"i_lat":-6.219053,"time":3,"transit":false,"is_transit":false,"line":1,"distance":3097},{"time":8,"is_transit":false,"transit":false,"line":1,"station_name":"Klenderbaru","distance":1385,"station_id":"KLDB","i_lat":-6.217455,"i_long":106.939679},{"distance":1305,"time":1,"i_lat":-6.215568,"transit":false,"station_id":"BUA","station_name":"Buaran","i_long":106.922662,"line":1,"is_transit":false},{"station_name":"Klender","station_id":"KLD","is_transit":false,"time":2,"distance":3100,"i_lat":-6.2135,"i_long":106.899548,"line":1,"transit":false},{"transit":false,"distance":3395,"time":3,"i_long":106.86807400000001,"i_lat":-6.215091,"station_name":"Jatinegara","station_id":"JNG","line":1,"is_transit":false},{"is_transit":false,"i_long":106.858896,"transit":false,"time":2,"line":1,"station_name":"Matraman","distance":1377,"station_id":"MTR","i_lat":-6.212485},{"i_long":106.84912,"distance":1275,"i_lat":-6.209883,"station_id":"MRI","line":2,"is_transit":true,"station_name":"Manggarai","transit":true,"time":2},{"line":2,"is_transit":false,"i_lat":-6.226659,"distance":2610,"station_name":"Tebet","transit":false,"station_id":"TEB","i_long":106.857948,"time":4}],[{"station_id":"BKS","station_name":"Bekasi","time":0,"i_long":106.997013,"is_transit":false,"transit":false,"distance":0,"line":1,"i_lat":-6.236616},{"line":1,"is_transit":false,"station_name":"Kranji","time":4,"distance":2520,"i_long":106.977657,"transit":false,"station_id":"KRI","i_lat":-6.224515},{"station_id":"CUK","i_lat":-6.219053,"distance":3097,"line":1,"i_long":106.951283,"is_transit":false,"time":3,"station_name":"Cakung","transit":false},{"distance":1385,"transit":false,"station_id":"KLDB","i_lat":-6.217455,"i_long":106.939679,"is_transit":false,"station_name":"Klenderbaru","time":8,"line":1},{"transit":false,"i_long":106.922662,"line":1,"is_transit":false,"station_name":"Buaran","time":1,"distance":1305,"station_id":"BUA","i_lat":-6.215568},{"is_transit":false,"station_name":"Klender","i_long":106.899548,"line":1,"i_lat":-6.2135,"time":2,"station_id":"KLD","transit":false,"distance":3100},{"transit":true,"i_lat":-6.215091,"distance":3395,"line":1,"i_long":106.86807400000001,"time":3,"station_name":"Jatinegara","is_transit":true,"station_id":"JNG"},{"is_transit":false,"time":2,"transit":false,"station_name":"Pondok Jati","distance":1236,"station_id":"POK","i_long":106.861737,"line":11,"i_lat":-6.209188},{"time":2,"is_transit":false,"distance":1829,"i_long":106.855437,"station_id":"KMT","line":11,"transit":false,"station_name":"Kramat","i_lat":-6.193792},{"line":11,"station_id":"GST","i_long":106.850107,"station_name":"Gang Sentiong","i_lat":-6.185975,"is_transit":false,"distance":973,"time":1,"transit":false},{"i_lat":-6.174784,"distance":1567,"is_transit":false,"line":11,"time":8,"station_name":"Pasar Senen","transit":false,"i_long":106.84368,"station_id":"PSE"},{"time":4,"i_long":106.839204,"line":11,"transit":false,"station_id":"KMO","i_lat":-6.161728,"is_transit":false,"distance":1436,"station_name":"Kemayoran"},{"is_transit":false,"station_name":"Rajawali","transit":false,"i_long":106.836569,"distance":1901,"time":5,"i_lat":-6.14505,"line":11,"station_id":"RJW"},{"station_name":"Kampung Bandan","distance":1444,"line":4,"is_transit":true,"time":3,"i_lat":-6.132549,"station_id":"KPB","transit":true,"i_long":106.826365},{"i_lat":-6.144674,"i_long":106.79867,"line":1,"time":9,"distance":4102,"transit":false,"is_transit":false,"station_name":"Angke","station_id":"AK"},{"station_name":"Duri","is_transit":false,"transit":false,"i_long":106.800832,"distance":1230,"i_lat":-6.155215,"station_id":"DU","time":4,"line":1},{"is_transit":false,"station_name":"Tanah Abang","transit":false,"time":8,"station_id":"THB","i_long":106.811091,"i_lat":-6.185545,"distance":3632,"line":1},{"i_lat":-6.20132,"transit":false,"is_transit":false,"i_long":106.816351,"line":1,"station_id":"KAT","station_name":"Karet","time":5,"distance":2029},{"i_long":106.819881,"station_id":"SUDB","i_lat":-6.201433,"line":1,"station_name":"Sudirman Baru","transit":false,"time":1,"distance":471,"is_transit":false},{"station_name":"Sudirman","is_transit":false,"distance":280,"i_long":106.822649,"transit":false,"station_id":"SUD","time":1,"line":1,"i_lat":-6.202263},{"transit":true,"i_long":106.84912,"line":2,"i_lat":-6.209883,"time":4,"station_id":"MRI","distance":3186,"is_transit":true,"station_name":"Manggarai"},{"i_long":106.857948,"transit":false,"time":4,"is_transit":false,"distance":2610,"station_id":"TEB","i_lat":-6.226659,"station_name":"Tebet","line":2}],[{"line":1,"distance":0,"i_long":106.997013,"transit":false,"time":0,"is_transit":false,"i_lat":-6.236616,"station_id":"BKS","station_name":"Bekasi"},{"station_name":"Kranji","station_id":"KRI","is_transit":false,"time":4,"transit":false,"i_lat":-6.224515,"distance":2520,"line":1,"i_long":106.977657},{"distance":3097,"transit":false,"is_transit":false,"time":3,"station_name":"Cakung","line":1,"i_long":106.951283,"i_lat":-6.219053,"station_id":"CUK"},{"i_long":106.939679,"time":8,"is_transit":false,"line":1,"transit":false,"distance":1385,"station_id":"KLDB","i_lat":-6.217455,"station_name":"Klenderbaru"},{"i_long":106.922662,"line":1,"is_transit":false,"i_lat":-6.215568,"station_id":"BUA","distance":1305,"transit":false,"time":1,"station_name":"Buaran"},{"time":2,"line":1,"i_long":106.899548,"is_transit":false,"station_name":"Klender","transit":false,"distance":3100,"station_id":"KLD","i_lat":-6.2135},{"is_transit":true,"station_name":"Jatinegara","transit":true,"station_id":"JNG","i_lat":-6.215091,"time":3,"line":1,"distance":3395,"i_long":106.86807400000001},{"i_long":106.861737,"is_transit":false,"time":2,"distance":1236,"station_id":"POK","i_lat":-6.209188,"transit":false,"station_name":"Pondok Jati","line":11},{"station_id":"KMT","line":11,"station_name":"Kramat","transit":false,"distance":1829,"time":2,"i_long":106.855437,"is_transit":false,"i_lat":-6.193792},{"distance":973,"line":11,"i_long":106.850107,"is_transit":false,"time":1,"station_id":"GST","station_name":"Gang Sentiong","transit":false,"i_lat":-6.185975},{"is_transit":false,"station_id":"PSE","distance":1567,"i_lat":-6.174784,"time":8,"i_long":106.84368,"line":11,"station_name":"Pasar Senen","transit":false},{"time":4,"station_id":"KMO","line":11,"is_transit":false,"i_long":106.839204,"i_lat":-6.161728,"distance":1436,"station_name":"Kemayoran","transit":false},{"distance":1901,"transit":false,"time":5,"station_name":"Rajawali","i_long":106.836569,"line":11,"i_lat":-6.14505,"is_transit":false,"station_id":"RJW"},{"is_transit":true,"line":4,"station_name":"Kampung Bandan","i_long":106.826365,"distance":1444,"time":3,"station_id":"KPB","i_lat":-6.132549,"transit":true},{"i_long":106.812439,"line":2,"station_id":"JAKK","is_transit":true,"station_name":"Jakarta Kota","time":3,"distance":1364,"transit":true,"i_lat":-6.137569},{"distance":1264,"i_long":106.820901,"i_lat":-6.141205,"transit":false,"is_transit":false,"station_id":"JAY","time":4,"station_name":"Jayakarta","line":2},{"distance":1080,"transit":false,"station_id":"MGB","i_long":106.82482,"is_transit":false,"time":2,"line":2,"station_name":"Manggabesar","i_lat":-6.149769},{"is_transit":false,"time":2,"transit":false,"line":2,"station_id":"SW","distance":906,"i_lat":-6.160725,"i_long":106.827103,"station_name":"Sawah Besar"},{"distance":1149,"line":2,"time":2,"i_lat":-6.166716,"station_id":"JUA","transit":false,"i_long":106.828284,"station_name":"Juanda","is_transit":false},{"distance":2015,"time":4,"transit":false,"i_long":106.832183,"is_transit":false,"station_id":"GDD","station_name":"Gondangdia","i_lat":-6.186295,"line":2},{"line":2,"i_long":106.840169,"time":3,"is_transit":false,"transit":false,"station_name":"Cikini","station_id":"CKI","distance":1750,"i_lat":-6.198556},{"station_id":"MRI","i_lat":-6.209883,"i_long":106.84912,"line":2,"distance":1590,"is_transit":false,"time":4,"transit":false,"station_name":"Manggarai"},{"time":4,"transit":false,"station_name":"Tebet","station_id":"TEB","i_long":106.857948,"distance":2610,"i_lat":-6.226659,"is_transit":false,"line":2}]]}