{"data":[[{"i_long":106.997013,"time":0,"line":1,"i_lat":-6.236616,"station_id":"BKS","distance":0,"transit":false,"is_transit":false,"station_name":"Bekasi"},{"time":4,"is_transit":false,"station_name":"Kranji","station_id":"KRI","i_lat":-6.224515,"line":1,"transit":false,"distance":2520,"i_long":106.977657},{"i_lat":-6.219053,"transit":false,"i_long":106.951283,"line":1,"station_name":"Cakung","time":3,"distance":3097,"station_id":"CUK","is_transit":false},{"i_lat":-6.217455,"station_name":"Klenderbaru","station_id":"KLDB","is_transit":false,"line":1,"transit":false,"i_long":106.939679,"time":8,"distance":1385},{"i_long":106.922662,"time":1,"station_id":"BUA","is_transit":false,"distance":1305,"line":1,"station_name":"Buaran","transit":false,"i_lat":-6.215568},{"transit":false,"distance":3100,"is_transit":false,"time":2,"station_id":"KLD","i_lat":-6.2135,"i_long":106.899548,"line":1,"station_name":"Klender"},{"station_name":"Jatinegara","transit":true,"time":3,"i_long":106.86807400000001,"station_id":"JNG","i_lat":-6.215091,"is_transit":true,"line":1,"distance":3395},{"line":11,"i_long":106.861737,"distance":1236,"time":2,"station_id":"POK","is_transit":false,"transit":false,"station_name":"Pondok Jati","i_lat":-6.209188},{"distance":1829,"line":11,"is_transit":false,"station_name":"Kramat","transit":false,"station_id":"KMT","i_long":106.855437,"time":2,"i_lat":-6.193792},{"line":11,"transit":false,"station_name":"Gang Sentiong","is_transit":false,"time":1,"i_lat":-6.185975,"i_long":106.850107,"distance":973,"station_id":"GST"},{"line":11,"station_name":"Pasar Senen","is_transit":false,"station_id":"PSE","distance":1567,"time":8,"i_long":106.84368,"transit":false,"i_lat":-6.174784},{"time":4,"distance":1436,"station_id":"KMO","station_name":"Kemayoran","i_long":106.839204,"is_transit":false,"transit":false,"i_lat":-6.161728,"line":11},{"station_id":"RJW","line":11,"i_lat":-6.14505,"is_transit":false,"station_name":"Rajawali","time":5,"i_long":106.836569,"transit":false,"distance":1901}],[{"line":1,"transit":false,"i_lat":-6.236616,"station_name":"Bekasi","distance":0,"time":0,"station_id":"BKS","is_transit":false,"i_long":106.997013},{"time":4,"distance":2520,"transit":false,"line":1,"station_id":"KRI","i_lat":-6.224515,"station_name":"Kranji","is_transit":false,"i_long":106.977657},{"time":3,"i_lat":-6.219053,"line":1,"distance":3097,"is_transit":false,"transit":false,"i_long":106.951283,"station_name":"Cakung","station_id":"CUK"},{"transit":false,"distance":1385,"station_id":"KLDB","time":8,"station_name":"Klenderbaru","i_lat":-6.217455,"is_transit":false,"line":1,"i_long":106.939679},{"line":1,"distance":1305,"station_name":"Buaran","i_long":106.922662,"time":1,"i_lat":-6.215568,"station_id":"BUA","is_transit":false,"transit":false},{"is_transit":false,"distance":3100,"transit":false,"time":2,"i_long":106.899548,"station_id":"KLD","line":1,"i_lat":-6.2135,"station_name":"Klender"},{"line":1,"time":3,"transit":false,"i_lat":-6.215091,"is_transit":false,"i_long":106.86807400000001,"distance":3395,"station_id":"JNG","station_name":"Jatinegara"},{"line":1,"station_id":"MTR","distance":1377,"i_lat":-6.212485,"transit":false,"is_transit":false,"time":2,"station_name":"Matraman","i_long":106.858896},{"station_name":"Manggarai","i_lat":-6.209883,"station_id":"MRI","is_transit":false,"i_long":106.84912,"line":2,"time":2,"distance":1275,"transit":false},{"transit":false,"time":4,"line":1,"station_id":"SUD","i_long":106.822649,"is_transit":false,"i_lat":-6.202263,"station_name":"Sudirman","distance":3186},{"is_transit":false,"i_long":106.819881,"distance":280,"transit":false,"i_lat":-6.201433,"line":1,"station_name":"Sudirman Baru","station_id":"SUDB","time":1},{"i_lat":-6.20132,"station_id":"KAT","is_transit":false,"station_name":"Karet","i_long":106.816351,"transit":false,"time":1,"distance":471,"line":1},{"station_id":"THB","i_lat":-6.185545,"i_long":106.811091,"line":1,"time":5,"transit":false,"station_name":"Tanah Abang","is_transit":false,"distance":2029},{"is_transit":false,"i_lat":-6.155215,"line":1,"i_long":106.800832,"time":8,"station_name":"Duri","transit":false,"station_id":"DU","distance":3632},{"line":1,"is_transit":false,"station_id":"AK","transit":false,"station_name":"Angke","time":4,"i_lat":-6.144674,"i_long":106.79867,"distance":1230},{"is_transit":true,"distance":4102,"station_name":"Kampung Bandan","station_id":"KPB","time":9,"i_lat":-6.132549,"i_long":106.826365,"line":4,"transit":true},{"distance":1444,"i_lat":-6.14505,"line":11,"is_transit":false,"transit":false,"i_long":106.836569,"time":3,"station_id":"RJW","station_name":"Rajawali"}],[{"time":0,"distance":0,"station_id":"BKS","i_long":106.997013,"i_lat":-6.236616,"station_name":"Bekasi","line":1,"transit":false,"is_transit":false},{"station_id":"KRI","transit":false,"is_transit":false,"i_lat":-6.224515,"line":1,"distance":2520,"i_long":106.977657,"station_name":"Kranji","time":4},{"station_id":"CUK","i_long":106.951283,"station_name":"Cakung","is_transit":false,"line":1,"time":3,"distance":3097,"transit":false,"i_lat":-6.219053},{"i_long":106.939679,"is_transit":false,"time":8,"transit":false,"i_lat":-6.217455,"station_id":"KLDB","station_name":"Klenderbaru","line":1,"distance":1385},{"i_long":106.922662,"station_name":"Buaran","transit":false,"distance":1305,"is_transit":false,"station_id":"BUA","time":1,"i_lat":-6.215568,"line":1},{"i_lat":-6.2135,"transit":false,"is_transit":false,"line":1,"station_name":"Klender","i_long":106.899548,"time":2,"distance":3100,"station_id":"KLD"},{"station_id":"JNG","station_name":"Jatinegara","transit":false,"line":1,"is_transit":false,"time":3,"i_lat":-6.215091,"i_long":106.86807400000001,"distance":3395},{"station_name":"Matraman","i_long":106.858896,"time":2,"is_transit":false,"transit":false,"distance":1377,"station_id":"MTR","i_lat":-6.212485,"line":1},{"is_transit":true,"i_lat":-6.209883,"station_id":"MRI","i_long":106.84912,"line":2,"transit":true,"station_name":"Manggarai","distance":1275,"time":2},{"station_id":"CKI","distance":1590,"line":2,"station_name":"Cikini","i_lat":-6.198556,"i_long":106.840169,"is_transit":false,"transit":false,"time":4},{"station_id":"GDD","transit":false,"i_long":106.832183,"distance":1750,"time":3,"station_name":"Gondangdia","is_transit":false,"line":2,"i_lat":-6.186295},{"station_id":"JUA","i_lat":-6.166716,"line":2,"i_long":106.828284,"station_name":"Juanda","time":4,"is_transit":false,"transit":false,"distance":2015},{"i_long":106.827103,"line":2,"transit":false,"station_name":"Sawah Besar","is_transit":false,"distance":1149,"station_id":"SW","time":2,"i_lat":-6.160725},{"time":2,"station_name":"Manggabesar","station_id":"MGB","is_transit":false,"i_lat":-6.149769,"i_long":106.82482,"line":2,"distance":906,"transit":false},{"time":2,"transit":false,"is_transit":false,"i_lat":-6.141205,"station_name":"Jayakarta","i_long":106.820901,"station_id":"JAY","distance":1080,"line":2},{"time":4,"distance":1264,"i_long":106.812439,"line":2,"transit":true,"station_id":"JAKK","station_name":"Jakarta Kota","i_lat":-6.137569,"is_transit":true},{"time":3,"i_long":106.826365,"distance":1364,"station_id":"KPB","is_transit":true,"i_lat":-6.132549,"line":4,"transit":true,"station_name":"Kampung Bandan"},{"distance":1444,"station_id":"RJW","i_lat":-6.14505,"transit":false,"time":3,"line":11,"station_name":"Rajawali","is_transit":false,"i_long":106.836569}]]}