{"data":[[{"station_name":"Bekasi","distance":0,"is_transit":false,"time":0,"i_long":106.997013,"station_id":"BKS","i_lat":-6.236616,"transit":false,"line":1},{"transit":false,"station_id":"KRI","line":1,"station_name":"Kranji","distance":2520,"is_transit":false,"i_lat":-6.224515,"time":4,"i_long":106.977657},{"line":1,"station_id":"CUK","station_name":"Cakung","i_long":106.951283,"transit":false,"distance":3097,"time":3,"i_lat":-6.219053,"is_transit":false},{"is_transit":false,"station_id":"KLDB","station_name":"Klenderbaru","line":1,"i_long":106.939679,"time":8,"i_lat":-6.217455,"transit":false,"distance":1385},{"station_name":"Buaran","is_transit":false,"line":1,"distance":1305,"transit":false,"i_long":106.922662,"i_lat":-6.215568,"time":1,"station_id":"BUA"},{"i_long":106.899548,"i_lat":-6.2135,"station_name":"Klender","station_id":"KLD","line":1,"time":2,"distance":3100,"is_transit":false,"transit":false},{"distance":3395,"i_lat":-6.215091,"i_long":106.86807400000001,"line":1,"transit":false,"is_transit":false,"station_id":"JNG","time":3,"station_name":"Jatinegara"},{"i_lat":-6.212485,"time":2,"i_long":106.858896,"transit":false,"distance":1377,"line":1,"station_name":"Matraman","station_id":"MTR","is_transit":false},{"i_lat":-6.209883,"station_id":"MRI","transit":true,"line":2,"station_name":"Manggarai","distance":1275,"is_transit":true,"time":2,"i_long":106.84912},{"line":2,"transit":false,"station_id":"TEB","is_transit":false,"i_lat":-6.226659,"i_long":106.857948,"station_name":"Tebet","time":4,"distance":2610},{"time":2,"station_name":"Cawang","i_long":106.856607,"is_transit":false,"station_id":"CW","transit":false,"distance":1230,"line":2,"i_lat":-6.242512},{"transit":false,"time":3,"station_id":"DRN","station_name":"Duren Kalibata","line":2,"distance":1546,"is_transit":false,"i_long":106.85449,"i_lat":-6.255332},{"i_lat":-6.263214,"line":2,"is_transit":false,"i_long":106.851577,"station_id":"PSMB","distance":824,"time":2,"transit":false,"station_name":"Pasar Minggu Baru"},{"time":2,"i_long":106.843999,"line":2,"transit":false,"i_lat":-6.2842400000000005,"distance":2380,"is_transit":false,"station_id":"PSM","station_name":"Pasar Minggu"},{"station_id":"TNT","distance":2820,"time":4,"i_lat":-6.3080680000000005,"i_long":106.838896,"is_transit":false,"transit":false,"line":2,"station_name":"Tanjung Barat"},{"line":2,"is_transit":false,"time":3,"i_lat":-6.330363,"transit":false,"station_name":"Lenteng Agung","station_id":"LNA","distance":2671,"i_long":106.832616},{"line":2,"station_id":"UP","time":2,"distance":1029,"is_transit":false,"i_long":106.834175,"station_name":"Univ. Pancasila","i_lat":-6.339291,"transit":false},{"station_name":"Univ. Indonesia","i_lat":-6.360749,"time":3,"i_long":106.831474,"line":2,"distance":2264,"station_id":"UI","is_transit":false,"transit":false},{"i_long":106.831114,"transit":false,"station_name":"Pondok Cina","i_lat":-6.369073,"distance":1109,"line":2,"station_id":"POC","time":2,"is_transit":false},{"transit":false,"station_id":"DPB","distance":2727,"i_lat":-6.391065,"i_long":106.819451,"line":2,"time":4,"is_transit":false,"station_name":"Depokbaru"},{"station_id":"DP","i_long":106.816926,"i_lat":-6.405256,"transit":false,"station_name":"Depok","distance":1584,"time":3,"is_transit":false,"line":2},{"is_transit":false,"i_lat":-6.448811,"distance":5084,"time":6,"transit":false,"station_name":"Citayam","station_id":"CTA","i_long":106.800298,"line":2},{"line":2,"is_transit":false,"i_lat":-6.493243,"i_long":106.792719,"station_id":"BJD","distance":5197,"time":5,"station_name":"Bojonggede","transit":false}],[{"station_name":"Bekasi","distance":0,"i_long":106.997013,"transit":false,"is_transit":false,"time":0,"i_lat":-6.236616,"line":1,"station_id":"BKS"},{"station_name":"Kranji","i_long":106.977657,"distance":2520,"is_transit":false,"line":1,"station_id":"KRI","transit":false,"i_lat":-6.224515,"time":4},{"time":3,"distance":3097,"i_lat":-6.219053,"is_transit":false,"i_long":106.951283,"transit":false,"line":1,"station_name":"Cakung","station_id":"CUK"},{"is_transit":false,"station_id":"KLDB","distance":1385,"transit":false,"i_lat":-6.217455,"time":8,"station_name":"Klenderbaru","i_long":106.939679,"line":1},{"i_lat":-6.215568,"station_name":"Buaran","transit":false,"is_transit":false,"time":1,"i_long":106.922662,"station_id":"BUA","distance":1305,"line":1},{"transit":false,"time":2,"distance":3100,"line":1,"station_name":"Klender","station_id":"KLD","i_long":106.899548,"i_lat":-6.2135,"is_transit":false},{"line":1,"distance":3395,"transit":true,"i_lat":-6.215091,"i_long":106.86807400000001,"time":3,"station_name":"Jatinegara","station_id":"JNG","is_transit":true},{"station_id":"POK","i_long":106.861737,"i_lat":-6.209188,"station_name":"Pondok Jati","is_transit":false,"transit":false,"line":11,"distance":1236,"time":2},{"station_name":"Kramat","time":2,"line":11,"distance":1829,"i_long":106.855437,"station_id":"KMT","is_transit":false,"transit":false,"i_lat":-6.193792},{"is_transit":false,"distance":973,"i_lat":-6.185975,"transit":false,"station_name":"Gang Sentiong","time":1,"line":11,"station_id":"GST","i_long":106.850107},{"transit":false,"line":11,"station_name":"Pasar Senen","time":8,"i_lat":-6.174784,"station_id":"PSE","is_transit":false,"distance":1567,"i_long":106.84368},{"i_long":106.839204,"station_id":"KMO","distance":1436,"is_transit":false,"i_lat":-6.161728,"station_name":"Kemayoran","line":11,"time":4,"transit":false},{"i_long":106.836569,"i_lat":-6.14505,"station_id":"RJW","station_name":"Rajawali","line":11,"distance":1901,"is_transit":false,"transit":false,"time":5},{"distance":1444,"station_name":"Kampung Bandan","transit":true,"time":3,"station_id":"KPB","is_transit":true,"i_lat":-6.132549,"line":4,"i_long":106.826365},{"transit":false,"station_id":"AK","i_lat":-6.144674,"station_name":"Angke","distance":4102,"time":9,"line":1,"is_transit":false,"i_long":106.79867},{"station_name":"Duri","station_id":"DU","transit":false,"i_lat":-6.155215,"line":1,"i_long":106.800832,"distance":1230,"time":4,"is_transit":false},{"is_transit":false,"i_long":106.811091,"station_name":"Tanah Abang","transit":false,"line":1,"distance":3632,"station_id":"THB","i_lat":-6.185545,"time":8},{"line":1,"transit":false,"distance":2029,"time":5,"station_id":"KAT","i_long":106.816351,"station_name":"Karet","i_lat":-6.20132,"is_transit":false},{"station_id":"SUDB","transit":false,"is_transit":false,"station_name":"Sudirman Baru","i_lat":-6.201433,"line":1,"distance":471,"time":1,"i_long":106.819881},{"i_lat":-6.202263,"i_long":106.822649,"time":1,"distance":280,"is_transit":false,"station_id":"SUD","station_name":"Sudirman","line":1,"transit":false},{"time":4,"i_lat":-6.209883,"is_transit":true,"station_id":"MRI","station_name":"Manggarai","i_long":106.84912,"distance":3186,"transit":true,"line":2},{"distance":2610,"is_transit":false,"i_long":106.857948,"time":4,"station_id":"TEB","i_lat":-6.226659,"transit":false,"line":2,"station_name":"Tebet"},{"i_lat":-6.242512,"line":2,"station_name":"Cawang","time":2,"is_transit":false,"transit":false,"i_long":106.856607,"distance":1230,"station_id":"CW"},{"station_name":"Duren Kalibata","time":3,"transit":false,"i_lat":-6.255332,"i_long":106.85449,"station_id":"DRN","distance":1546,"is_transit":false,"line":2},{"station_id":"PSMB","is_transit":false,"i_lat":-6.263214,"time":2,"i_long":106.851577,"line":2,"transit":false,"station_name":"Pasar Minggu Baru","distance":824},{"line":2,"i_long":106.843999,"station_name":"Pasar Minggu","time":2,"i_lat":-6.2842400000000005,"distance":2380,"is_transit":false,"station_id":"PSM","transit":false},{"distance":2820,"station_id":"TNT","station_name":"Tanjung Barat","time":4,"line":2,"i_long":106.838896,"transit":false,"i_lat":-6.3080680000000005,"is_transit":false},{"station_name":"Lenteng Agung","time":3,"distance":2671,"station_id":"LNA","is_transit":false,"i_lat":-6.330363,"transit":false,"line":2,"i_long":106.832616},{"station_id":"UP","distance":1029,"transit":false,"is_transit":false,"i_lat":-6.339291,"i_long":106.834175,"time":2,"station_name":"Univ. Pancasila","line":2},{"is_transit":false,"station_id":"UI","distance":2264,"line":2,"i_long":106.831474,"i_lat":-6.360749,"transit":false,"time":3,"station_name":"Univ. Indonesia"},{"time":2,"i_lat":-6.369073,"transit":false,"i_long":106.831114,"line":2,"station_id":"POC","station_name":"Pondok Cina","distance":1109,"is_transit":false},{"distance":2727,"station_name":"Depokbaru","is_transit":false,"i_long":106.819451,"transit":false,"time":4,"line":2,"station_id":"DPB","i_lat":-6.391065},{"i_long":106.816926,"distance":1584,"time":3,"station_id":"DP","transit":false,"station_name":"Depok","i_lat":-6.405256,"line":2,"is_transit":false},{"distance":5084,"i_long":106.800298,"station_id":"CTA","time":6,"line":2,"transit":false,"is_transit":false,"station_name":"Citayam","i_lat":-6.448811},{"transit":false,"station_id":"BJD","station_name":"Bojonggede","is_transit":false,"time":5,"i_long":106.792719,"distance":5197,"line":2,"i_lat":-6.493243}],[{"is_transit":false,"time":0,"station_name":"Bekasi","station_id":"BKS","i_lat":-6.236616,"i_long":106.997013,"line":1,"transit":false,"distance":0},{"is_transit":false,"station_id":"KRI","i_lat":-6.224515,"station_name":"Kranji","transit":false,"line":1,"distance":2520,"time":4,"i_long":106.977657},{"is_transit":false,"time":3,"station_name":"Cakung","i_long":106.951283,"transit":false,"distance":3097,"line":1,"station_id":"CUK","i_lat":-6.219053},{"i_lat":-6.217455,"line":1,"station_id":"KLDB","transit":false,"is_transit":false,"station_name":"Klenderbaru","time":8,"distance":1385,"i_long":106.939679},{"station_name":"Buaran","i_long":106.922662,"is_transit":false,"distance":1305,"time":1,"i_lat":-6.215568,"line":1,"transit":false,"station_id":"BUA"},{"line":1,"time":2,"i_lat":-6.2135,"i_long":106.899548,"distance":3100,"is_transit":false,"station_id":"KLD","transit":false,"station_name":"Klender"},{"distance":3395,"time":3,"i_long":106.86807400000001,"station_name":"Jatinegara","i_lat":-6.215091,"is_transit":true,"line":1,"station_id":"JNG","transit":true},{"transit":false,"station_name":"Pondok Jati","station_id":"POK","line":11,"i_long":106.861737,"is_transit":false,"time":2,"i_lat":-6.209188,"distance":1236},{"transit":false,"is_transit":false,"station_id":"KMT","i_lat":-6.193792,"i_long":106.855437,"line":11,"distance":1829,"station_name":"Kramat","time":2},{"i_long":106.850107,"time":1,"transit":false,"distance":973,"i_lat":-6.185975,"station_id":"GST","station_name":"Gang Sentiong","line":11,"is_transit":false},{"line":11,"time":8,"i_lat":-6.174784,"i_long":106.84368,"station_name":"Pasar Senen","transit":false,"station_id":"PSE","distance":1567,"is_transit":false},{"station_id":"KMO","station_name":"Kemayoran","is_transit":false,"i_lat":-6.161728,"line":11,"transit":false,"distance":1436,"time":4,"i_long":106.839204},{"transit":false,"station_name":"Rajawali","time":5,"line":11,"is_transit":false,"station_id":"RJW","i_lat":-6.14505,"distance":1901,"i_long":106.836569},{"i_lat":-6.132549,"i_long":106.826365,"is_transit":true,"station_name":"Kampung Bandan","distance":1444,"time":3,"transit":true,"station_id":"KPB","line":4},{"station_name":"Jakarta Kota","line":2,"i_long":106.812439,"is_transit":true,"time":3,"station_id":"JAKK","distance":1364,"transit":true,"i_lat":-6.137569},{"i_long":106.820901,"station_name":"Jayakarta","transit":false,"distance":1264,"i_lat":-6.141205,"is_transit":false,"time":4,"line":2,"station_id":"JAY"},{"station_name":"Manggabesar","distance":1080,"line":2,"is_transit":false,"transit":false,"station_id":"MGB","time":2,"i_long":106.82482,"i_lat":-6.149769},{"station_name":"Sawah Besar","time":2,"i_long":106.827103,"line":2,"transit":false,"station_id":"SW","distance":906,"i_lat":-6.160725,"is_transit":false},{"distance":1149,"station_id":"JUA","line":2,"transit":false,"i_long":106.828284,"i_lat":-6.166716,"time":2,"station_name":"Juanda","is_transit":false},{"station_id":"GDD","station_name":"Gondangdia","transit":false,"i_lat":-6.186295,"line":2,"time":4,"i_long":106.832183,"is_transit":false,"distance":2015},{"distance":1750,"time":3,"i_long":106.840169,"station_id":"CKI","line":2,"is_transit":false,"station_name":"Cikini","i_lat":-6.198556,"transit":false},{"line":2,"i_long":106.84912,"distance":1590,"station_name":"Manggarai","transit":false,"station_id":"MRI","is_transit":false,"time":4,"i_lat":-6.209883},{"station_id":"TEB","transit":false,"is_transit":false,"distance":2610,"i_lat":-6.226659,"i_long":106.857948,"time":4,"line":2,"station_name":"Tebet"},{"line":2,"i_lat":-6.242512,"station_id":"CW","transit":false,"station_name":"Cawang","is_transit":false,"time":2,"i_long":106.856607,"distance":1230},{"station_id":"DRN","time":3,"station_name":"Duren Kalibata","i_long":106.85449,"line":2,"transit":false,"is_transit":false,"i_lat":-6.255332,"distance":1546},{"station_id":"PSMB","transit":false,"station_name":"Pasar Minggu Baru","i_long":106.851577,"line":2,"time":2,"i_lat":-6.263214,"is_transit":false,"distance":824},{"transit":false,"station_name":"Pasar Minggu","time":2,"station_id":"PSM","i_lat":-6.2842400000000005,"line":2,"distance":2380,"is_transit":false,"i_long":106.843999},{"station_name":"Tanjung Barat","is_transit":false,"transit":false,"time":4,"i_long":106.838896,"distance":2820,"i_lat":-6.3080680000000005,"line":2,"station_id":"TNT"},{"distance":2671,"i_lat":-6.330363,"time":3,"station_name":"Lenteng Agung","transit":false,"line":2,"station_id":"LNA","i_long":106.832616,"is_transit":false},{"station_name":"Univ. Pancasila","is_transit":false,"i_lat":-6.339291,"station_id":"UP","distance":1029,"time":2,"line":2,"i_long":106.834175,"transit":false},{"distance":2264,"is_transit":false,"i_lat":-6.360749,"line":2,"station_id":"UI","station_name":"Univ. Indonesia","time":3,"i_long":106.831474,"transit":false},{"distance":1109,"station_name":"Pondok Cina","time":2,"i_lat":-6.369073,"line":2,"is_transit":false,"transit":false,"station_id":"POC","i_long":106.831114},{"station_id":"DPB","time":4,"i_long":106.819451,"line":2,"distance":2727,"transit":false,"is_transit":false,"station_name":"Depokbaru","i_lat":-6.391065},{"distance":1584,"transit":false,"line":2,"station_name":"Depok","time":3,"i_lat":-6.405256,"i_long":106.816926,"station_id":"DP","is_transit":false},{"line":2,"time":6,"transit":false,"station_id":"CTA","station_name":"Citayam","distance":5084,"i_lat":-6.448811,"is_transit":false,"i_long":106.800298},{"station_name":"Bojonggede","transit":false,"is_transit":false,"time":5,"i_lat":-6.493243,"line":2,"i_long":106.792719,"distance":5197,"station_id":"BJD"}]]}