{"data":[[{"distance":0,"i_long":106.997013,"time":0,"transit":false,"station_id":"BKS","line":1,"station_name":"Bekasi","i_lat":-6.236616,"is_transit":false},{"is_transit":false,"station_name":"Kranji","i_lat":-6.224515,"distance":2520,"i_long":106.977657,"time":4,"station_id":"KRI","line":1,"transit":false},{"is_transit":false,"time":3,"i_long":106.951283,"station_name":"Cakung","line":1,"transit":false,"i_lat":-6.219053,"distance":3097,"station_id":"CUK"},{"time":8,"is_transit":false,"station_name":"Klenderbaru","distance":1385,"i_long":106.939679,"station_id":"KLDB","line":1,"i_lat":-6.217455,"transit":false},{"line":1,"transit":false,"time":1,"distance":1305,"station_name":"Buaran","is_transit":false,"station_id":"BUA","i_long":106.922662,"i_lat":-6.215568},{"distance":3100,"station_id":"KLD","i_lat":-6.2135,"transit":false,"is_transit":false,"time":2,"line":1,"station_name":"Klender","i_long":106.899548},{"station_name":"Jatinegara","line":1,"distance":3395,"i_long":106.86807400000001,"transit":true,"station_id":"JNG","time":3,"i_lat":-6.215091,"is_transit":true},{"distance":1236,"station_name":"Pondok Jati","station_id":"POK","transit":false,"is_transit":false,"time":2,"i_lat":-6.209188,"line":11,"i_long":106.861737}],[{"station_name":"Bekasi","line":1,"i_lat":-6.236616,"transit":false,"station_id":"BKS","is_transit":false,"time":0,"distance":0,"i_long":106.997013},{"i_long":106.977657,"is_transit":false,"time":4,"transit":false,"line":1,"i_lat":-6.224515,"station_name":"Kranji","distance":2520,"station_id":"KRI"},{"station_id":"CUK","is_transit":false,"i_lat":-6.219053,"transit":false,"station_name":"Cakung","i_long":106.951283,"distance":3097,"time":3,"line":1},{"station_id":"KLDB","transit":false,"line":1,"i_lat":-6.217455,"is_transit":false,"time":8,"distance":1385,"i_long":106.939679,"station_name":"Klenderbaru"},{"time":1,"is_transit":false,"station_name":"Buaran","station_id":"BUA","transit":false,"line":1,"distance":1305,"i_lat":-6.215568,"i_long":106.922662},{"station_name":"Klender","transit":false,"is_transit":false,"distance":3100,"line":1,"i_lat":-6.2135,"time":2,"station_id":"KLD","i_long":106.899548},{"distance":3395,"transit":false,"is_transit":false,"i_long":106.86807400000001,"station_name":"Jatinegara","time":3,"station_id":"JNG","i_lat":-6.215091,"line":1},{"time":2,"i_long":106.858896,"station_name":"Matraman","line":1,"station_id":"MTR","is_transit":false,"transit":false,"i_lat":-6.212485,"distance":1377},{"i_lat":-6.209883,"is_transit":false,"station_id":"MRI","time":2,"distance":1275,"transit":false,"station_name":"Manggarai","i_long":106.84912,"line":2},{"transit":false,"station_name":"Sudirman","is_transit":false,"i_lat":-6.202263,"time":4,"distance":3186,"i_long":106.822649,"station_id":"SUD","line":1},{"transit":false,"distance":280,"station_id":"SUDB","station_name":"Sudirman Baru","is_transit":false,"i_lat":-6.201433,"i_long":106.819881,"line":1,"time":1},{"i_long":106.816351,"transit":false,"station_name":"Karet","line":1,"station_id":"KAT","time":1,"is_transit":false,"distance":471,"i_lat":-6.20132},{"is_transit":false,"station_name":"Tanah Abang","line":1,"i_lat":-6.185545,"i_long":106.811091,"time":5,"station_id":"THB","distance":2029,"transit":false},{"line":1,"transit":false,"time":8,"i_lat":-6.155215,"is_transit":false,"i_long":106.800832,"distance":3632,"station_id":"DU","station_name":"Duri"},{"line":1,"station_name":"Angke","transit":false,"station_id":"AK","is_transit":false,"i_lat":-6.144674,"time":4,"i_long":106.79867,"distance":1230},{"is_transit":true,"transit":true,"station_name":"Kampung Bandan","distance":4102,"line":4,"i_lat":-6.132549,"station_id":"KPB","i_long":106.826365,"time":9},{"time":3,"station_name":"Rajawali","station_id":"RJW","is_transit":false,"i_long":106.836569,"transit":false,"distance":1444,"line":11,"i_lat":-6.14505},{"line":11,"transit":false,"i_lat":-6.161728,"time":5,"distance":1901,"station_id":"KMO","is_transit":false,"i_long":106.839204,"station_name":"Kemayoran"},{"i_long":106.84368,"line":11,"is_transit":false,"transit":false,"time":4,"i_lat":-6.174784,"station_id":"PSE","station_name":"Pasar Senen","distance":1436},{"is_transit":false,"distance":1567,"station_name":"Gang Sentiong","i_long":106.850107,"station_id":"GST","line":11,"time":8,"i_lat":-6.185975,"transit":false},{"station_name":"Kramat","transit":false,"is_transit":false,"station_id":"KMT","time":1,"i_lat":-6.193792,"distance":973,"line":11,"i_long":106.855437},{"is_transit":false,"station_name":"Pondok Jati","distance":1829,"line":11,"time":2,"transit":false,"station_id":"POK","i_lat":-6.209188,"i_long":106.861737}],[{"i_lat":-6.236616,"transit":false,"line":1,"i_long":106.997013,"time":0,"station_name":"Bekasi","station_id":"BKS","is_transit":false,"distance":0},{"distance":2520,"i_long":106.977657,"is_transit":false,"line":1,"time":4,"station_id":"KRI","i_lat":-6.224515,"transit":false,"station_name":"Kranji"},{"station_name":"Cakung","i_long":106.951283,"transit":false,"time":3,"i_lat":-6.219053,"line":1,"distance":3097,"station_id":"CUK","is_transit":false},{"i_long":106.939679,"transit":false,"i_lat":-6.217455,"line":1,"time":8,"station_name":"Klenderbaru","is_transit":false,"station_id":"KLDB","distance":1385},{"distance":1305,"time":1,"i_long":106.922662,"station_name":"Buaran","transit":false,"station_id":"BUA","i_lat":-6.215568,"is_transit":false,"line":1},{"i_long":106.899548,"line":1,"station_name":"Klender","transit":false,"is_transit":false,"station_id":"KLD","distance":3100,"time":2,"i_lat":-6.2135},{"transit":false,"i_lat":-6.215091,"line":1,"i_long":106.86807400000001,"station_name":"Jatinegara","time":3,"distance":3395,"station_id":"JNG","is_transit":false},{"time":2,"transit":false,"station_name":"Matraman","is_transit":false,"i_lat":-6.212485,"distance":1377,"i_long":106.858896,"line":1,"station_id":"MTR"},{"time":2,"distance":1275,"i_lat":-6.209883,"line":2,"is_transit":true,"transit":true,"station_id":"MRI","station_name":"Manggarai","i_long":106.84912},{"transit":false,"station_name":"Cikini","is_transit":false,"time":4,"station_id":"CKI","distance":1590,"i_lat":-6.198556,"i_long":106.840169,"line":2},{"time":3,"line":2,"i_long":106.832183,"i_lat":-6.186295,"station_id":"GDD","distance":1750,"transit":false,"is_transit":false,"station_name":"Gondangdia"},{"station_name":"Juanda","transit":false,"station_id":"JUA","time":4,"is_transit":false,"i_lat":-6.166716,"i_long":106.828284,"distance":2015,"line":2},{"transit":false,"distance":1149,"line":2,"i_lat":-6.160725,"station_id":"SW","is_transit":false,"time":2,"i_long":106.827103,"station_name":"Sawah Besar"},{"is_transit":false,"transit":false,"station_id":"MGB","i_long":106.82482,"station_name":"Manggabesar","time":2,"i_lat":-6.149769,"distance":906,"line":2},{"station_name":"Jayakarta","transit":false,"time":2,"i_long":106.820901,"is_transit":false,"station_id":"JAY","distance":1080,"i_lat":-6.141205,"line":2},{"line":2,"station_id":"JAKK","time":4,"station_name":"Jakarta Kota","is_transit":true,"distance":1264,"i_lat":-6.137569,"transit":true,"i_long":106.812439},{"i_long":106.826365,"is_transit":true,"station_name":"Kampung Bandan","i_lat":-6.132549,"transit":true,"line":4,"distance":1364,"station_id":"KPB","time":3},{"station_name":"Rajawali","is_transit":false,"i_long":106.836569,"line":11,"distance":1444,"i_lat":-6.14505,"transit":false,"time":3,"station_id":"RJW"},{"station_id":"KMO","is_transit":false,"line":11,"i_long":106.839204,"transit":false,"distance":1901,"time":5,"i_lat":-6.161728,"station_name":"Kemayoran"},{"is_transit":false,"station_name":"Pasar Senen","time":4,"i_lat":-6.174784,"i_long":106.84368,"transit":false,"distance":1436,"line":11,"station_id":"PSE"},{"transit":false,"station_id":"GST","station_name":"Gang Sentiong","time":8,"i_long":106.850107,"is_transit":false,"line":11,"distance":1567,"i_lat":-6.185975},{"i_lat":-6.193792,"i_long":106.855437,"distance":973,"time":1,"transit":false,"station_id":"KMT","line":11,"station_name":"Kramat","is_transit":false},{"i_lat":-6.209188,"transit":false,"line":11,"is_transit":false,"station_id":"POK","station_name":"Pondok Jati","distance":1829,"time":2,"i_long":106.861737}]]}