{"data":[[{"station_name":"Bekasi","distance":0,"time":0,"station_id":"BKS","is_transit":false,"transit":false,"i_lat":-6.236616,"line":1,"i_long":106.997013},{"i_lat":-6.224515,"i_long":106.977657,"time":4,"transit":false,"station_name":"Kranji","station_id":"KRI","distance":2520,"line":1,"is_transit":false},{"distance":3097,"is_transit":false,"time":3,"transit":false,"i_lat":-6.219053,"station_id":"CUK","i_long":106.951283,"station_name":"Cakung","line":1},{"station_id":"KLDB","i_long":106.939679,"station_name":"Klenderbaru","i_lat":-6.217455,"is_transit":false,"time":8,"distance":1385,"transit":false,"line":1},{"station_name":"Buaran","time":1,"distance":1305,"i_lat":-6.215568,"i_long":106.922662,"line":1,"transit":false,"station_id":"BUA","is_transit":false},{"station_id":"KLD","transit":false,"i_long":106.899548,"distance":3100,"time":2,"i_lat":-6.2135,"line":1,"station_name":"Klender","is_transit":false},{"i_lat":-6.215091,"distance":3395,"time":3,"station_name":"Jatinegara","transit":false,"i_long":106.86807400000001,"line":1,"is_transit":false,"station_id":"JNG"},{"time":2,"is_transit":false,"i_long":106.858896,"distance":1377,"station_name":"Matraman","transit":false,"station_id":"MTR","i_lat":-6.212485,"line":1},{"distance":1275,"station_id":"MRI","transit":true,"line":2,"station_name":"Manggarai","is_transit":true,"time":2,"i_lat":-6.209883,"i_long":106.84912},{"is_transit":false,"distance":2610,"time":4,"station_name":"Tebet","i_lat":-6.226659,"i_long":106.857948,"station_id":"TEB","line":2,"transit":false},{"station_name":"Cawang","time":2,"is_transit":false,"i_long":106.856607,"i_lat":-6.242512,"line":2,"station_id":"CW","transit":false,"distance":1230},{"distance":1546,"station_id":"DRN","station_name":"Duren Kalibata","line":2,"i_lat":-6.255332,"is_transit":false,"transit":false,"i_long":106.85449,"time":3},{"time":2,"i_long":106.851577,"line":2,"i_lat":-6.263214,"is_transit":false,"station_name":"Pasar Minggu Baru","transit":false,"distance":824,"station_id":"PSMB"},{"distance":2380,"station_id":"PSM","transit":false,"i_long":106.843999,"time":2,"line":2,"i_lat":-6.2842400000000005,"is_transit":false,"station_name":"Pasar Minggu"},{"distance":2820,"station_name":"Tanjung Barat","is_transit":false,"i_long":106.838896,"line":2,"station_id":"TNT","transit":false,"i_lat":-6.3080680000000005,"time":4},{"station_id":"LNA","distance":2671,"is_transit":false,"i_long":106.832616,"i_lat":-6.330363,"line":2,"time":3,"station_name":"Lenteng Agung","transit":false},{"distance":1029,"time":2,"station_name":"Univ. Pancasila","i_long":106.834175,"transit":false,"line":2,"i_lat":-6.339291,"is_transit":false,"station_id":"UP"},{"i_lat":-6.360749,"station_id":"UI","time":3,"i_long":106.831474,"is_transit":false,"distance":2264,"line":2,"transit":false,"station_name":"Univ. Indonesia"}],[{"line":1,"is_transit":false,"station_name":"Bekasi","time":0,"i_lat":-6.236616,"distance":0,"station_id":"BKS","transit":false,"i_long":106.997013},{"line":1,"transit":false,"is_transit":false,"station_id":"KRI","i_lat":-6.224515,"distance":2520,"i_long":106.977657,"station_name":"Kranji","time":4},{"line":1,"transit":false,"station_id":"CUK","i_lat":-6.219053,"i_long":106.951283,"is_transit":false,"station_name":"Cakung","time":3,"distance":3097},{"is_transit":false,"transit":false,"station_id":"KLDB","station_name":"Klenderbaru","time":8,"distance":1385,"i_lat":-6.217455,"line":1,"i_long":106.939679},{"i_lat":-6.215568,"is_transit":false,"time":1,"line":1,"i_long":106.922662,"station_id":"BUA","distance":1305,"station_name":"Buaran","transit":false},{"distance":3100,"time":2,"is_transit":false,"i_long":106.899548,"station_name":"Klender","transit":false,"station_id":"KLD","i_lat":-6.2135,"line":1},{"transit":true,"is_transit":true,"i_long":106.86807400000001,"station_name":"Jatinegara","i_lat":-6.215091,"distance":3395,"station_id":"JNG","time":3,"line":1},{"distance":1236,"station_id":"POK","i_lat":-6.209188,"i_long":106.861737,"time":2,"is_transit":false,"transit":false,"station_name":"Pondok Jati","line":11},{"distance":1829,"station_name":"Kramat","i_long":106.855437,"line":11,"time":2,"transit":false,"i_lat":-6.193792,"is_transit":false,"station_id":"KMT"},{"i_long":106.850107,"station_id":"GST","transit":false,"i_lat":-6.185975,"is_transit":false,"line":11,"station_name":"Gang Sentiong","time":1,"distance":973},{"line":11,"distance":1567,"station_id":"PSE","i_lat":-6.174784,"transit":false,"i_long":106.84368,"station_name":"Pasar Senen","is_transit":false,"time":8},{"distance":1436,"station_name":"Kemayoran","i_long":106.839204,"transit":false,"time":4,"station_id":"KMO","is_transit":false,"i_lat":-6.161728,"line":11},{"line":11,"time":5,"station_name":"Rajawali","i_lat":-6.14505,"transit":false,"station_id":"RJW","is_transit":false,"i_long":106.836569,"distance":1901},{"time":3,"i_lat":-6.132549,"i_long":106.826365,"line":4,"is_transit":true,"transit":true,"station_name":"Kampung Bandan","station_id":"KPB","distance":1444},{"i_long":106.79867,"line":1,"station_name":"Angke","transit":false,"station_id":"AK","distance":4102,"i_lat":-6.144674,"is_transit":false,"time":9},{"distance":1230,"i_long":106.800832,"line":1,"is_transit":false,"time":4,"transit":false,"station_id":"DU","i_lat":-6.155215,"station_name":"Duri"},{"station_name":"Tanah Abang","transit":false,"i_long":106.811091,"distance":3632,"is_transit":false,"time":8,"i_lat":-6.185545,"line":1,"station_id":"THB"},{"station_id":"KAT","is_transit":false,"distance":2029,"transit":false,"station_name":"Karet","i_long":106.816351,"line":1,"time":5,"i_lat":-6.20132},{"i_lat":-6.201433,"transit":false,"time":1,"line":1,"i_long":106.819881,"station_id":"SUDB","is_transit":false,"station_name":"Sudirman Baru","distance":471},{"transit":false,"i_long":106.822649,"line":1,"i_lat":-6.202263,"distance":280,"station_name":"Sudirman","station_id":"SUD","time":1,"is_transit":false},{"i_lat":-6.209883,"time":4,"station_name":"Manggarai","line":2,"station_id":"MRI","transit":true,"distance":3186,"i_long":106.84912,"is_transit":true},{"transit":false,"station_id":"TEB","i_long":106.857948,"line":2,"time":4,"i_lat":-6.226659,"station_name":"Tebet","is_transit":false,"distance":2610},{"distance":1230,"is_transit":false,"i_lat":-6.242512,"station_name":"Cawang","time":2,"transit":false,"station_id":"CW","i_long":106.856607,"line":2},{"distance":1546,"i_long":106.85449,"line":2,"is_transit":false,"time":3,"i_lat":-6.255332,"station_name":"Duren Kalibata","transit":false,"station_id":"DRN"},{"i_lat":-6.263214,"i_long":106.851577,"line":2,"station_name":"Pasar Minggu Baru","is_transit":false,"time":2,"station_id":"PSMB","distance":824,"transit":false},{"i_lat":-6.2842400000000005,"station_name":"Pasar Minggu","station_id":"PSM","i_long":106.843999,"line":2,"is_transit":false,"distance":2380,"transit":false,"time":2},{"station_name":"Tanjung Barat","station_id":"TNT","distance":2820,"time":4,"transit":false,"i_lat":-6.3080680000000005,"is_transit":false,"i_long":106.838896,"line":2},{"i_long":106.832616,"distance":2671,"line":2,"transit":false,"is_transit":false,"time":3,"station_id":"LNA","station_name":"Lenteng Agung","i_lat":-6.330363},{"i_long":106.834175,"station_name":"Univ. Pancasila","time":2,"line":2,"station_id":"UP","transit":false,"distance":1029,"is_transit":false,"i_lat":-6.339291},{"i_long":106.831474,"time":3,"station_id":"UI","distance":2264,"transit":false,"i_lat":-6.360749,"is_transit":false,"station_name":"Univ. Indonesia","line":2}],[{"i_lat":-6.236616,"distance":0,"i_long":106.997013,"line":1,"is_transit":false,"station_name":"Bekasi","time":0,"transit":false,"station_id":"BKS"},{"i_lat":-6.224515,"is_transit":false,"transit":false,"i_long":106.977657,"distance":2520,"time":4,"line":1,"station_name":"Kranji","station_id":"KRI"},{"time":3,"line":1,"distance":3097,"is_transit":false,"station_id":"CUK","i_lat":-6.219053,"transit":false,"i_long":106.951283,"station_name":"Cakung"},{"distance":1385,"station_name":"Klenderbaru","transit":false,"is_transit":false,"time":8,"station_id":"KLDB","line":1,"i_long":106.939679,"i_lat":-6.217455},{"is_transit":false,"line":1,"i_lat":-6.215568,"station_name":"Buaran","station_id":"BUA","distance":1305,"transit":false,"time":1,"i_long":106.922662},{"station_name":"Klender","distance":3100,"is_transit":false,"i_long":106.899548,"transit":false,"station_id":"KLD","i_lat":-6.2135,"time":2,"line":1},{"transit":true,"station_name":"Jatinegara","is_transit":true,"i_lat":-6.215091,"station_id":"JNG","i_long":106.86807400000001,"distance":3395,"time":3,"line":1},{"line":11,"time":2,"distance":1236,"i_long":106.861737,"station_id":"POK","transit":false,"i_lat":-6.209188,"station_name":"Pondok Jati","is_transit":false},{"transit":false,"is_transit":false,"station_name":"Kramat","line":11,"i_lat":-6.193792,"distance":1829,"time":2,"station_id":"KMT","i_long":106.855437},{"i_lat":-6.185975,"transit":false,"station_id":"GST","line":11,"station_name":"Gang Sentiong","is_transit":false,"i_long":106.850107,"time":1,"distance":973},{"line":11,"i_lat":-6.174784,"is_transit":false,"distance":1567,"i_long":106.84368,"transit":false,"station_name":"Pasar Senen","station_id":"PSE","time":8},{"transit":false,"distance":1436,"i_long":106.839204,"station_id":"KMO","is_transit":false,"time":4,"station_name":"Kemayoran","i_lat":-6.161728,"line":11},{"i_long":106.836569,"distance":1901,"line":11,"is_transit":false,"station_id":"RJW","time":5,"station_name":"Rajawali","transit":false,"i_lat":-6.14505},{"i_lat":-6.132549,"line":4,"transit":true,"i_long":106.826365,"time":3,"station_id":"KPB","distance":1444,"is_transit":true,"station_name":"Kampung Bandan"},{"station_id":"JAKK","time":3,"i_long":106.812439,"line":2,"i_lat":-6.137569,"distance":1364,"is_transit":true,"station_name":"Jakarta Kota","transit":true},{"transit":false,"station_name":"Jayakarta","is_transit":false,"i_lat":-6.141205,"station_id":"JAY","i_long":106.820901,"line":2,"distance":1264,"time":4},{"is_transit":false,"line":2,"i_long":106.82482,"distance":1080,"station_id":"MGB","station_name":"Manggabesar","time":2,"i_lat":-6.149769,"transit":false},{"station_name":"Sawah Besar","i_lat":-6.160725,"station_id":"SW","distance":906,"line":2,"i_long":106.827103,"transit":false,"is_transit":false,"time":2},{"line":2,"station_id":"JUA","i_long":106.828284,"station_name":"Juanda","time":2,"transit":false,"i_lat":-6.166716,"is_transit":false,"distance":1149},{"distance":2015,"station_name":"Gondangdia","time":4,"transit":false,"station_id":"GDD","is_transit":false,"i_long":106.832183,"line":2,"i_lat":-6.186295},{"i_lat":-6.198556,"station_id":"CKI","i_long":106.840169,"transit":false,"station_name":"Cikini","is_transit":false,"distance":1750,"line":2,"time":3},{"time":4,"distance":1590,"i_lat":-6.209883,"i_long":106.84912,"is_transit":false,"line":2,"station_id":"MRI","transit":false,"station_name":"Manggarai"},{"station_id":"TEB","station_name":"Tebet","distance":2610,"transit":false,"time":4,"line":2,"i_lat":-6.226659,"i_long":106.857948,"is_transit":false},{"is_transit":false,"i_lat":-6.242512,"station_id":"CW","transit":false,"distance":1230,"line":2,"station_name":"Cawang","time":2,"i_long":106.856607},{"line":2,"transit":false,"distance":1546,"time":3,"i_lat":-6.255332,"station_id":"DRN","station_name":"Duren Kalibata","is_transit":false,"i_long":106.85449},{"time":2,"line":2,"is_transit":false,"transit":false,"i_long":106.851577,"i_lat":-6.263214,"distance":824,"station_id":"PSMB","station_name":"Pasar Minggu Baru"},{"time":2,"station_id":"PSM","transit":false,"is_transit":false,"station_name":"Pasar Minggu","line":2,"i_lat":-6.2842400000000005,"i_long":106.843999,"distance":2380},{"i_lat":-6.3080680000000005,"time":4,"line":2,"distance":2820,"station_id":"TNT","transit":false,"station_name":"Tanjung Barat","is_transit":false,"i_long":106.838896},{"i_lat":-6.330363,"line":2,"i_long":106.832616,"time":3,"station_name":"Lenteng Agung","is_transit":false,"transit":false,"station_id":"LNA","distance":2671},{"i_lat":-6.339291,"transit":false,"line":2,"is_transit":false,"i_long":106.834175,"distance":1029,"station_name":"Univ. Pancasila","station_id":"UP","time":2},{"station_id":"UI","time":3,"station_name":"Univ. Indonesia","distance":2264,"is_transit":false,"i_lat":-6.360749,"transit":false,"i_long":106.831474,"line":2}]]}