{"data":[[{"is_transit":false,"station_name":"Bekasi","transit":false,"time":0,"station_id":"BKS","i_lat":-6.236616,"i_long":106.997013,"distance":0,"line":0},{"station_id":"KRI","is_transit":false,"transit":false,"i_long":106.977657,"station_name":"Kranji","i_lat":-6.224515,"line":1,"time":4,"distance":2520},{"i_long":106.951283,"line":0,"transit":false,"station_id":"CUK","time":3,"station_name":"Cakung","distance":3097,"i_lat":-6.219053,"is_transit":false},{"distance":1385,"time":8,"transit":false,"station_name":"Klenderbaru","is_transit":false,"line":1,"i_lat":-6.217455,"i_long":106.939679,"station_id":"KLDB"},{"station_id":"BUA","distance":1305,"station_name":"Buaran","time":1,"transit":false,"is_transit":false,"i_long":106.922662,"line":0,"i_lat":-6.215568},{"i_long":106.899548,"i_lat":-6.2135,"transit":false,"distance":3100,"is_transit":false,"time":2,"station_name":"Klender","line":1,"station_id":"KLD"},{"time":3,"transit":false,"line":0,"i_lat":-6.215091,"i_long":106.86807400000001,"is_transit":true,"station_name":"Jatinegara","distance":3395,"station_id":"JNG"},{"transit":false,"line":1,"station_id":"MTR","distance":1377,"i_long":106.858896,"is_transit":false,"i_lat":-6.212485,"time":2,"station_name":"Matraman"},{"is_transit":true,"i_lat":-6.209883,"i_long":106.84912,"distance":1275,"station_id":"MRI","time":2,"station_name":"Manggarai","transit":false,"line":0},{"is_transit":false,"time":4,"distance":3186,"line":1,"station_id":"SUD","i_lat":-6.202263,"transit":false,"i_long":106.822649,"station_name":"Sudirman"},{"transit":false,"distance":280,"is_transit":false,"station_id":"SUDB","time":1,"i_lat":-6.201433,"i_long":106.819881,"line":1,"station_name":"Sudirman Baru"},{"is_transit":false,"distance":471,"station_id":"KAT","i_lat":-6.20132,"station_name":"Karet","i_long":106.816351,"transit":false,"line":1,"time":1},{"station_id":"THB","time":5,"i_long":106.811091,"i_lat":-6.185545,"station_name":"Tanah Abang","line":1,"transit":true,"is_transit":true,"distance":2029},{"transit":false,"time":6,"distance":3191,"i_long":106.79689,"i_lat":-6.207404,"is_transit":false,"station_name":"Palmerah","line":6,"station_id":"PLM"}],[{"transit":false,"station_name":"Bekasi","line":0,"time":0,"distance":0,"i_long":106.997013,"is_transit":false,"station_id":"BKS","i_lat":-6.236616},{"i_lat":-6.224515,"station_id":"KRI","line":1,"i_long":106.977657,"station_name":"Kranji","transit":false,"is_transit":false,"time":4,"distance":2520},{"station_name":"Cakung","is_transit":false,"station_id":"CUK","transit":false,"i_lat":-6.219053,"i_long":106.951283,"line":0,"distance":3097,"time":3},{"transit":false,"station_id":"KLDB","i_lat":-6.217455,"i_long":106.939679,"station_name":"Klenderbaru","time":8,"line":1,"is_transit":false,"distance":1385},{"station_id":"BUA","time":1,"station_name":"Buaran","i_long":106.922662,"line":0,"distance":1305,"transit":false,"is_transit":false,"i_lat":-6.215568},{"line":1,"i_lat":-6.2135,"station_name":"Klender","transit":false,"time":2,"is_transit":false,"station_id":"KLD","distance":3100,"i_long":106.899548},{"station_id":"JNG","transit":true,"is_transit":true,"i_lat":-6.215091,"time":3,"station_name":"Jatinegara","distance":3395,"i_long":106.86807400000001,"line":0},{"station_id":"POK","distance":1236,"line":11,"is_transit":false,"station_name":"Pondok Jati","i_lat":-6.209188,"i_long":106.861737,"time":2,"transit":false},{"station_id":"KMT","is_transit":false,"time":2,"distance":1829,"line":11,"i_lat":-6.193792,"station_name":"Kramat","transit":false,"i_long":106.855437},{"distance":973,"is_transit":false,"time":1,"transit":false,"i_long":106.850107,"line":11,"i_lat":-6.185975,"station_name":"Gang Sentiong","station_id":"GST"},{"station_name":"Pasar Senen","time":8,"transit":false,"distance":1567,"is_transit":false,"station_id":"PSE","i_long":106.84368,"i_lat":-6.174784,"line":11},{"distance":1436,"i_lat":-6.161728,"station_id":"KMO","station_name":"Kemayoran","line":11,"i_long":106.839204,"transit":false,"is_transit":false,"time":4},{"transit":false,"i_lat":-6.14505,"i_long":106.836569,"line":11,"is_transit":false,"distance":1901,"time":5,"station_name":"Rajawali","station_id":"RJW"},{"time":3,"line":0,"i_long":106.826365,"station_name":"Kampung Bandan","is_transit":true,"distance":1444,"i_lat":-6.132549,"station_id":"KPB","transit":true},{"station_name":"Angke","i_long":106.79867,"time":9,"is_transit":false,"distance":4102,"i_lat":-6.144674,"station_id":"AK","transit":false,"line":0},{"i_lat":-6.155215,"i_long":106.800832,"is_transit":true,"time":4,"line":1,"transit":true,"station_name":"Duri","distance":1230,"station_id":"DU"},{"transit":true,"line":1,"station_name":"Tanah Abang","distance":3632,"is_transit":true,"time":8,"station_id":"THB","i_lat":-6.185545,"i_long":106.811091},{"line":6,"transit":false,"distance":3191,"i_lat":-6.207404,"station_id":"PLM","time":6,"i_long":106.79689,"is_transit":false,"station_name":"Palmerah"}],[{"station_id":"BKS","transit":false,"station_name":"Bekasi","time":0,"i_long":106.997013,"i_lat":-6.236616,"line":0,"distance":0,"is_transit":false},{"is_transit":false,"station_id":"KRI","time":4,"distance":2520,"station_name":"Kranji","i_lat":-6.224515,"i_long":106.977657,"transit":false,"line":1},{"time":3,"distance":3097,"station_name":"Cakung","i_long":106.951283,"i_lat":-6.219053,"line":0,"transit":false,"is_transit":false,"station_id":"CUK"},{"is_transit":false,"line":1,"transit":false,"station_name":"Klenderbaru","distance":1385,"i_long":106.939679,"i_lat":-6.217455,"time":8,"station_id":"KLDB"},{"time":1,"distance":1305,"station_id":"BUA","i_lat":-6.215568,"line":0,"station_name":"Buaran","is_transit":false,"transit":false,"i_long":106.922662},{"station_name":"Klender","is_transit":false,"i_long":106.899548,"i_lat":-6.2135,"time":2,"distance":3100,"transit":false,"station_id":"KLD","line":1},{"distance":3395,"i_long":106.86807400000001,"station_id":"JNG","station_name":"Jatinegara","line":0,"transit":false,"time":3,"is_transit":true,"i_lat":-6.215091},{"i_long":106.858896,"is_transit":false,"time":2,"distance":1377,"transit":false,"station_id":"MTR","line":1,"station_name":"Matraman","i_lat":-6.212485},{"station_name":"Manggarai","line":0,"transit":true,"i_lat":-6.209883,"station_id":"MRI","time":2,"is_transit":true,"distance":1275,"i_long":106.84912},{"station_name":"Cikini","distance":1590,"i_lat":-6.198556,"is_transit":false,"time":4,"station_id":"CKI","line":0,"transit":false,"i_long":106.840169},{"station_id":"GDD","time":3,"distance":1750,"i_lat":-6.186295,"line":2,"i_long":106.832183,"station_name":"Gondangdia","transit":false,"is_transit":false},{"transit":false,"station_id":"JUA","i_lat":-6.166716,"station_name":"Juanda","is_transit":false,"time":4,"i_long":106.828284,"distance":2015,"line":2},{"i_lat":-6.160725,"i_long":106.827103,"time":2,"station_name":"Sawah Besar","distance":1149,"line":2,"is_transit":false,"station_id":"SW","transit":false},{"i_lat":-6.149769,"transit":false,"station_id":"MGB","time":2,"distance":906,"station_name":"Manggabesar","i_long":106.82482,"is_transit":false,"line":2},{"time":2,"is_transit":false,"i_long":106.820901,"station_name":"Jayakarta","transit":false,"distance":1080,"station_id":"JAY","i_lat":-6.141205,"line":7},{"i_long":106.812439,"station_id":"JAKK","line":0,"distance":1264,"is_transit":true,"station_name":"Jakarta Kota","time":4,"i_lat":-6.137569,"transit":true},{"time":3,"station_id":"KPB","distance":1364,"transit":false,"station_name":"Kampung Bandan","i_lat":-6.132549,"is_transit":true,"line":0,"i_long":106.826365},{"station_name":"Angke","station_id":"AK","i_lat":-6.144674,"distance":4102,"i_long":106.79867,"line":0,"transit":false,"is_transit":false,"time":9},{"is_transit":true,"i_lat":-6.155215,"i_long":106.800832,"line":1,"station_id":"DU","transit":true,"time":4,"station_name":"Duri","distance":1230},{"line":1,"time":8,"i_lat":-6.185545,"station_id":"THB","station_name":"Tanah Abang","transit":true,"is_transit":true,"i_long":106.811091,"distance":3632},{"station_name":"Palmerah","is_transit":false,"time":6,"transit":false,"i_lat":-6.207404,"distance":3191,"i_long":106.79689,"station_id":"PLM","line":6}],[{"i_lat":-6.236616,"is_transit":false,"time":0,"transit":false,"distance":0,"station_name":"Bekasi","line":0,"i_long":106.997013,"station_id":"BKS"},{"station_name":"Kranji","is_transit":false,"i_long":106.977657,"distance":2520,"time":4,"station_id":"KRI","transit":false,"line":1,"i_lat":-6.224515},{"transit":false,"distance":3097,"station_name":"Cakung","line":0,"station_id":"CUK","time":3,"is_transit":false,"i_lat":-6.219053,"i_long":106.951283},{"station_id":"KLDB","station_name":"Klenderbaru","is_transit":false,"line":1,"time":8,"transit":false,"i_long":106.939679,"i_lat":-6.217455,"distance":1385},{"station_id":"BUA","time":1,"transit":false,"i_lat":-6.215568,"distance":1305,"i_long":106.922662,"is_transit":false,"line":0,"station_name":"Buaran"},{"is_transit":false,"station_id":"KLD","time":2,"distance":3100,"i_lat":-6.2135,"station_name":"Klender","i_long":106.899548,"transit":false,"line":1},{"i_lat":-6.215091,"time":3,"station_name":"Jatinegara","line":0,"transit":true,"distance":3395,"station_id":"JNG","is_transit":true,"i_long":106.86807400000001},{"station_name":"Pondok Jati","distance":1236,"i_long":106.861737,"line":11,"is_transit":false,"station_id":"POK","i_lat":-6.209188,"transit":false,"time":2},{"line":11,"transit":false,"station_id":"KMT","time":2,"i_long":106.855437,"i_lat":-6.193792,"is_transit":false,"station_name":"Kramat","distance":1829},{"line":11,"station_name":"Gang Sentiong","is_transit":false,"i_long":106.850107,"station_id":"GST","time":1,"distance":973,"transit":false,"i_lat":-6.185975},{"distance":1567,"i_lat":-6.174784,"is_transit":false,"station_id":"PSE","time":8,"station_name":"Pasar Senen","transit":false,"line":11,"i_long":106.84368},{"station_id":"KMO","distance":1436,"i_long":106.839204,"line":11,"transit":false,"i_lat":-6.161728,"station_name":"Kemayoran","is_transit":false,"time":4},{"line":11,"i_long":106.836569,"is_transit":false,"transit":false,"station_id":"RJW","i_lat":-6.14505,"time":5,"station_name":"Rajawali","distance":1901},{"station_id":"KPB","i_lat":-6.132549,"line":0,"distance":1444,"i_long":106.826365,"station_name":"Kampung Bandan","time":3,"is_transit":true,"transit":true},{"station_id":"JAKK","line":0,"i_lat":-6.137569,"distance":1364,"time":3,"is_transit":true,"i_long":106.812439,"transit":true,"station_name":"Jakarta Kota"},{"distance":1264,"station_name":"Jayakarta","i_lat":-6.141205,"line":7,"time":4,"transit":false,"is_transit":false,"station_id":"JAY","i_long":106.820901},{"line":2,"transit":false,"station_name":"Manggabesar","distance":1080,"i_lat":-6.149769,"is_transit":false,"station_id":"MGB","time":2,"i_long":106.82482},{"transit":false,"time":2,"station_id":"SW","i_lat":-6.160725,"i_long":106.827103,"line":2,"is_transit":false,"station_name":"Sawah Besar","distance":906},{"transit":false,"is_transit":false,"station_id":"JUA","distance":1149,"time":2,"station_name":"Juanda","i_lat":-6.166716,"line":2,"i_long":106.828284},{"transit":false,"station_id":"GDD","distance":2015,"time":4,"i_lat":-6.186295,"station_name":"Gondangdia","is_transit":false,"i_long":106.832183,"line":2},{"transit":false,"distance":1750,"station_id":"CKI","i_lat":-6.198556,"is_transit":false,"line":0,"time":3,"station_name":"Cikini","i_long":106.840169},{"i_lat":-6.209883,"i_long":106.84912,"transit":true,"time":4,"is_transit":true,"distance":1590,"line":0,"station_id":"MRI","station_name":"Manggarai"},{"i_long":106.822649,"transit":false,"line":1,"is_transit":false,"station_id":"SUD","i_lat":-6.202263,"station_name":"Sudirman","time":4,"distance":3186},{"station_name":"Sudirman Baru","line":1,"transit":false,"station_id":"SUDB","time":1,"i_long":106.819881,"is_transit":false,"i_lat":-6.201433,"distance":280},{"station_id":"KAT","station_name":"Karet","distance":471,"time":1,"i_long":106.816351,"transit":false,"i_lat":-6.20132,"is_transit":false,"line":1},{"station_name":"Tanah Abang","station_id":"THB","i_long":106.811091,"time":5,"line":1,"is_transit":true,"transit":true,"distance":2029,"i_lat":-6.185545},{"time":6,"line":6,"i_long":106.79689,"is_transit":false,"station_id":"PLM","distance":3191,"i_lat":-6.207404,"station_name":"Palmerah","transit":false}]]}