{"data":[[{"distance":0,"i_lat":-6.236616,"line":1,"i_long":106.997013,"station_id":"BKS","time":0,"station_name":"Bekasi","transit":false,"is_transit":false},{"station_id":"KRI","i_lat":-6.224515,"line":1,"time":4,"station_name":"Kranji","distance":2520,"transit":false,"is_transit":false,"i_long":106.977657},{"distance":3097,"time":3,"transit":false,"i_long":106.951283,"i_lat":-6.219053,"station_id":"CUK","station_name":"Cakung","line":1,"is_transit":false},{"transit":false,"i_long":106.939679,"is_transit":false,"station_name":"Klenderbaru","distance":1385,"station_id":"KLDB","time":8,"i_lat":-6.217455,"line":1},{"time":1,"i_lat":-6.215568,"line":1,"i_long":106.922662,"station_name":"Buaran","is_transit":false,"station_id":"BUA","transit":false,"distance":1305},{"station_name":"Klender","time":2,"station_id":"KLD","line":1,"i_lat":-6.2135,"distance":3100,"is_transit":false,"transit":false,"i_long":106.899548},{"distance":3395,"station_name":"Jatinegara","station_id":"JNG","time":3,"transit":true,"i_lat":-6.215091,"is_transit":true,"i_long":106.86807400000001,"line":1},{"distance":1236,"station_name":"Pondok Jati","i_lat":-6.209188,"i_long":106.861737,"station_id":"POK","is_transit":false,"time":2,"transit":false,"line":11},{"i_lat":-6.193792,"distance":1829,"station_id":"KMT","station_name":"Kramat","line":11,"i_long":106.855437,"is_transit":false,"time":2,"transit":false},{"line":11,"is_transit":false,"distance":973,"station_name":"Gang Sentiong","i_long":106.850107,"station_id":"GST","transit":false,"time":1,"i_lat":-6.185975},{"distance":1567,"line":11,"is_transit":false,"transit":false,"time":8,"i_long":106.84368,"station_id":"PSE","station_name":"Pasar Senen","i_lat":-6.174784},{"is_transit":false,"station_id":"KMO","station_name":"Kemayoran","i_long":106.839204,"distance":1436,"transit":false,"line":11,"i_lat":-6.161728,"time":4},{"is_transit":false,"time":5,"line":11,"transit":false,"station_name":"Rajawali","distance":1901,"station_id":"RJW","i_lat":-6.14505,"i_long":106.836569}],[{"station_name":"Bekasi","transit":false,"line":1,"station_id":"BKS","time":0,"is_transit":false,"i_long":106.997013,"i_lat":-6.236616,"distance":0},{"transit":false,"distance":2520,"station_id":"KRI","station_name":"Kranji","i_long":106.977657,"line":1,"i_lat":-6.224515,"time":4,"is_transit":false},{"i_lat":-6.219053,"station_name":"Cakung","distance":3097,"is_transit":false,"i_long":106.951283,"time":3,"transit":false,"line":1,"station_id":"CUK"},{"is_transit":false,"station_id":"KLDB","time":8,"transit":false,"i_long":106.939679,"line":1,"distance":1385,"station_name":"Klenderbaru","i_lat":-6.217455},{"station_name":"Buaran","line":1,"distance":1305,"transit":false,"station_id":"BUA","time":1,"i_lat":-6.215568,"i_long":106.922662,"is_transit":false},{"i_long":106.899548,"line":1,"station_id":"KLD","time":2,"transit":false,"station_name":"Klender","i_lat":-6.2135,"distance":3100,"is_transit":false},{"distance":3395,"time":3,"station_id":"JNG","i_lat":-6.215091,"i_long":106.86807400000001,"is_transit":false,"station_name":"Jatinegara","line":1,"transit":false},{"i_lat":-6.212485,"distance":1377,"station_id":"MTR","transit":false,"is_transit":false,"i_long":106.858896,"time":2,"line":1,"station_name":"Matraman"},{"transit":false,"is_transit":false,"distance":1275,"station_name":"Manggarai","i_long":106.84912,"line":2,"i_lat":-6.209883,"station_id":"MRI","time":2},{"is_transit":false,"line":1,"time":4,"distance":3186,"i_lat":-6.202263,"station_id":"SUD","station_name":"Sudirman","i_long":106.822649,"transit":false},{"line":1,"transit":false,"is_transit":false,"distance":280,"station_name":"Sudirman Baru","time":1,"station_id":"SUDB","i_lat":-6.201433,"i_long":106.819881},{"transit":false,"i_lat":-6.20132,"i_long":106.816351,"is_transit":false,"station_name":"Karet","line":1,"station_id":"KAT","time":1,"distance":471},{"station_name":"Tanah Abang","line":1,"is_transit":false,"station_id":"THB","time":5,"i_long":106.811091,"transit":false,"i_lat":-6.185545,"distance":2029},{"station_id":"DU","distance":3632,"time":8,"i_lat":-6.155215,"line":1,"station_name":"Duri","transit":false,"is_transit":false,"i_long":106.800832},{"distance":1230,"i_long":106.79867,"line":1,"is_transit":false,"station_id":"AK","time":4,"station_name":"Angke","transit":false,"i_lat":-6.144674},{"i_long":106.826365,"station_name":"Kampung Bandan","transit":true,"distance":4102,"is_transit":true,"line":4,"station_id":"KPB","time":9,"i_lat":-6.132549},{"distance":1444,"time":3,"transit":false,"station_name":"Rajawali","i_long":106.836569,"is_transit":false,"i_lat":-6.14505,"station_id":"RJW","line":11}],[{"i_lat":-6.236616,"line":1,"i_long":106.997013,"transit":false,"is_transit":false,"time":0,"station_name":"Bekasi","station_id":"BKS","distance":0},{"i_long":106.977657,"transit":false,"is_transit":false,"station_id":"KRI","station_name":"Kranji","line":1,"distance":2520,"i_lat":-6.224515,"time":4},{"station_id":"CUK","station_name":"Cakung","time":3,"transit":false,"distance":3097,"i_lat":-6.219053,"line":1,"is_transit":false,"i_long":106.951283},{"is_transit":false,"station_id":"KLDB","time":8,"transit":false,"i_lat":-6.217455,"distance":1385,"i_long":106.939679,"station_name":"Klenderbaru","line":1},{"is_transit":false,"station_id":"BUA","time":1,"transit":false,"i_long":106.922662,"line":1,"i_lat":-6.215568,"distance":1305,"station_name":"Buaran"},{"station_name":"Klender","time":2,"distance":3100,"station_id":"KLD","i_long":106.899548,"transit":false,"is_transit":false,"i_lat":-6.2135,"line":1},{"line":1,"transit":false,"distance":3395,"is_transit":false,"station_name":"Jatinegara","station_id":"JNG","i_lat":-6.215091,"i_long":106.86807400000001,"time":3},{"i_long":106.858896,"is_transit":false,"line":1,"station_name":"Matraman","i_lat":-6.212485,"time":2,"distance":1377,"transit":false,"station_id":"MTR"},{"station_id":"MRI","is_transit":true,"transit":true,"line":2,"i_long":106.84912,"distance":1275,"time":2,"i_lat":-6.209883,"station_name":"Manggarai"},{"distance":1590,"line":2,"station_name":"Cikini","transit":false,"i_lat":-6.198556,"i_long":106.840169,"is_transit":false,"time":4,"station_id":"CKI"},{"i_long":106.832183,"line":2,"time":3,"transit":false,"i_lat":-6.186295,"is_transit":false,"station_name":"Gondangdia","station_id":"GDD","distance":1750},{"is_transit":false,"transit":false,"station_id":"JUA","i_long":106.828284,"station_name":"Juanda","distance":2015,"time":4,"i_lat":-6.166716,"line":2},{"time":2,"line":2,"distance":1149,"transit":false,"station_id":"SW","is_transit":false,"i_lat":-6.160725,"station_name":"Sawah Besar","i_long":106.827103},{"line":2,"is_transit":false,"station_id":"MGB","i_lat":-6.149769,"distance":906,"i_long":106.82482,"time":2,"transit":false,"station_name":"Manggabesar"},{"line":2,"i_lat":-6.141205,"i_long":106.820901,"is_transit":false,"transit":false,"station_id":"JAY","time":2,"distance":1080,"station_name":"Jayakarta"},{"distance":1264,"i_long":106.812439,"station_id":"JAKK","is_transit":true,"time":4,"station_name":"Jakarta Kota","line":2,"i_lat":-6.137569,"transit":true},{"i_lat":-6.132549,"is_transit":true,"station_id":"KPB","transit":true,"i_long":106.826365,"station_name":"Kampung Bandan","time":3,"line":4,"distance":1364},{"i_lat":-6.14505,"time":3,"station_name":"Rajawali","line":11,"is_transit":false,"station_id":"RJW","transit":false,"distance":1444,"i_long":106.836569}]]}