{"data":[[{"transit":false,"distance":0,"line":1,"i_long":106.997013,"is_transit":false,"i_lat":-6.236616,"station_id":"BKS","station_name":"Bekasi","time":0},{"time":4,"i_long":106.977657,"station_id":"KRI","station_name":"Kranji","is_transit":false,"transit":false,"distance":2520,"i_lat":-6.224515,"line":1},{"transit":false,"time":3,"station_id":"CUK","distance":3097,"i_lat":-6.219053,"line":1,"station_name":"Cakung","is_transit":false,"i_long":106.951283},{"transit":false,"distance":1385,"i_long":106.939679,"time":8,"line":1,"is_transit":false,"station_name":"Klenderbaru","i_lat":-6.217455,"station_id":"KLDB"},{"station_id":"BUA","is_transit":false,"distance":1305,"station_name":"Buaran","i_lat":-6.215568,"line":1,"transit":false,"i_long":106.922662,"time":1},{"distance":3100,"i_lat":-6.2135,"transit":false,"is_transit":false,"station_id":"KLD","i_long":106.899548,"time":2,"station_name":"Klender","line":1},{"station_name":"Jatinegara","transit":false,"line":1,"distance":3395,"is_transit":false,"i_lat":-6.215091,"time":3,"i_long":106.86807400000001,"station_id":"JNG"},{"station_id":"MTR","transit":false,"station_name":"Matraman","line":1,"distance":1377,"time":2,"is_transit":false,"i_lat":-6.212485,"i_long":106.858896},{"time":2,"station_id":"MRI","transit":false,"i_long":106.84912,"i_lat":-6.209883,"station_name":"Manggarai","is_transit":false,"distance":1275,"line":2},{"time":4,"distance":3186,"station_name":"Sudirman","i_lat":-6.202263,"is_transit":false,"station_id":"SUD","i_long":106.822649,"transit":false,"line":1},{"time":1,"station_id":"SUDB","i_long":106.819881,"is_transit":false,"i_lat":-6.201433,"distance":280,"station_name":"Sudirman Baru","transit":false,"line":1},{"line":1,"i_lat":-6.20132,"station_name":"Karet","i_long":106.816351,"time":1,"transit":false,"is_transit":false,"distance":471,"station_id":"KAT"},{"distance":2029,"i_long":106.811091,"line":1,"transit":false,"station_id":"THB","i_lat":-6.185545,"station_name":"Tanah Abang","time":5,"is_transit":false},{"distance":3632,"i_long":106.800832,"time":8,"line":1,"station_name":"Duri","i_lat":-6.155215,"transit":true,"is_transit":true,"station_id":"DU"},{"time":3,"station_id":"GRG","line":5,"transit":false,"i_lat":-6.162021,"distance":1700,"station_name":"Grogol","is_transit":false,"i_long":106.788277},{"station_name":"Pesing","i_long":106.771379,"is_transit":false,"i_lat":-6.161433,"line":5,"distance":2036,"station_id":"PSG","time":2,"transit":false},{"time":2,"distance":1614,"station_name":"Taman Kota","i_lat":-6.1587309999999995,"i_long":106.756522,"transit":false,"station_id":"TKO","is_transit":false,"line":5}],[{"distance":0,"time":0,"i_lat":-6.236616,"is_transit":false,"line":1,"station_id":"BKS","transit":false,"station_name":"Bekasi","i_long":106.997013},{"line":1,"transit":false,"time":4,"i_lat":-6.224515,"station_id":"KRI","is_transit":false,"station_name":"Kranji","i_long":106.977657,"distance":2520},{"transit":false,"time":3,"i_long":106.951283,"i_lat":-6.219053,"station_id":"CUK","station_name":"Cakung","is_transit":false,"line":1,"distance":3097},{"distance":1385,"time":8,"station_name":"Klenderbaru","line":1,"station_id":"KLDB","is_transit":false,"i_lat":-6.217455,"i_long":106.939679,"transit":false},{"station_id":"BUA","station_name":"Buaran","i_lat":-6.215568,"i_long":106.922662,"line":1,"distance":1305,"transit":false,"time":1,"is_transit":false},{"line":1,"transit":false,"is_transit":false,"distance":3100,"station_name":"Klender","time":2,"i_long":106.899548,"station_id":"KLD","i_lat":-6.2135},{"distance":3395,"station_name":"Jatinegara","is_transit":true,"i_long":106.86807400000001,"time":3,"line":1,"station_id":"JNG","transit":true,"i_lat":-6.215091},{"station_id":"POK","time":2,"i_long":106.861737,"line":11,"station_name":"Pondok Jati","is_transit":false,"transit":false,"i_lat":-6.209188,"distance":1236},{"station_name":"Kramat","distance":1829,"time":2,"station_id":"KMT","is_transit":false,"i_long":106.855437,"transit":false,"i_lat":-6.193792,"line":11},{"time":1,"station_name":"Gang Sentiong","is_transit":false,"i_long":106.850107,"line":11,"distance":973,"i_lat":-6.185975,"transit":false,"station_id":"GST"},{"transit":false,"i_lat":-6.174784,"i_long":106.84368,"station_name":"Pasar Senen","distance":1567,"station_id":"PSE","is_transit":false,"time":8,"line":11},{"distance":1436,"time":4,"station_name":"Kemayoran","is_transit":false,"i_lat":-6.161728,"i_long":106.839204,"transit":false,"line":11,"station_id":"KMO"},{"distance":1901,"station_id":"RJW","i_long":106.836569,"is_transit":false,"transit":false,"station_name":"Rajawali","line":11,"time":5,"i_lat":-6.14505},{"line":4,"distance":1444,"i_long":106.826365,"is_transit":true,"station_id":"KPB","i_lat":-6.132549,"time":3,"station_name":"Kampung Bandan","transit":true},{"transit":false,"i_lat":-6.144674,"line":1,"is_transit":false,"distance":4102,"time":9,"station_id":"AK","station_name":"Angke","i_long":106.79867},{"distance":1230,"is_transit":true,"i_long":106.800832,"i_lat":-6.155215,"station_id":"DU","station_name":"Duri","transit":true,"line":1,"time":4},{"transit":false,"is_transit":false,"i_long":106.788277,"time":3,"distance":1700,"station_name":"Grogol","i_lat":-6.162021,"station_id":"GRG","line":5},{"time":2,"is_transit":false,"line":5,"distance":2036,"i_long":106.771379,"transit":false,"station_name":"Pesing","station_id":"PSG","i_lat":-6.161433},{"station_id":"TKO","time":2,"distance":1614,"i_lat":-6.1587309999999995,"station_name":"Taman Kota","i_long":106.756522,"transit":false,"line":5,"is_transit":false}],[{"i_long":106.997013,"line":1,"is_transit":false,"distance":0,"transit":false,"station_id":"BKS","time":0,"station_name":"Bekasi","i_lat":-6.236616},{"is_transit":false,"time":4,"station_id":"KRI","distance":2520,"i_long":106.977657,"station_name":"Kranji","transit":false,"i_lat":-6.224515,"line":1},{"station_name":"Cakung","i_lat":-6.219053,"is_transit":false,"time":3,"transit":false,"distance":3097,"station_id":"CUK","i_long":106.951283,"line":1},{"station_name":"Klenderbaru","transit":false,"line":1,"station_id":"KLDB","is_transit":false,"i_lat":-6.217455,"i_long":106.939679,"distance":1385,"time":8},{"station_id":"BUA","distance":1305,"i_lat":-6.215568,"i_long":106.922662,"time":1,"transit":false,"is_transit":false,"station_name":"Buaran","line":1},{"station_name":"Klender","is_transit":false,"distance":3100,"i_lat":-6.2135,"i_long":106.899548,"transit":false,"line":1,"station_id":"KLD","time":2},{"line":1,"time":3,"station_id":"JNG","i_lat":-6.215091,"transit":false,"is_transit":false,"i_long":106.86807400000001,"station_name":"Jatinegara","distance":3395},{"i_long":106.858896,"station_id":"MTR","distance":1377,"i_lat":-6.212485,"is_transit":false,"line":1,"time":2,"station_name":"Matraman","transit":false},{"i_lat":-6.209883,"transit":true,"i_long":106.84912,"is_transit":true,"time":2,"distance":1275,"station_id":"MRI","station_name":"Manggarai","line":2},{"station_name":"Cikini","line":2,"transit":false,"distance":1590,"station_id":"CKI","i_long":106.840169,"is_transit":false,"i_lat":-6.198556,"time":4},{"i_lat":-6.186295,"transit":false,"i_long":106.832183,"station_name":"Gondangdia","distance":1750,"is_transit":false,"line":2,"station_id":"GDD","time":3},{"line":2,"transit":false,"i_long":106.828284,"is_transit":false,"station_id":"JUA","station_name":"Juanda","i_lat":-6.166716,"time":4,"distance":2015},{"station_name":"Sawah Besar","i_lat":-6.160725,"time":2,"station_id":"SW","is_transit":false,"transit":false,"line":2,"i_long":106.827103,"distance":1149},{"station_id":"MGB","i_long":106.82482,"i_lat":-6.149769,"line":2,"time":2,"distance":906,"station_name":"Manggabesar","transit":false,"is_transit":false},{"time":2,"is_transit":false,"transit":false,"i_long":106.820901,"line":2,"station_id":"JAY","i_lat":-6.141205,"distance":1080,"station_name":"Jayakarta"},{"i_long":106.812439,"distance":1264,"i_lat":-6.137569,"time":4,"transit":true,"station_name":"Jakarta Kota","station_id":"JAKK","is_transit":true,"line":2},{"time":3,"transit":true,"line":4,"distance":1364,"station_id":"KPB","station_name":"Kampung Bandan","i_lat":-6.132549,"is_transit":true,"i_long":106.826365},{"is_transit":false,"station_name":"Angke","i_lat":-6.144674,"time":9,"line":1,"i_long":106.79867,"distance":4102,"station_id":"AK","transit":false},{"is_transit":true,"time":4,"station_id":"DU","line":1,"i_lat":-6.155215,"station_name":"Duri","i_long":106.800832,"distance":1230,"transit":true},{"time":3,"station_id":"GRG","distance":1700,"line":5,"i_long":106.788277,"station_name":"Grogol","is_transit":false,"transit":false,"i_lat":-6.162021},{"i_lat":-6.161433,"line":5,"distance":2036,"i_long":106.771379,"transit":false,"station_name":"Pesing","station_id":"PSG","is_transit":false,"time":2},{"distance":1614,"i_long":106.756522,"station_name":"Taman Kota","station_id":"TKO","time":2,"i_lat":-6.1587309999999995,"line":5,"transit":false,"is_transit":false}],[{"distance":0,"i_lat":-6.236616,"line":1,"transit":false,"station_id":"BKS","station_name":"Bekasi","i_long":106.997013,"is_transit":false,"time":0},{"is_transit":false,"station_id":"KRI","i_long":106.977657,"line":1,"transit":false,"time":4,"distance":2520,"station_name":"Kranji","i_lat":-6.224515},{"is_transit":false,"transit":false,"station_name":"Cakung","station_id":"CUK","i_lat":-6.219053,"distance":3097,"i_long":106.951283,"time":3,"line":1},{"transit":false,"i_lat":-6.217455,"line":1,"station_id":"KLDB","i_long":106.939679,"station_name":"Klenderbaru","distance":1385,"is_transit":false,"time":8},{"line":1,"station_name":"Buaran","i_lat":-6.215568,"distance":1305,"transit":false,"is_transit":false,"time":1,"i_long":106.922662,"station_id":"BUA"},{"station_id":"KLD","time":2,"distance":3100,"line":1,"i_lat":-6.2135,"is_transit":false,"transit":false,"station_name":"Klender","i_long":106.899548},{"station_id":"JNG","distance":3395,"station_name":"Jatinegara","i_long":106.86807400000001,"is_transit":true,"transit":true,"line":1,"time":3,"i_lat":-6.215091},{"distance":1236,"transit":false,"line":11,"is_transit":false,"time":2,"i_lat":-6.209188,"station_id":"POK","station_name":"Pondok Jati","i_long":106.861737},{"transit":false,"station_id":"KMT","station_name":"Kramat","i_lat":-6.193792,"line":11,"i_long":106.855437,"time":2,"distance":1829,"is_transit":false},{"line":11,"i_long":106.850107,"i_lat":-6.185975,"station_name":"Gang Sentiong","time":1,"is_transit":false,"distance":973,"transit":false,"station_id":"GST"},{"i_lat":-6.174784,"transit":false,"time":8,"is_transit":false,"i_long":106.84368,"station_name":"Pasar Senen","distance":1567,"line":11,"station_id":"PSE"},{"time":4,"i_long":106.839204,"line":11,"station_id":"KMO","transit":false,"distance":1436,"station_name":"Kemayoran","i_lat":-6.161728,"is_transit":false},{"i_long":106.836569,"station_name":"Rajawali","line":11,"distance":1901,"transit":false,"time":5,"i_lat":-6.14505,"station_id":"RJW","is_transit":false},{"i_long":106.826365,"i_lat":-6.132549,"station_id":"KPB","line":4,"station_name":"Kampung Bandan","transit":true,"distance":1444,"is_transit":true,"time":3},{"distance":1364,"transit":true,"station_name":"Jakarta Kota","time":3,"i_long":106.812439,"i_lat":-6.137569,"station_id":"JAKK","is_transit":true,"line":2},{"i_long":106.820901,"line":2,"i_lat":-6.141205,"station_name":"Jayakarta","transit":false,"time":4,"is_transit":false,"distance":1264,"station_id":"JAY"},{"distance":1080,"station_name":"Manggabesar","is_transit":false,"station_id":"MGB","i_lat":-6.149769,"i_long":106.82482,"line":2,"time":2,"transit":false},{"i_long":106.827103,"station_name":"Sawah Besar","distance":906,"is_transit":false,"station_id":"SW","time":2,"line":2,"i_lat":-6.160725,"transit":false},{"i_lat":-6.166716,"line":2,"time":2,"is_transit":false,"station_id":"JUA","i_long":106.828284,"distance":1149,"transit":false,"station_name":"Juanda"},{"station_name":"Gondangdia","time":4,"station_id":"GDD","i_lat":-6.186295,"i_long":106.832183,"line":2,"transit":false,"distance":2015,"is_transit":false},{"station_name":"Cikini","distance":1750,"i_lat":-6.198556,"station_id":"CKI","i_long":106.840169,"is_transit":false,"line":2,"time":3,"transit":false},{"i_long":106.84912,"station_id":"MRI","line":2,"i_lat":-6.209883,"is_transit":true,"transit":true,"time":4,"distance":1590,"station_name":"Manggarai"},{"i_lat":-6.202263,"is_transit":false,"time":4,"distance":3186,"station_id":"SUD","station_name":"Sudirman","i_long":106.822649,"line":1,"transit":false},{"transit":false,"time":1,"i_lat":-6.201433,"i_long":106.819881,"station_id":"SUDB","is_transit":false,"distance":280,"line":1,"station_name":"Sudirman Baru"},{"station_name":"Karet","is_transit":false,"time":1,"transit":false,"i_lat":-6.20132,"i_long":106.816351,"distance":471,"station_id":"KAT","line":1},{"station_id":"THB","distance":2029,"i_long":106.811091,"transit":false,"time":5,"i_lat":-6.185545,"line":1,"is_transit":false,"station_name":"Tanah Abang"},{"i_long":106.800832,"station_id":"DU","line":1,"distance":3632,"i_lat":-6.155215,"time":8,"is_transit":true,"transit":true,"station_name":"Duri"},{"station_id":"GRG","distance":1700,"i_long":106.788277,"line":5,"is_transit":false,"i_lat":-6.162021,"time":3,"transit":false,"station_name":"Grogol"},{"distance":2036,"station_id":"PSG","i_lat":-6.161433,"i_long":106.771379,"transit":false,"station_name":"Pesing","time":2,"line":5,"is_transit":false},{"transit":false,"is_transit":false,"distance":1614,"time":2,"station_id":"TKO","i_lat":-6.1587309999999995,"station_name":"Taman Kota","line":5,"i_long":106.756522}]]}