{"data":[[{"is_transit":false,"transit":false,"line":1,"time":0,"i_long":106.997013,"distance":0,"station_id":"BKS","i_lat":-6.236616,"station_name":"Bekasi"},{"is_transit":false,"transit":false,"time":4,"line":1,"station_id":"KRI","i_long":106.977657,"distance":2520,"i_lat":-6.224515,"station_name":"Kranji"},{"i_long":106.951283,"time":3,"station_id":"CUK","transit":false,"is_transit":false,"distance":3097,"i_lat":-6.219053,"station_name":"Cakung","line":1},{"station_id":"KLDB","time":8,"station_name":"Klenderbaru","is_transit":false,"line":1,"i_long":106.939679,"transit":false,"i_lat":-6.217455,"distance":1385},{"transit":false,"is_transit":false,"station_name":"Buaran","line":1,"station_id":"BUA","i_lat":-6.215568,"distance":1305,"i_long":106.922662,"time":1}]]}