{"data":[[{"station_id":"BKS","distance":0,"station_name":"Bekasi","i_long":106.997013,"transit":false,"is_transit":false,"line":1,"i_lat":-6.236616,"time":0},{"distance":2520,"time":4,"line":1,"i_long":106.977657,"station_id":"KRI","transit":false,"i_lat":-6.224515,"station_name":"Kranji","is_transit":false},{"distance":3097,"time":3,"i_lat":-6.219053,"i_long":106.951283,"station_name":"Cakung","station_id":"CUK","is_transit":false,"transit":false,"line":1},{"is_transit":false,"distance":1385,"transit":false,"line":1,"station_id":"KLDB","time":8,"i_lat":-6.217455,"station_name":"Klenderbaru","i_long":106.939679},{"distance":1305,"i_lat":-6.215568,"line":1,"station_name":"Buaran","transit":false,"time":1,"is_transit":false,"station_id":"BUA","i_long":106.922662},{"transit":false,"is_transit":false,"i_long":106.899548,"time":2,"station_id":"KLD","i_lat":-6.2135,"line":1,"station_name":"Klender","distance":3100},{"transit":true,"i_lat":-6.215091,"distance":3395,"time":3,"station_name":"Jatinegara","station_id":"JNG","line":1,"is_transit":true,"i_long":106.86807400000001},{"i_long":106.861737,"station_name":"Pondok Jati","line":11,"distance":1236,"station_id":"POK","is_transit":false,"time":2,"transit":false,"i_lat":-6.209188},{"i_lat":-6.193792,"is_transit":false,"transit":false,"station_id":"KMT","line":11,"distance":1829,"time":2,"station_name":"Kramat","i_long":106.855437},{"distance":973,"transit":false,"time":1,"line":11,"i_lat":-6.185975,"station_name":"Gang Sentiong","station_id":"GST","is_transit":false,"i_long":106.850107},{"i_lat":-6.174784,"time":8,"station_id":"PSE","distance":1567,"is_transit":false,"station_name":"Pasar Senen","i_long":106.84368,"transit":false,"line":11}],[{"station_id":"BKS","station_name":"Bekasi","time":0,"transit":false,"line":1,"is_transit":false,"i_lat":-6.236616,"i_long":106.997013,"distance":0},{"distance":2520,"station_name":"Kranji","is_transit":false,"i_long":106.977657,"time":4,"station_id":"KRI","line":1,"transit":false,"i_lat":-6.224515},{"i_long":106.951283,"distance":3097,"station_id":"CUK","time":3,"is_transit":false,"station_name":"Cakung","transit":false,"i_lat":-6.219053,"line":1},{"i_long":106.939679,"time":8,"line":1,"station_id":"KLDB","distance":1385,"station_name":"Klenderbaru","transit":false,"i_lat":-6.217455,"is_transit":false},{"transit":false,"time":1,"is_transit":false,"distance":1305,"station_name":"Buaran","i_lat":-6.215568,"i_long":106.922662,"line":1,"station_id":"BUA"},{"time":2,"station_name":"Klender","distance":3100,"station_id":"KLD","is_transit":false,"i_long":106.899548,"transit":false,"i_lat":-6.2135,"line":1},{"station_id":"JNG","station_name":"Jatinegara","transit":false,"distance":3395,"line":1,"i_long":106.86807400000001,"is_transit":false,"i_lat":-6.215091,"time":3},{"station_name":"Matraman","time":2,"i_long":106.858896,"line":1,"station_id":"MTR","distance":1377,"transit":false,"i_lat":-6.212485,"is_transit":false},{"line":2,"i_long":106.84912,"distance":1275,"i_lat":-6.209883,"is_transit":false,"transit":false,"time":2,"station_id":"MRI","station_name":"Manggarai"},{"station_id":"SUD","time":4,"station_name":"Sudirman","is_transit":false,"i_long":106.822649,"i_lat":-6.202263,"line":1,"distance":3186,"transit":false},{"time":1,"station_name":"Sudirman Baru","i_long":106.819881,"transit":false,"station_id":"SUDB","distance":280,"is_transit":false,"i_lat":-6.201433,"line":1},{"line":1,"transit":false,"distance":471,"is_transit":false,"i_long":106.816351,"time":1,"station_id":"KAT","station_name":"Karet","i_lat":-6.20132},{"time":5,"i_lat":-6.185545,"distance":2029,"station_name":"Tanah Abang","i_long":106.811091,"station_id":"THB","transit":false,"is_transit":false,"line":1},{"i_lat":-6.155215,"i_long":106.800832,"is_transit":false,"time":8,"transit":false,"distance":3632,"station_name":"Duri","line":1,"station_id":"DU"},{"transit":false,"i_long":106.79867,"station_id":"AK","station_name":"Angke","is_transit":false,"line":1,"i_lat":-6.144674,"time":4,"distance":1230},{"time":9,"distance":4102,"station_id":"KPB","station_name":"Kampung Bandan","i_lat":-6.132549,"line":4,"transit":true,"i_long":106.826365,"is_transit":true},{"is_transit":false,"line":11,"distance":1444,"station_id":"RJW","i_lat":-6.14505,"station_name":"Rajawali","i_long":106.836569,"transit":false,"time":3},{"station_name":"Kemayoran","time":5,"i_long":106.839204,"i_lat":-6.161728,"transit":false,"is_transit":false,"station_id":"KMO","line":11,"distance":1901},{"station_name":"Pasar Senen","time":4,"i_lat":-6.174784,"station_id":"PSE","transit":false,"is_transit":false,"i_long":106.84368,"line":11,"distance":1436}],[{"i_long":106.997013,"transit":false,"line":1,"time":0,"station_id":"BKS","is_transit":false,"distance":0,"station_name":"Bekasi","i_lat":-6.236616},{"station_id":"KRI","transit":false,"i_lat":-6.224515,"is_transit":false,"line":1,"i_long":106.977657,"distance":2520,"station_name":"Kranji","time":4},{"transit":false,"station_id":"CUK","i_lat":-6.219053,"distance":3097,"time":3,"is_transit":false,"station_name":"Cakung","i_long":106.951283,"line":1},{"time":8,"station_name":"Klenderbaru","transit":false,"is_transit":false,"line":1,"i_long":106.939679,"i_lat":-6.217455,"station_id":"KLDB","distance":1385},{"line":1,"i_long":106.922662,"distance":1305,"time":1,"is_transit":false,"transit":false,"station_name":"Buaran","station_id":"BUA","i_lat":-6.215568},{"transit":false,"is_transit":false,"station_id":"KLD","i_lat":-6.2135,"line":1,"distance":3100,"i_long":106.899548,"station_name":"Klender","time":2},{"line":1,"distance":3395,"i_long":106.86807400000001,"station_id":"JNG","time":3,"i_lat":-6.215091,"station_name":"Jatinegara","transit":false,"is_transit":false},{"distance":1377,"i_long":106.858896,"line":1,"is_transit":false,"time":2,"station_name":"Matraman","station_id":"MTR","transit":false,"i_lat":-6.212485},{"station_name":"Manggarai","is_transit":true,"station_id":"MRI","line":2,"i_lat":-6.209883,"distance":1275,"time":2,"i_long":106.84912,"transit":true},{"station_id":"CKI","is_transit":false,"i_lat":-6.198556,"line":2,"time":4,"i_long":106.840169,"station_name":"Cikini","distance":1590,"transit":false},{"line":2,"transit":false,"i_lat":-6.186295,"i_long":106.832183,"distance":1750,"station_name":"Gondangdia","station_id":"GDD","time":3,"is_transit":false},{"i_long":106.828284,"line":2,"time":4,"station_id":"JUA","transit":false,"is_transit":false,"distance":2015,"i_lat":-6.166716,"station_name":"Juanda"},{"distance":1149,"time":2,"station_id":"SW","i_long":106.827103,"i_lat":-6.160725,"is_transit":false,"station_name":"Sawah Besar","line":2,"transit":false},{"line":2,"station_name":"Manggabesar","station_id":"MGB","transit":false,"time":2,"distance":906,"i_long":106.82482,"i_lat":-6.149769,"is_transit":false},{"i_lat":-6.141205,"distance":1080,"line":2,"station_id":"JAY","station_name":"Jayakarta","is_transit":false,"i_long":106.820901,"transit":false,"time":2},{"transit":true,"i_long":106.812439,"is_transit":true,"i_lat":-6.137569,"line":2,"station_id":"JAKK","time":4,"station_name":"Jakarta Kota","distance":1264},{"station_name":"Kampung Bandan","station_id":"KPB","distance":1364,"i_lat":-6.132549,"is_transit":true,"line":4,"time":3,"i_long":106.826365,"transit":true},{"transit":false,"is_transit":false,"line":11,"time":3,"station_name":"Rajawali","i_long":106.836569,"station_id":"RJW","i_lat":-6.14505,"distance":1444},{"station_id":"KMO","is_transit":false,"i_lat":-6.161728,"line":11,"distance":1901,"station_name":"Kemayoran","transit":false,"time":5,"i_long":106.839204},{"station_id":"PSE","is_transit":false,"i_long":106.84368,"line":11,"i_lat":-6.174784,"station_name":"Pasar Senen","distance":1436,"transit":false,"time":4}]]}