{"data":[[{"station_id":"BKS","transit":false,"time":0,"is_transit":false,"i_long":106.997013,"station_name":"Bekasi","i_lat":-6.236616,"line":0,"distance":0},{"time":4,"is_transit":false,"i_lat":-6.224515,"station_id":"KRI","transit":false,"station_name":"Kranji","i_long":106.977657,"distance":2520,"line":1},{"is_transit":false,"time":3,"i_long":106.951283,"distance":3097,"line":0,"station_name":"Cakung","i_lat":-6.219053,"transit":false,"station_id":"CUK"},{"i_lat":-6.217455,"station_name":"Klenderbaru","is_transit":false,"station_id":"KLDB","i_long":106.939679,"transit":false,"distance":1385,"line":1,"time":8},{"transit":false,"is_transit":false,"time":1,"station_name":"Buaran","i_long":106.922662,"station_id":"BUA","distance":1305,"i_lat":-6.215568,"line":0},{"distance":3100,"i_lat":-6.2135,"is_transit":false,"line":1,"transit":false,"station_name":"Klender","time":2,"i_long":106.899548,"station_id":"KLD"},{"is_transit":true,"time":3,"line":0,"distance":3395,"transit":false,"station_name":"Jatinegara","i_lat":-6.215091,"i_long":106.86807400000001,"station_id":"JNG"},{"transit":false,"i_long":106.858896,"line":1,"time":2,"station_name":"Matraman","station_id":"MTR","distance":1377,"i_lat":-6.212485,"is_transit":false},{"station_name":"Manggarai","i_lat":-6.209883,"i_long":106.84912,"line":0,"station_id":"MRI","is_transit":true,"time":2,"distance":1275,"transit":false},{"transit":false,"line":1,"distance":3186,"station_name":"Sudirman","is_transit":false,"time":4,"i_long":106.822649,"station_id":"SUD","i_lat":-6.202263},{"station_name":"Sudirman Baru","station_id":"SUDB","time":1,"i_lat":-6.201433,"i_long":106.819881,"is_transit":false,"distance":280,"transit":false,"line":1},{"distance":471,"i_long":106.816351,"transit":false,"time":1,"station_name":"Karet","i_lat":-6.20132,"line":1,"station_id":"KAT","is_transit":false},{"is_transit":true,"station_name":"Tanah Abang","station_id":"THB","distance":2029,"transit":true,"i_lat":-6.185545,"i_long":106.811091,"time":5,"line":1},{"transit":false,"is_transit":false,"time":6,"line":6,"i_lat":-6.207404,"station_name":"Palmerah","distance":3191,"i_long":106.79689,"station_id":"PLM"},{"line":6,"i_lat":-6.237242,"transit":false,"i_long":106.780334,"station_name":"Kebayoran","station_id":"KBY","is_transit":false,"time":7,"distance":3737},{"station_name":"Pondokranji","time":8,"transit":false,"line":6,"i_lat":-6.276362,"is_transit":false,"distance":6218,"station_id":"PDJ","i_long":106.74273},{"transit":false,"i_long":106.728916,"distance":2179,"line":6,"time":3,"i_lat":-6.288927,"station_name":"Jurangmangu","is_transit":false,"station_id":"JMU"},{"line":6,"is_transit":false,"i_lat":-6.296963,"station_id":"SDM","i_long":106.712277,"transit":false,"time":4,"station_name":"Sudimara","distance":1994}],[{"time":0,"station_id":"BKS","transit":false,"i_long":106.997013,"distance":0,"line":0,"is_transit":false,"i_lat":-6.236616,"station_name":"Bekasi"},{"station_id":"KRI","time":4,"transit":false,"i_long":106.977657,"line":1,"station_name":"Kranji","i_lat":-6.224515,"distance":2520,"is_transit":false},{"distance":3097,"is_transit":false,"i_lat":-6.219053,"transit":false,"i_long":106.951283,"time":3,"station_name":"Cakung","station_id":"CUK","line":0},{"station_id":"KLDB","is_transit":false,"distance":1385,"i_lat":-6.217455,"i_long":106.939679,"transit":false,"station_name":"Klenderbaru","line":1,"time":8},{"distance":1305,"station_id":"BUA","station_name":"Buaran","transit":false,"is_transit":false,"i_lat":-6.215568,"time":1,"i_long":106.922662,"line":0},{"i_long":106.899548,"is_transit":false,"i_lat":-6.2135,"line":1,"time":2,"transit":false,"station_name":"Klender","station_id":"KLD","distance":3100},{"station_name":"Jatinegara","is_transit":true,"line":0,"i_lat":-6.215091,"i_long":106.86807400000001,"distance":3395,"station_id":"JNG","transit":true,"time":3},{"time":2,"distance":1236,"i_lat":-6.209188,"i_long":106.861737,"station_name":"Pondok Jati","line":11,"transit":false,"station_id":"POK","is_transit":false},{"line":11,"station_name":"Kramat","transit":false,"i_long":106.855437,"is_transit":false,"i_lat":-6.193792,"time":2,"distance":1829,"station_id":"KMT"},{"time":1,"i_lat":-6.185975,"i_long":106.850107,"station_id":"GST","station_name":"Gang Sentiong","is_transit":false,"transit":false,"line":11,"distance":973},{"distance":1567,"station_id":"PSE","transit":false,"line":11,"is_transit":false,"station_name":"Pasar Senen","i_lat":-6.174784,"i_long":106.84368,"time":8},{"line":11,"station_name":"Kemayoran","transit":false,"distance":1436,"time":4,"is_transit":false,"station_id":"KMO","i_lat":-6.161728,"i_long":106.839204},{"is_transit":false,"station_name":"Rajawali","distance":1901,"i_long":106.836569,"station_id":"RJW","time":5,"line":11,"transit":false,"i_lat":-6.14505},{"time":3,"distance":1444,"is_transit":true,"i_lat":-6.132549,"station_name":"Kampung Bandan","station_id":"KPB","line":0,"i_long":106.826365,"transit":true},{"distance":4102,"station_name":"Angke","i_long":106.79867,"line":0,"is_transit":false,"i_lat":-6.144674,"station_id":"AK","time":9,"transit":false},{"i_long":106.800832,"station_id":"DU","is_transit":true,"time":4,"distance":1230,"i_lat":-6.155215,"transit":true,"station_name":"Duri","line":1},{"transit":true,"i_long":106.811091,"line":1,"station_name":"Tanah Abang","time":8,"station_id":"THB","i_lat":-6.185545,"is_transit":true,"distance":3632},{"i_lat":-6.207404,"distance":3191,"i_long":106.79689,"line":6,"is_transit":false,"transit":false,"station_name":"Palmerah","time":6,"station_id":"PLM"},{"time":7,"i_lat":-6.237242,"line":6,"i_long":106.780334,"is_transit":false,"station_id":"KBY","distance":3737,"station_name":"Kebayoran","transit":false},{"i_long":106.74273,"station_name":"Pondokranji","line":6,"time":8,"transit":false,"is_transit":false,"distance":6218,"station_id":"PDJ","i_lat":-6.276362},{"station_id":"JMU","line":6,"station_name":"Jurangmangu","i_lat":-6.288927,"time":3,"distance":2179,"is_transit":false,"i_long":106.728916,"transit":false},{"i_long":106.712277,"time":4,"distance":1994,"transit":false,"is_transit":false,"i_lat":-6.296963,"station_id":"SDM","station_name":"Sudimara","line":6}],[{"distance":0,"i_lat":-6.236616,"i_long":106.997013,"station_id":"BKS","station_name":"Bekasi","line":0,"is_transit":false,"transit":false,"time":0},{"station_id":"KRI","transit":false,"i_long":106.977657,"is_transit":false,"station_name":"Kranji","i_lat":-6.224515,"time":4,"distance":2520,"line":1},{"station_id":"CUK","time":3,"transit":false,"is_transit":false,"i_lat":-6.219053,"i_long":106.951283,"line":0,"station_name":"Cakung","distance":3097},{"is_transit":false,"time":8,"line":1,"transit":false,"station_id":"KLDB","i_long":106.939679,"station_name":"Klenderbaru","i_lat":-6.217455,"distance":1385},{"station_name":"Buaran","i_long":106.922662,"line":0,"transit":false,"is_transit":false,"time":1,"distance":1305,"station_id":"BUA","i_lat":-6.215568},{"station_name":"Klender","time":2,"distance":3100,"transit":false,"i_lat":-6.2135,"i_long":106.899548,"is_transit":false,"line":1,"station_id":"KLD"},{"station_name":"Jatinegara","line":0,"station_id":"JNG","distance":3395,"i_lat":-6.215091,"transit":false,"i_long":106.86807400000001,"time":3,"is_transit":true},{"station_id":"MTR","is_transit":false,"time":2,"station_name":"Matraman","transit":false,"distance":1377,"i_lat":-6.212485,"i_long":106.858896,"line":1},{"time":2,"station_id":"MRI","i_lat":-6.209883,"distance":1275,"transit":true,"i_long":106.84912,"is_transit":true,"station_name":"Manggarai","line":0},{"station_name":"Cikini","time":4,"station_id":"CKI","is_transit":false,"transit":false,"i_lat":-6.198556,"i_long":106.840169,"line":0,"distance":1590},{"i_lat":-6.186295,"is_transit":false,"i_long":106.832183,"line":2,"station_name":"Gondangdia","station_id":"GDD","distance":1750,"transit":false,"time":3},{"line":2,"station_name":"Juanda","i_lat":-6.166716,"distance":2015,"station_id":"JUA","is_transit":false,"time":4,"i_long":106.828284,"transit":false},{"station_id":"SW","is_transit":false,"distance":1149,"line":2,"time":2,"station_name":"Sawah Besar","i_lat":-6.160725,"i_long":106.827103,"transit":false},{"station_name":"Manggabesar","time":2,"i_lat":-6.149769,"distance":906,"is_transit":false,"transit":false,"i_long":106.82482,"line":2,"station_id":"MGB"},{"is_transit":false,"line":7,"station_name":"Jayakarta","i_lat":-6.141205,"transit":false,"station_id":"JAY","i_long":106.820901,"time":2,"distance":1080},{"is_transit":true,"distance":1264,"i_lat":-6.137569,"transit":true,"time":4,"station_name":"Jakarta Kota","i_long":106.812439,"line":0,"station_id":"JAKK"},{"distance":1364,"station_name":"Kampung Bandan","i_lat":-6.132549,"time":3,"is_transit":true,"line":0,"station_id":"KPB","transit":false,"i_long":106.826365},{"i_long":106.79867,"time":9,"distance":4102,"transit":false,"station_name":"Angke","line":0,"station_id":"AK","is_transit":false,"i_lat":-6.144674},{"station_name":"Duri","time":4,"i_long":106.800832,"line":1,"i_lat":-6.155215,"is_transit":true,"transit":true,"distance":1230,"station_id":"DU"},{"i_lat":-6.185545,"i_long":106.811091,"station_name":"Tanah Abang","line":1,"distance":3632,"station_id":"THB","time":8,"transit":true,"is_transit":true},{"station_id":"PLM","line":6,"transit":false,"i_lat":-6.207404,"is_transit":false,"station_name":"Palmerah","distance":3191,"i_long":106.79689,"time":6},{"time":7,"is_transit":false,"distance":3737,"line":6,"station_id":"KBY","i_lat":-6.237242,"i_long":106.780334,"transit":false,"station_name":"Kebayoran"},{"i_lat":-6.276362,"time":8,"station_id":"PDJ","i_long":106.74273,"is_transit":false,"line":6,"distance":6218,"transit":false,"station_name":"Pondokranji"},{"is_transit":false,"i_lat":-6.288927,"distance":2179,"transit":false,"time":3,"station_id":"JMU","i_long":106.728916,"line":6,"station_name":"Jurangmangu"},{"station_id":"SDM","distance":1994,"station_name":"Sudimara","line":6,"transit":false,"time":4,"i_lat":-6.296963,"is_transit":false,"i_long":106.712277}],[{"line":0,"time":0,"is_transit":false,"station_id":"BKS","i_long":106.997013,"i_lat":-6.236616,"transit":false,"station_name":"Bekasi","distance":0},{"station_id":"KRI","distance":2520,"station_name":"Kranji","i_lat":-6.224515,"i_long":106.977657,"time":4,"transit":false,"is_transit":false,"line":1},{"transit":false,"distance":3097,"i_long":106.951283,"time":3,"station_name":"Cakung","station_id":"CUK","i_lat":-6.219053,"line":0,"is_transit":false},{"distance":1385,"line":1,"transit":false,"is_transit":false,"station_name":"Klenderbaru","i_lat":-6.217455,"station_id":"KLDB","time":8,"i_long":106.939679},{"station_id":"BUA","station_name":"Buaran","transit":false,"i_lat":-6.215568,"line":0,"time":1,"is_transit":false,"i_long":106.922662,"distance":1305},{"time":2,"transit":false,"i_long":106.899548,"is_transit":false,"station_id":"KLD","i_lat":-6.2135,"line":1,"distance":3100,"station_name":"Klender"},{"time":3,"is_transit":true,"line":0,"station_name":"Jatinegara","distance":3395,"i_lat":-6.215091,"i_long":106.86807400000001,"station_id":"JNG","transit":true},{"station_name":"Pondok Jati","is_transit":false,"distance":1236,"transit":false,"i_long":106.861737,"line":11,"time":2,"station_id":"POK","i_lat":-6.209188},{"line":11,"station_name":"Kramat","i_lat":-6.193792,"distance":1829,"transit":false,"time":2,"station_id":"KMT","is_transit":false,"i_long":106.855437},{"i_lat":-6.185975,"station_name":"Gang Sentiong","transit":false,"time":1,"i_long":106.850107,"station_id":"GST","is_transit":false,"distance":973,"line":11},{"distance":1567,"i_long":106.84368,"station_id":"PSE","is_transit":false,"station_name":"Pasar Senen","i_lat":-6.174784,"time":8,"transit":false,"line":11},{"transit":false,"i_long":106.839204,"time":4,"distance":1436,"station_id":"KMO","i_lat":-6.161728,"line":11,"is_transit":false,"station_name":"Kemayoran"},{"station_id":"RJW","i_lat":-6.14505,"i_long":106.836569,"line":11,"station_name":"Rajawali","distance":1901,"time":5,"is_transit":false,"transit":false},{"distance":1444,"station_name":"Kampung Bandan","i_lat":-6.132549,"station_id":"KPB","i_long":106.826365,"transit":true,"is_transit":true,"line":0,"time":3},{"distance":1364,"i_long":106.812439,"station_id":"JAKK","time":3,"transit":true,"is_transit":true,"i_lat":-6.137569,"line":0,"station_name":"Jakarta Kota"},{"station_name":"Jayakarta","is_transit":false,"line":7,"time":4,"station_id":"JAY","distance":1264,"transit":false,"i_long":106.820901,"i_lat":-6.141205},{"i_lat":-6.149769,"line":2,"distance":1080,"is_transit":false,"station_id":"MGB","i_long":106.82482,"transit":false,"station_name":"Manggabesar","time":2},{"distance":906,"i_lat":-6.160725,"line":2,"transit":false,"is_transit":false,"i_long":106.827103,"time":2,"station_id":"SW","station_name":"Sawah Besar"},{"i_long":106.828284,"transit":false,"distance":1149,"time":2,"is_transit":false,"i_lat":-6.166716,"line":2,"station_id":"JUA","station_name":"Juanda"},{"is_transit":false,"i_lat":-6.186295,"time":4,"distance":2015,"station_id":"GDD","line":2,"i_long":106.832183,"station_name":"Gondangdia","transit":false},{"i_long":106.840169,"transit":false,"line":0,"time":3,"distance":1750,"station_name":"Cikini","i_lat":-6.198556,"station_id":"CKI","is_transit":false},{"line":0,"distance":1590,"time":4,"station_name":"Manggarai","station_id":"MRI","is_transit":true,"i_lat":-6.209883,"i_long":106.84912,"transit":true},{"distance":3186,"transit":false,"time":4,"i_lat":-6.202263,"i_long":106.822649,"line":1,"station_id":"SUD","station_name":"Sudirman","is_transit":false},{"station_name":"Sudirman Baru","i_long":106.819881,"i_lat":-6.201433,"transit":false,"distance":280,"station_id":"SUDB","time":1,"is_transit":false,"line":1},{"line":1,"i_long":106.816351,"transit":false,"time":1,"distance":471,"station_id":"KAT","is_transit":false,"station_name":"Karet","i_lat":-6.20132},{"station_id":"THB","time":5,"transit":true,"station_name":"Tanah Abang","i_long":106.811091,"line":1,"distance":2029,"i_lat":-6.185545,"is_transit":true},{"is_transit":false,"time":6,"i_lat":-6.207404,"distance":3191,"station_id":"PLM","station_name":"Palmerah","transit":false,"line":6,"i_long":106.79689},{"distance":3737,"station_name":"Kebayoran","time":7,"i_lat":-6.237242,"transit":false,"i_long":106.780334,"line":6,"station_id":"KBY","is_transit":false},{"time":8,"station_name":"Pondokranji","i_lat":-6.276362,"station_id":"PDJ","transit":false,"i_long":106.74273,"line":6,"distance":6218,"is_transit":false},{"transit":false,"i_lat":-6.288927,"station_id":"JMU","distance":2179,"time":3,"line":6,"is_transit":false,"station_name":"Jurangmangu","i_long":106.728916},{"time":4,"station_name":"Sudimara","line":6,"is_transit":false,"distance":1994,"station_id":"SDM","i_long":106.712277,"i_lat":-6.296963,"transit":false}]]}