{"data":[[{"station_id":"BKS","transit":false,"station_name":"Bekasi","time":0,"line":1,"i_long":106.997013,"distance":0,"i_lat":-6.236616,"is_transit":false},{"is_transit":false,"time":4,"station_name":"Kranji","distance":2520,"transit":false,"i_lat":-6.224515,"line":1,"station_id":"KRI","i_long":106.977657},{"is_transit":false,"transit":false,"i_lat":-6.219053,"line":1,"distance":3097,"i_long":106.951283,"station_id":"CUK","time":3,"station_name":"Cakung"},{"is_transit":false,"i_lat":-6.217455,"line":1,"station_id":"KLDB","station_name":"Klenderbaru","transit":false,"distance":1385,"i_long":106.939679,"time":8},{"line":1,"transit":false,"distance":1305,"station_name":"Buaran","station_id":"BUA","i_lat":-6.215568,"is_transit":false,"i_long":106.922662,"time":1},{"distance":3100,"i_lat":-6.2135,"i_long":106.899548,"station_id":"KLD","line":1,"is_transit":false,"station_name":"Klender","transit":false,"time":2},{"i_lat":-6.215091,"time":3,"distance":3395,"station_id":"JNG","station_name":"Jatinegara","is_transit":false,"transit":false,"i_long":106.86807400000001,"line":1},{"transit":false,"is_transit":false,"i_lat":-6.212485,"distance":1377,"time":2,"station_name":"Matraman","i_long":106.858896,"line":1,"station_id":"MTR"},{"is_transit":false,"time":2,"station_name":"Manggarai","line":2,"transit":false,"i_long":106.84912,"distance":1275,"station_id":"MRI","i_lat":-6.209883},{"i_long":106.822649,"i_lat":-6.202263,"distance":3186,"station_name":"Sudirman","is_transit":false,"station_id":"SUD","time":4,"transit":false,"line":1},{"i_lat":-6.201433,"station_name":"Sudirman Baru","station_id":"SUDB","time":1,"i_long":106.819881,"line":1,"transit":false,"is_transit":false,"distance":280}],[{"i_lat":-6.236616,"transit":false,"time":0,"station_id":"BKS","station_name":"Bekasi","is_transit":false,"i_long":106.997013,"line":1,"distance":0},{"i_long":106.977657,"time":4,"i_lat":-6.224515,"line":1,"distance":2520,"station_id":"KRI","is_transit":false,"transit":false,"station_name":"Kranji"},{"line":1,"transit":false,"i_lat":-6.219053,"distance":3097,"is_transit":false,"station_id":"CUK","time":3,"station_name":"Cakung","i_long":106.951283},{"is_transit":false,"station_name":"Klenderbaru","i_long":106.939679,"transit":false,"distance":1385,"i_lat":-6.217455,"line":1,"station_id":"KLDB","time":8},{"time":1,"i_long":106.922662,"is_transit":false,"i_lat":-6.215568,"station_id":"BUA","station_name":"Buaran","distance":1305,"transit":false,"line":1},{"line":1,"i_long":106.899548,"station_name":"Klender","distance":3100,"time":2,"transit":false,"is_transit":false,"station_id":"KLD","i_lat":-6.2135},{"transit":true,"distance":3395,"line":1,"is_transit":true,"time":3,"station_id":"JNG","i_lat":-6.215091,"i_long":106.86807400000001,"station_name":"Jatinegara"},{"transit":false,"line":11,"station_name":"Pondok Jati","i_lat":-6.209188,"distance":1236,"is_transit":false,"i_long":106.861737,"station_id":"POK","time":2},{"i_lat":-6.193792,"line":11,"distance":1829,"is_transit":false,"station_name":"Kramat","station_id":"KMT","time":2,"transit":false,"i_long":106.855437},{"i_lat":-6.185975,"line":11,"distance":973,"is_transit":false,"time":1,"station_name":"Gang Sentiong","station_id":"GST","i_long":106.850107,"transit":false},{"is_transit":false,"station_name":"Pasar Senen","i_lat":-6.174784,"station_id":"PSE","i_long":106.84368,"distance":1567,"time":8,"transit":false,"line":11},{"is_transit":false,"line":11,"i_long":106.839204,"transit":false,"station_name":"Kemayoran","station_id":"KMO","i_lat":-6.161728,"time":4,"distance":1436},{"transit":false,"is_transit":false,"i_lat":-6.14505,"station_name":"Rajawali","station_id":"RJW","line":11,"distance":1901,"i_long":106.836569,"time":5},{"i_lat":-6.132549,"i_long":106.826365,"station_id":"KPB","time":3,"distance":1444,"station_name":"Kampung Bandan","line":4,"is_transit":true,"transit":true},{"station_name":"Angke","i_lat":-6.144674,"line":1,"i_long":106.79867,"distance":4102,"is_transit":false,"transit":false,"time":9,"station_id":"AK"},{"distance":1230,"i_long":106.800832,"line":1,"is_transit":false,"transit":false,"time":4,"i_lat":-6.155215,"station_id":"DU","station_name":"Duri"},{"time":8,"distance":3632,"station_id":"THB","i_lat":-6.185545,"is_transit":false,"transit":false,"station_name":"Tanah Abang","line":1,"i_long":106.811091},{"time":5,"station_name":"Karet","station_id":"KAT","distance":2029,"transit":false,"i_long":106.816351,"line":1,"i_lat":-6.20132,"is_transit":false},{"i_long":106.819881,"line":1,"distance":471,"station_name":"Sudirman Baru","i_lat":-6.201433,"is_transit":false,"station_id":"SUDB","time":1,"transit":false}],[{"station_id":"BKS","transit":false,"i_long":106.997013,"distance":0,"line":1,"station_name":"Bekasi","is_transit":false,"time":0,"i_lat":-6.236616},{"distance":2520,"station_id":"KRI","time":4,"is_transit":false,"i_lat":-6.224515,"line":1,"station_name":"Kranji","transit":false,"i_long":106.977657},{"station_name":"Cakung","i_long":106.951283,"transit":false,"distance":3097,"time":3,"i_lat":-6.219053,"station_id":"CUK","line":1,"is_transit":false},{"line":1,"transit":false,"i_long":106.939679,"time":8,"station_name":"Klenderbaru","station_id":"KLDB","distance":1385,"i_lat":-6.217455,"is_transit":false},{"time":1,"line":1,"station_id":"BUA","is_transit":false,"station_name":"Buaran","i_long":106.922662,"transit":false,"distance":1305,"i_lat":-6.215568},{"is_transit":false,"time":2,"i_lat":-6.2135,"station_id":"KLD","distance":3100,"i_long":106.899548,"transit":false,"station_name":"Klender","line":1},{"transit":false,"distance":3395,"station_id":"JNG","i_lat":-6.215091,"i_long":106.86807400000001,"station_name":"Jatinegara","is_transit":false,"line":1,"time":3},{"i_lat":-6.212485,"is_transit":false,"time":2,"line":1,"station_id":"MTR","station_name":"Matraman","i_long":106.858896,"transit":false,"distance":1377},{"transit":true,"station_id":"MRI","time":2,"i_long":106.84912,"is_transit":true,"station_name":"Manggarai","line":2,"distance":1275,"i_lat":-6.209883},{"i_lat":-6.198556,"transit":false,"line":2,"time":4,"i_long":106.840169,"station_name":"Cikini","station_id":"CKI","is_transit":false,"distance":1590},{"distance":1750,"line":2,"i_long":106.832183,"station_id":"GDD","is_transit":false,"station_name":"Gondangdia","time":3,"transit":false,"i_lat":-6.186295},{"distance":2015,"i_long":106.828284,"i_lat":-6.166716,"transit":false,"is_transit":false,"station_id":"JUA","line":2,"station_name":"Juanda","time":4},{"transit":false,"station_name":"Sawah Besar","is_transit":false,"distance":1149,"i_long":106.827103,"station_id":"SW","i_lat":-6.160725,"line":2,"time":2},{"line":2,"station_id":"MGB","distance":906,"transit":false,"station_name":"Manggabesar","i_lat":-6.149769,"is_transit":false,"time":2,"i_long":106.82482},{"station_id":"JAY","time":2,"distance":1080,"i_long":106.820901,"i_lat":-6.141205,"line":2,"station_name":"Jayakarta","is_transit":false,"transit":false},{"line":2,"i_long":106.812439,"station_name":"Jakarta Kota","distance":1264,"station_id":"JAKK","is_transit":true,"time":4,"transit":true,"i_lat":-6.137569},{"station_id":"KPB","i_lat":-6.132549,"line":4,"i_long":106.826365,"time":3,"is_transit":true,"transit":true,"distance":1364,"station_name":"Kampung Bandan"},{"transit":false,"i_lat":-6.144674,"time":9,"station_name":"Angke","station_id":"AK","distance":4102,"line":1,"i_long":106.79867,"is_transit":false},{"station_id":"DU","station_name":"Duri","is_transit":false,"i_lat":-6.155215,"i_long":106.800832,"time":4,"transit":false,"distance":1230,"line":1},{"i_lat":-6.185545,"station_id":"THB","distance":3632,"transit":false,"i_long":106.811091,"station_name":"Tanah Abang","is_transit":false,"line":1,"time":8},{"is_transit":false,"time":5,"station_name":"Karet","i_lat":-6.20132,"line":1,"i_long":106.816351,"distance":2029,"station_id":"KAT","transit":false},{"station_name":"Sudirman Baru","line":1,"transit":false,"i_lat":-6.201433,"i_long":106.819881,"station_id":"SUDB","distance":471,"time":1,"is_transit":false}],[{"station_id":"BKS","distance":0,"station_name":"Bekasi","is_transit":false,"time":0,"i_lat":-6.236616,"line":1,"transit":false,"i_long":106.997013},{"time":4,"i_long":106.977657,"line":1,"station_name":"Kranji","is_transit":false,"station_id":"KRI","distance":2520,"transit":false,"i_lat":-6.224515},{"i_lat":-6.219053,"is_transit":false,"time":3,"distance":3097,"transit":false,"line":1,"station_name":"Cakung","station_id":"CUK","i_long":106.951283},{"station_id":"KLDB","is_transit":false,"distance":1385,"transit":false,"i_lat":-6.217455,"station_name":"Klenderbaru","time":8,"line":1,"i_long":106.939679},{"distance":1305,"station_id":"BUA","transit":false,"i_lat":-6.215568,"i_long":106.922662,"is_transit":false,"line":1,"station_name":"Buaran","time":1},{"time":2,"transit":false,"distance":3100,"i_lat":-6.2135,"station_id":"KLD","station_name":"Klender","is_transit":false,"i_long":106.899548,"line":1},{"station_name":"Jatinegara","transit":true,"is_transit":true,"i_lat":-6.215091,"station_id":"JNG","time":3,"i_long":106.86807400000001,"line":1,"distance":3395},{"i_long":106.861737,"transit":false,"time":2,"distance":1236,"i_lat":-6.209188,"station_name":"Pondok Jati","line":11,"station_id":"POK","is_transit":false},{"is_transit":false,"distance":1829,"time":2,"station_name":"Kramat","line":11,"station_id":"KMT","transit":false,"i_lat":-6.193792,"i_long":106.855437},{"i_lat":-6.185975,"station_id":"GST","line":11,"time":1,"is_transit":false,"transit":false,"station_name":"Gang Sentiong","distance":973,"i_long":106.850107},{"station_id":"PSE","is_transit":false,"i_long":106.84368,"transit":false,"distance":1567,"time":8,"i_lat":-6.174784,"station_name":"Pasar Senen","line":11},{"transit":false,"line":11,"distance":1436,"i_lat":-6.161728,"i_long":106.839204,"is_transit":false,"time":4,"station_id":"KMO","station_name":"Kemayoran"},{"i_long":106.836569,"distance":1901,"station_name":"Rajawali","i_lat":-6.14505,"station_id":"RJW","is_transit":false,"time":5,"transit":false,"line":11},{"transit":true,"station_name":"Kampung Bandan","is_transit":true,"distance":1444,"i_long":106.826365,"line":4,"time":3,"i_lat":-6.132549,"station_id":"KPB"},{"station_id":"JAKK","is_transit":true,"time":3,"transit":true,"i_long":106.812439,"line":2,"distance":1364,"i_lat":-6.137569,"station_name":"Jakarta Kota"},{"i_lat":-6.141205,"time":4,"transit":false,"distance":1264,"i_long":106.820901,"line":2,"station_name":"Jayakarta","station_id":"JAY","is_transit":false},{"i_long":106.82482,"line":2,"transit":false,"station_name":"Manggabesar","station_id":"MGB","distance":1080,"is_transit":false,"time":2,"i_lat":-6.149769},{"is_transit":false,"transit":false,"distance":906,"time":2,"i_lat":-6.160725,"line":2,"i_long":106.827103,"station_id":"SW","station_name":"Sawah Besar"},{"i_lat":-6.166716,"time":2,"station_id":"JUA","distance":1149,"line":2,"station_name":"Juanda","is_transit":false,"transit":false,"i_long":106.828284},{"station_name":"Gondangdia","distance":2015,"i_long":106.832183,"station_id":"GDD","transit":false,"time":4,"is_transit":false,"i_lat":-6.186295,"line":2},{"station_name":"Cikini","line":2,"distance":1750,"is_transit":false,"time":3,"transit":false,"i_lat":-6.198556,"station_id":"CKI","i_long":106.840169},{"is_transit":true,"time":4,"station_id":"MRI","distance":1590,"station_name":"Manggarai","transit":true,"i_lat":-6.209883,"i_long":106.84912,"line":2},{"i_lat":-6.202263,"i_long":106.822649,"distance":3186,"line":1,"is_transit":false,"transit":false,"time":4,"station_id":"SUD","station_name":"Sudirman"},{"transit":false,"station_id":"SUDB","station_name":"Sudirman Baru","distance":280,"is_transit":false,"i_long":106.819881,"line":1,"time":1,"i_lat":-6.201433}]]}