{"data":[[{"i_lat":-6.236616,"station_id":"BKS","time":0,"line":0,"station_name":"Bekasi","transit":false,"is_transit":false,"i_long":106.997013,"distance":0},{"transit":false,"station_id":"KRI","station_name":"Kranji","i_long":106.977657,"line":1,"i_lat":-6.224515,"time":4,"distance":2520,"is_transit":false},{"line":0,"is_transit":false,"transit":false,"station_name":"Cakung","i_lat":-6.219053,"distance":3097,"station_id":"CUK","i_long":106.951283,"time":3},{"distance":1385,"station_name":"Klenderbaru","transit":false,"time":8,"line":1,"i_lat":-6.217455,"station_id":"KLDB","i_long":106.939679,"is_transit":false},{"distance":1305,"station_id":"BUA","station_name":"Buaran","is_transit":false,"line":0,"i_long":106.922662,"transit":false,"i_lat":-6.215568,"time":1},{"line":1,"station_name":"Klender","is_transit":false,"transit":false,"station_id":"KLD","i_lat":-6.2135,"i_long":106.899548,"distance":3100,"time":2},{"station_id":"JNG","time":3,"line":0,"i_lat":-6.215091,"distance":3395,"station_name":"Jatinegara","transit":false,"i_long":106.86807400000001,"is_transit":true},{"distance":1377,"i_lat":-6.212485,"is_transit":false,"time":2,"transit":false,"station_id":"MTR","i_long":106.858896,"station_name":"Matraman","line":1},{"line":0,"is_transit":true,"station_name":"Manggarai","time":2,"distance":1275,"transit":false,"i_long":106.84912,"i_lat":-6.209883,"station_id":"MRI"},{"is_transit":false,"line":1,"i_lat":-6.202263,"station_id":"SUD","transit":false,"time":4,"station_name":"Sudirman","distance":3186,"i_long":106.822649},{"i_lat":-6.201433,"i_long":106.819881,"time":1,"line":1,"distance":280,"station_id":"SUDB","station_name":"Sudirman Baru","is_transit":false,"transit":false},{"time":1,"is_transit":false,"station_id":"KAT","station_name":"Karet","distance":471,"transit":false,"i_lat":-6.20132,"line":1,"i_long":106.816351}],[{"line":0,"station_id":"BKS","i_long":106.997013,"station_name":"Bekasi","transit":false,"distance":0,"i_lat":-6.236616,"is_transit":false,"time":0},{"transit":false,"station_name":"Kranji","is_transit":false,"time":4,"line":1,"station_id":"KRI","i_long":106.977657,"distance":2520,"i_lat":-6.224515},{"station_name":"Cakung","i_long":106.951283,"distance":3097,"time":3,"i_lat":-6.219053,"transit":false,"is_transit":false,"line":0,"station_id":"CUK"},{"i_lat":-6.217455,"distance":1385,"transit":false,"i_long":106.939679,"line":1,"station_id":"KLDB","time":8,"station_name":"Klenderbaru","is_transit":false},{"is_transit":false,"i_long":106.922662,"station_name":"Buaran","station_id":"BUA","i_lat":-6.215568,"line":0,"transit":false,"time":1,"distance":1305},{"time":2,"distance":3100,"i_long":106.899548,"station_name":"Klender","is_transit":false,"i_lat":-6.2135,"station_id":"KLD","line":1,"transit":false},{"line":0,"is_transit":true,"transit":true,"station_id":"JNG","time":3,"i_lat":-6.215091,"distance":3395,"i_long":106.86807400000001,"station_name":"Jatinegara"},{"i_long":106.861737,"distance":1236,"station_id":"POK","is_transit":false,"line":11,"time":2,"transit":false,"i_lat":-6.209188,"station_name":"Pondok Jati"},{"distance":1829,"i_long":106.855437,"i_lat":-6.193792,"is_transit":false,"line":11,"transit":false,"station_id":"KMT","station_name":"Kramat","time":2},{"i_long":106.850107,"station_id":"GST","line":11,"station_name":"Gang Sentiong","time":1,"distance":973,"is_transit":false,"transit":false,"i_lat":-6.185975},{"station_name":"Pasar Senen","distance":1567,"i_long":106.84368,"transit":false,"line":11,"is_transit":false,"i_lat":-6.174784,"time":8,"station_id":"PSE"},{"is_transit":false,"transit":false,"station_name":"Kemayoran","i_lat":-6.161728,"time":4,"station_id":"KMO","distance":1436,"line":11,"i_long":106.839204},{"station_name":"Rajawali","time":5,"line":11,"station_id":"RJW","distance":1901,"is_transit":false,"i_lat":-6.14505,"i_long":106.836569,"transit":false},{"i_long":106.826365,"distance":1444,"line":0,"transit":true,"station_id":"KPB","time":3,"is_transit":true,"station_name":"Kampung Bandan","i_lat":-6.132549},{"i_lat":-6.144674,"station_id":"AK","transit":false,"is_transit":false,"time":9,"station_name":"Angke","distance":4102,"line":0,"i_long":106.79867},{"station_id":"DU","transit":true,"is_transit":true,"station_name":"Duri","distance":1230,"line":1,"time":4,"i_long":106.800832,"i_lat":-6.155215},{"line":1,"i_lat":-6.185545,"distance":3632,"station_name":"Tanah Abang","i_long":106.811091,"is_transit":true,"station_id":"THB","time":8,"transit":false},{"station_name":"Karet","station_id":"KAT","line":1,"i_lat":-6.20132,"time":5,"is_transit":false,"distance":2029,"i_long":106.816351,"transit":false}],[{"i_lat":-6.236616,"station_name":"Bekasi","transit":false,"distance":0,"line":0,"station_id":"BKS","is_transit":false,"time":0,"i_long":106.997013},{"i_lat":-6.224515,"distance":2520,"time":4,"is_transit":false,"station_name":"Kranji","transit":false,"station_id":"KRI","i_long":106.977657,"line":1},{"line":0,"transit":false,"distance":3097,"station_id":"CUK","station_name":"Cakung","i_lat":-6.219053,"is_transit":false,"i_long":106.951283,"time":3},{"i_long":106.939679,"station_name":"Klenderbaru","time":8,"transit":false,"i_lat":-6.217455,"distance":1385,"station_id":"KLDB","is_transit":false,"line":1},{"distance":1305,"station_id":"BUA","line":0,"is_transit":false,"time":1,"transit":false,"station_name":"Buaran","i_lat":-6.215568,"i_long":106.922662},{"i_lat":-6.2135,"is_transit":false,"transit":false,"line":1,"time":2,"station_name":"Klender","i_long":106.899548,"station_id":"KLD","distance":3100},{"time":3,"station_id":"JNG","station_name":"Jatinegara","is_transit":true,"i_lat":-6.215091,"line":0,"transit":false,"distance":3395,"i_long":106.86807400000001},{"i_lat":-6.212485,"line":1,"station_name":"Matraman","is_transit":false,"station_id":"MTR","i_long":106.858896,"time":2,"distance":1377,"transit":false},{"time":2,"station_id":"MRI","is_transit":true,"transit":true,"i_long":106.84912,"line":0,"i_lat":-6.209883,"distance":1275,"station_name":"Manggarai"},{"i_lat":-6.198556,"station_id":"CKI","is_transit":false,"line":0,"time":4,"station_name":"Cikini","i_long":106.840169,"transit":false,"distance":1590},{"is_transit":false,"time":3,"transit":false,"distance":1750,"station_name":"Gondangdia","i_lat":-6.186295,"station_id":"GDD","i_long":106.832183,"line":2},{"i_long":106.828284,"transit":false,"i_lat":-6.166716,"time":4,"station_id":"JUA","line":2,"distance":2015,"station_name":"Juanda","is_transit":false},{"station_id":"SW","distance":1149,"i_lat":-6.160725,"line":2,"time":2,"is_transit":false,"i_long":106.827103,"station_name":"Sawah Besar","transit":false},{"station_id":"MGB","station_name":"Manggabesar","i_lat":-6.149769,"transit":false,"distance":906,"time":2,"line":2,"i_long":106.82482,"is_transit":false},{"i_long":106.820901,"is_transit":false,"transit":false,"station_id":"JAY","time":2,"distance":1080,"i_lat":-6.141205,"line":7,"station_name":"Jayakarta"},{"time":4,"station_name":"Jakarta Kota","distance":1264,"line":0,"transit":true,"station_id":"JAKK","i_lat":-6.137569,"i_long":106.812439,"is_transit":true},{"station_name":"Kampung Bandan","transit":false,"i_lat":-6.132549,"station_id":"KPB","time":3,"is_transit":true,"distance":1364,"i_long":106.826365,"line":0},{"line":0,"station_id":"AK","station_name":"Angke","i_lat":-6.144674,"distance":4102,"is_transit":false,"time":9,"transit":false,"i_long":106.79867},{"time":4,"distance":1230,"i_lat":-6.155215,"line":1,"station_name":"Duri","i_long":106.800832,"is_transit":true,"transit":true,"station_id":"DU"},{"transit":false,"distance":3632,"station_name":"Tanah Abang","station_id":"THB","i_long":106.811091,"time":8,"i_lat":-6.185545,"line":1,"is_transit":true},{"distance":2029,"i_lat":-6.20132,"station_name":"Karet","line":1,"station_id":"KAT","time":5,"i_long":106.816351,"is_transit":false,"transit":false}],[{"line":0,"is_transit":false,"transit":false,"station_id":"BKS","time":0,"station_name":"Bekasi","i_long":106.997013,"distance":0,"i_lat":-6.236616},{"time":4,"line":1,"station_name":"Kranji","is_transit":false,"distance":2520,"i_long":106.977657,"transit":false,"i_lat":-6.224515,"station_id":"KRI"},{"transit":false,"station_name":"Cakung","i_lat":-6.219053,"i_long":106.951283,"distance":3097,"line":0,"time":3,"station_id":"CUK","is_transit":false},{"i_lat":-6.217455,"line":1,"station_name":"Klenderbaru","station_id":"KLDB","distance":1385,"transit":false,"i_long":106.939679,"time":8,"is_transit":false},{"line":0,"distance":1305,"i_long":106.922662,"i_lat":-6.215568,"station_id":"BUA","time":1,"station_name":"Buaran","transit":false,"is_transit":false},{"transit":false,"station_name":"Klender","time":2,"is_transit":false,"distance":3100,"station_id":"KLD","i_lat":-6.2135,"i_long":106.899548,"line":1},{"transit":true,"time":3,"line":0,"station_id":"JNG","station_name":"Jatinegara","i_lat":-6.215091,"distance":3395,"i_long":106.86807400000001,"is_transit":true},{"station_name":"Pondok Jati","i_long":106.861737,"station_id":"POK","distance":1236,"transit":false,"is_transit":false,"i_lat":-6.209188,"line":11,"time":2},{"line":11,"transit":false,"i_lat":-6.193792,"is_transit":false,"station_name":"Kramat","station_id":"KMT","i_long":106.855437,"time":2,"distance":1829},{"line":11,"transit":false,"i_long":106.850107,"i_lat":-6.185975,"station_id":"GST","time":1,"station_name":"Gang Sentiong","is_transit":false,"distance":973},{"distance":1567,"station_name":"Pasar Senen","i_long":106.84368,"is_transit":false,"station_id":"PSE","transit":false,"time":8,"i_lat":-6.174784,"line":11},{"i_long":106.839204,"station_id":"KMO","station_name":"Kemayoran","i_lat":-6.161728,"line":11,"is_transit":false,"distance":1436,"time":4,"transit":false},{"transit":false,"i_lat":-6.14505,"station_name":"Rajawali","is_transit":false,"station_id":"RJW","time":5,"i_long":106.836569,"line":11,"distance":1901},{"i_long":106.826365,"line":0,"time":3,"station_id":"KPB","station_name":"Kampung Bandan","is_transit":true,"distance":1444,"transit":true,"i_lat":-6.132549},{"station_id":"JAKK","i_long":106.812439,"station_name":"Jakarta Kota","transit":true,"time":3,"line":0,"is_transit":true,"distance":1364,"i_lat":-6.137569},{"i_long":106.820901,"line":7,"station_id":"JAY","is_transit":false,"time":4,"transit":false,"i_lat":-6.141205,"distance":1264,"station_name":"Jayakarta"},{"is_transit":false,"distance":1080,"i_long":106.82482,"station_name":"Manggabesar","time":2,"i_lat":-6.149769,"line":2,"station_id":"MGB","transit":false},{"i_long":106.827103,"is_transit":false,"station_id":"SW","time":2,"i_lat":-6.160725,"line":2,"distance":906,"station_name":"Sawah Besar","transit":false},{"station_id":"JUA","line":2,"i_long":106.828284,"station_name":"Juanda","is_transit":false,"transit":false,"i_lat":-6.166716,"time":2,"distance":1149},{"station_name":"Gondangdia","is_transit":false,"i_lat":-6.186295,"station_id":"GDD","time":4,"transit":false,"i_long":106.832183,"line":2,"distance":2015},{"station_id":"CKI","is_transit":false,"transit":false,"distance":1750,"i_lat":-6.198556,"line":0,"i_long":106.840169,"time":3,"station_name":"Cikini"},{"station_name":"Manggarai","is_transit":true,"station_id":"MRI","time":4,"distance":1590,"transit":true,"i_long":106.84912,"line":0,"i_lat":-6.209883},{"station_id":"SUD","distance":3186,"line":1,"time":4,"station_name":"Sudirman","i_lat":-6.202263,"is_transit":false,"transit":false,"i_long":106.822649},{"distance":280,"is_transit":false,"station_name":"Sudirman Baru","station_id":"SUDB","i_lat":-6.201433,"transit":false,"i_long":106.819881,"time":1,"line":1},{"distance":471,"station_name":"Karet","station_id":"KAT","is_transit":false,"line":1,"i_lat":-6.20132,"time":1,"transit":false,"i_long":106.816351}]]}