{"data":[[{"transit":false,"station_name":"Bekasi","i_long":106.997013,"time":0,"is_transit":false,"station_id":"BKS","i_lat":-6.236616,"line":0,"distance":0},{"transit":false,"time":4,"is_transit":false,"i_lat":-6.224515,"station_id":"KRI","line":1,"station_name":"Kranji","i_long":106.977657,"distance":2520},{"is_transit":false,"i_lat":-6.219053,"transit":false,"distance":3097,"line":0,"time":3,"station_id":"CUK","station_name":"Cakung","i_long":106.951283},{"distance":1385,"transit":false,"time":8,"i_long":106.939679,"line":1,"station_id":"KLDB","is_transit":false,"station_name":"Klenderbaru","i_lat":-6.217455},{"is_transit":false,"station_id":"BUA","station_name":"Buaran","i_lat":-6.215568,"i_long":106.922662,"transit":false,"distance":1305,"time":1,"line":0},{"station_id":"KLD","time":2,"i_lat":-6.2135,"distance":3100,"station_name":"Klender","transit":false,"is_transit":false,"i_long":106.899548,"line":1},{"station_id":"JNG","transit":true,"time":3,"i_long":106.86807400000001,"is_transit":true,"distance":3395,"line":0,"station_name":"Jatinegara","i_lat":-6.215091},{"distance":1236,"i_lat":-6.209188,"station_id":"POK","time":2,"station_name":"Pondok Jati","transit":false,"line":11,"i_long":106.861737,"is_transit":false},{"is_transit":false,"i_long":106.855437,"distance":1829,"transit":false,"line":11,"station_name":"Kramat","station_id":"KMT","time":2,"i_lat":-6.193792},{"time":1,"transit":false,"station_id":"GST","is_transit":false,"i_lat":-6.185975,"distance":973,"station_name":"Gang Sentiong","i_long":106.850107,"line":11}],[{"is_transit":false,"time":0,"line":0,"distance":0,"station_name":"Bekasi","station_id":"BKS","i_long":106.997013,"i_lat":-6.236616,"transit":false},{"station_name":"Kranji","station_id":"KRI","i_long":106.977657,"line":1,"is_transit":false,"time":4,"i_lat":-6.224515,"transit":false,"distance":2520},{"station_id":"CUK","i_long":106.951283,"i_lat":-6.219053,"is_transit":false,"distance":3097,"time":3,"line":0,"station_name":"Cakung","transit":false},{"transit":false,"station_name":"Klenderbaru","is_transit":false,"time":8,"station_id":"KLDB","distance":1385,"i_lat":-6.217455,"i_long":106.939679,"line":1},{"station_id":"BUA","time":1,"station_name":"Buaran","line":0,"transit":false,"i_lat":-6.215568,"distance":1305,"is_transit":false,"i_long":106.922662},{"time":2,"is_transit":false,"line":1,"station_id":"KLD","distance":3100,"station_name":"Klender","transit":false,"i_lat":-6.2135,"i_long":106.899548},{"distance":3395,"line":0,"is_transit":true,"i_long":106.86807400000001,"station_name":"Jatinegara","time":3,"station_id":"JNG","transit":false,"i_lat":-6.215091},{"i_long":106.858896,"station_id":"MTR","station_name":"Matraman","is_transit":false,"line":1,"transit":false,"i_lat":-6.212485,"time":2,"distance":1377},{"time":2,"station_name":"Manggarai","distance":1275,"line":0,"is_transit":true,"station_id":"MRI","i_long":106.84912,"i_lat":-6.209883,"transit":false},{"i_long":106.822649,"station_id":"SUD","station_name":"Sudirman","distance":3186,"line":1,"i_lat":-6.202263,"is_transit":false,"transit":false,"time":4},{"is_transit":false,"time":1,"station_name":"Sudirman Baru","station_id":"SUDB","i_lat":-6.201433,"i_long":106.819881,"distance":280,"transit":false,"line":1},{"i_lat":-6.20132,"is_transit":false,"station_id":"KAT","i_long":106.816351,"station_name":"Karet","line":1,"distance":471,"transit":false,"time":1},{"line":1,"station_name":"Tanah Abang","station_id":"THB","distance":2029,"time":5,"transit":false,"i_lat":-6.185545,"is_transit":true,"i_long":106.811091},{"station_id":"DU","is_transit":true,"station_name":"Duri","line":1,"time":8,"i_lat":-6.155215,"i_long":106.800832,"transit":true,"distance":3632},{"station_id":"AK","distance":1230,"line":0,"station_name":"Angke","i_long":106.79867,"is_transit":false,"i_lat":-6.144674,"time":4,"transit":false},{"station_name":"Kampung Bandan","transit":true,"i_long":106.826365,"is_transit":true,"line":0,"i_lat":-6.132549,"station_id":"KPB","distance":4102,"time":9},{"i_lat":-6.14505,"station_id":"RJW","time":3,"distance":1444,"i_long":106.836569,"line":11,"station_name":"Rajawali","transit":false,"is_transit":false},{"line":11,"is_transit":false,"distance":1901,"transit":false,"i_lat":-6.161728,"station_id":"KMO","station_name":"Kemayoran","time":5,"i_long":106.839204},{"is_transit":false,"station_id":"PSE","time":4,"station_name":"Pasar Senen","transit":false,"i_long":106.84368,"line":11,"i_lat":-6.174784,"distance":1436},{"time":8,"line":11,"station_name":"Gang Sentiong","transit":false,"distance":1567,"i_lat":-6.185975,"i_long":106.850107,"station_id":"GST","is_transit":false}],[{"station_id":"BKS","distance":0,"is_transit":false,"i_long":106.997013,"transit":false,"line":0,"time":0,"station_name":"Bekasi","i_lat":-6.236616},{"time":4,"transit":false,"line":1,"distance":2520,"i_long":106.977657,"station_id":"KRI","is_transit":false,"i_lat":-6.224515,"station_name":"Kranji"},{"is_transit":false,"i_lat":-6.219053,"time":3,"distance":3097,"transit":false,"line":0,"station_name":"Cakung","station_id":"CUK","i_long":106.951283},{"transit":false,"is_transit":false,"line":1,"station_id":"KLDB","distance":1385,"time":8,"i_long":106.939679,"i_lat":-6.217455,"station_name":"Klenderbaru"},{"line":0,"i_long":106.922662,"distance":1305,"station_id":"BUA","time":1,"station_name":"Buaran","transit":false,"is_transit":false,"i_lat":-6.215568},{"i_lat":-6.2135,"time":2,"station_id":"KLD","station_name":"Klender","distance":3100,"i_long":106.899548,"is_transit":false,"line":1,"transit":false},{"transit":false,"time":3,"i_lat":-6.215091,"distance":3395,"i_long":106.86807400000001,"is_transit":true,"line":0,"station_name":"Jatinegara","station_id":"JNG"},{"is_transit":false,"line":1,"i_lat":-6.212485,"station_name":"Matraman","i_long":106.858896,"station_id":"MTR","time":2,"transit":false,"distance":1377},{"time":2,"distance":1275,"is_transit":true,"station_id":"MRI","i_lat":-6.209883,"i_long":106.84912,"line":0,"transit":true,"station_name":"Manggarai"},{"line":0,"station_name":"Cikini","distance":1590,"is_transit":false,"station_id":"CKI","time":4,"transit":false,"i_lat":-6.198556,"i_long":106.840169},{"station_name":"Gondangdia","i_long":106.832183,"transit":false,"station_id":"GDD","time":3,"distance":1750,"i_lat":-6.186295,"is_transit":false,"line":2},{"transit":false,"line":2,"distance":2015,"station_id":"JUA","i_lat":-6.166716,"station_name":"Juanda","is_transit":false,"i_long":106.828284,"time":4},{"station_name":"Sawah Besar","is_transit":false,"line":2,"i_lat":-6.160725,"time":2,"distance":1149,"i_long":106.827103,"station_id":"SW","transit":false},{"station_id":"MGB","time":2,"is_transit":false,"distance":906,"transit":false,"line":2,"i_lat":-6.149769,"i_long":106.82482,"station_name":"Manggabesar"},{"i_long":106.820901,"time":2,"station_id":"JAY","distance":1080,"line":7,"station_name":"Jayakarta","transit":false,"is_transit":false,"i_lat":-6.141205},{"time":4,"station_name":"Jakarta Kota","distance":1264,"transit":true,"i_long":106.812439,"line":0,"is_transit":true,"i_lat":-6.137569,"station_id":"JAKK"},{"station_id":"KPB","distance":1364,"i_long":106.826365,"time":3,"line":0,"transit":true,"station_name":"Kampung Bandan","i_lat":-6.132549,"is_transit":true},{"is_transit":false,"i_lat":-6.14505,"i_long":106.836569,"station_id":"RJW","time":3,"line":11,"transit":false,"station_name":"Rajawali","distance":1444},{"i_long":106.839204,"station_name":"Kemayoran","i_lat":-6.161728,"transit":false,"is_transit":false,"station_id":"KMO","distance":1901,"time":5,"line":11},{"station_name":"Pasar Senen","i_lat":-6.174784,"station_id":"PSE","transit":false,"distance":1436,"is_transit":false,"time":4,"i_long":106.84368,"line":11},{"transit":false,"distance":1567,"is_transit":false,"i_lat":-6.185975,"i_long":106.850107,"station_name":"Gang Sentiong","line":11,"station_id":"GST","time":8}]]}