{"data":[[{"line":1,"distance":0,"transit":false,"time":0,"station_id":"BKS","i_long":106.997013,"is_transit":false,"i_lat":-6.236616,"station_name":"Bekasi"},{"station_name":"Kranji","transit":false,"is_transit":false,"i_lat":-6.224515,"i_long":106.977657,"station_id":"KRI","line":1,"distance":2520,"time":4},{"time":3,"line":1,"distance":3097,"i_lat":-6.219053,"station_id":"CUK","station_name":"Cakung","is_transit":false,"i_long":106.951283,"transit":false},{"station_name":"Klenderbaru","i_long":106.939679,"i_lat":-6.217455,"station_id":"KLDB","transit":false,"time":8,"is_transit":false,"line":1,"distance":1385},{"station_name":"Buaran","time":1,"transit":false,"distance":1305,"station_id":"BUA","is_transit":false,"i_lat":-6.215568,"i_long":106.922662,"line":1},{"transit":false,"time":2,"is_transit":false,"distance":3100,"station_id":"KLD","station_name":"Klender","i_lat":-6.2135,"line":1,"i_long":106.899548},{"station_id":"JNG","station_name":"Jatinegara","distance":3395,"line":1,"transit":false,"i_long":106.86807400000001,"i_lat":-6.215091,"time":3,"is_transit":false},{"line":1,"station_name":"Matraman","i_lat":-6.212485,"time":2,"distance":1377,"station_id":"MTR","transit":false,"is_transit":false,"i_long":106.858896},{"time":2,"station_id":"MRI","is_transit":true,"transit":true,"i_lat":-6.209883,"line":2,"station_name":"Manggarai","distance":1275,"i_long":106.84912},{"i_long":106.857948,"i_lat":-6.226659,"time":4,"transit":false,"distance":2610,"station_id":"TEB","station_name":"Tebet","is_transit":false,"line":2},{"i_lat":-6.242512,"distance":1230,"station_id":"CW","line":2,"time":2,"station_name":"Cawang","is_transit":false,"transit":false,"i_long":106.856607},{"time":3,"is_transit":false,"distance":1546,"transit":false,"line":2,"i_lat":-6.255332,"station_name":"Duren Kalibata","i_long":106.85449,"station_id":"DRN"},{"time":2,"i_long":106.851577,"is_transit":false,"station_name":"Pasar Minggu Baru","station_id":"PSMB","i_lat":-6.263214,"line":2,"distance":824,"transit":false},{"i_long":106.843999,"station_name":"Pasar Minggu","distance":2380,"line":2,"is_transit":false,"i_lat":-6.2842400000000005,"transit":false,"time":2,"station_id":"PSM"},{"i_long":106.838896,"time":4,"transit":false,"station_id":"TNT","line":2,"distance":2820,"station_name":"Tanjung Barat","is_transit":false,"i_lat":-6.3080680000000005},{"distance":2671,"station_id":"LNA","i_long":106.832616,"transit":false,"is_transit":false,"line":2,"station_name":"Lenteng Agung","i_lat":-6.330363,"time":3},{"station_id":"UP","distance":1029,"is_transit":false,"i_long":106.834175,"transit":false,"line":2,"time":2,"station_name":"Univ. Pancasila","i_lat":-6.339291},{"time":3,"transit":false,"station_name":"Univ. Indonesia","distance":2264,"i_lat":-6.360749,"i_long":106.831474,"is_transit":false,"line":2,"station_id":"UI"},{"i_lat":-6.369073,"station_id":"POC","distance":1109,"i_long":106.831114,"station_name":"Pondok Cina","line":2,"is_transit":false,"transit":false,"time":2},{"station_name":"Depokbaru","distance":2727,"transit":false,"i_lat":-6.391065,"i_long":106.819451,"station_id":"DPB","line":2,"is_transit":false,"time":4}],[{"transit":false,"i_lat":-6.236616,"time":0,"is_transit":false,"line":1,"distance":0,"station_id":"BKS","i_long":106.997013,"station_name":"Bekasi"},{"line":1,"i_long":106.977657,"transit":false,"station_name":"Kranji","i_lat":-6.224515,"distance":2520,"is_transit":false,"station_id":"KRI","time":4},{"station_name":"Cakung","i_long":106.951283,"is_transit":false,"distance":3097,"time":3,"station_id":"CUK","i_lat":-6.219053,"line":1,"transit":false},{"i_long":106.939679,"i_lat":-6.217455,"line":1,"distance":1385,"transit":false,"station_id":"KLDB","is_transit":false,"time":8,"station_name":"Klenderbaru"},{"i_lat":-6.215568,"station_id":"BUA","station_name":"Buaran","line":1,"time":1,"transit":false,"i_long":106.922662,"distance":1305,"is_transit":false},{"transit":false,"station_id":"KLD","time":2,"is_transit":false,"distance":3100,"i_lat":-6.2135,"i_long":106.899548,"line":1,"station_name":"Klender"},{"station_name":"Jatinegara","distance":3395,"is_transit":true,"time":3,"i_lat":-6.215091,"line":1,"transit":true,"i_long":106.86807400000001,"station_id":"JNG"},{"distance":1236,"line":11,"time":2,"station_id":"POK","i_lat":-6.209188,"is_transit":false,"station_name":"Pondok Jati","i_long":106.861737,"transit":false},{"i_long":106.855437,"is_transit":false,"line":11,"station_id":"KMT","i_lat":-6.193792,"transit":false,"station_name":"Kramat","time":2,"distance":1829},{"station_name":"Gang Sentiong","distance":973,"i_lat":-6.185975,"time":1,"i_long":106.850107,"is_transit":false,"line":11,"transit":false,"station_id":"GST"},{"i_long":106.84368,"line":11,"time":8,"transit":false,"station_name":"Pasar Senen","is_transit":false,"i_lat":-6.174784,"station_id":"PSE","distance":1567},{"transit":false,"i_lat":-6.161728,"time":4,"is_transit":false,"station_name":"Kemayoran","i_long":106.839204,"line":11,"station_id":"KMO","distance":1436},{"line":11,"station_name":"Rajawali","time":5,"station_id":"RJW","distance":1901,"is_transit":false,"i_lat":-6.14505,"i_long":106.836569,"transit":false},{"distance":1444,"station_id":"KPB","i_lat":-6.132549,"i_long":106.826365,"transit":true,"station_name":"Kampung Bandan","is_transit":true,"line":4,"time":3},{"is_transit":false,"station_name":"Angke","line":1,"station_id":"AK","transit":false,"i_lat":-6.144674,"distance":4102,"i_long":106.79867,"time":9},{"i_lat":-6.155215,"transit":false,"i_long":106.800832,"distance":1230,"is_transit":false,"station_id":"DU","line":1,"time":4,"station_name":"Duri"},{"line":1,"station_id":"THB","station_name":"Tanah Abang","is_transit":false,"i_long":106.811091,"time":8,"transit":false,"distance":3632,"i_lat":-6.185545},{"transit":false,"distance":2029,"i_long":106.816351,"station_id":"KAT","line":1,"is_transit":false,"i_lat":-6.20132,"station_name":"Karet","time":5},{"transit":false,"line":1,"station_name":"Sudirman Baru","distance":471,"i_long":106.819881,"time":1,"is_transit":false,"station_id":"SUDB","i_lat":-6.201433},{"transit":false,"distance":280,"station_id":"SUD","station_name":"Sudirman","i_lat":-6.202263,"i_long":106.822649,"line":1,"time":1,"is_transit":false},{"i_lat":-6.209883,"station_name":"Manggarai","line":2,"station_id":"MRI","is_transit":true,"transit":true,"time":4,"i_long":106.84912,"distance":3186},{"distance":2610,"line":2,"is_transit":false,"station_id":"TEB","station_name":"Tebet","time":4,"i_lat":-6.226659,"i_long":106.857948,"transit":false},{"station_id":"CW","transit":false,"time":2,"i_lat":-6.242512,"line":2,"distance":1230,"i_long":106.856607,"is_transit":false,"station_name":"Cawang"},{"transit":false,"i_lat":-6.255332,"i_long":106.85449,"station_id":"DRN","time":3,"station_name":"Duren Kalibata","is_transit":false,"line":2,"distance":1546},{"time":2,"station_id":"PSMB","i_lat":-6.263214,"is_transit":false,"i_long":106.851577,"station_name":"Pasar Minggu Baru","line":2,"distance":824,"transit":false},{"station_id":"PSM","station_name":"Pasar Minggu","i_lat":-6.2842400000000005,"time":2,"distance":2380,"line":2,"is_transit":false,"i_long":106.843999,"transit":false},{"station_name":"Tanjung Barat","station_id":"TNT","distance":2820,"i_long":106.838896,"time":4,"transit":false,"i_lat":-6.3080680000000005,"line":2,"is_transit":false},{"station_name":"Lenteng Agung","is_transit":false,"transit":false,"station_id":"LNA","i_lat":-6.330363,"distance":2671,"i_long":106.832616,"time":3,"line":2},{"time":2,"i_long":106.834175,"i_lat":-6.339291,"station_name":"Univ. Pancasila","is_transit":false,"transit":false,"station_id":"UP","line":2,"distance":1029},{"line":2,"is_transit":false,"transit":false,"station_id":"UI","i_lat":-6.360749,"distance":2264,"station_name":"Univ. Indonesia","i_long":106.831474,"time":3},{"i_lat":-6.369073,"transit":false,"is_transit":false,"line":2,"time":2,"station_id":"POC","station_name":"Pondok Cina","distance":1109,"i_long":106.831114},{"i_long":106.819451,"time":4,"transit":false,"station_id":"DPB","distance":2727,"i_lat":-6.391065,"station_name":"Depokbaru","is_transit":false,"line":2}],[{"station_id":"BKS","transit":false,"i_lat":-6.236616,"i_long":106.997013,"line":1,"is_transit":false,"time":0,"station_name":"Bekasi","distance":0},{"time":4,"station_id":"KRI","transit":false,"i_lat":-6.224515,"station_name":"Kranji","line":1,"distance":2520,"i_long":106.977657,"is_transit":false},{"station_id":"CUK","i_long":106.951283,"transit":false,"station_name":"Cakung","time":3,"is_transit":false,"line":1,"i_lat":-6.219053,"distance":3097},{"line":1,"time":8,"distance":1385,"i_long":106.939679,"station_id":"KLDB","is_transit":false,"transit":false,"station_name":"Klenderbaru","i_lat":-6.217455},{"is_transit":false,"station_name":"Buaran","distance":1305,"i_lat":-6.215568,"station_id":"BUA","transit":false,"i_long":106.922662,"line":1,"time":1},{"distance":3100,"i_long":106.899548,"is_transit":false,"transit":false,"station_name":"Klender","time":2,"station_id":"KLD","i_lat":-6.2135,"line":1},{"station_id":"JNG","is_transit":true,"time":3,"station_name":"Jatinegara","i_long":106.86807400000001,"i_lat":-6.215091,"line":1,"distance":3395,"transit":true},{"station_id":"POK","is_transit":false,"line":11,"distance":1236,"time":2,"i_lat":-6.209188,"i_long":106.861737,"transit":false,"station_name":"Pondok Jati"},{"i_lat":-6.193792,"station_name":"Kramat","transit":false,"i_long":106.855437,"time":2,"is_transit":false,"distance":1829,"station_id":"KMT","line":11},{"station_id":"GST","distance":973,"transit":false,"time":1,"is_transit":false,"i_lat":-6.185975,"i_long":106.850107,"line":11,"station_name":"Gang Sentiong"},{"is_transit":false,"time":8,"station_name":"Pasar Senen","station_id":"PSE","distance":1567,"i_lat":-6.174784,"i_long":106.84368,"line":11,"transit":false},{"station_name":"Kemayoran","time":4,"is_transit":false,"i_long":106.839204,"distance":1436,"i_lat":-6.161728,"line":11,"station_id":"KMO","transit":false},{"transit":false,"i_lat":-6.14505,"station_id":"RJW","station_name":"Rajawali","is_transit":false,"distance":1901,"time":5,"line":11,"i_long":106.836569},{"distance":1444,"time":3,"station_id":"KPB","i_lat":-6.132549,"transit":true,"is_transit":true,"line":4,"station_name":"Kampung Bandan","i_long":106.826365},{"is_transit":true,"distance":1364,"transit":true,"i_lat":-6.137569,"i_long":106.812439,"line":2,"time":3,"station_name":"Jakarta Kota","station_id":"JAKK"},{"i_long":106.820901,"line":2,"station_id":"JAY","station_name":"Jayakarta","i_lat":-6.141205,"distance":1264,"transit":false,"is_transit":false,"time":4},{"station_name":"Manggabesar","i_lat":-6.149769,"time":2,"station_id":"MGB","is_transit":false,"distance":1080,"i_long":106.82482,"line":2,"transit":false},{"i_lat":-6.160725,"distance":906,"station_id":"SW","i_long":106.827103,"station_name":"Sawah Besar","time":2,"line":2,"transit":false,"is_transit":false},{"transit":false,"i_lat":-6.166716,"i_long":106.828284,"time":2,"station_id":"JUA","is_transit":false,"station_name":"Juanda","distance":1149,"line":2},{"distance":2015,"i_lat":-6.186295,"station_name":"Gondangdia","i_long":106.832183,"line":2,"transit":false,"time":4,"station_id":"GDD","is_transit":false},{"i_long":106.840169,"transit":false,"is_transit":false,"time":3,"station_id":"CKI","station_name":"Cikini","distance":1750,"i_lat":-6.198556,"line":2},{"i_lat":-6.209883,"time":4,"station_name":"Manggarai","distance":1590,"is_transit":false,"transit":false,"station_id":"MRI","line":2,"i_long":106.84912},{"line":2,"transit":false,"station_name":"Tebet","i_lat":-6.226659,"i_long":106.857948,"station_id":"TEB","time":4,"distance":2610,"is_transit":false},{"transit":false,"station_name":"Cawang","distance":1230,"i_long":106.856607,"time":2,"is_transit":false,"station_id":"CW","i_lat":-6.242512,"line":2},{"is_transit":false,"line":2,"transit":false,"distance":1546,"station_id":"DRN","i_lat":-6.255332,"station_name":"Duren Kalibata","i_long":106.85449,"time":3},{"station_id":"PSMB","i_lat":-6.263214,"line":2,"is_transit":false,"transit":false,"time":2,"i_long":106.851577,"station_name":"Pasar Minggu Baru","distance":824},{"time":2,"transit":false,"station_name":"Pasar Minggu","distance":2380,"is_transit":false,"station_id":"PSM","i_lat":-6.2842400000000005,"line":2,"i_long":106.843999},{"transit":false,"i_long":106.838896,"time":4,"i_lat":-6.3080680000000005,"is_transit":false,"station_id":"TNT","station_name":"Tanjung Barat","distance":2820,"line":2},{"transit":false,"station_name":"Lenteng Agung","station_id":"LNA","i_long":106.832616,"time":3,"is_transit":false,"distance":2671,"i_lat":-6.330363,"line":2},{"line":2,"time":2,"distance":1029,"i_long":106.834175,"transit":false,"i_lat":-6.339291,"station_id":"UP","is_transit":false,"station_name":"Univ. Pancasila"},{"station_id":"UI","is_transit":false,"time":3,"i_long":106.831474,"distance":2264,"line":2,"transit":false,"station_name":"Univ. Indonesia","i_lat":-6.360749},{"i_lat":-6.369073,"distance":1109,"station_name":"Pondok Cina","line":2,"i_long":106.831114,"transit":false,"time":2,"is_transit":false,"station_id":"POC"},{"is_transit":false,"transit":false,"distance":2727,"time":4,"station_id":"DPB","i_lat":-6.391065,"i_long":106.819451,"line":2,"station_name":"Depokbaru"}]]}