{"data":[[{"distance":0,"line":1,"time":0,"transit":false,"station_name":"Bekasi","is_transit":false,"i_lat":-6.236616,"station_id":"BKS","i_long":106.997013},{"station_name":"Kranji","i_long":106.977657,"i_lat":-6.224515,"time":4,"line":1,"station_id":"KRI","distance":2520,"is_transit":false,"transit":false},{"i_lat":-6.219053,"transit":false,"time":3,"i_long":106.951283,"line":1,"station_name":"Cakung","distance":3097,"is_transit":false,"station_id":"CUK"},{"distance":1385,"station_id":"KLDB","is_transit":false,"transit":false,"i_long":106.939679,"time":8,"line":1,"station_name":"Klenderbaru","i_lat":-6.217455},{"i_lat":-6.215568,"line":1,"transit":false,"time":1,"distance":1305,"is_transit":false,"i_long":106.922662,"station_id":"BUA","station_name":"Buaran"}]]}