{"data":[[{"station_id":"BKS","transit":false,"time":0,"is_transit":false,"i_long":106.997013,"station_name":"Bekasi","i_lat":-6.236616,"line":0,"distance":0},{"time":4,"is_transit":false,"i_lat":-6.224515,"station_id":"KRI","transit":false,"station_name":"Kranji","i_long":106.977657,"distance":2520,"line":1},{"is_transit":false,"time":3,"i_long":106.951283,"distance":3097,"line":0,"station_name":"Cakung","i_lat":-6.219053,"transit":false,"station_id":"CUK"},{"i_lat":-6.217455,"station_name":"Klenderbaru","is_transit":false,"station_id":"KLDB","i_long":106.939679,"transit":false,"distance":1385,"line":1,"time":8},{"transit":false,"is_transit":false,"time":1,"station_name":"Buaran","i_long":106.922662,"station_id":"BUA","distance":1305,"i_lat":-6.215568,"line":0},{"distance":3100,"i_lat":-6.2135,"is_transit":false,"line":1,"transit":false,"station_name":"Klender","time":2,"i_long":106.899548,"station_id":"KLD"},{"transit":false,"i_lat":-6.215091,"station_id":"JNG","distance":3395,"time":3,"line":0,"is_transit":true,"station_name":"Jatinegara","i_long":106.86807400000001},{"time":2,"station_name":"Matraman","line":1,"is_transit":false,"distance":1377,"station_id":"MTR","i_long":106.858896,"i_lat":-6.212485,"transit":false},{"distance":1275,"transit":true,"line":0,"station_name":"Manggarai","station_id":"MRI","i_lat":-6.209883,"i_long":106.84912,"time":2,"is_transit":true},{"transit":false,"is_transit":false,"time":4,"i_long":106.857948,"station_id":"TEB","i_lat":-6.226659,"station_name":"Tebet","distance":2610,"line":2}],[{"distance":0,"station_name":"Bekasi","i_lat":-6.236616,"transit":false,"station_id":"BKS","time":0,"line":0,"i_long":106.997013,"is_transit":false},{"i_long":106.977657,"i_lat":-6.224515,"station_id":"KRI","line":1,"is_transit":false,"distance":2520,"station_name":"Kranji","time":4,"transit":false},{"station_name":"Cakung","transit":false,"is_transit":false,"station_id":"CUK","i_lat":-6.219053,"i_long":106.951283,"line":0,"distance":3097,"time":3},{"distance":1385,"is_transit":false,"time":8,"i_lat":-6.217455,"i_long":106.939679,"transit":false,"station_id":"KLDB","line":1,"station_name":"Klenderbaru"},{"time":1,"i_lat":-6.215568,"transit":false,"i_long":106.922662,"is_transit":false,"station_name":"Buaran","distance":1305,"station_id":"BUA","line":0},{"is_transit":false,"transit":false,"station_id":"KLD","i_long":106.899548,"line":1,"station_name":"Klender","time":2,"distance":3100,"i_lat":-6.2135},{"line":0,"station_id":"JNG","station_name":"Jatinegara","time":3,"i_long":106.86807400000001,"is_transit":true,"distance":3395,"transit":true,"i_lat":-6.215091},{"is_transit":false,"transit":false,"distance":1236,"station_id":"POK","time":2,"i_long":106.861737,"station_name":"Pondok Jati","i_lat":-6.209188,"line":11},{"station_id":"KMT","time":2,"transit":false,"i_long":106.855437,"i_lat":-6.193792,"is_transit":false,"station_name":"Kramat","line":11,"distance":1829},{"i_lat":-6.185975,"line":11,"is_transit":false,"station_name":"Gang Sentiong","transit":false,"station_id":"GST","time":1,"distance":973,"i_long":106.850107},{"i_lat":-6.174784,"line":11,"station_name":"Pasar Senen","i_long":106.84368,"is_transit":false,"station_id":"PSE","transit":false,"time":8,"distance":1567},{"station_name":"Kemayoran","time":4,"line":11,"transit":false,"i_lat":-6.161728,"distance":1436,"is_transit":false,"i_long":106.839204,"station_id":"KMO"},{"is_transit":false,"station_name":"Rajawali","transit":false,"i_long":106.836569,"station_id":"RJW","distance":1901,"line":11,"time":5,"i_lat":-6.14505},{"is_transit":true,"i_lat":-6.132549,"line":0,"distance":1444,"station_id":"KPB","station_name":"Kampung Bandan","i_long":106.826365,"time":3,"transit":true},{"is_transit":false,"time":9,"line":0,"distance":4102,"i_long":106.79867,"station_id":"AK","station_name":"Angke","transit":false,"i_lat":-6.144674},{"line":1,"station_name":"Duri","transit":true,"i_long":106.800832,"is_transit":true,"i_lat":-6.155215,"time":4,"distance":1230,"station_id":"DU"},{"time":8,"i_lat":-6.185545,"i_long":106.811091,"station_id":"THB","station_name":"Tanah Abang","is_transit":true,"transit":false,"line":1,"distance":3632},{"station_id":"KAT","station_name":"Karet","distance":2029,"transit":false,"i_long":106.816351,"is_transit":false,"time":5,"line":1,"i_lat":-6.20132},{"i_long":106.819881,"station_id":"SUDB","i_lat":-6.201433,"distance":471,"time":1,"transit":false,"line":1,"is_transit":false,"station_name":"Sudirman Baru"},{"transit":false,"station_id":"SUD","i_long":106.822649,"station_name":"Sudirman","line":1,"is_transit":false,"distance":280,"i_lat":-6.202263,"time":1},{"transit":true,"time":4,"distance":3186,"i_long":106.84912,"line":0,"i_lat":-6.209883,"station_name":"Manggarai","station_id":"MRI","is_transit":true},{"distance":2610,"transit":false,"station_id":"TEB","time":4,"station_name":"Tebet","i_lat":-6.226659,"is_transit":false,"i_long":106.857948,"line":2}],[{"line":0,"i_lat":-6.236616,"station_name":"Bekasi","time":0,"i_long":106.997013,"distance":0,"station_id":"BKS","is_transit":false,"transit":false},{"time":4,"line":1,"i_long":106.977657,"is_transit":false,"station_id":"KRI","transit":false,"station_name":"Kranji","i_lat":-6.224515,"distance":2520},{"i_lat":-6.219053,"distance":3097,"i_long":106.951283,"line":0,"is_transit":false,"transit":false,"station_name":"Cakung","time":3,"station_id":"CUK"},{"time":8,"i_lat":-6.217455,"line":1,"i_long":106.939679,"is_transit":false,"station_id":"KLDB","distance":1385,"station_name":"Klenderbaru","transit":false},{"i_long":106.922662,"station_name":"Buaran","line":0,"is_transit":false,"transit":false,"time":1,"distance":1305,"station_id":"BUA","i_lat":-6.215568},{"station_id":"KLD","line":1,"station_name":"Klender","i_lat":-6.2135,"distance":3100,"time":2,"is_transit":false,"i_long":106.899548,"transit":false},{"i_long":106.86807400000001,"time":3,"distance":3395,"transit":true,"is_transit":true,"i_lat":-6.215091,"station_id":"JNG","station_name":"Jatinegara","line":0},{"distance":1236,"i_lat":-6.209188,"i_long":106.861737,"station_id":"POK","station_name":"Pondok Jati","line":11,"is_transit":false,"transit":false,"time":2},{"station_id":"KMT","transit":false,"i_long":106.855437,"is_transit":false,"station_name":"Kramat","i_lat":-6.193792,"time":2,"distance":1829,"line":11},{"station_id":"GST","transit":false,"time":1,"is_transit":false,"i_lat":-6.185975,"i_long":106.850107,"line":11,"station_name":"Gang Sentiong","distance":973},{"is_transit":false,"time":8,"line":11,"transit":false,"station_id":"PSE","i_long":106.84368,"station_name":"Pasar Senen","i_lat":-6.174784,"distance":1567},{"station_name":"Kemayoran","i_long":106.839204,"line":11,"transit":false,"is_transit":false,"time":4,"distance":1436,"station_id":"KMO","i_lat":-6.161728},{"station_name":"Rajawali","distance":1901,"transit":false,"time":5,"i_lat":-6.14505,"i_long":106.836569,"is_transit":false,"line":11,"station_id":"RJW"},{"station_name":"Kampung Bandan","line":0,"station_id":"KPB","distance":1444,"i_lat":-6.132549,"transit":true,"i_long":106.826365,"is_transit":true,"time":3},{"station_id":"JAKK","is_transit":true,"time":3,"station_name":"Jakarta Kota","transit":true,"distance":1364,"i_lat":-6.137569,"i_long":106.812439,"line":0},{"time":4,"station_id":"JAY","i_lat":-6.141205,"distance":1264,"transit":false,"i_long":106.820901,"is_transit":false,"station_name":"Jayakarta","line":7},{"station_name":"Manggabesar","time":2,"station_id":"MGB","is_transit":false,"transit":false,"i_lat":-6.149769,"i_long":106.82482,"line":2,"distance":1080},{"is_transit":false,"i_long":106.827103,"station_id":"SW","line":2,"time":2,"distance":906,"station_name":"Sawah Besar","transit":false,"i_lat":-6.160725},{"line":2,"station_id":"JUA","i_long":106.828284,"transit":false,"time":2,"distance":1149,"station_name":"Juanda","i_lat":-6.166716,"is_transit":false},{"station_name":"Gondangdia","transit":false,"is_transit":false,"time":4,"i_lat":-6.186295,"i_long":106.832183,"line":2,"distance":2015,"station_id":"GDD"},{"time":3,"line":0,"i_long":106.840169,"station_id":"CKI","is_transit":false,"distance":1750,"transit":false,"i_lat":-6.198556,"station_name":"Cikini"},{"transit":true,"station_name":"Manggarai","time":4,"i_lat":-6.209883,"distance":1590,"station_id":"MRI","is_transit":true,"line":0,"i_long":106.84912},{"station_name":"Tebet","i_lat":-6.226659,"station_id":"TEB","is_transit":false,"i_long":106.857948,"line":2,"distance":2610,"time":4,"transit":false}]]}