{"data":[[{"i_lat":-6.236616,"i_long":106.997013,"is_transit":false,"transit":false,"line":1,"distance":0,"time":0,"station_name":"Bekasi","station_id":"BKS"},{"distance":2520,"station_id":"KRI","i_long":106.977657,"transit":false,"i_lat":-6.224515,"is_transit":false,"time":4,"station_name":"Kranji","line":1},{"i_lat":-6.219053,"line":1,"is_transit":false,"transit":false,"i_long":106.951283,"time":3,"station_name":"Cakung","distance":3097,"station_id":"CUK"},{"i_lat":-6.217455,"is_transit":false,"station_id":"KLDB","transit":false,"station_name":"Klenderbaru","distance":1385,"i_long":106.939679,"line":1,"time":8},{"distance":1305,"station_id":"BUA","line":1,"i_lat":-6.215568,"transit":false,"time":1,"station_name":"Buaran","is_transit":false,"i_long":106.922662},{"i_lat":-6.2135,"time":2,"is_transit":false,"station_id":"KLD","i_long":106.899548,"line":1,"distance":3100,"station_name":"Klender","transit":false},{"station_name":"Jatinegara","i_long":106.86807400000001,"line":1,"i_lat":-6.215091,"transit":false,"distance":3395,"time":3,"station_id":"JNG","is_transit":false},{"distance":1377,"line":1,"i_long":106.858896,"station_id":"MTR","transit":false,"i_lat":-6.212485,"station_name":"Matraman","is_transit":false,"time":2},{"station_id":"MRI","transit":true,"station_name":"Manggarai","i_lat":-6.209883,"is_transit":true,"i_long":106.84912,"line":2,"distance":1275,"time":2},{"is_transit":false,"station_id":"TEB","i_lat":-6.226659,"i_long":106.857948,"time":4,"line":2,"station_name":"Tebet","distance":2610,"transit":false},{"distance":1230,"station_name":"Cawang","station_id":"CW","line":2,"i_lat":-6.242512,"is_transit":false,"transit":false,"i_long":106.856607,"time":2},{"distance":1546,"station_id":"DRN","is_transit":false,"time":3,"i_lat":-6.255332,"i_long":106.85449,"station_name":"Duren Kalibata","transit":false,"line":2},{"i_lat":-6.263214,"station_name":"Pasar Minggu Baru","station_id":"PSMB","is_transit":false,"transit":false,"distance":824,"i_long":106.851577,"line":2,"time":2},{"i_lat":-6.2842400000000005,"i_long":106.843999,"line":2,"station_id":"PSM","time":2,"station_name":"Pasar Minggu","distance":2380,"transit":false,"is_transit":false},{"distance":2820,"station_name":"Tanjung Barat","transit":false,"i_lat":-6.3080680000000005,"time":4,"i_long":106.838896,"line":2,"is_transit":false,"station_id":"TNT"},{"distance":2671,"time":3,"transit":false,"is_transit":false,"station_id":"LNA","i_long":106.832616,"line":2,"station_name":"Lenteng Agung","i_lat":-6.330363},{"i_lat":-6.339291,"time":2,"transit":false,"i_long":106.834175,"station_name":"Univ. Pancasila","distance":1029,"is_transit":false,"station_id":"UP","line":2},{"transit":false,"station_name":"Univ. Indonesia","station_id":"UI","is_transit":false,"line":2,"distance":2264,"time":3,"i_long":106.831474,"i_lat":-6.360749},{"station_name":"Pondok Cina","station_id":"POC","time":2,"distance":1109,"i_long":106.831114,"line":2,"is_transit":false,"transit":false,"i_lat":-6.369073}],[{"time":0,"station_id":"BKS","distance":0,"i_lat":-6.236616,"transit":false,"is_transit":false,"i_long":106.997013,"line":1,"station_name":"Bekasi"},{"distance":2520,"i_lat":-6.224515,"time":4,"is_transit":false,"station_name":"Kranji","transit":false,"station_id":"KRI","i_long":106.977657,"line":1},{"distance":3097,"is_transit":false,"i_long":106.951283,"line":1,"station_name":"Cakung","time":3,"transit":false,"station_id":"CUK","i_lat":-6.219053},{"i_long":106.939679,"is_transit":false,"station_name":"Klenderbaru","station_id":"KLDB","time":8,"transit":false,"i_lat":-6.217455,"line":1,"distance":1385},{"i_lat":-6.215568,"is_transit":false,"station_id":"BUA","i_long":106.922662,"time":1,"line":1,"transit":false,"distance":1305,"station_name":"Buaran"},{"i_long":106.899548,"line":1,"distance":3100,"is_transit":false,"i_lat":-6.2135,"station_name":"Klender","time":2,"transit":false,"station_id":"KLD"},{"line":1,"is_transit":true,"time":3,"station_name":"Jatinegara","transit":true,"station_id":"JNG","distance":3395,"i_lat":-6.215091,"i_long":106.86807400000001},{"is_transit":false,"station_id":"POK","transit":false,"line":11,"time":2,"i_long":106.861737,"station_name":"Pondok Jati","distance":1236,"i_lat":-6.209188},{"i_lat":-6.193792,"line":11,"time":2,"station_name":"Kramat","i_long":106.855437,"station_id":"KMT","is_transit":false,"distance":1829,"transit":false},{"is_transit":false,"line":11,"i_lat":-6.185975,"i_long":106.850107,"station_name":"Gang Sentiong","station_id":"GST","transit":false,"time":1,"distance":973},{"i_lat":-6.174784,"is_transit":false,"i_long":106.84368,"time":8,"line":11,"transit":false,"station_name":"Pasar Senen","station_id":"PSE","distance":1567},{"i_long":106.839204,"time":4,"transit":false,"distance":1436,"station_id":"KMO","station_name":"Kemayoran","is_transit":false,"line":11,"i_lat":-6.161728},{"station_name":"Rajawali","distance":1901,"is_transit":false,"i_lat":-6.14505,"i_long":106.836569,"station_id":"RJW","line":11,"time":5,"transit":false},{"time":3,"is_transit":true,"i_long":106.826365,"station_id":"KPB","distance":1444,"station_name":"Kampung Bandan","transit":true,"i_lat":-6.132549,"line":4},{"station_id":"AK","is_transit":false,"i_long":106.79867,"distance":4102,"line":1,"station_name":"Angke","time":9,"i_lat":-6.144674,"transit":false},{"line":1,"distance":1230,"i_lat":-6.155215,"time":4,"is_transit":false,"i_long":106.800832,"station_name":"Duri","transit":false,"station_id":"DU"},{"is_transit":false,"line":1,"station_id":"THB","distance":3632,"time":8,"transit":false,"station_name":"Tanah Abang","i_lat":-6.185545,"i_long":106.811091},{"i_long":106.816351,"station_name":"Karet","i_lat":-6.20132,"line":1,"time":5,"distance":2029,"station_id":"KAT","is_transit":false,"transit":false},{"transit":false,"i_long":106.819881,"station_name":"Sudirman Baru","distance":471,"i_lat":-6.201433,"station_id":"SUDB","is_transit":false,"line":1,"time":1},{"i_long":106.822649,"station_id":"SUD","i_lat":-6.202263,"transit":false,"time":1,"distance":280,"line":1,"station_name":"Sudirman","is_transit":false},{"i_lat":-6.209883,"line":2,"transit":true,"is_transit":true,"i_long":106.84912,"distance":3186,"time":4,"station_id":"MRI","station_name":"Manggarai"},{"station_id":"TEB","i_long":106.857948,"transit":false,"time":4,"i_lat":-6.226659,"station_name":"Tebet","distance":2610,"is_transit":false,"line":2},{"distance":1230,"station_name":"Cawang","transit":false,"line":2,"time":2,"i_lat":-6.242512,"i_long":106.856607,"is_transit":false,"station_id":"CW"},{"i_long":106.85449,"i_lat":-6.255332,"station_id":"DRN","transit":false,"time":3,"station_name":"Duren Kalibata","distance":1546,"is_transit":false,"line":2},{"time":2,"distance":824,"is_transit":false,"station_id":"PSMB","i_lat":-6.263214,"transit":false,"i_long":106.851577,"line":2,"station_name":"Pasar Minggu Baru"},{"station_name":"Pasar Minggu","time":2,"distance":2380,"is_transit":false,"line":2,"station_id":"PSM","transit":false,"i_long":106.843999,"i_lat":-6.2842400000000005},{"line":2,"i_long":106.838896,"time":4,"station_name":"Tanjung Barat","is_transit":false,"station_id":"TNT","distance":2820,"transit":false,"i_lat":-6.3080680000000005},{"i_lat":-6.330363,"i_long":106.832616,"time":3,"station_name":"Lenteng Agung","distance":2671,"station_id":"LNA","line":2,"is_transit":false,"transit":false},{"station_id":"UP","time":2,"is_transit":false,"i_long":106.834175,"distance":1029,"line":2,"station_name":"Univ. Pancasila","i_lat":-6.339291,"transit":false},{"transit":false,"is_transit":false,"i_long":106.831474,"distance":2264,"station_name":"Univ. Indonesia","station_id":"UI","i_lat":-6.360749,"line":2,"time":3},{"is_transit":false,"i_long":106.831114,"station_id":"POC","i_lat":-6.369073,"time":2,"line":2,"distance":1109,"station_name":"Pondok Cina","transit":false}],[{"is_transit":false,"i_lat":-6.236616,"transit":false,"time":0,"station_id":"BKS","line":1,"i_long":106.997013,"station_name":"Bekasi","distance":0},{"i_long":106.977657,"time":4,"station_name":"Kranji","line":1,"distance":2520,"is_transit":false,"transit":false,"station_id":"KRI","i_lat":-6.224515},{"station_id":"CUK","i_lat":-6.219053,"i_long":106.951283,"time":3,"line":1,"is_transit":false,"station_name":"Cakung","distance":3097,"transit":false},{"i_lat":-6.217455,"station_id":"KLDB","time":8,"station_name":"Klenderbaru","is_transit":false,"transit":false,"distance":1385,"i_long":106.939679,"line":1},{"station_name":"Buaran","station_id":"BUA","i_lat":-6.215568,"distance":1305,"line":1,"transit":false,"i_long":106.922662,"time":1,"is_transit":false},{"time":2,"i_long":106.899548,"transit":false,"station_name":"Klender","station_id":"KLD","distance":3100,"i_lat":-6.2135,"is_transit":false,"line":1},{"station_id":"JNG","time":3,"station_name":"Jatinegara","transit":true,"distance":3395,"is_transit":true,"i_lat":-6.215091,"i_long":106.86807400000001,"line":1},{"i_lat":-6.209188,"line":11,"station_name":"Pondok Jati","time":2,"distance":1236,"is_transit":false,"transit":false,"i_long":106.861737,"station_id":"POK"},{"line":11,"i_long":106.855437,"time":2,"distance":1829,"station_id":"KMT","station_name":"Kramat","i_lat":-6.193792,"is_transit":false,"transit":false},{"i_lat":-6.185975,"line":11,"time":1,"is_transit":false,"station_id":"GST","i_long":106.850107,"distance":973,"station_name":"Gang Sentiong","transit":false},{"i_long":106.84368,"i_lat":-6.174784,"line":11,"station_id":"PSE","distance":1567,"station_name":"Pasar Senen","time":8,"transit":false,"is_transit":false},{"transit":false,"station_id":"KMO","distance":1436,"station_name":"Kemayoran","is_transit":false,"i_lat":-6.161728,"time":4,"line":11,"i_long":106.839204},{"station_name":"Rajawali","distance":1901,"is_transit":false,"i_long":106.836569,"transit":false,"i_lat":-6.14505,"time":5,"station_id":"RJW","line":11},{"transit":true,"i_long":106.826365,"distance":1444,"time":3,"line":4,"i_lat":-6.132549,"is_transit":true,"station_name":"Kampung Bandan","station_id":"KPB"},{"time":3,"distance":1364,"line":2,"i_long":106.812439,"transit":true,"station_name":"Jakarta Kota","is_transit":true,"station_id":"JAKK","i_lat":-6.137569},{"is_transit":false,"i_long":106.820901,"line":2,"time":4,"station_name":"Jayakarta","i_lat":-6.141205,"distance":1264,"transit":false,"station_id":"JAY"},{"time":2,"line":2,"i_lat":-6.149769,"distance":1080,"station_id":"MGB","is_transit":false,"station_name":"Manggabesar","transit":false,"i_long":106.82482},{"distance":906,"i_lat":-6.160725,"i_long":106.827103,"line":2,"is_transit":false,"transit":false,"station_name":"Sawah Besar","station_id":"SW","time":2},{"i_long":106.828284,"line":2,"distance":1149,"station_name":"Juanda","transit":false,"station_id":"JUA","i_lat":-6.166716,"is_transit":false,"time":2},{"distance":2015,"i_long":106.832183,"line":2,"is_transit":false,"time":4,"transit":false,"station_id":"GDD","i_lat":-6.186295,"station_name":"Gondangdia"},{"station_name":"Cikini","transit":false,"i_long":106.840169,"distance":1750,"time":3,"is_transit":false,"i_lat":-6.198556,"line":2,"station_id":"CKI"},{"time":4,"distance":1590,"transit":false,"i_lat":-6.209883,"i_long":106.84912,"station_name":"Manggarai","station_id":"MRI","is_transit":false,"line":2},{"transit":false,"distance":2610,"station_name":"Tebet","i_long":106.857948,"is_transit":false,"i_lat":-6.226659,"time":4,"station_id":"TEB","line":2},{"i_lat":-6.242512,"is_transit":false,"i_long":106.856607,"transit":false,"line":2,"time":2,"station_name":"Cawang","distance":1230,"station_id":"CW"},{"station_name":"Duren Kalibata","i_long":106.85449,"transit":false,"line":2,"time":3,"distance":1546,"station_id":"DRN","i_lat":-6.255332,"is_transit":false},{"i_lat":-6.263214,"station_id":"PSMB","is_transit":false,"line":2,"i_long":106.851577,"distance":824,"station_name":"Pasar Minggu Baru","time":2,"transit":false},{"transit":false,"is_transit":false,"distance":2380,"station_id":"PSM","time":2,"i_lat":-6.2842400000000005,"i_long":106.843999,"line":2,"station_name":"Pasar Minggu"},{"i_long":106.838896,"transit":false,"station_name":"Tanjung Barat","i_lat":-6.3080680000000005,"station_id":"TNT","line":2,"time":4,"distance":2820,"is_transit":false},{"is_transit":false,"i_lat":-6.330363,"station_id":"LNA","station_name":"Lenteng Agung","i_long":106.832616,"transit":false,"line":2,"distance":2671,"time":3},{"i_lat":-6.339291,"time":2,"line":2,"transit":false,"distance":1029,"station_name":"Univ. Pancasila","is_transit":false,"station_id":"UP","i_long":106.834175},{"time":3,"is_transit":false,"transit":false,"distance":2264,"i_long":106.831474,"station_id":"UI","station_name":"Univ. Indonesia","line":2,"i_lat":-6.360749},{"station_id":"POC","is_transit":false,"i_lat":-6.369073,"distance":1109,"station_name":"Pondok Cina","line":2,"time":2,"i_long":106.831114,"transit":false}]]}