{"data":[[{"i_long":106.997013,"i_lat":-6.236616,"is_transit":false,"transit":false,"time":0,"station_name":"Bekasi","distance":0,"station_id":"BKS","line":1},{"station_id":"KRI","is_transit":false,"transit":false,"time":4,"i_long":106.977657,"station_name":"Kranji","distance":2520,"i_lat":-6.224515,"line":1},{"station_id":"CUK","time":3,"station_name":"Cakung","line":1,"is_transit":false,"transit":false,"distance":3097,"i_long":106.951283,"i_lat":-6.219053},{"station_name":"Klenderbaru","line":1,"station_id":"KLDB","time":8,"transit":false,"i_long":106.939679,"distance":1385,"i_lat":-6.217455,"is_transit":false},{"transit":false,"is_transit":false,"time":1,"station_name":"Buaran","i_long":106.922662,"line":1,"station_id":"BUA","distance":1305,"i_lat":-6.215568},{"i_lat":-6.2135,"transit":false,"is_transit":false,"i_long":106.899548,"station_id":"KLD","time":2,"station_name":"Klender","line":1,"distance":3100},{"i_long":106.86807400000001,"station_id":"JNG","line":1,"distance":3395,"transit":false,"is_transit":false,"i_lat":-6.215091,"time":3,"station_name":"Jatinegara"},{"station_name":"Matraman","transit":false,"time":2,"station_id":"MTR","line":1,"distance":1377,"i_lat":-6.212485,"is_transit":false,"i_long":106.858896},{"time":2,"i_long":106.84912,"distance":1275,"i_lat":-6.209883,"station_id":"MRI","is_transit":false,"transit":false,"station_name":"Manggarai","line":2},{"i_long":106.822649,"station_name":"Sudirman","line":1,"station_id":"SUD","distance":3186,"i_lat":-6.202263,"transit":false,"time":4,"is_transit":false},{"i_lat":-6.201433,"transit":false,"time":1,"station_name":"Sudirman Baru","line":1,"distance":280,"i_long":106.819881,"is_transit":false,"station_id":"SUDB"},{"station_name":"Karet","station_id":"KAT","is_transit":false,"time":1,"distance":471,"i_lat":-6.20132,"i_long":106.816351,"line":1,"transit":false},{"i_long":106.811091,"i_lat":-6.185545,"is_transit":true,"distance":2029,"station_name":"Tanah Abang","time":5,"transit":true,"station_id":"THB","line":1},{"i_lat":-6.207404,"line":6,"transit":false,"i_long":106.79689,"time":6,"station_name":"Palmerah","station_id":"PLM","is_transit":false,"distance":3191},{"distance":3737,"is_transit":false,"station_name":"Kebayoran","i_lat":-6.237242,"transit":false,"i_long":106.780334,"station_id":"KBY","line":6,"time":7},{"distance":6218,"is_transit":false,"i_lat":-6.276362,"transit":false,"line":6,"station_id":"PDJ","station_name":"Pondokranji","time":8,"i_long":106.74273},{"line":6,"transit":false,"i_long":106.728916,"time":3,"station_name":"Jurangmangu","i_lat":-6.288927,"station_id":"JMU","is_transit":false,"distance":2179},{"is_transit":false,"time":4,"line":6,"station_id":"SDM","transit":false,"distance":1994,"i_lat":-6.296963,"i_long":106.712277,"station_name":"Sudimara"},{"i_lat":-6.314823,"line":6,"is_transit":false,"time":6,"distance":4566,"station_name":"Rawa Buntu","station_id":"RU","i_long":106.675475,"transit":false},{"transit":false,"station_name":"Serpong","time":4,"distance":2413,"i_lat":-6.319871,"i_long":106.66566,"line":6,"is_transit":false,"station_id":"SRP"},{"station_id":"CSK","is_transit":false,"time":4,"i_long":106.640411,"i_lat":-6.32484,"line":3,"distance":1784,"station_name":"Cisauk","transit":false},{"station_name":"Cicayur","transit":false,"i_long":106.617853,"station_id":"CC","distance":2519,"is_transit":false,"line":3,"time":4,"i_lat":-6.329547},{"transit":false,"station_name":"Parung Panjang","is_transit":false,"distance":5968,"i_lat":-6.3441410000000005,"line":6,"station_id":"PRP","time":8,"i_long":106.568863},{"distance":7025,"station_name":"Cilejit","time":9,"i_lat":-6.354349,"is_transit":false,"i_long":106.508482,"transit":false,"station_id":"CJT","line":3},{"transit":false,"time":6,"station_id":"DAR","distance":2675,"station_name":"Daru","is_transit":false,"i_long":106.491338,"line":0,"i_lat":-6.338021},{"distance":3902,"line":6,"time":5,"station_id":"TEJ","transit":false,"is_transit":false,"station_name":"Tenjo","i_lat":-6.327251,"i_long":106.460812},{"i_lat":-6.328533,"i_long":106.425991,"is_transit":false,"time":5,"transit":false,"station_id":"TGS","line":6,"distance":2974,"station_name":"Tigaraksa"},{"station_name":"Cikoya","i_lat":-6.33561,"line":3,"i_long":106.411216,"transit":false,"is_transit":false,"distance":2651,"time":3,"station_id":"CKY"},{"is_transit":false,"distance":1853,"time":4,"i_lat":-6.332307,"line":6,"transit":false,"i_long":106.394373,"station_name":"Maja","station_id":"MJ"},{"i_lat":-6.334892,"distance":7293,"transit":false,"time":10,"station_id":"CTR","i_long":106.332092,"line":3,"station_name":"Citeras","is_transit":false}],[{"line":1,"transit":false,"station_name":"Bekasi","i_lat":-6.236616,"is_transit":false,"distance":0,"station_id":"BKS","i_long":106.997013,"time":0},{"line":1,"station_id":"KRI","station_name":"Kranji","i_long":106.977657,"transit":false,"is_transit":false,"i_lat":-6.224515,"distance":2520,"time":4},{"is_transit":false,"station_id":"CUK","line":1,"time":3,"station_name":"Cakung","i_long":106.951283,"transit":false,"i_lat":-6.219053,"distance":3097},{"is_transit":false,"i_lat":-6.217455,"i_long":106.939679,"time":8,"distance":1385,"line":1,"station_id":"KLDB","transit":false,"station_name":"Klenderbaru"},{"transit":false,"time":1,"distance":1305,"station_name":"Buaran","i_long":106.922662,"line":1,"station_id":"BUA","is_transit":false,"i_lat":-6.215568},{"transit":false,"i_lat":-6.2135,"line":1,"station_name":"Klender","is_transit":false,"time":2,"station_id":"KLD","distance":3100,"i_long":106.899548},{"distance":3395,"is_transit":true,"time":3,"station_name":"Jatinegara","i_lat":-6.215091,"station_id":"JNG","transit":true,"i_long":106.86807400000001,"line":1},{"i_lat":-6.209188,"i_long":106.861737,"station_id":"POK","is_transit":false,"station_name":"Pondok Jati","distance":1236,"time":2,"line":11,"transit":false},{"distance":1829,"station_name":"Kramat","i_long":106.855437,"time":2,"i_lat":-6.193792,"line":11,"station_id":"KMT","is_transit":false,"transit":false},{"station_name":"Gang Sentiong","distance":973,"transit":false,"line":11,"is_transit":false,"i_lat":-6.185975,"time":1,"i_long":106.850107,"station_id":"GST"},{"transit":false,"distance":1567,"i_lat":-6.174784,"line":11,"station_name":"Pasar Senen","station_id":"PSE","time":8,"i_long":106.84368,"is_transit":false},{"transit":false,"i_lat":-6.161728,"distance":1436,"is_transit":false,"time":4,"line":11,"i_long":106.839204,"station_name":"Kemayoran","station_id":"KMO"},{"i_lat":-6.14505,"is_transit":false,"line":11,"transit":false,"station_id":"RJW","station_name":"Rajawali","i_long":106.836569,"distance":1901,"time":5},{"i_long":106.826365,"is_transit":true,"distance":1444,"transit":true,"i_lat":-6.132549,"time":3,"station_name":"Kampung Bandan","station_id":"KPB","line":4},{"is_transit":false,"time":9,"transit":false,"station_name":"Angke","i_long":106.79867,"station_id":"AK","distance":4102,"line":1,"i_lat":-6.144674},{"transit":false,"station_name":"Duri","i_lat":-6.155215,"i_long":106.800832,"line":1,"station_id":"DU","is_transit":false,"time":4,"distance":1230},{"station_name":"Tanah Abang","distance":3632,"is_transit":true,"i_lat":-6.185545,"i_long":106.811091,"transit":true,"station_id":"THB","time":8,"line":1},{"station_id":"PLM","i_lat":-6.207404,"station_name":"Palmerah","is_transit":false,"line":6,"transit":false,"time":6,"distance":3191,"i_long":106.79689},{"is_transit":false,"station_name":"Kebayoran","station_id":"KBY","time":7,"transit":false,"i_long":106.780334,"line":6,"i_lat":-6.237242,"distance":3737},{"distance":6218,"station_name":"Pondokranji","i_long":106.74273,"is_transit":false,"station_id":"PDJ","transit":false,"time":8,"i_lat":-6.276362,"line":6},{"transit":false,"station_name":"Jurangmangu","time":3,"i_lat":-6.288927,"station_id":"JMU","i_long":106.728916,"is_transit":false,"line":6,"distance":2179},{"i_lat":-6.296963,"transit":false,"time":4,"station_name":"Sudimara","line":6,"is_transit":false,"distance":1994,"station_id":"SDM","i_long":106.712277},{"line":6,"station_name":"Rawa Buntu","time":6,"transit":false,"is_transit":false,"distance":4566,"station_id":"RU","i_long":106.675475,"i_lat":-6.314823},{"station_id":"SRP","is_transit":false,"distance":2413,"i_long":106.66566,"transit":false,"i_lat":-6.319871,"station_name":"Serpong","line":6,"time":4},{"i_lat":-6.32484,"station_id":"CSK","line":3,"i_long":106.640411,"time":4,"transit":false,"distance":1784,"is_transit":false,"station_name":"Cisauk"},{"i_long":106.617853,"station_id":"CC","time":4,"line":3,"i_lat":-6.329547,"distance":2519,"is_transit":false,"transit":false,"station_name":"Cicayur"},{"distance":5968,"i_long":106.568863,"is_transit":false,"station_id":"PRP","station_name":"Parung Panjang","time":8,"line":6,"i_lat":-6.3441410000000005,"transit":false},{"time":9,"i_long":106.508482,"station_name":"Cilejit","is_transit":false,"distance":7025,"i_lat":-6.354349,"line":3,"station_id":"CJT","transit":false},{"station_name":"Daru","transit":false,"station_id":"DAR","i_long":106.491338,"time":6,"distance":2675,"line":0,"i_lat":-6.338021,"is_transit":false},{"line":6,"distance":3902,"station_name":"Tenjo","i_lat":-6.327251,"transit":false,"time":5,"is_transit":false,"station_id":"TEJ","i_long":106.460812},{"station_id":"TGS","distance":2974,"line":6,"time":5,"transit":false,"is_transit":false,"i_lat":-6.328533,"i_long":106.425991,"station_name":"Tigaraksa"},{"i_lat":-6.33561,"station_name":"Cikoya","is_transit":false,"time":3,"i_long":106.411216,"station_id":"CKY","line":3,"distance":2651,"transit":false},{"time":4,"station_name":"Maja","is_transit":false,"station_id":"MJ","i_lat":-6.332307,"transit":false,"line":6,"distance":1853,"i_long":106.394373},{"i_lat":-6.334892,"transit":false,"is_transit":false,"station_name":"Citeras","time":10,"station_id":"CTR","distance":7293,"i_long":106.332092,"line":3}],[{"station_name":"Bekasi","distance":0,"i_lat":-6.236616,"station_id":"BKS","i_long":106.997013,"transit":false,"is_transit":false,"time":0,"line":1},{"is_transit":false,"distance":2520,"time":4,"i_long":106.977657,"line":1,"i_lat":-6.224515,"station_name":"Kranji","transit":false,"station_id":"KRI"},{"i_lat":-6.219053,"i_long":106.951283,"time":3,"transit":false,"distance":3097,"station_id":"CUK","line":1,"station_name":"Cakung","is_transit":false},{"station_id":"KLDB","transit":false,"i_long":106.939679,"distance":1385,"is_transit":false,"i_lat":-6.217455,"time":8,"line":1,"station_name":"Klenderbaru"},{"station_id":"BUA","distance":1305,"transit":false,"i_long":106.922662,"station_name":"Buaran","i_lat":-6.215568,"time":1,"line":1,"is_transit":false},{"line":1,"transit":false,"time":2,"station_name":"Klender","station_id":"KLD","i_long":106.899548,"i_lat":-6.2135,"is_transit":false,"distance":3100},{"station_id":"JNG","distance":3395,"i_lat":-6.215091,"transit":false,"i_long":106.86807400000001,"is_transit":false,"time":3,"line":1,"station_name":"Jatinegara"},{"station_id":"MTR","transit":false,"i_lat":-6.212485,"station_name":"Matraman","is_transit":false,"i_long":106.858896,"time":2,"distance":1377,"line":1},{"time":2,"i_long":106.84912,"station_name":"Manggarai","distance":1275,"station_id":"MRI","transit":true,"i_lat":-6.209883,"line":2,"is_transit":true},{"station_id":"CKI","time":4,"line":2,"station_name":"Cikini","is_transit":false,"i_long":106.840169,"transit":false,"i_lat":-6.198556,"distance":1590},{"is_transit":false,"i_lat":-6.186295,"line":2,"i_long":106.832183,"transit":false,"time":3,"distance":1750,"station_id":"GDD","station_name":"Gondangdia"},{"station_name":"Juanda","transit":false,"i_lat":-6.166716,"time":4,"distance":2015,"station_id":"JUA","is_transit":false,"line":2,"i_long":106.828284},{"i_long":106.827103,"station_name":"Sawah Besar","line":2,"is_transit":false,"time":2,"station_id":"SW","i_lat":-6.160725,"distance":1149,"transit":false},{"transit":false,"time":2,"i_lat":-6.149769,"distance":906,"line":2,"station_name":"Manggabesar","station_id":"MGB","is_transit":false,"i_long":106.82482},{"station_name":"Jayakarta","is_transit":false,"distance":1080,"station_id":"JAY","i_long":106.820901,"transit":false,"time":2,"i_lat":-6.141205,"line":2},{"station_name":"Jakarta Kota","i_lat":-6.137569,"distance":1264,"i_long":106.812439,"line":2,"transit":true,"station_id":"JAKK","time":4,"is_transit":true},{"i_long":106.826365,"line":4,"station_id":"KPB","distance":1364,"station_name":"Kampung Bandan","time":3,"transit":true,"is_transit":true,"i_lat":-6.132549},{"station_name":"Angke","distance":4102,"line":1,"station_id":"AK","transit":false,"time":9,"i_lat":-6.144674,"i_long":106.79867,"is_transit":false},{"station_name":"Duri","distance":1230,"i_lat":-6.155215,"time":4,"transit":false,"is_transit":false,"i_long":106.800832,"station_id":"DU","line":1},{"station_name":"Tanah Abang","station_id":"THB","transit":true,"i_lat":-6.185545,"line":1,"is_transit":true,"time":8,"i_long":106.811091,"distance":3632},{"station_name":"Palmerah","i_long":106.79689,"line":6,"station_id":"PLM","transit":false,"is_transit":false,"time":6,"distance":3191,"i_lat":-6.207404},{"distance":3737,"station_name":"Kebayoran","station_id":"KBY","transit":false,"is_transit":false,"i_long":106.780334,"time":7,"line":6,"i_lat":-6.237242},{"i_lat":-6.276362,"station_name":"Pondokranji","station_id":"PDJ","i_long":106.74273,"is_transit":false,"line":6,"transit":false,"time":8,"distance":6218},{"line":6,"i_long":106.728916,"station_name":"Jurangmangu","is_transit":false,"transit":false,"distance":2179,"station_id":"JMU","time":3,"i_lat":-6.288927},{"station_name":"Sudimara","line":6,"i_lat":-6.296963,"is_transit":false,"station_id":"SDM","distance":1994,"i_long":106.712277,"time":4,"transit":false},{"transit":false,"i_lat":-6.314823,"i_long":106.675475,"is_transit":false,"line":6,"station_name":"Rawa Buntu","distance":4566,"station_id":"RU","time":6},{"is_transit":false,"line":6,"station_id":"SRP","station_name":"Serpong","time":4,"i_long":106.66566,"i_lat":-6.319871,"transit":false,"distance":2413},{"is_transit":false,"line":3,"transit":false,"station_name":"Cisauk","time":4,"i_long":106.640411,"i_lat":-6.32484,"station_id":"CSK","distance":1784},{"transit":false,"station_id":"CC","i_lat":-6.329547,"line":3,"time":4,"is_transit":false,"distance":2519,"station_name":"Cicayur","i_long":106.617853},{"i_long":106.568863,"distance":5968,"is_transit":false,"time":8,"transit":false,"i_lat":-6.3441410000000005,"line":6,"station_name":"Parung Panjang","station_id":"PRP"},{"i_lat":-6.354349,"station_id":"CJT","i_long":106.508482,"time":9,"station_name":"Cilejit","distance":7025,"line":3,"transit":false,"is_transit":false},{"station_id":"DAR","i_lat":-6.338021,"i_long":106.491338,"transit":false,"is_transit":false,"distance":2675,"line":0,"time":6,"station_name":"Daru"},{"transit":false,"time":5,"is_transit":false,"station_id":"TEJ","distance":3902,"i_lat":-6.327251,"station_name":"Tenjo","i_long":106.460812,"line":6},{"is_transit":false,"station_id":"TGS","i_lat":-6.328533,"station_name":"Tigaraksa","time":5,"i_long":106.425991,"line":6,"distance":2974,"transit":false},{"i_lat":-6.33561,"transit":false,"is_transit":false,"station_id":"CKY","time":3,"distance":2651,"i_long":106.411216,"station_name":"Cikoya","line":3},{"time":4,"line":6,"transit":false,"station_name":"Maja","station_id":"MJ","distance":1853,"i_lat":-6.332307,"i_long":106.394373,"is_transit":false},{"station_name":"Citeras","station_id":"CTR","distance":7293,"transit":false,"time":10,"is_transit":false,"i_lat":-6.334892,"i_long":106.332092,"line":3}],[{"distance":0,"transit":false,"is_transit":false,"i_lat":-6.236616,"i_long":106.997013,"line":1,"time":0,"station_id":"BKS","station_name":"Bekasi"},{"i_long":106.977657,"line":1,"is_transit":false,"i_lat":-6.224515,"distance":2520,"station_id":"KRI","transit":false,"station_name":"Kranji","time":4},{"station_id":"CUK","i_lat":-6.219053,"i_long":106.951283,"distance":3097,"station_name":"Cakung","is_transit":false,"time":3,"transit":false,"line":1},{"station_id":"KLDB","i_long":106.939679,"station_name":"Klenderbaru","distance":1385,"line":1,"i_lat":-6.217455,"transit":false,"is_transit":false,"time":8},{"station_name":"Buaran","transit":false,"station_id":"BUA","i_lat":-6.215568,"distance":1305,"i_long":106.922662,"is_transit":false,"time":1,"line":1},{"distance":3100,"transit":false,"station_name":"Klender","is_transit":false,"i_lat":-6.2135,"i_long":106.899548,"line":1,"station_id":"KLD","time":2},{"line":1,"transit":true,"is_transit":true,"time":3,"i_long":106.86807400000001,"i_lat":-6.215091,"station_id":"JNG","distance":3395,"station_name":"Jatinegara"},{"transit":false,"is_transit":false,"time":2,"station_id":"POK","i_lat":-6.209188,"i_long":106.861737,"station_name":"Pondok Jati","line":11,"distance":1236},{"distance":1829,"time":2,"is_transit":false,"i_long":106.855437,"line":11,"transit":false,"station_name":"Kramat","i_lat":-6.193792,"station_id":"KMT"},{"line":11,"time":1,"station_name":"Gang Sentiong","station_id":"GST","distance":973,"transit":false,"i_long":106.850107,"is_transit":false,"i_lat":-6.185975},{"line":11,"i_lat":-6.174784,"station_id":"PSE","transit":false,"time":8,"is_transit":false,"station_name":"Pasar Senen","i_long":106.84368,"distance":1567},{"time":4,"i_lat":-6.161728,"line":11,"is_transit":false,"station_name":"Kemayoran","transit":false,"i_long":106.839204,"distance":1436,"station_id":"KMO"},{"is_transit":false,"time":5,"i_long":106.836569,"line":11,"station_name":"Rajawali","distance":1901,"transit":false,"i_lat":-6.14505,"station_id":"RJW"},{"transit":true,"station_name":"Kampung Bandan","i_long":106.826365,"line":4,"station_id":"KPB","time":3,"i_lat":-6.132549,"distance":1444,"is_transit":true},{"transit":true,"time":3,"line":2,"distance":1364,"i_long":106.812439,"is_transit":true,"i_lat":-6.137569,"station_name":"Jakarta Kota","station_id":"JAKK"},{"line":2,"i_lat":-6.141205,"i_long":106.820901,"station_name":"Jayakarta","is_transit":false,"time":4,"transit":false,"station_id":"JAY","distance":1264},{"distance":1080,"i_long":106.82482,"line":2,"station_id":"MGB","is_transit":false,"i_lat":-6.149769,"transit":false,"time":2,"station_name":"Manggabesar"},{"line":2,"i_long":106.827103,"station_name":"Sawah Besar","transit":false,"time":2,"i_lat":-6.160725,"station_id":"SW","is_transit":false,"distance":906},{"transit":false,"station_id":"JUA","distance":1149,"i_lat":-6.166716,"is_transit":false,"i_long":106.828284,"time":2,"station_name":"Juanda","line":2},{"transit":false,"i_long":106.832183,"station_id":"GDD","i_lat":-6.186295,"time":4,"station_name":"Gondangdia","is_transit":false,"distance":2015,"line":2},{"i_long":106.840169,"line":2,"i_lat":-6.198556,"transit":false,"is_transit":false,"time":3,"station_id":"CKI","distance":1750,"station_name":"Cikini"},{"i_long":106.84912,"transit":true,"station_id":"MRI","station_name":"Manggarai","is_transit":true,"time":4,"distance":1590,"line":2,"i_lat":-6.209883},{"station_id":"SUD","i_lat":-6.202263,"line":1,"station_name":"Sudirman","i_long":106.822649,"transit":false,"time":4,"is_transit":false,"distance":3186},{"is_transit":false,"line":1,"i_long":106.819881,"station_name":"Sudirman Baru","station_id":"SUDB","time":1,"transit":false,"distance":280,"i_lat":-6.201433},{"station_id":"KAT","distance":471,"time":1,"i_long":106.816351,"station_name":"Karet","i_lat":-6.20132,"line":1,"transit":false,"is_transit":false},{"station_id":"THB","i_lat":-6.185545,"transit":true,"distance":2029,"line":1,"time":5,"i_long":106.811091,"is_transit":true,"station_name":"Tanah Abang"},{"station_name":"Palmerah","transit":false,"i_long":106.79689,"line":6,"station_id":"PLM","is_transit":false,"distance":3191,"i_lat":-6.207404,"time":6},{"station_name":"Kebayoran","station_id":"KBY","i_long":106.780334,"i_lat":-6.237242,"time":7,"is_transit":false,"distance":3737,"line":6,"transit":false},{"transit":false,"station_id":"PDJ","line":6,"is_transit":false,"distance":6218,"station_name":"Pondokranji","time":8,"i_long":106.74273,"i_lat":-6.276362},{"time":3,"distance":2179,"station_name":"Jurangmangu","line":6,"i_lat":-6.288927,"station_id":"JMU","i_long":106.728916,"is_transit":false,"transit":false},{"transit":false,"station_id":"SDM","is_transit":false,"station_name":"Sudimara","distance":1994,"i_lat":-6.296963,"i_long":106.712277,"line":6,"time":4},{"line":6,"is_transit":false,"i_lat":-6.314823,"distance":4566,"i_long":106.675475,"time":6,"station_name":"Rawa Buntu","station_id":"RU","transit":false},{"station_id":"SRP","distance":2413,"station_name":"Serpong","is_transit":false,"time":4,"transit":false,"i_long":106.66566,"line":6,"i_lat":-6.319871},{"station_id":"CSK","i_long":106.640411,"line":3,"distance":1784,"i_lat":-6.32484,"is_transit":false,"station_name":"Cisauk","time":4,"transit":false},{"is_transit":false,"i_long":106.617853,"i_lat":-6.329547,"transit":false,"station_id":"CC","distance":2519,"station_name":"Cicayur","time":4,"line":3},{"distance":5968,"line":6,"i_long":106.568863,"i_lat":-6.3441410000000005,"is_transit":false,"station_id":"PRP","transit":false,"station_name":"Parung Panjang","time":8},{"transit":false,"is_transit":false,"i_lat":-6.354349,"distance":7025,"station_name":"Cilejit","station_id":"CJT","time":9,"i_long":106.508482,"line":3},{"station_name":"Daru","i_lat":-6.338021,"is_transit":false,"time":6,"station_id":"DAR","distance":2675,"i_long":106.491338,"line":0,"transit":false},{"station_id":"TEJ","station_name":"Tenjo","distance":3902,"time":5,"transit":false,"i_lat":-6.327251,"i_long":106.460812,"is_transit":false,"line":6},{"line":6,"station_id":"TGS","time":5,"transit":false,"station_name":"Tigaraksa","i_lat":-6.328533,"is_transit":false,"i_long":106.425991,"distance":2974},{"i_lat":-6.33561,"i_long":106.411216,"time":3,"transit":false,"line":3,"station_name":"Cikoya","is_transit":false,"station_id":"CKY","distance":2651},{"line":6,"station_name":"Maja","transit":false,"station_id":"MJ","is_transit":false,"time":4,"distance":1853,"i_lat":-6.332307,"i_long":106.394373},{"time":10,"distance":7293,"i_long":106.332092,"i_lat":-6.334892,"line":3,"station_id":"CTR","station_name":"Citeras","transit":false,"is_transit":false}]]}