{"data":[[{"line":1,"distance":0,"i_long":106.997013,"time":0,"transit":false,"station_id":"BKS","is_transit":false,"i_lat":-6.236616,"station_name":"Bekasi"},{"station_name":"Kranji","is_transit":false,"station_id":"KRI","i_lat":-6.224515,"distance":2520,"i_long":106.977657,"time":4,"transit":false,"line":1},{"is_transit":false,"i_lat":-6.219053,"transit":false,"time":3,"distance":3097,"i_long":106.951283,"line":1,"station_id":"CUK","station_name":"Cakung"},{"station_id":"KLDB","time":8,"i_lat":-6.217455,"transit":false,"distance":1385,"station_name":"Klenderbaru","line":1,"i_long":106.939679,"is_transit":false},{"line":1,"distance":1305,"i_lat":-6.215568,"transit":false,"is_transit":false,"station_id":"BUA","time":1,"station_name":"Buaran","i_long":106.922662},{"time":2,"i_lat":-6.2135,"transit":false,"station_id":"KLD","station_name":"Klender","is_transit":false,"distance":3100,"i_long":106.899548,"line":1},{"transit":false,"i_lat":-6.215091,"station_id":"JNG","station_name":"Jatinegara","i_long":106.86807400000001,"time":3,"distance":3395,"is_transit":false,"line":1}]]}