{"data":[[{"distance":0,"transit":false,"station_id":"BKS","time":0,"i_lat":-6.236616,"is_transit":false,"station_name":"Bekasi","i_long":106.997013,"line":0},{"distance":2520,"transit":false,"time":4,"is_transit":false,"station_id":"KRI","station_name":"Kranji","i_lat":-6.224515,"line":1,"i_long":106.977657},{"time":3,"station_id":"CUK","i_long":106.951283,"distance":3097,"line":0,"transit":false,"is_transit":false,"i_lat":-6.219053,"station_name":"Cakung"},{"transit":false,"station_id":"KLDB","i_lat":-6.217455,"i_long":106.939679,"station_name":"Klenderbaru","time":8,"distance":1385,"line":1,"is_transit":false},{"station_id":"BUA","line":0,"station_name":"Buaran","time":1,"i_lat":-6.215568,"i_long":106.922662,"transit":false,"is_transit":false,"distance":1305},{"transit":false,"i_lat":-6.2135,"line":1,"station_id":"KLD","time":2,"i_long":106.899548,"station_name":"Klender","is_transit":false,"distance":3100},{"distance":3395,"line":0,"i_long":106.86807400000001,"transit":false,"time":3,"station_name":"Jatinegara","is_transit":true,"i_lat":-6.215091,"station_id":"JNG"},{"i_long":106.858896,"is_transit":false,"time":2,"distance":1377,"station_id":"MTR","transit":false,"line":1,"i_lat":-6.212485,"station_name":"Matraman"},{"line":0,"station_name":"Manggarai","station_id":"MRI","i_lat":-6.209883,"i_long":106.84912,"time":2,"transit":true,"is_transit":true,"distance":1275},{"transit":false,"time":4,"station_id":"TEB","distance":2610,"is_transit":false,"station_name":"Tebet","i_lat":-6.226659,"line":2,"i_long":106.857948},{"station_name":"Cawang","i_lat":-6.242512,"i_long":106.856607,"transit":false,"distance":1230,"is_transit":false,"station_id":"CW","line":0,"time":2},{"is_transit":false,"distance":1546,"station_name":"Duren Kalibata","i_lat":-6.255332,"time":3,"line":0,"station_id":"DRN","i_long":106.85449,"transit":false},{"station_name":"Pasar Minggu Baru","distance":824,"transit":false,"line":2,"time":2,"is_transit":false,"station_id":"PSMB","i_lat":-6.263214,"i_long":106.851577},{"i_long":106.843999,"transit":false,"station_name":"Pasar Minggu","line":2,"time":2,"i_lat":-6.2842400000000005,"distance":2380,"is_transit":false,"station_id":"PSM"},{"i_long":106.838896,"transit":false,"time":4,"station_id":"TNT","distance":2820,"i_lat":-6.3080680000000005,"line":2,"is_transit":false,"station_name":"Tanjung Barat"},{"transit":false,"time":3,"is_transit":false,"station_id":"LNA","distance":2671,"station_name":"Lenteng Agung","i_lat":-6.330363,"line":2,"i_long":106.832616},{"line":2,"time":2,"is_transit":false,"i_long":106.834175,"i_lat":-6.339291,"station_id":"UP","transit":false,"distance":1029,"station_name":"Univ. Pancasila"},{"transit":false,"time":3,"is_transit":false,"station_name":"Univ. Indonesia","station_id":"UI","line":2,"i_lat":-6.360749,"distance":2264,"i_long":106.831474}],[{"transit":false,"is_transit":false,"i_long":106.997013,"time":0,"distance":0,"station_id":"BKS","station_name":"Bekasi","i_lat":-6.236616,"line":0},{"i_lat":-6.224515,"distance":2520,"station_name":"Kranji","transit":false,"is_transit":false,"i_long":106.977657,"line":1,"station_id":"KRI","time":4},{"distance":3097,"time":3,"station_name":"Cakung","line":0,"i_long":106.951283,"is_transit":false,"station_id":"CUK","i_lat":-6.219053,"transit":false},{"i_long":106.939679,"station_id":"KLDB","time":8,"i_lat":-6.217455,"transit":false,"is_transit":false,"distance":1385,"station_name":"Klenderbaru","line":1},{"time":1,"distance":1305,"transit":false,"is_transit":false,"i_lat":-6.215568,"station_name":"Buaran","station_id":"BUA","i_long":106.922662,"line":0},{"line":1,"i_lat":-6.2135,"transit":false,"is_transit":false,"station_name":"Klender","distance":3100,"time":2,"station_id":"KLD","i_long":106.899548},{"transit":true,"distance":3395,"line":0,"time":3,"i_lat":-6.215091,"station_id":"JNG","station_name":"Jatinegara","is_transit":true,"i_long":106.86807400000001},{"distance":1236,"i_long":106.861737,"station_name":"Pondok Jati","time":2,"station_id":"POK","line":11,"is_transit":false,"i_lat":-6.209188,"transit":false},{"line":11,"i_long":106.855437,"is_transit":false,"station_id":"KMT","distance":1829,"i_lat":-6.193792,"transit":false,"time":2,"station_name":"Kramat"},{"station_id":"GST","transit":false,"i_long":106.850107,"i_lat":-6.185975,"station_name":"Gang Sentiong","is_transit":false,"distance":973,"time":1,"line":11},{"distance":1567,"time":8,"transit":false,"station_id":"PSE","line":11,"is_transit":false,"station_name":"Pasar Senen","i_long":106.84368,"i_lat":-6.174784},{"line":11,"i_long":106.839204,"time":4,"station_name":"Kemayoran","station_id":"KMO","distance":1436,"is_transit":false,"transit":false,"i_lat":-6.161728},{"station_name":"Rajawali","is_transit":false,"time":5,"distance":1901,"station_id":"RJW","i_long":106.836569,"transit":false,"i_lat":-6.14505,"line":11},{"i_long":106.826365,"line":0,"station_name":"Kampung Bandan","distance":1444,"time":3,"is_transit":true,"transit":true,"station_id":"KPB","i_lat":-6.132549},{"distance":4102,"time":9,"station_name":"Angke","i_lat":-6.144674,"i_long":106.79867,"station_id":"AK","line":0,"is_transit":false,"transit":false},{"i_lat":-6.155215,"station_id":"DU","station_name":"Duri","line":1,"is_transit":true,"transit":true,"distance":1230,"i_long":106.800832,"time":4},{"time":8,"distance":3632,"station_name":"Tanah Abang","station_id":"THB","is_transit":true,"i_lat":-6.185545,"line":1,"i_long":106.811091,"transit":false},{"i_lat":-6.20132,"i_long":106.816351,"is_transit":false,"distance":2029,"line":1,"transit":false,"time":5,"station_id":"KAT","station_name":"Karet"},{"i_long":106.819881,"is_transit":false,"distance":471,"time":1,"station_id":"SUDB","transit":false,"line":1,"i_lat":-6.201433,"station_name":"Sudirman Baru"},{"i_long":106.822649,"line":1,"i_lat":-6.202263,"station_id":"SUD","is_transit":false,"transit":false,"time":1,"distance":280,"station_name":"Sudirman"},{"station_id":"MRI","distance":3186,"is_transit":true,"time":4,"station_name":"Manggarai","transit":true,"i_long":106.84912,"i_lat":-6.209883,"line":0},{"is_transit":false,"transit":false,"i_lat":-6.226659,"distance":2610,"station_name":"Tebet","i_long":106.857948,"station_id":"TEB","time":4,"line":2},{"i_lat":-6.242512,"station_id":"CW","is_transit":false,"line":0,"transit":false,"i_long":106.856607,"time":2,"station_name":"Cawang","distance":1230},{"i_long":106.85449,"station_id":"DRN","line":0,"transit":false,"distance":1546,"is_transit":false,"time":3,"station_name":"Duren Kalibata","i_lat":-6.255332},{"station_name":"Pasar Minggu Baru","transit":false,"is_transit":false,"time":2,"station_id":"PSMB","distance":824,"i_lat":-6.263214,"i_long":106.851577,"line":2},{"is_transit":false,"line":2,"station_name":"Pasar Minggu","station_id":"PSM","transit":false,"i_long":106.843999,"distance":2380,"i_lat":-6.2842400000000005,"time":2},{"time":4,"line":2,"is_transit":false,"station_name":"Tanjung Barat","station_id":"TNT","i_lat":-6.3080680000000005,"transit":false,"distance":2820,"i_long":106.838896},{"i_lat":-6.330363,"transit":false,"i_long":106.832616,"is_transit":false,"time":3,"distance":2671,"station_name":"Lenteng Agung","station_id":"LNA","line":2},{"transit":false,"station_id":"UP","i_lat":-6.339291,"i_long":106.834175,"line":2,"time":2,"station_name":"Univ. Pancasila","distance":1029,"is_transit":false},{"line":2,"transit":false,"time":3,"distance":2264,"is_transit":false,"station_name":"Univ. Indonesia","station_id":"UI","i_long":106.831474,"i_lat":-6.360749}],[{"distance":0,"station_name":"Bekasi","station_id":"BKS","transit":false,"i_long":106.997013,"time":0,"i_lat":-6.236616,"line":0,"is_transit":false},{"station_name":"Kranji","station_id":"KRI","transit":false,"is_transit":false,"i_lat":-6.224515,"time":4,"line":1,"distance":2520,"i_long":106.977657},{"is_transit":false,"station_id":"CUK","time":3,"i_lat":-6.219053,"i_long":106.951283,"line":0,"transit":false,"distance":3097,"station_name":"Cakung"},{"i_lat":-6.217455,"i_long":106.939679,"is_transit":false,"line":1,"station_name":"Klenderbaru","station_id":"KLDB","time":8,"distance":1385,"transit":false},{"i_lat":-6.215568,"line":0,"station_name":"Buaran","station_id":"BUA","is_transit":false,"transit":false,"time":1,"distance":1305,"i_long":106.922662},{"is_transit":false,"i_long":106.899548,"station_id":"KLD","line":1,"station_name":"Klender","transit":false,"time":2,"distance":3100,"i_lat":-6.2135},{"station_name":"Jatinegara","station_id":"JNG","i_long":106.86807400000001,"is_transit":true,"transit":true,"i_lat":-6.215091,"line":0,"time":3,"distance":3395},{"line":11,"station_id":"POK","i_long":106.861737,"is_transit":false,"station_name":"Pondok Jati","i_lat":-6.209188,"time":2,"distance":1236,"transit":false},{"time":2,"transit":false,"line":11,"is_transit":false,"station_name":"Kramat","station_id":"KMT","i_long":106.855437,"distance":1829,"i_lat":-6.193792},{"i_lat":-6.185975,"is_transit":false,"line":11,"station_name":"Gang Sentiong","distance":973,"i_long":106.850107,"transit":false,"time":1,"station_id":"GST"},{"station_id":"PSE","i_lat":-6.174784,"time":8,"is_transit":false,"i_long":106.84368,"line":11,"transit":false,"distance":1567,"station_name":"Pasar Senen"},{"transit":false,"distance":1436,"station_id":"KMO","time":4,"i_long":106.839204,"i_lat":-6.161728,"line":11,"station_name":"Kemayoran","is_transit":false},{"station_name":"Rajawali","is_transit":false,"distance":1901,"i_lat":-6.14505,"station_id":"RJW","i_long":106.836569,"transit":false,"line":11,"time":5},{"distance":1444,"is_transit":true,"time":3,"i_lat":-6.132549,"station_id":"KPB","line":0,"station_name":"Kampung Bandan","transit":true,"i_long":106.826365},{"station_id":"JAKK","distance":1364,"is_transit":true,"i_lat":-6.137569,"line":0,"transit":true,"time":3,"i_long":106.812439,"station_name":"Jakarta Kota"},{"distance":1264,"transit":false,"station_id":"JAY","i_long":106.820901,"line":7,"i_lat":-6.141205,"is_transit":false,"time":4,"station_name":"Jayakarta"},{"is_transit":false,"distance":1080,"station_name":"Manggabesar","i_lat":-6.149769,"transit":false,"station_id":"MGB","i_long":106.82482,"line":2,"time":2},{"station_name":"Sawah Besar","i_long":106.827103,"line":2,"time":2,"transit":false,"distance":906,"station_id":"SW","i_lat":-6.160725,"is_transit":false},{"i_lat":-6.166716,"station_id":"JUA","station_name":"Juanda","transit":false,"line":2,"distance":1149,"time":2,"i_long":106.828284,"is_transit":false},{"time":4,"distance":2015,"is_transit":false,"i_lat":-6.186295,"i_long":106.832183,"line":2,"station_name":"Gondangdia","station_id":"GDD","transit":false},{"distance":1750,"time":3,"station_id":"CKI","station_name":"Cikini","is_transit":false,"i_lat":-6.198556,"line":0,"transit":false,"i_long":106.840169},{"station_name":"Manggarai","is_transit":true,"i_long":106.84912,"station_id":"MRI","line":0,"i_lat":-6.209883,"transit":true,"time":4,"distance":1590},{"station_name":"Tebet","line":2,"time":4,"i_lat":-6.226659,"is_transit":false,"station_id":"TEB","i_long":106.857948,"transit":false,"distance":2610},{"station_id":"CW","station_name":"Cawang","distance":1230,"is_transit":false,"time":2,"line":0,"i_long":106.856607,"transit":false,"i_lat":-6.242512},{"transit":false,"is_transit":false,"distance":1546,"i_long":106.85449,"line":0,"i_lat":-6.255332,"time":3,"station_name":"Duren Kalibata","station_id":"DRN"},{"i_lat":-6.263214,"transit":false,"time":2,"station_id":"PSMB","line":2,"is_transit":false,"distance":824,"i_long":106.851577,"station_name":"Pasar Minggu Baru"},{"station_id":"PSM","transit":false,"i_lat":-6.2842400000000005,"is_transit":false,"distance":2380,"station_name":"Pasar Minggu","i_long":106.843999,"line":2,"time":2},{"is_transit":false,"line":2,"transit":false,"time":4,"station_id":"TNT","i_long":106.838896,"distance":2820,"i_lat":-6.3080680000000005,"station_name":"Tanjung Barat"},{"time":3,"i_long":106.832616,"station_id":"LNA","station_name":"Lenteng Agung","transit":false,"line":2,"distance":2671,"is_transit":false,"i_lat":-6.330363},{"is_transit":false,"line":2,"station_id":"UP","i_long":106.834175,"time":2,"i_lat":-6.339291,"transit":false,"station_name":"Univ. Pancasila","distance":1029},{"time":3,"is_transit":false,"i_lat":-6.360749,"distance":2264,"line":2,"transit":false,"station_id":"UI","i_long":106.831474,"station_name":"Univ. Indonesia"}]]}