{"data":[[{"transit":false,"station_id":"BKS","time":0,"distance":0,"i_lat":-6.236616,"line":1,"station_name":"Bekasi","i_long":106.997013,"is_transit":false},{"transit":false,"distance":2520,"i_lat":-6.224515,"line":1,"station_name":"Kranji","i_long":106.977657,"station_id":"KRI","time":4,"is_transit":false},{"station_name":"Cakung","is_transit":false,"line":1,"time":3,"distance":3097,"i_long":106.951283,"i_lat":-6.219053,"transit":false,"station_id":"CUK"},{"line":1,"distance":1385,"i_lat":-6.217455,"time":8,"i_long":106.939679,"station_id":"KLDB","transit":false,"station_name":"Klenderbaru","is_transit":false},{"i_lat":-6.215568,"distance":1305,"line":1,"time":1,"station_id":"BUA","transit":false,"is_transit":false,"i_long":106.922662,"station_name":"Buaran"},{"transit":false,"time":2,"i_long":106.899548,"is_transit":false,"station_id":"KLD","station_name":"Klender","i_lat":-6.2135,"line":1,"distance":3100},{"distance":3395,"transit":true,"station_name":"Jatinegara","is_transit":true,"i_lat":-6.215091,"line":1,"time":3,"i_long":106.86807400000001,"station_id":"JNG"},{"distance":1236,"time":2,"station_id":"POK","i_lat":-6.209188,"line":11,"transit":false,"station_name":"Pondok Jati","is_transit":false,"i_long":106.861737}],[{"station_id":"BKS","i_lat":-6.236616,"i_long":106.997013,"distance":0,"time":0,"station_name":"Bekasi","line":1,"transit":false,"is_transit":false},{"i_lat":-6.224515,"i_long":106.977657,"distance":2520,"time":4,"line":1,"is_transit":false,"transit":false,"station_name":"Kranji","station_id":"KRI"},{"i_long":106.951283,"is_transit":false,"station_id":"CUK","transit":false,"i_lat":-6.219053,"line":1,"distance":3097,"time":3,"station_name":"Cakung"},{"i_long":106.939679,"line":1,"i_lat":-6.217455,"distance":1385,"transit":false,"time":8,"station_id":"KLDB","is_transit":false,"station_name":"Klenderbaru"},{"station_name":"Buaran","i_long":106.922662,"line":1,"transit":false,"distance":1305,"is_transit":false,"i_lat":-6.215568,"time":1,"station_id":"BUA"},{"is_transit":false,"i_long":106.899548,"distance":3100,"line":1,"station_id":"KLD","time":2,"station_name":"Klender","i_lat":-6.2135,"transit":false},{"time":3,"station_name":"Jatinegara","station_id":"JNG","is_transit":false,"i_lat":-6.215091,"i_long":106.86807400000001,"distance":3395,"transit":false,"line":1},{"station_name":"Matraman","time":2,"transit":false,"distance":1377,"i_long":106.858896,"i_lat":-6.212485,"is_transit":false,"line":1,"station_id":"MTR"},{"station_name":"Manggarai","station_id":"MRI","transit":false,"time":2,"is_transit":false,"i_lat":-6.209883,"distance":1275,"line":2,"i_long":106.84912},{"station_name":"Sudirman","distance":3186,"i_long":106.822649,"line":1,"time":4,"transit":false,"is_transit":false,"station_id":"SUD","i_lat":-6.202263},{"i_lat":-6.201433,"i_long":106.819881,"time":1,"station_id":"SUDB","is_transit":false,"distance":280,"line":1,"transit":false,"station_name":"Sudirman Baru"},{"time":1,"i_lat":-6.20132,"is_transit":false,"i_long":106.816351,"line":1,"distance":471,"station_name":"Karet","transit":false,"station_id":"KAT"},{"is_transit":false,"transit":false,"line":1,"distance":2029,"time":5,"i_long":106.811091,"station_id":"THB","station_name":"Tanah Abang","i_lat":-6.185545},{"is_transit":false,"distance":3632,"line":1,"i_lat":-6.155215,"station_name":"Duri","time":8,"transit":false,"station_id":"DU","i_long":106.800832},{"i_lat":-6.144674,"line":1,"is_transit":false,"distance":1230,"station_name":"Angke","time":4,"transit":false,"station_id":"AK","i_long":106.79867},{"is_transit":true,"transit":true,"station_name":"Kampung Bandan","time":9,"line":4,"i_lat":-6.132549,"i_long":106.826365,"station_id":"KPB","distance":4102},{"line":11,"time":3,"i_long":106.836569,"transit":false,"i_lat":-6.14505,"station_name":"Rajawali","station_id":"RJW","distance":1444,"is_transit":false},{"i_lat":-6.161728,"distance":1901,"line":11,"i_long":106.839204,"time":5,"is_transit":false,"station_name":"Kemayoran","station_id":"KMO","transit":false},{"is_transit":false,"distance":1436,"i_lat":-6.174784,"station_id":"PSE","station_name":"Pasar Senen","transit":false,"line":11,"i_long":106.84368,"time":4},{"is_transit":false,"i_lat":-6.185975,"transit":false,"i_long":106.850107,"station_id":"GST","line":11,"time":8,"distance":1567,"station_name":"Gang Sentiong"},{"transit":false,"station_id":"KMT","distance":973,"is_transit":false,"i_lat":-6.193792,"time":1,"station_name":"Kramat","line":11,"i_long":106.855437},{"is_transit":false,"station_id":"POK","transit":false,"station_name":"Pondok Jati","line":11,"time":2,"i_lat":-6.209188,"distance":1829,"i_long":106.861737}],[{"line":1,"i_lat":-6.236616,"i_long":106.997013,"distance":0,"transit":false,"time":0,"station_id":"BKS","station_name":"Bekasi","is_transit":false},{"i_long":106.977657,"station_name":"Kranji","is_transit":false,"distance":2520,"line":1,"i_lat":-6.224515,"transit":false,"time":4,"station_id":"KRI"},{"time":3,"station_id":"CUK","is_transit":false,"line":1,"station_name":"Cakung","i_long":106.951283,"i_lat":-6.219053,"distance":3097,"transit":false},{"transit":false,"is_transit":false,"distance":1385,"time":8,"station_name":"Klenderbaru","i_lat":-6.217455,"station_id":"KLDB","i_long":106.939679,"line":1},{"station_id":"BUA","transit":false,"station_name":"Buaran","i_lat":-6.215568,"time":1,"is_transit":false,"i_long":106.922662,"distance":1305,"line":1},{"distance":3100,"line":1,"i_lat":-6.2135,"i_long":106.899548,"time":2,"is_transit":false,"station_id":"KLD","transit":false,"station_name":"Klender"},{"is_transit":false,"transit":false,"i_lat":-6.215091,"line":1,"i_long":106.86807400000001,"station_name":"Jatinegara","distance":3395,"time":3,"station_id":"JNG"},{"station_id":"MTR","i_lat":-6.212485,"line":1,"transit":false,"i_long":106.858896,"station_name":"Matraman","time":2,"distance":1377,"is_transit":false},{"station_name":"Manggarai","distance":1275,"line":2,"i_lat":-6.209883,"transit":true,"i_long":106.84912,"is_transit":true,"time":2,"station_id":"MRI"},{"station_id":"CKI","i_lat":-6.198556,"transit":false,"distance":1590,"i_long":106.840169,"time":4,"station_name":"Cikini","line":2,"is_transit":false},{"is_transit":false,"station_id":"GDD","station_name":"Gondangdia","distance":1750,"time":3,"i_lat":-6.186295,"transit":false,"i_long":106.832183,"line":2},{"station_name":"Juanda","i_long":106.828284,"i_lat":-6.166716,"time":4,"station_id":"JUA","line":2,"is_transit":false,"transit":false,"distance":2015},{"transit":false,"station_name":"Sawah Besar","distance":1149,"is_transit":false,"line":2,"station_id":"SW","i_long":106.827103,"time":2,"i_lat":-6.160725},{"station_id":"MGB","distance":906,"i_long":106.82482,"transit":false,"is_transit":false,"time":2,"i_lat":-6.149769,"station_name":"Manggabesar","line":2},{"station_id":"JAY","time":2,"is_transit":false,"distance":1080,"i_lat":-6.141205,"transit":false,"line":2,"i_long":106.820901,"station_name":"Jayakarta"},{"station_id":"JAKK","i_long":106.812439,"transit":true,"is_transit":true,"i_lat":-6.137569,"station_name":"Jakarta Kota","line":2,"distance":1264,"time":4},{"i_long":106.826365,"i_lat":-6.132549,"transit":true,"line":4,"distance":1364,"is_transit":true,"station_name":"Kampung Bandan","station_id":"KPB","time":3},{"is_transit":false,"distance":1444,"station_name":"Rajawali","transit":false,"station_id":"RJW","time":3,"i_lat":-6.14505,"line":11,"i_long":106.836569},{"i_lat":-6.161728,"time":5,"station_name":"Kemayoran","distance":1901,"station_id":"KMO","line":11,"i_long":106.839204,"transit":false,"is_transit":false},{"i_lat":-6.174784,"distance":1436,"i_long":106.84368,"station_id":"PSE","line":11,"station_name":"Pasar Senen","transit":false,"time":4,"is_transit":false},{"station_name":"Gang Sentiong","distance":1567,"station_id":"GST","i_lat":-6.185975,"transit":false,"is_transit":false,"i_long":106.850107,"time":8,"line":11},{"distance":973,"station_id":"KMT","transit":false,"is_transit":false,"i_long":106.855437,"station_name":"Kramat","i_lat":-6.193792,"time":1,"line":11},{"station_id":"POK","station_name":"Pondok Jati","transit":false,"distance":1829,"line":11,"i_long":106.861737,"time":2,"i_lat":-6.209188,"is_transit":false}]]}