{"data":[[{"time":0,"distance":0,"i_lat":-6.236616,"station_id":"BKS","line":1,"station_name":"Bekasi","transit":false,"i_long":106.997013,"is_transit":false},{"distance":2520,"station_id":"KRI","i_lat":-6.224515,"is_transit":false,"i_long":106.977657,"line":1,"transit":false,"time":4,"station_name":"Kranji"},{"is_transit":false,"line":1,"station_name":"Cakung","distance":3097,"transit":false,"i_lat":-6.219053,"time":3,"station_id":"CUK","i_long":106.951283},{"transit":false,"is_transit":false,"i_lat":-6.217455,"station_id":"KLDB","i_long":106.939679,"distance":1385,"line":1,"station_name":"Klenderbaru","time":8},{"i_long":106.922662,"i_lat":-6.215568,"is_transit":false,"distance":1305,"time":1,"transit":false,"station_id":"BUA","station_name":"Buaran","line":1},{"station_name":"Klender","station_id":"KLD","time":2,"transit":false,"line":1,"distance":3100,"is_transit":false,"i_lat":-6.2135,"i_long":106.899548},{"line":1,"i_lat":-6.215091,"distance":3395,"is_transit":false,"time":3,"station_id":"JNG","transit":false,"station_name":"Jatinegara","i_long":106.86807400000001},{"is_transit":false,"i_long":106.858896,"transit":false,"distance":1377,"i_lat":-6.212485,"station_name":"Matraman","line":1,"time":2,"station_id":"MTR"},{"transit":true,"station_id":"MRI","i_lat":-6.209883,"i_long":106.84912,"station_name":"Manggarai","is_transit":true,"line":2,"distance":1275,"time":2},{"transit":false,"i_lat":-6.226659,"time":4,"is_transit":false,"station_id":"TEB","distance":2610,"line":2,"station_name":"Tebet","i_long":106.857948},{"distance":1230,"transit":false,"time":2,"station_name":"Cawang","i_lat":-6.242512,"line":2,"station_id":"CW","is_transit":false,"i_long":106.856607},{"transit":false,"is_transit":false,"i_long":106.85449,"time":3,"i_lat":-6.255332,"distance":1546,"line":2,"station_id":"DRN","station_name":"Duren Kalibata"},{"is_transit":false,"time":2,"distance":824,"i_lat":-6.263214,"station_id":"PSMB","transit":false,"i_long":106.851577,"line":2,"station_name":"Pasar Minggu Baru"},{"station_id":"PSM","station_name":"Pasar Minggu","transit":false,"is_transit":false,"i_lat":-6.2842400000000005,"distance":2380,"time":2,"i_long":106.843999,"line":2},{"distance":2820,"station_name":"Tanjung Barat","transit":false,"station_id":"TNT","line":2,"is_transit":false,"i_lat":-6.3080680000000005,"i_long":106.838896,"time":4},{"distance":2671,"transit":false,"i_lat":-6.330363,"time":3,"is_transit":false,"line":2,"station_name":"Lenteng Agung","station_id":"LNA","i_long":106.832616},{"i_lat":-6.339291,"station_id":"UP","time":2,"distance":1029,"transit":false,"is_transit":false,"i_long":106.834175,"line":2,"station_name":"Univ. Pancasila"},{"station_id":"UI","station_name":"Univ. Indonesia","distance":2264,"transit":false,"i_long":106.831474,"line":2,"i_lat":-6.360749,"is_transit":false,"time":3},{"distance":1109,"line":2,"transit":false,"station_name":"Pondok Cina","station_id":"POC","is_transit":false,"time":2,"i_lat":-6.369073,"i_long":106.831114},{"is_transit":false,"distance":2727,"station_name":"Depokbaru","time":4,"transit":false,"station_id":"DPB","i_lat":-6.391065,"i_long":106.819451,"line":2}],[{"i_long":106.997013,"i_lat":-6.236616,"station_name":"Bekasi","line":1,"distance":0,"transit":false,"is_transit":false,"time":0,"station_id":"BKS"},{"is_transit":false,"station_id":"KRI","transit":false,"station_name":"Kranji","line":1,"time":4,"i_long":106.977657,"distance":2520,"i_lat":-6.224515},{"time":3,"station_id":"CUK","distance":3097,"is_transit":false,"station_name":"Cakung","i_lat":-6.219053,"i_long":106.951283,"transit":false,"line":1},{"station_id":"KLDB","i_lat":-6.217455,"is_transit":false,"i_long":106.939679,"time":8,"station_name":"Klenderbaru","distance":1385,"transit":false,"line":1},{"station_id":"BUA","transit":false,"time":1,"i_lat":-6.215568,"is_transit":false,"distance":1305,"station_name":"Buaran","i_long":106.922662,"line":1},{"station_id":"KLD","distance":3100,"i_long":106.899548,"line":1,"time":2,"station_name":"Klender","is_transit":false,"transit":false,"i_lat":-6.2135},{"transit":true,"i_lat":-6.215091,"time":3,"line":1,"station_name":"Jatinegara","station_id":"JNG","is_transit":true,"distance":3395,"i_long":106.86807400000001},{"distance":1236,"i_lat":-6.209188,"i_long":106.861737,"is_transit":false,"time":2,"line":11,"station_id":"POK","station_name":"Pondok Jati","transit":false},{"i_long":106.855437,"station_id":"KMT","i_lat":-6.193792,"line":11,"station_name":"Kramat","distance":1829,"transit":false,"is_transit":false,"time":2},{"line":11,"distance":973,"i_lat":-6.185975,"station_name":"Gang Sentiong","time":1,"is_transit":false,"station_id":"GST","i_long":106.850107,"transit":false},{"time":8,"station_name":"Pasar Senen","distance":1567,"i_long":106.84368,"line":11,"transit":false,"is_transit":false,"i_lat":-6.174784,"station_id":"PSE"},{"station_id":"KMO","i_lat":-6.161728,"line":11,"time":4,"is_transit":false,"transit":false,"distance":1436,"i_long":106.839204,"station_name":"Kemayoran"},{"is_transit":false,"i_long":106.836569,"time":5,"station_id":"RJW","distance":1901,"i_lat":-6.14505,"station_name":"Rajawali","line":11,"transit":false},{"station_id":"KPB","station_name":"Kampung Bandan","line":4,"distance":1444,"i_long":106.826365,"is_transit":true,"i_lat":-6.132549,"time":3,"transit":true},{"is_transit":false,"transit":false,"station_name":"Angke","station_id":"AK","time":9,"distance":4102,"i_lat":-6.144674,"i_long":106.79867,"line":1},{"line":1,"distance":1230,"transit":false,"station_name":"Duri","i_long":106.800832,"time":4,"is_transit":false,"station_id":"DU","i_lat":-6.155215},{"time":8,"station_name":"Tanah Abang","is_transit":false,"transit":false,"line":1,"i_long":106.811091,"i_lat":-6.185545,"distance":3632,"station_id":"THB"},{"transit":false,"is_transit":false,"i_lat":-6.20132,"time":5,"line":1,"distance":2029,"station_id":"KAT","station_name":"Karet","i_long":106.816351},{"i_lat":-6.201433,"distance":471,"station_name":"Sudirman Baru","transit":false,"is_transit":false,"time":1,"i_long":106.819881,"line":1,"station_id":"SUDB"},{"distance":280,"i_long":106.822649,"transit":false,"i_lat":-6.202263,"station_id":"SUD","station_name":"Sudirman","time":1,"is_transit":false,"line":1},{"is_transit":true,"station_id":"MRI","i_long":106.84912,"transit":true,"time":4,"station_name":"Manggarai","distance":3186,"i_lat":-6.209883,"line":2},{"i_long":106.857948,"station_name":"Tebet","transit":false,"time":4,"distance":2610,"line":2,"i_lat":-6.226659,"station_id":"TEB","is_transit":false},{"station_name":"Cawang","line":2,"distance":1230,"time":2,"station_id":"CW","is_transit":false,"i_lat":-6.242512,"transit":false,"i_long":106.856607},{"is_transit":false,"transit":false,"i_lat":-6.255332,"i_long":106.85449,"distance":1546,"station_name":"Duren Kalibata","station_id":"DRN","line":2,"time":3},{"distance":824,"time":2,"i_lat":-6.263214,"i_long":106.851577,"station_name":"Pasar Minggu Baru","station_id":"PSMB","line":2,"transit":false,"is_transit":false},{"line":2,"transit":false,"station_id":"PSM","is_transit":false,"i_long":106.843999,"station_name":"Pasar Minggu","distance":2380,"time":2,"i_lat":-6.2842400000000005},{"station_name":"Tanjung Barat","transit":false,"distance":2820,"line":2,"time":4,"station_id":"TNT","is_transit":false,"i_lat":-6.3080680000000005,"i_long":106.838896},{"distance":2671,"i_lat":-6.330363,"station_name":"Lenteng Agung","time":3,"station_id":"LNA","transit":false,"i_long":106.832616,"is_transit":false,"line":2},{"station_name":"Univ. Pancasila","i_lat":-6.339291,"time":2,"transit":false,"is_transit":false,"distance":1029,"station_id":"UP","i_long":106.834175,"line":2},{"station_id":"UI","i_lat":-6.360749,"line":2,"distance":2264,"is_transit":false,"time":3,"station_name":"Univ. Indonesia","i_long":106.831474,"transit":false},{"i_lat":-6.369073,"distance":1109,"time":2,"station_name":"Pondok Cina","transit":false,"i_long":106.831114,"line":2,"station_id":"POC","is_transit":false},{"is_transit":false,"time":4,"distance":2727,"i_lat":-6.391065,"i_long":106.819451,"station_name":"Depokbaru","line":2,"station_id":"DPB","transit":false}],[{"line":1,"time":0,"station_id":"BKS","station_name":"Bekasi","is_transit":false,"i_lat":-6.236616,"i_long":106.997013,"transit":false,"distance":0},{"time":4,"transit":false,"is_transit":false,"station_name":"Kranji","i_lat":-6.224515,"distance":2520,"i_long":106.977657,"station_id":"KRI","line":1},{"distance":3097,"transit":false,"station_id":"CUK","i_lat":-6.219053,"is_transit":false,"line":1,"station_name":"Cakung","i_long":106.951283,"time":3},{"station_id":"KLDB","i_long":106.939679,"line":1,"transit":false,"time":8,"station_name":"Klenderbaru","is_transit":false,"distance":1385,"i_lat":-6.217455},{"i_lat":-6.215568,"transit":false,"station_id":"BUA","is_transit":false,"i_long":106.922662,"station_name":"Buaran","distance":1305,"line":1,"time":1},{"i_lat":-6.2135,"line":1,"i_long":106.899548,"station_id":"KLD","station_name":"Klender","time":2,"distance":3100,"is_transit":false,"transit":false},{"i_long":106.86807400000001,"station_id":"JNG","station_name":"Jatinegara","is_transit":true,"time":3,"transit":true,"i_lat":-6.215091,"line":1,"distance":3395},{"station_id":"POK","time":2,"station_name":"Pondok Jati","transit":false,"distance":1236,"is_transit":false,"line":11,"i_lat":-6.209188,"i_long":106.861737},{"station_id":"KMT","distance":1829,"time":2,"i_long":106.855437,"station_name":"Kramat","is_transit":false,"line":11,"transit":false,"i_lat":-6.193792},{"time":1,"distance":973,"transit":false,"i_long":106.850107,"is_transit":false,"line":11,"station_id":"GST","station_name":"Gang Sentiong","i_lat":-6.185975},{"i_long":106.84368,"transit":false,"station_id":"PSE","station_name":"Pasar Senen","time":8,"is_transit":false,"i_lat":-6.174784,"distance":1567,"line":11},{"distance":1436,"time":4,"is_transit":false,"station_id":"KMO","i_long":106.839204,"line":11,"station_name":"Kemayoran","i_lat":-6.161728,"transit":false},{"station_id":"RJW","distance":1901,"is_transit":false,"i_lat":-6.14505,"line":11,"time":5,"station_name":"Rajawali","transit":false,"i_long":106.836569},{"is_transit":true,"time":3,"i_long":106.826365,"line":4,"i_lat":-6.132549,"station_name":"Kampung Bandan","station_id":"KPB","transit":true,"distance":1444},{"line":2,"station_id":"JAKK","time":3,"station_name":"Jakarta Kota","distance":1364,"transit":true,"is_transit":true,"i_lat":-6.137569,"i_long":106.812439},{"i_long":106.820901,"is_transit":false,"transit":false,"line":2,"i_lat":-6.141205,"time":4,"station_name":"Jayakarta","distance":1264,"station_id":"JAY"},{"distance":1080,"i_lat":-6.149769,"station_id":"MGB","is_transit":false,"station_name":"Manggabesar","transit":false,"time":2,"i_long":106.82482,"line":2},{"time":2,"station_id":"SW","i_lat":-6.160725,"line":2,"station_name":"Sawah Besar","transit":false,"is_transit":false,"i_long":106.827103,"distance":906},{"transit":false,"is_transit":false,"i_lat":-6.166716,"time":2,"i_long":106.828284,"station_name":"Juanda","distance":1149,"line":2,"station_id":"JUA"},{"transit":false,"time":4,"distance":2015,"is_transit":false,"i_long":106.832183,"station_name":"Gondangdia","i_lat":-6.186295,"station_id":"GDD","line":2},{"i_long":106.840169,"time":3,"i_lat":-6.198556,"is_transit":false,"line":2,"station_name":"Cikini","station_id":"CKI","transit":false,"distance":1750},{"distance":1590,"line":2,"station_id":"MRI","station_name":"Manggarai","i_long":106.84912,"i_lat":-6.209883,"is_transit":false,"transit":false,"time":4},{"distance":2610,"line":2,"station_name":"Tebet","is_transit":false,"i_long":106.857948,"i_lat":-6.226659,"transit":false,"station_id":"TEB","time":4},{"station_name":"Cawang","line":2,"transit":false,"distance":1230,"station_id":"CW","i_long":106.856607,"time":2,"is_transit":false,"i_lat":-6.242512},{"is_transit":false,"i_long":106.85449,"station_name":"Duren Kalibata","distance":1546,"line":2,"time":3,"transit":false,"i_lat":-6.255332,"station_id":"DRN"},{"time":2,"station_id":"PSMB","station_name":"Pasar Minggu Baru","i_lat":-6.263214,"i_long":106.851577,"line":2,"is_transit":false,"distance":824,"transit":false},{"station_name":"Pasar Minggu","line":2,"time":2,"i_long":106.843999,"distance":2380,"i_lat":-6.2842400000000005,"station_id":"PSM","is_transit":false,"transit":false},{"distance":2820,"i_long":106.838896,"station_id":"TNT","time":4,"line":2,"station_name":"Tanjung Barat","is_transit":false,"i_lat":-6.3080680000000005,"transit":false},{"station_name":"Lenteng Agung","station_id":"LNA","is_transit":false,"i_long":106.832616,"distance":2671,"transit":false,"time":3,"line":2,"i_lat":-6.330363},{"i_long":106.834175,"station_id":"UP","distance":1029,"transit":false,"line":2,"is_transit":false,"i_lat":-6.339291,"station_name":"Univ. Pancasila","time":2},{"station_id":"UI","distance":2264,"i_long":106.831474,"is_transit":false,"time":3,"line":2,"i_lat":-6.360749,"station_name":"Univ. Indonesia","transit":false},{"time":2,"station_id":"POC","line":2,"i_long":106.831114,"i_lat":-6.369073,"station_name":"Pondok Cina","is_transit":false,"distance":1109,"transit":false},{"i_long":106.819451,"station_id":"DPB","station_name":"Depokbaru","i_lat":-6.391065,"distance":2727,"time":4,"line":2,"transit":false,"is_transit":false}]]}