{"data":[[{"station_name":"Bekasi","time":0,"i_lat":-6.236616,"distance":0,"transit":false,"station_id":"BKS","is_transit":false,"i_long":106.997013,"line":1},{"i_long":106.977657,"line":1,"is_transit":false,"i_lat":-6.224515,"station_name":"Kranji","transit":false,"time":4,"distance":2520,"station_id":"KRI"},{"i_lat":-6.219053,"i_long":106.951283,"distance":3097,"station_name":"Cakung","transit":false,"station_id":"CUK","time":3,"line":1,"is_transit":false},{"distance":1385,"i_long":106.939679,"i_lat":-6.217455,"transit":false,"station_id":"KLDB","line":1,"station_name":"Klenderbaru","is_transit":false,"time":8},{"line":1,"time":1,"station_id":"BUA","transit":false,"i_long":106.922662,"distance":1305,"station_name":"Buaran","is_transit":false,"i_lat":-6.215568},{"is_transit":false,"time":2,"station_id":"KLD","transit":false,"station_name":"Klender","i_lat":-6.2135,"line":1,"distance":3100,"i_long":106.899548},{"i_long":106.86807400000001,"distance":3395,"line":1,"time":3,"is_transit":false,"i_lat":-6.215091,"station_id":"JNG","station_name":"Jatinegara","transit":false},{"i_lat":-6.212485,"station_name":"Matraman","i_long":106.858896,"line":1,"distance":1377,"station_id":"MTR","time":2,"is_transit":false,"transit":false},{"distance":1275,"transit":false,"line":2,"is_transit":false,"i_long":106.84912,"station_id":"MRI","station_name":"Manggarai","i_lat":-6.209883,"time":2},{"is_transit":false,"i_lat":-6.202263,"station_name":"Sudirman","distance":3186,"time":4,"i_long":106.822649,"station_id":"SUD","line":1,"transit":false},{"distance":280,"station_name":"Sudirman Baru","line":1,"time":1,"is_transit":false,"transit":false,"i_lat":-6.201433,"i_long":106.819881,"station_id":"SUDB"},{"i_lat":-6.20132,"time":1,"is_transit":false,"i_long":106.816351,"line":1,"transit":false,"distance":471,"station_id":"KAT","station_name":"Karet"}],[{"i_long":106.997013,"distance":0,"is_transit":false,"station_name":"Bekasi","station_id":"BKS","line":1,"time":0,"transit":false,"i_lat":-6.236616},{"line":1,"transit":false,"station_id":"KRI","distance":2520,"station_name":"Kranji","i_long":106.977657,"i_lat":-6.224515,"time":4,"is_transit":false},{"time":3,"is_transit":false,"station_id":"CUK","i_long":106.951283,"i_lat":-6.219053,"transit":false,"line":1,"distance":3097,"station_name":"Cakung"},{"station_name":"Klenderbaru","is_transit":false,"time":8,"distance":1385,"station_id":"KLDB","i_long":106.939679,"line":1,"i_lat":-6.217455,"transit":false},{"i_long":106.922662,"distance":1305,"station_name":"Buaran","time":1,"is_transit":false,"i_lat":-6.215568,"line":1,"station_id":"BUA","transit":false},{"line":1,"distance":3100,"i_long":106.899548,"is_transit":false,"transit":false,"i_lat":-6.2135,"station_name":"Klender","time":2,"station_id":"KLD"},{"i_long":106.86807400000001,"station_name":"Jatinegara","i_lat":-6.215091,"transit":true,"distance":3395,"time":3,"is_transit":true,"station_id":"JNG","line":1},{"i_lat":-6.209188,"distance":1236,"is_transit":false,"station_id":"POK","transit":false,"time":2,"line":11,"station_name":"Pondok Jati","i_long":106.861737},{"i_long":106.855437,"transit":false,"station_name":"Kramat","line":11,"station_id":"KMT","distance":1829,"time":2,"is_transit":false,"i_lat":-6.193792},{"i_long":106.850107,"distance":973,"station_id":"GST","station_name":"Gang Sentiong","is_transit":false,"line":11,"transit":false,"i_lat":-6.185975,"time":1},{"i_lat":-6.174784,"is_transit":false,"i_long":106.84368,"time":8,"station_id":"PSE","distance":1567,"line":11,"station_name":"Pasar Senen","transit":false},{"i_lat":-6.161728,"is_transit":false,"line":11,"station_id":"KMO","distance":1436,"i_long":106.839204,"station_name":"Kemayoran","time":4,"transit":false},{"transit":false,"distance":1901,"i_long":106.836569,"i_lat":-6.14505,"time":5,"is_transit":false,"station_name":"Rajawali","station_id":"RJW","line":11},{"station_id":"KPB","i_long":106.826365,"line":4,"time":3,"i_lat":-6.132549,"distance":1444,"is_transit":true,"station_name":"Kampung Bandan","transit":true},{"time":9,"is_transit":false,"i_lat":-6.144674,"i_long":106.79867,"line":1,"distance":4102,"station_id":"AK","transit":false,"station_name":"Angke"},{"station_id":"DU","time":4,"distance":1230,"is_transit":false,"transit":false,"line":1,"station_name":"Duri","i_long":106.800832,"i_lat":-6.155215},{"transit":false,"i_lat":-6.185545,"distance":3632,"line":1,"i_long":106.811091,"is_transit":false,"station_id":"THB","station_name":"Tanah Abang","time":8},{"is_transit":false,"i_lat":-6.20132,"time":5,"distance":2029,"station_name":"Karet","station_id":"KAT","transit":false,"line":1,"i_long":106.816351}],[{"line":1,"i_lat":-6.236616,"station_id":"BKS","time":0,"transit":false,"station_name":"Bekasi","is_transit":false,"i_long":106.997013,"distance":0},{"time":4,"i_long":106.977657,"station_id":"KRI","station_name":"Kranji","distance":2520,"is_transit":false,"transit":false,"i_lat":-6.224515,"line":1},{"line":1,"station_id":"CUK","i_lat":-6.219053,"transit":false,"i_long":106.951283,"distance":3097,"station_name":"Cakung","time":3,"is_transit":false},{"station_name":"Klenderbaru","time":8,"transit":false,"i_long":106.939679,"station_id":"KLDB","is_transit":false,"line":1,"i_lat":-6.217455,"distance":1385},{"i_long":106.922662,"i_lat":-6.215568,"transit":false,"station_id":"BUA","station_name":"Buaran","time":1,"distance":1305,"is_transit":false,"line":1},{"transit":false,"time":2,"station_id":"KLD","distance":3100,"line":1,"is_transit":false,"station_name":"Klender","i_lat":-6.2135,"i_long":106.899548},{"i_long":106.86807400000001,"distance":3395,"station_id":"JNG","time":3,"line":1,"is_transit":false,"transit":false,"i_lat":-6.215091,"station_name":"Jatinegara"},{"line":1,"station_id":"MTR","i_long":106.858896,"distance":1377,"is_transit":false,"i_lat":-6.212485,"station_name":"Matraman","transit":false,"time":2},{"transit":true,"station_name":"Manggarai","i_long":106.84912,"distance":1275,"is_transit":true,"station_id":"MRI","i_lat":-6.209883,"line":2,"time":2},{"i_long":106.840169,"i_lat":-6.198556,"distance":1590,"station_id":"CKI","is_transit":false,"transit":false,"station_name":"Cikini","line":2,"time":4},{"station_name":"Gondangdia","transit":false,"i_long":106.832183,"time":3,"line":2,"station_id":"GDD","distance":1750,"i_lat":-6.186295,"is_transit":false},{"time":4,"i_lat":-6.166716,"distance":2015,"transit":false,"i_long":106.828284,"is_transit":false,"station_id":"JUA","station_name":"Juanda","line":2},{"i_long":106.827103,"time":2,"distance":1149,"transit":false,"line":2,"is_transit":false,"station_id":"SW","station_name":"Sawah Besar","i_lat":-6.160725},{"station_name":"Manggabesar","transit":false,"i_long":106.82482,"i_lat":-6.149769,"time":2,"station_id":"MGB","distance":906,"is_transit":false,"line":2},{"distance":1080,"is_transit":false,"time":2,"line":2,"station_id":"JAY","transit":false,"i_lat":-6.141205,"i_long":106.820901,"station_name":"Jayakarta"},{"station_id":"JAKK","transit":true,"line":2,"station_name":"Jakarta Kota","distance":1264,"is_transit":true,"i_long":106.812439,"i_lat":-6.137569,"time":4},{"time":3,"station_id":"KPB","distance":1364,"i_lat":-6.132549,"line":4,"station_name":"Kampung Bandan","is_transit":true,"transit":true,"i_long":106.826365},{"line":1,"station_name":"Angke","time":9,"i_lat":-6.144674,"distance":4102,"is_transit":false,"station_id":"AK","transit":false,"i_long":106.79867},{"station_id":"DU","i_lat":-6.155215,"line":1,"time":4,"distance":1230,"i_long":106.800832,"transit":false,"is_transit":false,"station_name":"Duri"},{"i_lat":-6.185545,"i_long":106.811091,"station_name":"Tanah Abang","line":1,"distance":3632,"time":8,"is_transit":false,"station_id":"THB","transit":false},{"time":5,"station_id":"KAT","station_name":"Karet","transit":false,"i_lat":-6.20132,"i_long":106.816351,"line":1,"distance":2029,"is_transit":false}],[{"station_name":"Bekasi","distance":0,"is_transit":false,"transit":false,"time":0,"i_lat":-6.236616,"i_long":106.997013,"line":1,"station_id":"BKS"},{"station_name":"Kranji","station_id":"KRI","distance":2520,"line":1,"transit":false,"i_lat":-6.224515,"is_transit":false,"time":4,"i_long":106.977657},{"distance":3097,"is_transit":false,"station_name":"Cakung","transit":false,"time":3,"station_id":"CUK","line":1,"i_long":106.951283,"i_lat":-6.219053},{"station_id":"KLDB","distance":1385,"i_long":106.939679,"time":8,"is_transit":false,"transit":false,"i_lat":-6.217455,"line":1,"station_name":"Klenderbaru"},{"station_id":"BUA","i_lat":-6.215568,"distance":1305,"transit":false,"line":1,"station_name":"Buaran","time":1,"i_long":106.922662,"is_transit":false},{"station_id":"KLD","is_transit":false,"station_name":"Klender","time":2,"distance":3100,"transit":false,"i_lat":-6.2135,"i_long":106.899548,"line":1},{"station_id":"JNG","transit":true,"time":3,"is_transit":true,"station_name":"Jatinegara","i_long":106.86807400000001,"distance":3395,"line":1,"i_lat":-6.215091},{"transit":false,"distance":1236,"time":2,"station_id":"POK","station_name":"Pondok Jati","is_transit":false,"i_lat":-6.209188,"i_long":106.861737,"line":11},{"transit":false,"i_lat":-6.193792,"line":11,"time":2,"is_transit":false,"i_long":106.855437,"distance":1829,"station_name":"Kramat","station_id":"KMT"},{"time":1,"distance":973,"transit":false,"is_transit":false,"line":11,"i_long":106.850107,"station_name":"Gang Sentiong","i_lat":-6.185975,"station_id":"GST"},{"station_name":"Pasar Senen","is_transit":false,"transit":false,"i_lat":-6.174784,"station_id":"PSE","distance":1567,"line":11,"time":8,"i_long":106.84368},{"station_id":"KMO","time":4,"is_transit":false,"distance":1436,"transit":false,"i_long":106.839204,"i_lat":-6.161728,"station_name":"Kemayoran","line":11},{"i_lat":-6.14505,"station_name":"Rajawali","i_long":106.836569,"station_id":"RJW","time":5,"transit":false,"distance":1901,"is_transit":false,"line":11},{"station_name":"Kampung Bandan","i_long":106.826365,"station_id":"KPB","transit":true,"distance":1444,"is_transit":true,"time":3,"i_lat":-6.132549,"line":4},{"i_long":106.812439,"station_name":"Jakarta Kota","transit":true,"distance":1364,"time":3,"i_lat":-6.137569,"line":2,"is_transit":true,"station_id":"JAKK"},{"transit":false,"distance":1264,"line":2,"i_lat":-6.141205,"time":4,"i_long":106.820901,"station_name":"Jayakarta","is_transit":false,"station_id":"JAY"},{"distance":1080,"transit":false,"i_long":106.82482,"line":2,"time":2,"station_name":"Manggabesar","is_transit":false,"i_lat":-6.149769,"station_id":"MGB"},{"station_id":"SW","i_long":106.827103,"station_name":"Sawah Besar","is_transit":false,"line":2,"time":2,"distance":906,"transit":false,"i_lat":-6.160725},{"i_long":106.828284,"is_transit":false,"time":2,"transit":false,"i_lat":-6.166716,"station_id":"JUA","station_name":"Juanda","line":2,"distance":1149},{"i_long":106.832183,"station_name":"Gondangdia","transit":false,"distance":2015,"is_transit":false,"station_id":"GDD","time":4,"i_lat":-6.186295,"line":2},{"i_lat":-6.198556,"transit":false,"is_transit":false,"line":2,"station_name":"Cikini","i_long":106.840169,"time":3,"distance":1750,"station_id":"CKI"},{"station_id":"MRI","station_name":"Manggarai","transit":true,"line":2,"is_transit":true,"time":4,"i_lat":-6.209883,"i_long":106.84912,"distance":1590},{"station_name":"Sudirman","i_long":106.822649,"time":4,"is_transit":false,"transit":false,"distance":3186,"station_id":"SUD","i_lat":-6.202263,"line":1},{"is_transit":false,"i_lat":-6.201433,"station_id":"SUDB","i_long":106.819881,"line":1,"transit":false,"station_name":"Sudirman Baru","distance":280,"time":1},{"station_id":"KAT","distance":471,"line":1,"station_name":"Karet","i_lat":-6.20132,"i_long":106.816351,"is_transit":false,"transit":false,"time":1}]]}