{"data":[[{"station_name":"Bekasi","station_id":"BKS","is_transit":false,"distance":0,"i_lat":-6.236616,"line":1,"transit":false,"i_long":106.997013,"time":0},{"is_transit":false,"time":4,"station_id":"KRI","i_lat":-6.224515,"transit":false,"distance":2520,"i_long":106.977657,"station_name":"Kranji","line":1},{"i_lat":-6.219053,"station_name":"Cakung","distance":3097,"i_long":106.951283,"transit":false,"time":3,"line":1,"station_id":"CUK","is_transit":false},{"transit":false,"i_lat":-6.217455,"line":1,"time":8,"distance":1385,"i_long":106.939679,"station_name":"Klenderbaru","station_id":"KLDB","is_transit":false},{"station_id":"BUA","transit":false,"is_transit":false,"i_lat":-6.215568,"i_long":106.922662,"line":1,"time":1,"station_name":"Buaran","distance":1305},{"line":1,"i_long":106.899548,"station_id":"KLD","transit":false,"station_name":"Klender","is_transit":false,"time":2,"distance":3100,"i_lat":-6.2135},{"i_lat":-6.215091,"time":3,"line":1,"transit":false,"station_name":"Jatinegara","station_id":"JNG","is_transit":false,"i_long":106.86807400000001,"distance":3395}]]}