{"data":[[{"i_lat":-6.236616,"is_transit":false,"time":0,"station_name":"Bekasi","transit":false,"station_id":"BKS","i_long":106.997013,"line":0,"distance":0},{"is_transit":false,"station_id":"KRI","station_name":"Kranji","time":4,"i_long":106.977657,"distance":2520,"transit":false,"i_lat":-6.224515,"line":1},{"station_name":"Cakung","line":0,"time":3,"station_id":"CUK","i_long":106.951283,"transit":false,"distance":3097,"i_lat":-6.219053,"is_transit":false},{"line":1,"station_name":"Klenderbaru","i_lat":-6.217455,"is_transit":false,"distance":1385,"station_id":"KLDB","i_long":106.939679,"transit":false,"time":8},{"station_id":"BUA","station_name":"Buaran","line":0,"time":1,"is_transit":false,"transit":false,"i_lat":-6.215568,"i_long":106.922662,"distance":1305}]]}