{"data":[[{"i_lat":-6.236616,"line":0,"station_name":"Bekasi","i_long":106.997013,"station_id":"BKS","transit":false,"is_transit":false,"time":0,"distance":0},{"station_id":"KRI","is_transit":false,"time":4,"distance":2520,"line":1,"i_long":106.977657,"i_lat":-6.224515,"station_name":"Kranji","transit":false},{"is_transit":false,"time":3,"station_id":"CUK","distance":3097,"i_long":106.951283,"i_lat":-6.219053,"line":0,"station_name":"Cakung","transit":false},{"station_id":"KLDB","is_transit":false,"i_lat":-6.217455,"line":1,"station_name":"Klenderbaru","transit":false,"distance":1385,"i_long":106.939679,"time":8},{"station_name":"Buaran","transit":false,"distance":1305,"is_transit":false,"line":0,"time":1,"station_id":"BUA","i_long":106.922662,"i_lat":-6.215568},{"distance":3100,"station_id":"KLD","station_name":"Klender","transit":false,"is_transit":false,"time":2,"line":1,"i_lat":-6.2135,"i_long":106.899548},{"i_lat":-6.215091,"line":0,"is_transit":true,"i_long":106.86807400000001,"station_id":"JNG","time":3,"station_name":"Jatinegara","transit":false,"distance":3395},{"station_name":"Matraman","i_long":106.858896,"line":1,"i_lat":-6.212485,"station_id":"MTR","time":2,"is_transit":false,"transit":false,"distance":1377},{"station_id":"MRI","is_transit":true,"transit":false,"distance":1275,"time":2,"i_long":106.84912,"line":0,"i_lat":-6.209883,"station_name":"Manggarai"},{"time":4,"distance":3186,"station_id":"SUD","transit":false,"line":1,"i_long":106.822649,"is_transit":false,"station_name":"Sudirman","i_lat":-6.202263},{"station_name":"Sudirman Baru","transit":false,"line":1,"distance":280,"station_id":"SUDB","i_long":106.819881,"is_transit":false,"time":1,"i_lat":-6.201433},{"station_name":"Karet","time":1,"station_id":"KAT","i_long":106.816351,"line":1,"is_transit":false,"distance":471,"transit":false,"i_lat":-6.20132},{"transit":false,"distance":2029,"i_lat":-6.185545,"time":5,"is_transit":true,"line":1,"station_id":"THB","station_name":"Tanah Abang","i_long":106.811091},{"i_long":106.800832,"i_lat":-6.155215,"station_id":"DU","line":1,"is_transit":true,"distance":3632,"station_name":"Duri","time":8,"transit":true},{"station_name":"Grogol","transit":false,"is_transit":false,"station_id":"GGL","i_lat":-6.162021,"i_long":106.788277,"line":5,"distance":1700,"time":3},{"distance":2036,"is_transit":false,"time":2,"i_lat":-6.161433,"i_long":106.771379,"transit":false,"station_id":"PSG","line":5,"station_name":"Pesing"},{"time":2,"i_lat":-6.1587309999999995,"transit":false,"i_long":106.756522,"is_transit":false,"station_name":"Taman Kota","distance":1614,"station_id":"TKO","line":5}],[{"station_name":"Bekasi","is_transit":false,"line":0,"i_long":106.997013,"distance":0,"i_lat":-6.236616,"station_id":"BKS","time":0,"transit":false},{"station_name":"Kranji","i_lat":-6.224515,"line":1,"transit":false,"station_id":"KRI","i_long":106.977657,"time":4,"distance":2520,"is_transit":false},{"transit":false,"station_name":"Cakung","distance":3097,"time":3,"station_id":"CUK","i_long":106.951283,"i_lat":-6.219053,"is_transit":false,"line":0},{"line":1,"i_lat":-6.217455,"i_long":106.939679,"transit":false,"time":8,"is_transit":false,"station_id":"KLDB","distance":1385,"station_name":"Klenderbaru"},{"is_transit":false,"station_name":"Buaran","time":1,"i_lat":-6.215568,"i_long":106.922662,"line":0,"station_id":"BUA","transit":false,"distance":1305},{"distance":3100,"i_lat":-6.2135,"line":1,"station_id":"KLD","i_long":106.899548,"transit":false,"station_name":"Klender","is_transit":false,"time":2},{"is_transit":true,"time":3,"station_id":"JNG","line":0,"i_lat":-6.215091,"i_long":106.86807400000001,"station_name":"Jatinegara","transit":true,"distance":3395},{"is_transit":false,"time":2,"transit":false,"station_id":"POK","station_name":"Pondok Jati","line":11,"distance":1236,"i_lat":-6.209188,"i_long":106.861737},{"time":2,"i_lat":-6.193792,"transit":false,"distance":1829,"station_id":"KMT","is_transit":false,"station_name":"Kramat","i_long":106.855437,"line":11},{"is_transit":false,"station_name":"Gang Sentiong","time":1,"distance":973,"transit":false,"station_id":"GST","i_long":106.850107,"i_lat":-6.185975,"line":11},{"transit":false,"i_lat":-6.174784,"i_long":106.84368,"station_id":"PSE","line":11,"is_transit":false,"distance":1567,"time":8,"station_name":"Pasar Senen"},{"distance":1436,"i_long":106.839204,"station_id":"KMO","line":11,"station_name":"Kemayoran","time":4,"transit":false,"i_lat":-6.161728,"is_transit":false},{"distance":1901,"is_transit":false,"transit":false,"i_lat":-6.14505,"time":5,"station_name":"Rajawali","station_id":"RJW","line":11,"i_long":106.836569},{"station_name":"Kampung Bandan","i_lat":-6.132549,"distance":1444,"station_id":"KPB","line":0,"transit":true,"is_transit":true,"time":3,"i_long":106.826365},{"time":9,"transit":false,"i_lat":-6.144674,"station_name":"Angke","i_long":106.79867,"line":0,"distance":4102,"station_id":"AK","is_transit":false},{"is_transit":true,"i_lat":-6.155215,"line":1,"transit":true,"distance":1230,"station_id":"DU","i_long":106.800832,"station_name":"Duri","time":4},{"line":5,"station_name":"Grogol","time":3,"is_transit":false,"distance":1700,"transit":false,"i_lat":-6.162021,"station_id":"GGL","i_long":106.788277},{"is_transit":false,"distance":2036,"station_id":"PSG","i_lat":-6.161433,"i_long":106.771379,"station_name":"Pesing","line":5,"transit":false,"time":2},{"distance":1614,"i_long":106.756522,"time":2,"i_lat":-6.1587309999999995,"station_name":"Taman Kota","is_transit":false,"transit":false,"station_id":"TKO","line":5}],[{"distance":0,"time":0,"is_transit":false,"station_name":"Bekasi","transit":false,"i_long":106.997013,"station_id":"BKS","line":0,"i_lat":-6.236616},{"is_transit":false,"distance":2520,"station_id":"KRI","station_name":"Kranji","i_long":106.977657,"i_lat":-6.224515,"line":1,"time":4,"transit":false},{"distance":3097,"is_transit":false,"time":3,"transit":false,"station_name":"Cakung","i_lat":-6.219053,"station_id":"CUK","i_long":106.951283,"line":0},{"distance":1385,"time":8,"i_long":106.939679,"transit":false,"station_id":"KLDB","i_lat":-6.217455,"line":1,"station_name":"Klenderbaru","is_transit":false},{"station_name":"Buaran","is_transit":false,"time":1,"distance":1305,"station_id":"BUA","i_lat":-6.215568,"transit":false,"line":0,"i_long":106.922662},{"i_lat":-6.2135,"is_transit":false,"i_long":106.899548,"station_id":"KLD","distance":3100,"line":1,"station_name":"Klender","transit":false,"time":2},{"transit":false,"station_id":"JNG","distance":3395,"i_lat":-6.215091,"line":0,"is_transit":true,"station_name":"Jatinegara","i_long":106.86807400000001,"time":3},{"time":2,"i_long":106.858896,"line":1,"transit":false,"is_transit":false,"distance":1377,"i_lat":-6.212485,"station_id":"MTR","station_name":"Matraman"},{"transit":true,"station_id":"MRI","distance":1275,"time":2,"i_long":106.84912,"line":0,"i_lat":-6.209883,"station_name":"Manggarai","is_transit":true},{"i_long":106.840169,"transit":false,"is_transit":false,"line":0,"station_name":"Cikini","time":4,"distance":1590,"i_lat":-6.198556,"station_id":"CKI"},{"transit":false,"distance":1750,"station_name":"Gondangdia","line":2,"is_transit":false,"time":3,"station_id":"GDD","i_lat":-6.186295,"i_long":106.832183},{"distance":2015,"station_name":"Juanda","i_lat":-6.166716,"time":4,"transit":false,"station_id":"JUA","i_long":106.828284,"is_transit":false,"line":2},{"i_lat":-6.160725,"is_transit":false,"station_id":"SW","i_long":106.827103,"line":2,"distance":1149,"time":2,"station_name":"Sawah Besar","transit":false},{"is_transit":false,"time":2,"station_id":"MGB","line":2,"i_lat":-6.149769,"i_long":106.82482,"distance":906,"station_name":"Manggabesar","transit":false},{"line":7,"station_id":"JAY","distance":1080,"i_lat":-6.141205,"station_name":"Jayakarta","time":2,"transit":false,"is_transit":false,"i_long":106.820901},{"line":0,"station_name":"Jakarta Kota","transit":true,"is_transit":true,"distance":1264,"station_id":"JAKK","i_lat":-6.137569,"time":4,"i_long":106.812439},{"line":0,"transit":false,"is_transit":true,"time":3,"i_lat":-6.132549,"station_id":"KPB","i_long":106.826365,"station_name":"Kampung Bandan","distance":1364},{"line":0,"time":9,"i_lat":-6.144674,"transit":false,"station_id":"AK","distance":4102,"i_long":106.79867,"is_transit":false,"station_name":"Angke"},{"station_id":"DU","i_long":106.800832,"time":4,"distance":1230,"i_lat":-6.155215,"is_transit":true,"transit":true,"line":1,"station_name":"Duri"},{"i_lat":-6.162021,"line":5,"station_id":"GGL","is_transit":false,"time":3,"transit":false,"station_name":"Grogol","distance":1700,"i_long":106.788277},{"i_lat":-6.161433,"station_name":"Pesing","station_id":"PSG","i_long":106.771379,"time":2,"transit":false,"is_transit":false,"distance":2036,"line":5},{"distance":1614,"station_id":"TKO","is_transit":false,"station_name":"Taman Kota","line":5,"i_long":106.756522,"i_lat":-6.1587309999999995,"transit":false,"time":2}],[{"station_name":"Bekasi","transit":false,"line":0,"time":0,"station_id":"BKS","i_lat":-6.236616,"distance":0,"i_long":106.997013,"is_transit":false},{"distance":2520,"i_long":106.977657,"line":1,"i_lat":-6.224515,"time":4,"station_id":"KRI","is_transit":false,"station_name":"Kranji","transit":false},{"is_transit":false,"distance":3097,"i_long":106.951283,"line":0,"station_name":"Cakung","time":3,"transit":false,"station_id":"CUK","i_lat":-6.219053},{"station_id":"KLDB","i_long":106.939679,"line":1,"station_name":"Klenderbaru","time":8,"transit":false,"i_lat":-6.217455,"is_transit":false,"distance":1385},{"time":1,"transit":false,"station_id":"BUA","i_lat":-6.215568,"i_long":106.922662,"station_name":"Buaran","line":0,"is_transit":false,"distance":1305},{"i_lat":-6.2135,"i_long":106.899548,"station_name":"Klender","station_id":"KLD","transit":false,"distance":3100,"time":2,"line":1,"is_transit":false},{"is_transit":true,"i_lat":-6.215091,"transit":true,"distance":3395,"time":3,"station_name":"Jatinegara","station_id":"JNG","i_long":106.86807400000001,"line":0},{"is_transit":false,"station_name":"Pondok Jati","transit":false,"i_lat":-6.209188,"i_long":106.861737,"station_id":"POK","distance":1236,"time":2,"line":11},{"i_lat":-6.193792,"station_id":"KMT","transit":false,"line":11,"time":2,"distance":1829,"i_long":106.855437,"station_name":"Kramat","is_transit":false},{"is_transit":false,"line":11,"distance":973,"station_id":"GST","i_long":106.850107,"time":1,"station_name":"Gang Sentiong","transit":false,"i_lat":-6.185975},{"line":11,"station_id":"PSE","transit":false,"is_transit":false,"i_long":106.84368,"time":8,"i_lat":-6.174784,"station_name":"Pasar Senen","distance":1567},{"station_id":"KMO","line":11,"distance":1436,"is_transit":false,"i_lat":-6.161728,"station_name":"Kemayoran","time":4,"i_long":106.839204,"transit":false},{"line":11,"i_lat":-6.14505,"station_id":"RJW","station_name":"Rajawali","time":5,"is_transit":false,"transit":false,"i_long":106.836569,"distance":1901},{"line":0,"station_name":"Kampung Bandan","station_id":"KPB","transit":true,"time":3,"distance":1444,"is_transit":true,"i_lat":-6.132549,"i_long":106.826365},{"i_long":106.812439,"is_transit":true,"station_id":"JAKK","transit":true,"station_name":"Jakarta Kota","time":3,"i_lat":-6.137569,"line":0,"distance":1364},{"station_name":"Jayakarta","station_id":"JAY","transit":false,"line":7,"distance":1264,"i_lat":-6.141205,"is_transit":false,"time":4,"i_long":106.820901},{"i_long":106.82482,"is_transit":false,"transit":false,"time":2,"station_id":"MGB","station_name":"Manggabesar","line":2,"distance":1080,"i_lat":-6.149769},{"i_long":106.827103,"i_lat":-6.160725,"distance":906,"station_name":"Sawah Besar","is_transit":false,"transit":false,"time":2,"station_id":"SW","line":2},{"transit":false,"is_transit":false,"distance":1149,"i_lat":-6.166716,"line":2,"station_id":"JUA","time":2,"station_name":"Juanda","i_long":106.828284},{"time":4,"station_id":"GDD","station_name":"Gondangdia","i_lat":-6.186295,"line":2,"is_transit":false,"transit":false,"distance":2015,"i_long":106.832183},{"i_lat":-6.198556,"station_name":"Cikini","distance":1750,"station_id":"CKI","i_long":106.840169,"line":0,"time":3,"transit":false,"is_transit":false},{"is_transit":true,"distance":1590,"station_id":"MRI","i_lat":-6.209883,"line":0,"station_name":"Manggarai","time":4,"i_long":106.84912,"transit":true},{"transit":false,"distance":3186,"time":4,"station_id":"SUD","i_long":106.822649,"line":1,"i_lat":-6.202263,"is_transit":false,"station_name":"Sudirman"},{"i_long":106.819881,"station_name":"Sudirman Baru","i_lat":-6.201433,"time":1,"transit":false,"line":1,"is_transit":false,"distance":280,"station_id":"SUDB"},{"transit":false,"is_transit":false,"i_lat":-6.20132,"time":1,"i_long":106.816351,"line":1,"station_id":"KAT","station_name":"Karet","distance":471},{"transit":false,"line":1,"time":5,"station_name":"Tanah Abang","station_id":"THB","i_lat":-6.185545,"distance":2029,"is_transit":true,"i_long":106.811091},{"time":8,"distance":3632,"line":1,"i_lat":-6.155215,"transit":true,"station_id":"DU","is_transit":true,"i_long":106.800832,"station_name":"Duri"},{"station_name":"Grogol","station_id":"GGL","i_long":106.788277,"transit":false,"is_transit":false,"time":3,"line":5,"distance":1700,"i_lat":-6.162021},{"transit":false,"is_transit":false,"distance":2036,"station_id":"PSG","line":5,"i_long":106.771379,"station_name":"Pesing","i_lat":-6.161433,"time":2},{"line":5,"transit":false,"is_transit":false,"i_long":106.756522,"time":2,"distance":1614,"i_lat":-6.1587309999999995,"station_id":"TKO","station_name":"Taman Kota"}]]}