{"data":[[{"is_transit":false,"i_lat":-6.236616,"i_long":106.997013,"transit":false,"line":0,"time":0,"station_name":"Bekasi","station_id":"BKS","distance":0},{"time":4,"station_name":"Kranji","i_long":106.977657,"transit":false,"station_id":"KRI","i_lat":-6.224515,"is_transit":false,"line":1,"distance":2520},{"i_lat":-6.219053,"time":3,"is_transit":false,"i_long":106.951283,"distance":3097,"transit":false,"station_id":"CUK","station_name":"Cakung","line":0},{"time":8,"distance":1385,"i_lat":-6.217455,"station_name":"Klenderbaru","i_long":106.939679,"is_transit":false,"transit":false,"line":1,"station_id":"KLDB"},{"is_transit":false,"station_name":"Buaran","transit":false,"time":1,"distance":1305,"i_long":106.922662,"line":0,"i_lat":-6.215568,"station_id":"BUA"},{"distance":3100,"time":2,"station_name":"Klender","i_lat":-6.2135,"line":1,"transit":false,"i_long":106.899548,"station_id":"KLD","is_transit":false},{"i_long":106.86807400000001,"line":0,"station_name":"Jatinegara","station_id":"JNG","distance":3395,"is_transit":true,"i_lat":-6.215091,"time":3,"transit":true},{"time":2,"i_long":106.861737,"i_lat":-6.209188,"station_id":"POK","line":11,"distance":1236,"transit":false,"is_transit":false,"station_name":"Pondok Jati"},{"transit":false,"i_long":106.855437,"station_id":"KMT","distance":1829,"station_name":"Kramat","line":11,"i_lat":-6.193792,"is_transit":false,"time":2},{"time":1,"station_id":"GST","distance":973,"transit":false,"line":11,"station_name":"Gang Sentiong","i_long":106.850107,"i_lat":-6.185975,"is_transit":false},{"station_id":"PSE","line":11,"i_long":106.84368,"time":8,"is_transit":false,"distance":1567,"station_name":"Pasar Senen","i_lat":-6.174784,"transit":false}],[{"is_transit":false,"station_name":"Bekasi","time":0,"transit":false,"distance":0,"station_id":"BKS","i_lat":-6.236616,"line":0,"i_long":106.997013},{"transit":false,"is_transit":false,"i_lat":-6.224515,"distance":2520,"i_long":106.977657,"line":1,"station_name":"Kranji","time":4,"station_id":"KRI"},{"time":3,"is_transit":false,"i_lat":-6.219053,"station_id":"CUK","transit":false,"station_name":"Cakung","i_long":106.951283,"line":0,"distance":3097},{"transit":false,"time":8,"station_id":"KLDB","i_lat":-6.217455,"is_transit":false,"distance":1385,"line":1,"i_long":106.939679,"station_name":"Klenderbaru"},{"station_name":"Buaran","i_lat":-6.215568,"line":0,"transit":false,"i_long":106.922662,"distance":1305,"is_transit":false,"station_id":"BUA","time":1},{"station_name":"Klender","distance":3100,"line":1,"i_lat":-6.2135,"time":2,"station_id":"KLD","transit":false,"is_transit":false,"i_long":106.899548},{"time":3,"i_lat":-6.215091,"station_id":"JNG","transit":false,"i_long":106.86807400000001,"is_transit":true,"distance":3395,"station_name":"Jatinegara","line":0},{"line":1,"i_long":106.858896,"is_transit":false,"time":2,"distance":1377,"transit":false,"i_lat":-6.212485,"station_id":"MTR","station_name":"Matraman"},{"transit":false,"time":2,"line":0,"i_long":106.84912,"station_name":"Manggarai","is_transit":true,"i_lat":-6.209883,"distance":1275,"station_id":"MRI"},{"i_lat":-6.202263,"line":1,"time":4,"distance":3186,"station_id":"SUD","station_name":"Sudirman","is_transit":false,"transit":false,"i_long":106.822649},{"line":1,"is_transit":false,"station_name":"Sudirman Baru","i_lat":-6.201433,"time":1,"i_long":106.819881,"station_id":"SUDB","transit":false,"distance":280},{"is_transit":false,"time":1,"distance":471,"transit":false,"i_lat":-6.20132,"i_long":106.816351,"line":1,"station_name":"Karet","station_id":"KAT"},{"transit":false,"i_long":106.811091,"line":1,"station_name":"Tanah Abang","is_transit":true,"station_id":"THB","i_lat":-6.185545,"time":5,"distance":2029},{"transit":true,"i_long":106.800832,"station_id":"DU","is_transit":true,"station_name":"Duri","distance":3632,"line":1,"i_lat":-6.155215,"time":8},{"station_id":"AK","time":4,"is_transit":false,"distance":1230,"station_name":"Angke","line":0,"transit":false,"i_long":106.79867,"i_lat":-6.144674},{"time":9,"transit":true,"i_lat":-6.132549,"station_id":"KPB","distance":4102,"line":0,"station_name":"Kampung Bandan","i_long":106.826365,"is_transit":true},{"i_lat":-6.14505,"i_long":106.836569,"station_name":"Rajawali","time":3,"distance":1444,"line":11,"is_transit":false,"station_id":"RJW","transit":false},{"is_transit":false,"transit":false,"i_long":106.839204,"station_id":"KMO","time":5,"distance":1901,"line":11,"i_lat":-6.161728,"station_name":"Kemayoran"},{"station_name":"Pasar Senen","time":4,"station_id":"PSE","transit":false,"i_lat":-6.174784,"distance":1436,"is_transit":false,"i_long":106.84368,"line":11}],[{"transit":false,"station_name":"Bekasi","i_lat":-6.236616,"time":0,"i_long":106.997013,"station_id":"BKS","is_transit":false,"distance":0,"line":0},{"station_id":"KRI","station_name":"Kranji","i_long":106.977657,"transit":false,"i_lat":-6.224515,"distance":2520,"line":1,"time":4,"is_transit":false},{"i_long":106.951283,"time":3,"transit":false,"is_transit":false,"station_name":"Cakung","distance":3097,"station_id":"CUK","i_lat":-6.219053,"line":0},{"station_id":"KLDB","transit":false,"i_long":106.939679,"line":1,"time":8,"is_transit":false,"station_name":"Klenderbaru","i_lat":-6.217455,"distance":1385},{"station_name":"Buaran","line":0,"station_id":"BUA","time":1,"distance":1305,"transit":false,"i_lat":-6.215568,"i_long":106.922662,"is_transit":false},{"line":1,"distance":3100,"time":2,"station_id":"KLD","i_long":106.899548,"transit":false,"is_transit":false,"station_name":"Klender","i_lat":-6.2135},{"distance":3395,"station_name":"Jatinegara","time":3,"transit":false,"i_lat":-6.215091,"i_long":106.86807400000001,"is_transit":true,"station_id":"JNG","line":0},{"distance":1377,"line":1,"station_name":"Matraman","station_id":"MTR","is_transit":false,"i_lat":-6.212485,"i_long":106.858896,"time":2,"transit":false},{"station_name":"Manggarai","distance":1275,"line":0,"station_id":"MRI","time":2,"i_lat":-6.209883,"transit":true,"i_long":106.84912,"is_transit":true},{"time":4,"distance":1590,"transit":false,"station_id":"CKI","i_long":106.840169,"is_transit":false,"line":0,"station_name":"Cikini","i_lat":-6.198556},{"station_id":"GDD","time":3,"transit":false,"station_name":"Gondangdia","line":2,"i_lat":-6.186295,"i_long":106.832183,"is_transit":false,"distance":1750},{"i_lat":-6.166716,"station_id":"JUA","distance":2015,"transit":false,"i_long":106.828284,"station_name":"Juanda","line":2,"is_transit":false,"time":4},{"time":2,"line":2,"i_long":106.827103,"is_transit":false,"distance":1149,"station_id":"SW","i_lat":-6.160725,"transit":false,"station_name":"Sawah Besar"},{"transit":false,"station_id":"MGB","station_name":"Manggabesar","i_lat":-6.149769,"i_long":106.82482,"is_transit":false,"time":2,"distance":906,"line":2},{"station_id":"JAY","distance":1080,"i_lat":-6.141205,"i_long":106.820901,"time":2,"transit":false,"line":7,"station_name":"Jayakarta","is_transit":false},{"i_long":106.812439,"station_id":"JAKK","distance":1264,"is_transit":true,"i_lat":-6.137569,"line":0,"station_name":"Jakarta Kota","time":4,"transit":true},{"line":0,"distance":1364,"is_transit":true,"time":3,"transit":true,"station_id":"KPB","i_lat":-6.132549,"i_long":106.826365,"station_name":"Kampung Bandan"},{"i_lat":-6.14505,"distance":1444,"line":11,"time":3,"is_transit":false,"station_id":"RJW","transit":false,"station_name":"Rajawali","i_long":106.836569},{"station_id":"KMO","i_long":106.839204,"time":5,"distance":1901,"station_name":"Kemayoran","i_lat":-6.161728,"line":11,"is_transit":false,"transit":false},{"line":11,"is_transit":false,"station_id":"PSE","i_lat":-6.174784,"time":4,"i_long":106.84368,"distance":1436,"transit":false,"station_name":"Pasar Senen"}]]}