{"data":[[{"line":0,"is_transit":false,"station_name":"Bekasi","i_long":106.997013,"time":0,"distance":0,"transit":false,"station_id":"BKS","i_lat":-6.236616},{"distance":2520,"line":1,"station_id":"KRI","time":4,"transit":false,"is_transit":false,"i_lat":-6.224515,"i_long":106.977657,"station_name":"Kranji"},{"i_long":106.951283,"station_id":"CUK","station_name":"Cakung","transit":false,"is_transit":false,"distance":3097,"i_lat":-6.219053,"time":3,"line":0},{"time":8,"i_long":106.939679,"station_name":"Klenderbaru","station_id":"KLDB","transit":false,"i_lat":-6.217455,"line":1,"distance":1385,"is_transit":false},{"i_lat":-6.215568,"line":0,"distance":1305,"is_transit":false,"time":1,"transit":false,"station_name":"Buaran","i_long":106.922662,"station_id":"BUA"},{"i_lat":-6.2135,"transit":false,"distance":3100,"time":2,"station_id":"KLD","i_long":106.899548,"line":1,"station_name":"Klender","is_transit":false},{"station_name":"Jatinegara","is_transit":true,"distance":3395,"time":3,"i_lat":-6.215091,"station_id":"JNG","line":0,"transit":false,"i_long":106.86807400000001},{"station_id":"MTR","is_transit":false,"distance":1377,"time":2,"i_long":106.858896,"transit":false,"station_name":"Matraman","line":1,"i_lat":-6.212485},{"station_name":"Manggarai","is_transit":true,"line":0,"i_lat":-6.209883,"station_id":"MRI","time":2,"transit":true,"i_long":106.84912,"distance":1275},{"station_name":"Tebet","transit":false,"i_lat":-6.226659,"i_long":106.857948,"time":4,"line":2,"station_id":"TEB","is_transit":false,"distance":2610},{"station_name":"Cawang","time":2,"is_transit":false,"distance":1230,"i_long":106.856607,"line":0,"i_lat":-6.242512,"transit":false,"station_id":"CW"},{"station_id":"DRN","transit":false,"station_name":"Duren Kalibata","i_long":106.85449,"is_transit":false,"line":0,"distance":1546,"time":3,"i_lat":-6.255332},{"i_lat":-6.263214,"line":2,"distance":824,"station_name":"Pasar Minggu Baru","station_id":"PSMB","time":2,"i_long":106.851577,"is_transit":false,"transit":false},{"station_id":"PSM","is_transit":false,"time":2,"transit":false,"station_name":"Pasar Minggu","i_lat":-6.2842400000000005,"line":2,"distance":2380,"i_long":106.843999},{"transit":false,"station_name":"Tanjung Barat","i_lat":-6.3080680000000005,"line":2,"distance":2820,"station_id":"TNT","i_long":106.838896,"time":4,"is_transit":false},{"i_long":106.832616,"is_transit":false,"i_lat":-6.330363,"station_id":"LNA","station_name":"Lenteng Agung","line":2,"transit":false,"distance":2671,"time":3},{"is_transit":false,"line":2,"transit":false,"distance":1029,"i_lat":-6.339291,"station_name":"Univ. Pancasila","i_long":106.834175,"station_id":"UP","time":2},{"time":3,"i_long":106.831474,"station_id":"UI","station_name":"Univ. Indonesia","transit":false,"distance":2264,"i_lat":-6.360749,"is_transit":false,"line":2},{"distance":1109,"station_id":"POC","station_name":"Pondok Cina","i_lat":-6.369073,"transit":false,"is_transit":false,"time":2,"i_long":106.831114,"line":2},{"is_transit":false,"time":4,"distance":2727,"i_long":106.819451,"station_name":"Depokbaru","station_id":"DPB","i_lat":-6.391065,"line":0,"transit":false},{"transit":false,"i_lat":-6.405256,"station_name":"Depok","line":0,"i_long":106.816926,"station_id":"DP","distance":1584,"is_transit":false,"time":3},{"time":6,"is_transit":true,"i_lat":-6.448811,"line":1,"i_long":106.800298,"station_name":"Citayam","station_id":"CTA","transit":false,"distance":5084},{"i_long":106.792719,"line":0,"is_transit":false,"transit":false,"station_name":"Bojonggede","time":5,"distance":5197,"i_lat":-6.493243,"station_id":"BJD"}],[{"transit":false,"i_lat":-6.236616,"i_long":106.997013,"line":0,"station_id":"BKS","station_name":"Bekasi","time":0,"is_transit":false,"distance":0},{"station_name":"Kranji","is_transit":false,"i_long":106.977657,"station_id":"KRI","distance":2520,"line":1,"transit":false,"time":4,"i_lat":-6.224515},{"station_id":"CUK","i_lat":-6.219053,"distance":3097,"time":3,"station_name":"Cakung","is_transit":false,"i_long":106.951283,"transit":false,"line":0},{"transit":false,"line":1,"distance":1385,"time":8,"i_lat":-6.217455,"station_id":"KLDB","i_long":106.939679,"station_name":"Klenderbaru","is_transit":false},{"i_long":106.922662,"time":1,"i_lat":-6.215568,"station_id":"BUA","line":0,"station_name":"Buaran","is_transit":false,"transit":false,"distance":1305},{"i_lat":-6.2135,"i_long":106.899548,"transit":false,"station_id":"KLD","time":2,"distance":3100,"station_name":"Klender","is_transit":false,"line":1},{"station_name":"Jatinegara","time":3,"station_id":"JNG","i_lat":-6.215091,"line":0,"i_long":106.86807400000001,"is_transit":true,"transit":true,"distance":3395},{"distance":1236,"i_long":106.861737,"time":2,"station_id":"POK","station_name":"Pondok Jati","i_lat":-6.209188,"is_transit":false,"line":11,"transit":false},{"line":11,"is_transit":false,"distance":1829,"i_lat":-6.193792,"i_long":106.855437,"station_id":"KMT","time":2,"station_name":"Kramat","transit":false},{"transit":false,"time":1,"distance":973,"i_long":106.850107,"is_transit":false,"station_id":"GST","i_lat":-6.185975,"station_name":"Gang Sentiong","line":11},{"station_name":"Pasar Senen","distance":1567,"station_id":"PSE","i_lat":-6.174784,"transit":false,"is_transit":false,"time":8,"line":11,"i_long":106.84368},{"transit":false,"i_long":106.839204,"i_lat":-6.161728,"station_id":"KMO","is_transit":false,"distance":1436,"station_name":"Kemayoran","time":4,"line":11},{"is_transit":false,"i_lat":-6.14505,"station_name":"Rajawali","time":5,"distance":1901,"station_id":"RJW","transit":false,"line":11,"i_long":106.836569},{"i_lat":-6.132549,"station_id":"KPB","distance":1444,"station_name":"Kampung Bandan","i_long":106.826365,"time":3,"transit":true,"is_transit":true,"line":0},{"is_transit":false,"time":9,"distance":4102,"line":0,"i_long":106.79867,"i_lat":-6.144674,"transit":false,"station_name":"Angke","station_id":"AK"},{"distance":1230,"i_lat":-6.155215,"station_name":"Duri","time":4,"station_id":"DU","i_long":106.800832,"line":1,"is_transit":true,"transit":true},{"transit":false,"time":8,"line":1,"is_transit":true,"i_lat":-6.185545,"distance":3632,"station_id":"THB","i_long":106.811091,"station_name":"Tanah Abang"},{"transit":false,"station_id":"KAT","is_transit":false,"station_name":"Karet","i_lat":-6.20132,"time":5,"distance":2029,"i_long":106.816351,"line":1},{"transit":false,"station_name":"Sudirman Baru","i_lat":-6.201433,"station_id":"SUDB","is_transit":false,"distance":471,"i_long":106.819881,"time":1,"line":1},{"distance":280,"transit":false,"station_id":"SUD","is_transit":false,"time":1,"i_long":106.822649,"line":1,"i_lat":-6.202263,"station_name":"Sudirman"},{"i_long":106.84912,"is_transit":true,"station_name":"Manggarai","time":4,"distance":3186,"transit":true,"i_lat":-6.209883,"line":0,"station_id":"MRI"},{"line":2,"i_lat":-6.226659,"i_long":106.857948,"transit":false,"station_id":"TEB","station_name":"Tebet","distance":2610,"is_transit":false,"time":4},{"line":0,"time":2,"i_long":106.856607,"transit":false,"distance":1230,"station_id":"CW","station_name":"Cawang","i_lat":-6.242512,"is_transit":false},{"station_id":"DRN","line":0,"time":3,"i_lat":-6.255332,"is_transit":false,"transit":false,"distance":1546,"station_name":"Duren Kalibata","i_long":106.85449},{"is_transit":false,"station_id":"PSMB","line":2,"i_lat":-6.263214,"distance":824,"station_name":"Pasar Minggu Baru","time":2,"i_long":106.851577,"transit":false},{"time":2,"station_name":"Pasar Minggu","is_transit":false,"distance":2380,"i_lat":-6.2842400000000005,"i_long":106.843999,"transit":false,"station_id":"PSM","line":2},{"i_lat":-6.3080680000000005,"i_long":106.838896,"station_name":"Tanjung Barat","distance":2820,"is_transit":false,"station_id":"TNT","time":4,"transit":false,"line":2},{"transit":false,"i_lat":-6.330363,"line":2,"i_long":106.832616,"station_name":"Lenteng Agung","time":3,"station_id":"LNA","distance":2671,"is_transit":false},{"station_id":"UP","i_long":106.834175,"line":2,"is_transit":false,"i_lat":-6.339291,"time":2,"transit":false,"distance":1029,"station_name":"Univ. Pancasila"},{"station_id":"UI","line":2,"is_transit":false,"station_name":"Univ. Indonesia","time":3,"distance":2264,"transit":false,"i_lat":-6.360749,"i_long":106.831474},{"time":2,"station_name":"Pondok Cina","is_transit":false,"line":2,"i_lat":-6.369073,"distance":1109,"transit":false,"station_id":"POC","i_long":106.831114},{"time":4,"i_long":106.819451,"station_id":"DPB","station_name":"Depokbaru","transit":false,"is_transit":false,"i_lat":-6.391065,"line":0,"distance":2727},{"transit":false,"line":0,"station_id":"DP","i_lat":-6.405256,"time":3,"is_transit":false,"distance":1584,"i_long":106.816926,"station_name":"Depok"},{"i_long":106.800298,"transit":false,"distance":5084,"is_transit":true,"station_name":"Citayam","i_lat":-6.448811,"line":1,"station_id":"CTA","time":6},{"i_lat":-6.493243,"is_transit":false,"distance":5197,"i_long":106.792719,"line":0,"station_id":"BJD","station_name":"Bojonggede","time":5,"transit":false}],[{"station_id":"BKS","time":0,"line":0,"i_lat":-6.236616,"is_transit":false,"transit":false,"i_long":106.997013,"distance":0,"station_name":"Bekasi"},{"i_lat":-6.224515,"line":1,"time":4,"i_long":106.977657,"station_id":"KRI","station_name":"Kranji","is_transit":false,"transit":false,"distance":2520},{"i_long":106.951283,"distance":3097,"station_id":"CUK","time":3,"transit":false,"i_lat":-6.219053,"station_name":"Cakung","line":0,"is_transit":false},{"station_name":"Klenderbaru","station_id":"KLDB","time":8,"distance":1385,"i_lat":-6.217455,"is_transit":false,"transit":false,"i_long":106.939679,"line":1},{"transit":false,"station_name":"Buaran","i_lat":-6.215568,"i_long":106.922662,"time":1,"station_id":"BUA","line":0,"distance":1305,"is_transit":false},{"i_long":106.899548,"time":2,"line":1,"is_transit":false,"station_id":"KLD","transit":false,"station_name":"Klender","i_lat":-6.2135,"distance":3100},{"time":3,"station_id":"JNG","station_name":"Jatinegara","is_transit":true,"i_long":106.86807400000001,"distance":3395,"transit":true,"line":0,"i_lat":-6.215091},{"transit":false,"time":2,"distance":1236,"i_lat":-6.209188,"i_long":106.861737,"line":11,"station_id":"POK","is_transit":false,"station_name":"Pondok Jati"},{"station_name":"Kramat","i_lat":-6.193792,"is_transit":false,"transit":false,"station_id":"KMT","time":2,"i_long":106.855437,"distance":1829,"line":11},{"line":11,"time":1,"is_transit":false,"i_lat":-6.185975,"station_id":"GST","station_name":"Gang Sentiong","transit":false,"distance":973,"i_long":106.850107},{"station_id":"PSE","time":8,"i_lat":-6.174784,"distance":1567,"station_name":"Pasar Senen","line":11,"is_transit":false,"i_long":106.84368,"transit":false},{"distance":1436,"i_long":106.839204,"station_id":"KMO","is_transit":false,"transit":false,"i_lat":-6.161728,"station_name":"Kemayoran","line":11,"time":4},{"time":5,"transit":false,"i_long":106.836569,"distance":1901,"is_transit":false,"i_lat":-6.14505,"station_name":"Rajawali","station_id":"RJW","line":11},{"station_name":"Kampung Bandan","station_id":"KPB","transit":true,"time":3,"i_lat":-6.132549,"i_long":106.826365,"line":0,"is_transit":true,"distance":1444},{"line":0,"i_long":106.812439,"station_name":"Jakarta Kota","is_transit":true,"distance":1364,"i_lat":-6.137569,"time":3,"transit":true,"station_id":"JAKK"},{"line":7,"i_lat":-6.141205,"station_id":"JAY","station_name":"Jayakarta","transit":false,"i_long":106.820901,"distance":1264,"is_transit":false,"time":4},{"time":2,"station_name":"Manggabesar","i_long":106.82482,"is_transit":false,"transit":false,"i_lat":-6.149769,"distance":1080,"line":2,"station_id":"MGB"},{"distance":906,"transit":false,"station_name":"Sawah Besar","i_lat":-6.160725,"i_long":106.827103,"line":2,"is_transit":false,"time":2,"station_id":"SW"},{"i_lat":-6.166716,"time":2,"station_name":"Juanda","station_id":"JUA","distance":1149,"line":2,"is_transit":false,"transit":false,"i_long":106.828284},{"time":4,"i_long":106.832183,"station_name":"Gondangdia","line":2,"station_id":"GDD","distance":2015,"transit":false,"i_lat":-6.186295,"is_transit":false},{"time":3,"transit":false,"station_name":"Cikini","distance":1750,"i_lat":-6.198556,"line":0,"station_id":"CKI","i_long":106.840169,"is_transit":false},{"station_id":"MRI","i_long":106.84912,"line":0,"is_transit":true,"i_lat":-6.209883,"transit":true,"distance":1590,"time":4,"station_name":"Manggarai"},{"line":2,"distance":2610,"i_long":106.857948,"transit":false,"is_transit":false,"station_id":"TEB","i_lat":-6.226659,"time":4,"station_name":"Tebet"},{"distance":1230,"is_transit":false,"i_long":106.856607,"station_id":"CW","station_name":"Cawang","time":2,"transit":false,"i_lat":-6.242512,"line":0},{"i_long":106.85449,"is_transit":false,"transit":false,"i_lat":-6.255332,"station_id":"DRN","time":3,"station_name":"Duren Kalibata","distance":1546,"line":0},{"i_lat":-6.263214,"time":2,"is_transit":false,"station_name":"Pasar Minggu Baru","distance":824,"transit":false,"i_long":106.851577,"station_id":"PSMB","line":2},{"station_name":"Pasar Minggu","i_lat":-6.2842400000000005,"i_long":106.843999,"distance":2380,"line":2,"station_id":"PSM","time":2,"transit":false,"is_transit":false},{"line":2,"station_id":"TNT","is_transit":false,"i_long":106.838896,"i_lat":-6.3080680000000005,"distance":2820,"time":4,"station_name":"Tanjung Barat","transit":false},{"line":2,"distance":2671,"i_lat":-6.330363,"transit":false,"station_name":"Lenteng Agung","i_long":106.832616,"station_id":"LNA","is_transit":false,"time":3},{"line":2,"time":2,"i_lat":-6.339291,"transit":false,"station_id":"UP","station_name":"Univ. Pancasila","distance":1029,"is_transit":false,"i_long":106.834175},{"i_long":106.831474,"station_id":"UI","line":2,"is_transit":false,"station_name":"Univ. Indonesia","distance":2264,"transit":false,"i_lat":-6.360749,"time":3},{"i_lat":-6.369073,"line":2,"transit":false,"station_name":"Pondok Cina","station_id":"POC","is_transit":false,"time":2,"i_long":106.831114,"distance":1109},{"i_lat":-6.391065,"line":0,"time":4,"transit":false,"station_name":"Depokbaru","is_transit":false,"i_long":106.819451,"distance":2727,"station_id":"DPB"},{"is_transit":false,"time":3,"i_long":106.816926,"distance":1584,"station_id":"DP","transit":false,"line":0,"station_name":"Depok","i_lat":-6.405256},{"line":1,"station_name":"Citayam","distance":5084,"is_transit":true,"station_id":"CTA","time":6,"i_lat":-6.448811,"i_long":106.800298,"transit":false},{"i_long":106.792719,"line":0,"transit":false,"station_name":"Bojonggede","time":5,"station_id":"BJD","i_lat":-6.493243,"distance":5197,"is_transit":false}]]}