{"data":[[{"station_id":"BKS","i_long":106.997013,"station_name":"Bekasi","is_transit":false,"line":1,"time":0,"distance":0,"transit":false,"i_lat":-6.236616},{"i_long":106.977657,"is_transit":false,"time":4,"transit":false,"i_lat":-6.224515,"station_id":"KRI","station_name":"Kranji","line":1,"distance":2520},{"i_long":106.951283,"station_name":"Cakung","transit":false,"distance":3097,"is_transit":false,"station_id":"CUK","time":3,"i_lat":-6.219053,"line":1},{"i_lat":-6.217455,"transit":false,"is_transit":false,"line":1,"station_name":"Klenderbaru","i_long":106.939679,"time":8,"distance":1385,"station_id":"KLDB"},{"station_id":"BUA","station_name":"Buaran","transit":false,"line":1,"is_transit":false,"time":1,"i_lat":-6.215568,"i_long":106.922662,"distance":1305},{"station_name":"Klender","i_long":106.899548,"time":2,"is_transit":false,"transit":false,"distance":3100,"station_id":"KLD","i_lat":-6.2135,"line":1},{"is_transit":false,"i_lat":-6.215091,"station_id":"JNG","i_long":106.86807400000001,"line":1,"transit":false,"station_name":"Jatinegara","distance":3395,"time":3},{"station_id":"MTR","distance":1377,"line":1,"station_name":"Matraman","i_lat":-6.212485,"i_long":106.858896,"is_transit":false,"transit":false,"time":2}],[{"station_id":"BKS","transit":false,"i_long":106.997013,"distance":0,"time":0,"station_name":"Bekasi","is_transit":false,"line":1,"i_lat":-6.236616},{"transit":false,"i_lat":-6.224515,"line":1,"i_long":106.977657,"time":4,"station_name":"Kranji","station_id":"KRI","is_transit":false,"distance":2520},{"i_long":106.951283,"line":1,"transit":false,"station_name":"Cakung","is_transit":false,"distance":3097,"station_id":"CUK","time":3,"i_lat":-6.219053},{"time":8,"station_name":"Klenderbaru","station_id":"KLDB","is_transit":false,"i_lat":-6.217455,"i_long":106.939679,"line":1,"distance":1385,"transit":false},{"time":1,"transit":false,"is_transit":false,"i_lat":-6.215568,"station_name":"Buaran","i_long":106.922662,"station_id":"BUA","distance":1305,"line":1},{"time":2,"distance":3100,"i_long":106.899548,"line":1,"station_id":"KLD","transit":false,"station_name":"Klender","i_lat":-6.2135,"is_transit":false},{"time":3,"i_long":106.86807400000001,"distance":3395,"station_id":"JNG","is_transit":true,"i_lat":-6.215091,"line":1,"transit":true,"station_name":"Jatinegara"},{"time":2,"station_id":"POK","station_name":"Pondok Jati","distance":1236,"line":11,"i_long":106.861737,"is_transit":false,"transit":false,"i_lat":-6.209188},{"i_long":106.855437,"is_transit":false,"station_name":"Kramat","distance":1829,"line":11,"time":2,"station_id":"KMT","i_lat":-6.193792,"transit":false},{"station_id":"GST","transit":false,"station_name":"Gang Sentiong","distance":973,"i_long":106.850107,"is_transit":false,"i_lat":-6.185975,"time":1,"line":11},{"is_transit":false,"station_name":"Pasar Senen","station_id":"PSE","transit":false,"i_long":106.84368,"line":11,"distance":1567,"time":8,"i_lat":-6.174784},{"transit":false,"i_lat":-6.161728,"line":11,"station_id":"KMO","is_transit":false,"i_long":106.839204,"time":4,"station_name":"Kemayoran","distance":1436},{"station_id":"RJW","i_lat":-6.14505,"time":5,"is_transit":false,"distance":1901,"transit":false,"line":11,"station_name":"Rajawali","i_long":106.836569},{"station_id":"KPB","is_transit":true,"time":3,"i_lat":-6.132549,"station_name":"Kampung Bandan","i_long":106.826365,"distance":1444,"line":4,"transit":true},{"time":9,"station_id":"AK","transit":false,"is_transit":false,"i_lat":-6.144674,"line":1,"distance":4102,"station_name":"Angke","i_long":106.79867},{"is_transit":false,"line":1,"transit":false,"distance":1230,"time":4,"station_id":"DU","i_lat":-6.155215,"i_long":106.800832,"station_name":"Duri"},{"distance":3632,"station_name":"Tanah Abang","transit":false,"is_transit":false,"i_lat":-6.185545,"i_long":106.811091,"line":1,"time":8,"station_id":"THB"},{"transit":false,"i_lat":-6.20132,"station_id":"KAT","time":5,"line":1,"distance":2029,"station_name":"Karet","i_long":106.816351,"is_transit":false},{"is_transit":false,"station_name":"Sudirman Baru","transit":false,"time":1,"i_lat":-6.201433,"distance":471,"station_id":"SUDB","i_long":106.819881,"line":1},{"station_name":"Sudirman","is_transit":false,"time":1,"i_long":106.822649,"transit":false,"line":1,"distance":280,"i_lat":-6.202263,"station_id":"SUD"},{"line":2,"transit":false,"is_transit":false,"distance":3186,"station_name":"Manggarai","i_long":106.84912,"time":4,"i_lat":-6.209883,"station_id":"MRI"},{"distance":1275,"i_lat":-6.212485,"is_transit":false,"station_name":"Matraman","line":1,"station_id":"MTR","i_long":106.858896,"time":2,"transit":false}],[{"station_name":"Bekasi","line":1,"distance":0,"i_lat":-6.236616,"is_transit":false,"time":0,"i_long":106.997013,"station_id":"BKS","transit":false},{"station_id":"KRI","is_transit":false,"time":4,"transit":false,"station_name":"Kranji","distance":2520,"i_lat":-6.224515,"line":1,"i_long":106.977657},{"line":1,"i_lat":-6.219053,"i_long":106.951283,"time":3,"station_name":"Cakung","distance":3097,"station_id":"CUK","is_transit":false,"transit":false},{"transit":false,"distance":1385,"station_id":"KLDB","line":1,"i_lat":-6.217455,"time":8,"station_name":"Klenderbaru","i_long":106.939679,"is_transit":false},{"transit":false,"distance":1305,"line":1,"is_transit":false,"i_long":106.922662,"time":1,"station_id":"BUA","station_name":"Buaran","i_lat":-6.215568},{"line":1,"station_id":"KLD","i_lat":-6.2135,"station_name":"Klender","time":2,"distance":3100,"i_long":106.899548,"transit":false,"is_transit":false},{"is_transit":true,"distance":3395,"station_name":"Jatinegara","line":1,"transit":true,"station_id":"JNG","i_lat":-6.215091,"i_long":106.86807400000001,"time":3},{"i_lat":-6.209188,"transit":false,"i_long":106.861737,"time":2,"station_id":"POK","station_name":"Pondok Jati","is_transit":false,"distance":1236,"line":11},{"transit":false,"distance":1829,"is_transit":false,"station_id":"KMT","station_name":"Kramat","line":11,"time":2,"i_long":106.855437,"i_lat":-6.193792},{"transit":false,"line":11,"is_transit":false,"i_lat":-6.185975,"station_id":"GST","i_long":106.850107,"distance":973,"station_name":"Gang Sentiong","time":1},{"station_id":"PSE","distance":1567,"station_name":"Pasar Senen","time":8,"line":11,"i_lat":-6.174784,"i_long":106.84368,"transit":false,"is_transit":false},{"i_long":106.839204,"is_transit":false,"distance":1436,"line":11,"time":4,"station_name":"Kemayoran","transit":false,"i_lat":-6.161728,"station_id":"KMO"},{"station_name":"Rajawali","station_id":"RJW","i_long":106.836569,"line":11,"transit":false,"i_lat":-6.14505,"distance":1901,"is_transit":false,"time":5},{"transit":true,"time":3,"is_transit":true,"station_id":"KPB","i_lat":-6.132549,"i_long":106.826365,"line":4,"station_name":"Kampung Bandan","distance":1444},{"station_id":"JAKK","distance":1364,"i_long":106.812439,"line":2,"transit":true,"station_name":"Jakarta Kota","i_lat":-6.137569,"is_transit":true,"time":3},{"station_name":"Jayakarta","is_transit":false,"i_lat":-6.141205,"line":2,"distance":1264,"station_id":"JAY","time":4,"i_long":106.820901,"transit":false},{"i_lat":-6.149769,"distance":1080,"transit":false,"line":2,"i_long":106.82482,"station_name":"Manggabesar","time":2,"station_id":"MGB","is_transit":false},{"distance":906,"transit":false,"station_name":"Sawah Besar","i_lat":-6.160725,"i_long":106.827103,"line":2,"time":2,"station_id":"SW","is_transit":false},{"i_lat":-6.166716,"distance":1149,"is_transit":false,"line":2,"i_long":106.828284,"station_name":"Juanda","transit":false,"time":2,"station_id":"JUA"},{"is_transit":false,"distance":2015,"i_lat":-6.186295,"i_long":106.832183,"station_id":"GDD","line":2,"transit":false,"time":4,"station_name":"Gondangdia"},{"station_name":"Cikini","i_lat":-6.198556,"i_long":106.840169,"line":2,"station_id":"CKI","transit":false,"is_transit":false,"time":3,"distance":1750},{"station_id":"MRI","is_transit":true,"i_lat":-6.209883,"transit":true,"station_name":"Manggarai","distance":1590,"i_long":106.84912,"time":4,"line":2},{"station_id":"MTR","is_transit":false,"station_name":"Matraman","line":1,"distance":1275,"i_lat":-6.212485,"i_long":106.858896,"transit":false,"time":2}]]}