{"data":[[{"station_id":"BKS","line":1,"i_long":106.997013,"distance":0,"i_lat":-6.236616,"transit":false,"time":0,"station_name":"Bekasi","is_transit":false},{"station_id":"KRI","station_name":"Kranji","transit":false,"is_transit":false,"time":4,"distance":2520,"i_lat":-6.224515,"line":1,"i_long":106.977657},{"line":1,"transit":false,"station_id":"CUK","time":3,"i_lat":-6.219053,"station_name":"Cakung","i_long":106.951283,"distance":3097,"is_transit":false},{"is_transit":false,"distance":1385,"i_long":106.939679,"transit":false,"line":1,"station_name":"Klenderbaru","station_id":"KLDB","i_lat":-6.217455,"time":8},{"distance":1305,"station_name":"Buaran","station_id":"BUA","line":1,"transit":false,"time":1,"is_transit":false,"i_lat":-6.215568,"i_long":106.922662}]]}