{"data":[[{"transit":false,"is_transit":false,"i_long":106.997013,"line":0,"station_name":"Bekasi","i_lat":-6.236616,"distance":0,"time":0,"station_id":"BKS"},{"i_lat":-6.224515,"time":4,"line":1,"distance":2520,"i_long":106.977657,"is_transit":false,"station_name":"Kranji","transit":false,"station_id":"KRI"},{"i_lat":-6.219053,"i_long":106.951283,"station_id":"CUK","time":3,"distance":3097,"transit":false,"is_transit":false,"station_name":"Cakung","line":0},{"i_long":106.939679,"is_transit":false,"station_name":"Klenderbaru","line":1,"station_id":"KLDB","distance":1385,"i_lat":-6.217455,"time":8,"transit":false},{"distance":1305,"transit":false,"station_id":"BUA","i_lat":-6.215568,"time":1,"i_long":106.922662,"line":0,"is_transit":false,"station_name":"Buaran"},{"time":2,"i_lat":-6.2135,"i_long":106.899548,"line":1,"station_name":"Klender","distance":3100,"transit":false,"station_id":"KLD","is_transit":false},{"is_transit":true,"transit":false,"time":3,"distance":3395,"station_id":"JNG","station_name":"Jatinegara","i_lat":-6.215091,"line":0,"i_long":106.86807400000001},{"time":2,"i_lat":-6.212485,"is_transit":false,"i_long":106.858896,"station_id":"MTR","line":1,"transit":false,"distance":1377,"station_name":"Matraman"},{"is_transit":true,"distance":1275,"time":2,"line":0,"station_id":"MRI","i_long":106.84912,"station_name":"Manggarai","i_lat":-6.209883,"transit":true},{"time":4,"transit":false,"station_name":"Tebet","distance":2610,"line":2,"i_lat":-6.226659,"station_id":"TEB","is_transit":false,"i_long":106.857948},{"station_id":"CW","i_long":106.856607,"is_transit":false,"station_name":"Cawang","time":2,"line":0,"i_lat":-6.242512,"transit":false,"distance":1230},{"transit":false,"station_name":"Duren Kalibata","time":3,"i_long":106.85449,"i_lat":-6.255332,"is_transit":false,"distance":1546,"station_id":"DRN","line":0},{"time":2,"i_lat":-6.263214,"station_name":"Pasar Minggu Baru","i_long":106.851577,"line":2,"distance":824,"station_id":"PSMB","transit":false,"is_transit":false},{"station_id":"PSM","station_name":"Pasar Minggu","is_transit":false,"transit":false,"time":2,"i_long":106.843999,"i_lat":-6.2842400000000005,"line":2,"distance":2380},{"distance":2820,"station_name":"Tanjung Barat","i_long":106.838896,"station_id":"TNT","is_transit":false,"line":2,"transit":false,"time":4,"i_lat":-6.3080680000000005},{"i_long":106.832616,"is_transit":false,"time":3,"station_id":"LNA","transit":false,"distance":2671,"i_lat":-6.330363,"station_name":"Lenteng Agung","line":2},{"station_id":"UP","distance":1029,"time":2,"station_name":"Univ. Pancasila","i_long":106.834175,"is_transit":false,"line":2,"transit":false,"i_lat":-6.339291},{"line":2,"transit":false,"is_transit":false,"i_lat":-6.360749,"i_long":106.831474,"distance":2264,"time":3,"station_id":"UI","station_name":"Univ. Indonesia"},{"station_name":"Pondok Cina","time":2,"i_lat":-6.369073,"i_long":106.831114,"line":2,"transit":false,"station_id":"POC","is_transit":false,"distance":1109},{"transit":false,"time":4,"i_lat":-6.391065,"line":0,"is_transit":false,"distance":2727,"station_name":"Depokbaru","i_long":106.819451,"station_id":"DPB"},{"time":3,"transit":false,"line":0,"station_name":"Depok","i_lat":-6.405256,"is_transit":false,"i_long":106.816926,"station_id":"DP","distance":1584},{"i_long":106.800298,"is_transit":true,"transit":false,"distance":5084,"station_id":"CTA","station_name":"Citayam","line":1,"time":6,"i_lat":-6.448811},{"time":10,"station_id":"CBN","station_name":"Cibinong","transit":false,"i_long":106.851978,"distance":6740,"line":0,"is_transit":false,"i_lat":-6.46424},{"transit":false,"i_long":106.905196,"i_lat":-6.466285,"time":10,"distance":6527,"is_transit":false,"line":21,"station_name":"Nambo","station_id":"NMO"}],[{"time":0,"distance":0,"station_id":"BKS","station_name":"Bekasi","is_transit":false,"transit":false,"line":0,"i_lat":-6.236616,"i_long":106.997013},{"station_name":"Kranji","distance":2520,"time":4,"station_id":"KRI","is_transit":false,"i_lat":-6.224515,"transit":false,"i_long":106.977657,"line":1},{"station_name":"Cakung","distance":3097,"i_lat":-6.219053,"line":0,"is_transit":false,"transit":false,"station_id":"CUK","i_long":106.951283,"time":3},{"station_name":"Klenderbaru","i_long":106.939679,"is_transit":false,"distance":1385,"station_id":"KLDB","transit":false,"time":8,"i_lat":-6.217455,"line":1},{"station_id":"BUA","transit":false,"time":1,"i_lat":-6.215568,"line":0,"station_name":"Buaran","distance":1305,"is_transit":false,"i_long":106.922662},{"is_transit":false,"station_id":"KLD","i_lat":-6.2135,"station_name":"Klender","line":1,"i_long":106.899548,"distance":3100,"time":2,"transit":false},{"is_transit":true,"i_lat":-6.215091,"distance":3395,"station_name":"Jatinegara","line":0,"i_long":106.86807400000001,"station_id":"JNG","transit":true,"time":3},{"is_transit":false,"i_lat":-6.209188,"station_name":"Pondok Jati","line":11,"transit":false,"station_id":"POK","time":2,"distance":1236,"i_long":106.861737},{"station_id":"KMT","i_long":106.855437,"line":11,"is_transit":false,"i_lat":-6.193792,"time":2,"distance":1829,"station_name":"Kramat","transit":false},{"is_transit":false,"time":1,"station_id":"GST","i_long":106.850107,"line":11,"distance":973,"station_name":"Gang Sentiong","i_lat":-6.185975,"transit":false},{"i_long":106.84368,"i_lat":-6.174784,"transit":false,"line":11,"station_id":"PSE","time":8,"station_name":"Pasar Senen","distance":1567,"is_transit":false},{"line":11,"station_id":"KMO","i_lat":-6.161728,"i_long":106.839204,"station_name":"Kemayoran","is_transit":false,"distance":1436,"time":4,"transit":false},{"station_name":"Rajawali","i_long":106.836569,"is_transit":false,"i_lat":-6.14505,"line":11,"transit":false,"station_id":"RJW","distance":1901,"time":5},{"distance":1444,"i_lat":-6.132549,"time":3,"station_name":"Kampung Bandan","transit":true,"i_long":106.826365,"is_transit":true,"line":0,"station_id":"KPB"},{"transit":false,"is_transit":false,"line":0,"station_id":"AK","i_lat":-6.144674,"distance":4102,"time":9,"station_name":"Angke","i_long":106.79867},{"transit":true,"station_name":"Duri","is_transit":true,"i_lat":-6.155215,"distance":1230,"i_long":106.800832,"line":1,"station_id":"DU","time":4},{"i_lat":-6.185545,"transit":false,"time":8,"line":1,"distance":3632,"station_id":"THB","station_name":"Tanah Abang","is_transit":true,"i_long":106.811091},{"station_id":"KAT","station_name":"Karet","i_lat":-6.20132,"line":1,"is_transit":false,"time":5,"distance":2029,"transit":false,"i_long":106.816351},{"line":1,"station_id":"SUDB","time":1,"is_transit":false,"transit":false,"distance":471,"station_name":"Sudirman Baru","i_long":106.819881,"i_lat":-6.201433},{"is_transit":false,"line":1,"time":1,"i_lat":-6.202263,"transit":false,"i_long":106.822649,"station_name":"Sudirman","station_id":"SUD","distance":280},{"transit":true,"time":4,"station_id":"MRI","station_name":"Manggarai","is_transit":true,"i_lat":-6.209883,"distance":3186,"line":0,"i_long":106.84912},{"transit":false,"i_lat":-6.226659,"station_name":"Tebet","is_transit":false,"line":2,"time":4,"station_id":"TEB","i_long":106.857948,"distance":2610},{"station_name":"Cawang","distance":1230,"is_transit":false,"i_long":106.856607,"station_id":"CW","i_lat":-6.242512,"time":2,"line":0,"transit":false},{"time":3,"i_long":106.85449,"i_lat":-6.255332,"station_id":"DRN","line":0,"station_name":"Duren Kalibata","distance":1546,"is_transit":false,"transit":false},{"distance":824,"transit":false,"station_id":"PSMB","station_name":"Pasar Minggu Baru","i_lat":-6.263214,"is_transit":false,"i_long":106.851577,"line":2,"time":2},{"line":2,"station_id":"PSM","station_name":"Pasar Minggu","distance":2380,"transit":false,"is_transit":false,"time":2,"i_lat":-6.2842400000000005,"i_long":106.843999},{"transit":false,"distance":2820,"i_long":106.838896,"i_lat":-6.3080680000000005,"line":2,"time":4,"is_transit":false,"station_name":"Tanjung Barat","station_id":"TNT"},{"i_long":106.832616,"distance":2671,"line":2,"time":3,"i_lat":-6.330363,"station_id":"LNA","transit":false,"is_transit":false,"station_name":"Lenteng Agung"},{"i_lat":-6.339291,"time":2,"is_transit":false,"transit":false,"station_id":"UP","station_name":"Univ. Pancasila","distance":1029,"line":2,"i_long":106.834175},{"i_long":106.831474,"line":2,"time":3,"transit":false,"station_id":"UI","station_name":"Univ. Indonesia","distance":2264,"is_transit":false,"i_lat":-6.360749},{"distance":1109,"line":2,"station_name":"Pondok Cina","time":2,"i_lat":-6.369073,"is_transit":false,"transit":false,"i_long":106.831114,"station_id":"POC"},{"distance":2727,"is_transit":false,"time":4,"i_lat":-6.391065,"line":0,"transit":false,"station_id":"DPB","i_long":106.819451,"station_name":"Depokbaru"},{"i_lat":-6.405256,"distance":1584,"station_name":"Depok","transit":false,"line":0,"is_transit":false,"station_id":"DP","time":3,"i_long":106.816926},{"time":6,"i_long":106.800298,"transit":false,"station_name":"Citayam","i_lat":-6.448811,"station_id":"CTA","distance":5084,"is_transit":true,"line":1},{"station_id":"CBN","line":0,"station_name":"Cibinong","i_lat":-6.46424,"i_long":106.851978,"distance":6740,"transit":false,"time":10,"is_transit":false},{"station_id":"NMO","time":10,"station_name":"Nambo","transit":false,"is_transit":false,"i_lat":-6.466285,"i_long":106.905196,"line":21,"distance":6527}],[{"time":0,"station_id":"BKS","station_name":"Bekasi","i_long":106.997013,"distance":0,"transit":false,"is_transit":false,"i_lat":-6.236616,"line":0},{"is_transit":false,"station_name":"Kranji","i_lat":-6.224515,"i_long":106.977657,"line":1,"time":4,"distance":2520,"station_id":"KRI","transit":false},{"line":0,"station_id":"CUK","is_transit":false,"i_lat":-6.219053,"distance":3097,"station_name":"Cakung","transit":false,"time":3,"i_long":106.951283},{"time":8,"distance":1385,"station_id":"KLDB","station_name":"Klenderbaru","i_lat":-6.217455,"transit":false,"i_long":106.939679,"is_transit":false,"line":1},{"transit":false,"station_name":"Buaran","i_long":106.922662,"station_id":"BUA","line":0,"is_transit":false,"time":1,"distance":1305,"i_lat":-6.215568},{"station_id":"KLD","i_lat":-6.2135,"station_name":"Klender","time":2,"is_transit":false,"line":1,"i_long":106.899548,"transit":false,"distance":3100},{"line":0,"distance":3395,"i_long":106.86807400000001,"transit":true,"station_name":"Jatinegara","is_transit":true,"i_lat":-6.215091,"station_id":"JNG","time":3},{"station_name":"Pondok Jati","line":11,"transit":false,"station_id":"POK","distance":1236,"is_transit":false,"i_lat":-6.209188,"i_long":106.861737,"time":2},{"i_long":106.855437,"line":11,"station_id":"KMT","transit":false,"is_transit":false,"time":2,"station_name":"Kramat","distance":1829,"i_lat":-6.193792},{"time":1,"station_id":"GST","station_name":"Gang Sentiong","is_transit":false,"i_lat":-6.185975,"i_long":106.850107,"line":11,"distance":973,"transit":false},{"station_id":"PSE","is_transit":false,"station_name":"Pasar Senen","transit":false,"line":11,"i_lat":-6.174784,"i_long":106.84368,"time":8,"distance":1567},{"i_lat":-6.161728,"line":11,"time":4,"distance":1436,"is_transit":false,"i_long":106.839204,"transit":false,"station_name":"Kemayoran","station_id":"KMO"},{"station_name":"Rajawali","i_lat":-6.14505,"distance":1901,"station_id":"RJW","time":5,"line":11,"transit":false,"i_long":106.836569,"is_transit":false},{"is_transit":true,"line":0,"transit":true,"time":3,"i_lat":-6.132549,"distance":1444,"i_long":106.826365,"station_name":"Kampung Bandan","station_id":"KPB"},{"station_name":"Jakarta Kota","station_id":"JAKK","i_lat":-6.137569,"line":0,"transit":true,"is_transit":true,"i_long":106.812439,"time":3,"distance":1364},{"distance":1264,"is_transit":false,"time":4,"i_lat":-6.141205,"station_name":"Jayakarta","station_id":"JAY","transit":false,"line":7,"i_long":106.820901},{"transit":false,"distance":1080,"i_long":106.82482,"is_transit":false,"i_lat":-6.149769,"time":2,"station_id":"MGB","line":2,"station_name":"Manggabesar"},{"line":2,"distance":906,"i_lat":-6.160725,"is_transit":false,"i_long":106.827103,"transit":false,"station_id":"SW","station_name":"Sawah Besar","time":2},{"i_lat":-6.166716,"distance":1149,"transit":false,"line":2,"station_id":"JUA","is_transit":false,"time":2,"station_name":"Juanda","i_long":106.828284},{"i_long":106.832183,"line":2,"time":4,"transit":false,"is_transit":false,"station_name":"Gondangdia","station_id":"GDD","distance":2015,"i_lat":-6.186295},{"i_long":106.840169,"i_lat":-6.198556,"line":0,"station_name":"Cikini","time":3,"station_id":"CKI","distance":1750,"transit":false,"is_transit":false},{"i_long":106.84912,"distance":1590,"i_lat":-6.209883,"is_transit":true,"line":0,"time":4,"station_id":"MRI","station_name":"Manggarai","transit":true},{"station_id":"TEB","transit":false,"time":4,"line":2,"i_long":106.857948,"distance":2610,"is_transit":false,"i_lat":-6.226659,"station_name":"Tebet"},{"time":2,"line":0,"station_name":"Cawang","is_transit":false,"distance":1230,"station_id":"CW","transit":false,"i_lat":-6.242512,"i_long":106.856607},{"time":3,"i_lat":-6.255332,"distance":1546,"station_id":"DRN","is_transit":false,"i_long":106.85449,"line":0,"station_name":"Duren Kalibata","transit":false},{"i_long":106.851577,"is_transit":false,"station_name":"Pasar Minggu Baru","station_id":"PSMB","line":2,"i_lat":-6.263214,"transit":false,"time":2,"distance":824},{"i_long":106.843999,"transit":false,"is_transit":false,"distance":2380,"station_id":"PSM","time":2,"i_lat":-6.2842400000000005,"line":2,"station_name":"Pasar Minggu"},{"distance":2820,"transit":false,"i_lat":-6.3080680000000005,"time":4,"i_long":106.838896,"is_transit":false,"station_id":"TNT","station_name":"Tanjung Barat","line":2},{"i_lat":-6.330363,"station_id":"LNA","line":2,"distance":2671,"i_long":106.832616,"transit":false,"is_transit":false,"time":3,"station_name":"Lenteng Agung"},{"transit":false,"i_lat":-6.339291,"i_long":106.834175,"station_name":"Univ. Pancasila","is_transit":false,"line":2,"station_id":"UP","time":2,"distance":1029},{"transit":false,"is_transit":false,"i_lat":-6.360749,"i_long":106.831474,"line":2,"station_id":"UI","time":3,"distance":2264,"station_name":"Univ. Indonesia"},{"distance":1109,"i_lat":-6.369073,"station_name":"Pondok Cina","line":2,"transit":false,"station_id":"POC","is_transit":false,"i_long":106.831114,"time":2},{"transit":false,"distance":2727,"station_id":"DPB","is_transit":false,"time":4,"i_lat":-6.391065,"i_long":106.819451,"station_name":"Depokbaru","line":0},{"i_long":106.816926,"transit":false,"time":3,"i_lat":-6.405256,"line":0,"is_transit":false,"distance":1584,"station_id":"DP","station_name":"Depok"},{"i_long":106.800298,"is_transit":true,"line":1,"station_id":"CTA","transit":false,"time":6,"station_name":"Citayam","i_lat":-6.448811,"distance":5084},{"is_transit":false,"time":10,"distance":6740,"transit":false,"line":0,"station_name":"Cibinong","i_lat":-6.46424,"i_long":106.851978,"station_id":"CBN"},{"time":10,"distance":6527,"is_transit":false,"station_id":"NMO","i_lat":-6.466285,"i_long":106.905196,"line":21,"station_name":"Nambo","transit":false}]]}