{"data":[[{"time":0,"distance":0,"is_transit":false,"station_name":"Bekasi","i_long":106.997013,"line":1,"transit":false,"station_id":"BKS","i_lat":-6.236616},{"is_transit":false,"i_lat":-6.224515,"station_id":"KRI","line":1,"transit":false,"time":4,"i_long":106.977657,"station_name":"Kranji","distance":2520},{"distance":3097,"transit":false,"line":1,"station_id":"CUK","is_transit":false,"station_name":"Cakung","i_lat":-6.219053,"time":3,"i_long":106.951283},{"station_id":"KLDB","time":8,"i_long":106.939679,"line":1,"station_name":"Klenderbaru","i_lat":-6.217455,"distance":1385,"transit":false,"is_transit":false},{"line":1,"time":1,"transit":false,"station_name":"Buaran","i_lat":-6.215568,"station_id":"BUA","distance":1305,"is_transit":false,"i_long":106.922662},{"line":1,"transit":false,"time":2,"station_name":"Klender","i_long":106.899548,"station_id":"KLD","is_transit":false,"i_lat":-6.2135,"distance":3100},{"line":1,"i_lat":-6.215091,"station_name":"Jatinegara","time":3,"distance":3395,"i_long":106.86807400000001,"station_id":"JNG","is_transit":false,"transit":false},{"distance":1377,"station_name":"Matraman","station_id":"MTR","transit":false,"i_long":106.858896,"i_lat":-6.212485,"line":1,"is_transit":false,"time":2},{"time":2,"i_long":106.84912,"station_id":"MRI","i_lat":-6.209883,"line":2,"is_transit":true,"station_name":"Manggarai","transit":true,"distance":1275},{"station_id":"TEB","station_name":"Tebet","is_transit":false,"line":2,"distance":2610,"i_long":106.857948,"time":4,"i_lat":-6.226659,"transit":false},{"line":2,"transit":false,"i_long":106.856607,"station_id":"CW","station_name":"Cawang","distance":1230,"is_transit":false,"time":2,"i_lat":-6.242512},{"station_name":"Duren Kalibata","i_long":106.85449,"station_id":"DRN","line":2,"distance":1546,"time":3,"is_transit":false,"i_lat":-6.255332,"transit":false},{"transit":false,"is_transit":false,"i_lat":-6.263214,"distance":824,"time":2,"i_long":106.851577,"station_id":"PSMB","line":2,"station_name":"Pasar Minggu Baru"},{"i_long":106.843999,"line":2,"time":2,"i_lat":-6.2842400000000005,"transit":false,"is_transit":false,"station_name":"Pasar Minggu","station_id":"PSM","distance":2380},{"i_long":106.838896,"transit":false,"station_id":"TNT","time":4,"is_transit":false,"i_lat":-6.3080680000000005,"line":2,"station_name":"Tanjung Barat","distance":2820},{"line":2,"time":3,"station_id":"LNA","station_name":"Lenteng Agung","i_lat":-6.330363,"i_long":106.832616,"is_transit":false,"transit":false,"distance":2671},{"distance":1029,"i_lat":-6.339291,"i_long":106.834175,"line":2,"station_name":"Univ. Pancasila","station_id":"UP","transit":false,"is_transit":false,"time":2},{"i_long":106.831474,"station_name":"Univ. Indonesia","station_id":"UI","line":2,"transit":false,"is_transit":false,"i_lat":-6.360749,"time":3,"distance":2264}],[{"is_transit":false,"distance":0,"transit":false,"i_lat":-6.236616,"i_long":106.997013,"line":1,"time":0,"station_id":"BKS","station_name":"Bekasi"},{"time":4,"station_id":"KRI","is_transit":false,"line":1,"i_lat":-6.224515,"i_long":106.977657,"transit":false,"distance":2520,"station_name":"Kranji"},{"transit":false,"line":1,"time":3,"i_lat":-6.219053,"station_name":"Cakung","i_long":106.951283,"distance":3097,"station_id":"CUK","is_transit":false},{"i_long":106.939679,"is_transit":false,"distance":1385,"i_lat":-6.217455,"station_id":"KLDB","line":1,"transit":false,"time":8,"station_name":"Klenderbaru"},{"transit":false,"station_id":"BUA","time":1,"line":1,"is_transit":false,"distance":1305,"i_long":106.922662,"station_name":"Buaran","i_lat":-6.215568},{"station_name":"Klender","time":2,"station_id":"KLD","distance":3100,"transit":false,"i_long":106.899548,"i_lat":-6.2135,"line":1,"is_transit":false},{"station_name":"Jatinegara","i_long":106.86807400000001,"transit":true,"i_lat":-6.215091,"line":1,"time":3,"is_transit":true,"distance":3395,"station_id":"JNG"},{"i_long":106.861737,"station_name":"Pondok Jati","distance":1236,"time":2,"i_lat":-6.209188,"line":11,"station_id":"POK","is_transit":false,"transit":false},{"distance":1829,"transit":false,"time":2,"station_name":"Kramat","i_lat":-6.193792,"i_long":106.855437,"line":11,"station_id":"KMT","is_transit":false},{"station_id":"GST","time":1,"is_transit":false,"i_lat":-6.185975,"line":11,"transit":false,"station_name":"Gang Sentiong","distance":973,"i_long":106.850107},{"line":11,"i_lat":-6.174784,"is_transit":false,"distance":1567,"i_long":106.84368,"transit":false,"station_name":"Pasar Senen","station_id":"PSE","time":8},{"station_name":"Kemayoran","station_id":"KMO","time":4,"line":11,"i_long":106.839204,"is_transit":false,"distance":1436,"i_lat":-6.161728,"transit":false},{"time":5,"station_name":"Rajawali","is_transit":false,"i_long":106.836569,"line":11,"station_id":"RJW","distance":1901,"i_lat":-6.14505,"transit":false},{"station_id":"KPB","transit":true,"is_transit":true,"i_lat":-6.132549,"i_long":106.826365,"line":4,"distance":1444,"station_name":"Kampung Bandan","time":3},{"is_transit":false,"transit":false,"time":9,"i_lat":-6.144674,"i_long":106.79867,"line":1,"distance":4102,"station_name":"Angke","station_id":"AK"},{"distance":1230,"station_id":"DU","time":4,"i_lat":-6.155215,"line":1,"transit":false,"i_long":106.800832,"station_name":"Duri","is_transit":false},{"i_lat":-6.185545,"transit":false,"station_id":"THB","station_name":"Tanah Abang","time":8,"distance":3632,"i_long":106.811091,"is_transit":false,"line":1},{"station_name":"Karet","distance":2029,"i_long":106.816351,"line":1,"is_transit":false,"time":5,"transit":false,"i_lat":-6.20132,"station_id":"KAT"},{"i_lat":-6.201433,"distance":471,"is_transit":false,"station_name":"Sudirman Baru","line":1,"station_id":"SUDB","i_long":106.819881,"transit":false,"time":1},{"station_name":"Sudirman","time":1,"station_id":"SUD","transit":false,"line":1,"is_transit":false,"distance":280,"i_lat":-6.202263,"i_long":106.822649},{"transit":true,"is_transit":true,"time":4,"i_lat":-6.209883,"line":2,"i_long":106.84912,"station_id":"MRI","station_name":"Manggarai","distance":3186},{"is_transit":false,"station_id":"TEB","distance":2610,"i_lat":-6.226659,"transit":false,"station_name":"Tebet","time":4,"line":2,"i_long":106.857948},{"i_long":106.856607,"line":2,"transit":false,"station_id":"CW","is_transit":false,"time":2,"station_name":"Cawang","i_lat":-6.242512,"distance":1230},{"is_transit":false,"distance":1546,"i_long":106.85449,"time":3,"line":2,"station_name":"Duren Kalibata","station_id":"DRN","transit":false,"i_lat":-6.255332},{"i_lat":-6.263214,"distance":824,"time":2,"station_name":"Pasar Minggu Baru","i_long":106.851577,"line":2,"is_transit":false,"transit":false,"station_id":"PSMB"},{"transit":false,"line":2,"distance":2380,"time":2,"station_name":"Pasar Minggu","i_lat":-6.2842400000000005,"is_transit":false,"station_id":"PSM","i_long":106.843999},{"station_id":"TNT","i_long":106.838896,"line":2,"i_lat":-6.3080680000000005,"transit":false,"station_name":"Tanjung Barat","is_transit":false,"time":4,"distance":2820},{"distance":2671,"transit":false,"is_transit":false,"i_lat":-6.330363,"i_long":106.832616,"line":2,"time":3,"station_name":"Lenteng Agung","station_id":"LNA"},{"station_id":"UP","time":2,"distance":1029,"i_long":106.834175,"is_transit":false,"i_lat":-6.339291,"station_name":"Univ. Pancasila","line":2,"transit":false},{"station_id":"UI","is_transit":false,"transit":false,"line":2,"time":3,"i_long":106.831474,"i_lat":-6.360749,"station_name":"Univ. Indonesia","distance":2264}],[{"i_long":106.997013,"station_id":"BKS","is_transit":false,"transit":false,"station_name":"Bekasi","distance":0,"line":1,"time":0,"i_lat":-6.236616},{"i_long":106.977657,"line":1,"transit":false,"station_name":"Kranji","is_transit":false,"time":4,"distance":2520,"i_lat":-6.224515,"station_id":"KRI"},{"is_transit":false,"transit":false,"i_lat":-6.219053,"i_long":106.951283,"station_id":"CUK","station_name":"Cakung","time":3,"line":1,"distance":3097},{"station_id":"KLDB","is_transit":false,"i_long":106.939679,"line":1,"distance":1385,"station_name":"Klenderbaru","time":8,"transit":false,"i_lat":-6.217455},{"time":1,"station_id":"BUA","line":1,"i_long":106.922662,"station_name":"Buaran","i_lat":-6.215568,"distance":1305,"transit":false,"is_transit":false},{"transit":false,"i_lat":-6.2135,"station_name":"Klender","time":2,"i_long":106.899548,"distance":3100,"line":1,"is_transit":false,"station_id":"KLD"},{"i_long":106.86807400000001,"time":3,"station_id":"JNG","distance":3395,"i_lat":-6.215091,"line":1,"station_name":"Jatinegara","transit":true,"is_transit":true},{"distance":1236,"is_transit":false,"transit":false,"i_lat":-6.209188,"station_name":"Pondok Jati","station_id":"POK","time":2,"i_long":106.861737,"line":11},{"transit":false,"time":2,"distance":1829,"station_id":"KMT","station_name":"Kramat","i_long":106.855437,"i_lat":-6.193792,"line":11,"is_transit":false},{"is_transit":false,"transit":false,"station_id":"GST","time":1,"i_lat":-6.185975,"i_long":106.850107,"distance":973,"line":11,"station_name":"Gang Sentiong"},{"station_id":"PSE","station_name":"Pasar Senen","time":8,"distance":1567,"i_lat":-6.174784,"is_transit":false,"i_long":106.84368,"line":11,"transit":false},{"transit":false,"station_id":"KMO","is_transit":false,"time":4,"distance":1436,"station_name":"Kemayoran","i_lat":-6.161728,"i_long":106.839204,"line":11},{"line":11,"i_lat":-6.14505,"i_long":106.836569,"transit":false,"distance":1901,"station_name":"Rajawali","station_id":"RJW","is_transit":false,"time":5},{"is_transit":true,"line":4,"i_long":106.826365,"i_lat":-6.132549,"station_id":"KPB","transit":true,"distance":1444,"station_name":"Kampung Bandan","time":3},{"is_transit":true,"distance":1364,"i_lat":-6.137569,"i_long":106.812439,"time":3,"line":2,"transit":true,"station_id":"JAKK","station_name":"Jakarta Kota"},{"station_name":"Jayakarta","transit":false,"time":4,"line":2,"i_long":106.820901,"is_transit":false,"i_lat":-6.141205,"station_id":"JAY","distance":1264},{"station_id":"MGB","is_transit":false,"transit":false,"i_lat":-6.149769,"station_name":"Manggabesar","distance":1080,"time":2,"i_long":106.82482,"line":2},{"distance":906,"transit":false,"time":2,"station_id":"SW","is_transit":false,"line":2,"i_lat":-6.160725,"station_name":"Sawah Besar","i_long":106.827103},{"time":2,"station_name":"Juanda","is_transit":false,"transit":false,"station_id":"JUA","distance":1149,"i_long":106.828284,"i_lat":-6.166716,"line":2},{"station_name":"Gondangdia","transit":false,"is_transit":false,"distance":2015,"i_long":106.832183,"line":2,"station_id":"GDD","time":4,"i_lat":-6.186295},{"distance":1750,"station_id":"CKI","is_transit":false,"i_lat":-6.198556,"time":3,"i_long":106.840169,"station_name":"Cikini","transit":false,"line":2},{"transit":false,"is_transit":false,"i_lat":-6.209883,"station_name":"Manggarai","time":4,"line":2,"distance":1590,"station_id":"MRI","i_long":106.84912},{"station_name":"Tebet","time":4,"i_lat":-6.226659,"i_long":106.857948,"line":2,"distance":2610,"station_id":"TEB","is_transit":false,"transit":false},{"line":2,"time":2,"i_long":106.856607,"station_name":"Cawang","distance":1230,"transit":false,"i_lat":-6.242512,"is_transit":false,"station_id":"CW"},{"station_id":"DRN","line":2,"time":3,"i_long":106.85449,"is_transit":false,"distance":1546,"transit":false,"station_name":"Duren Kalibata","i_lat":-6.255332},{"distance":824,"i_lat":-6.263214,"transit":false,"line":2,"is_transit":false,"station_id":"PSMB","time":2,"i_long":106.851577,"station_name":"Pasar Minggu Baru"},{"distance":2380,"time":2,"station_name":"Pasar Minggu","line":2,"transit":false,"station_id":"PSM","is_transit":false,"i_lat":-6.2842400000000005,"i_long":106.843999},{"transit":false,"line":2,"distance":2820,"time":4,"station_name":"Tanjung Barat","station_id":"TNT","i_lat":-6.3080680000000005,"i_long":106.838896,"is_transit":false},{"distance":2671,"time":3,"station_name":"Lenteng Agung","line":2,"station_id":"LNA","transit":false,"i_lat":-6.330363,"i_long":106.832616,"is_transit":false},{"line":2,"station_name":"Univ. Pancasila","transit":false,"time":2,"distance":1029,"station_id":"UP","is_transit":false,"i_long":106.834175,"i_lat":-6.339291},{"time":3,"distance":2264,"station_name":"Univ. Indonesia","i_long":106.831474,"line":2,"transit":false,"station_id":"UI","is_transit":false,"i_lat":-6.360749}]]}