{"data":[[{"is_transit":false,"i_lat":-6.236616,"time":0,"station_name":"Bekasi","i_long":106.997013,"distance":0,"station_id":"BKS","line":0,"transit":false},{"transit":false,"line":1,"is_transit":false,"distance":2520,"i_lat":-6.224515,"i_long":106.977657,"station_id":"KRI","time":4,"station_name":"Kranji"},{"is_transit":false,"line":0,"i_long":106.951283,"distance":3097,"i_lat":-6.219053,"time":3,"station_id":"CUK","station_name":"Cakung","transit":false},{"station_name":"Klenderbaru","i_lat":-6.217455,"i_long":106.939679,"station_id":"KLDB","is_transit":false,"distance":1385,"line":1,"time":8,"transit":false},{"station_id":"BUA","transit":false,"i_lat":-6.215568,"i_long":106.922662,"is_transit":false,"line":0,"time":1,"station_name":"Buaran","distance":1305},{"i_lat":-6.2135,"distance":3100,"i_long":106.899548,"station_name":"Klender","station_id":"KLD","time":2,"is_transit":false,"transit":false,"line":1},{"distance":3395,"i_lat":-6.215091,"station_id":"JNG","line":0,"is_transit":true,"station_name":"Jatinegara","time":3,"transit":false,"i_long":106.86807400000001},{"line":1,"is_transit":false,"distance":1377,"station_id":"MTR","time":2,"i_long":106.858896,"i_lat":-6.212485,"station_name":"Matraman","transit":false}],[{"station_name":"Bekasi","station_id":"BKS","transit":false,"is_transit":false,"i_lat":-6.236616,"i_long":106.997013,"time":0,"distance":0,"line":0},{"i_lat":-6.224515,"distance":2520,"transit":false,"time":4,"line":1,"is_transit":false,"i_long":106.977657,"station_id":"KRI","station_name":"Kranji"},{"line":0,"time":3,"distance":3097,"station_id":"CUK","i_lat":-6.219053,"transit":false,"is_transit":false,"station_name":"Cakung","i_long":106.951283},{"time":8,"station_id":"KLDB","station_name":"Klenderbaru","distance":1385,"line":1,"is_transit":false,"transit":false,"i_long":106.939679,"i_lat":-6.217455},{"is_transit":false,"line":0,"distance":1305,"i_long":106.922662,"i_lat":-6.215568,"station_name":"Buaran","transit":false,"station_id":"BUA","time":1},{"i_long":106.899548,"station_name":"Klender","i_lat":-6.2135,"time":2,"transit":false,"distance":3100,"station_id":"KLD","line":1,"is_transit":false},{"distance":3395,"time":3,"station_id":"JNG","i_long":106.86807400000001,"is_transit":true,"i_lat":-6.215091,"line":0,"station_name":"Jatinegara","transit":true},{"is_transit":false,"i_lat":-6.209188,"i_long":106.861737,"station_name":"Pondok Jati","station_id":"POK","line":11,"transit":false,"distance":1236,"time":2},{"i_long":106.855437,"station_name":"Kramat","station_id":"KMT","is_transit":false,"time":2,"distance":1829,"transit":false,"i_lat":-6.193792,"line":11},{"line":11,"station_name":"Gang Sentiong","station_id":"GST","transit":false,"time":1,"distance":973,"i_long":106.850107,"is_transit":false,"i_lat":-6.185975},{"line":11,"distance":1567,"transit":false,"i_long":106.84368,"station_id":"PSE","time":8,"i_lat":-6.174784,"is_transit":false,"station_name":"Pasar Senen"},{"station_name":"Kemayoran","line":11,"distance":1436,"i_long":106.839204,"station_id":"KMO","time":4,"i_lat":-6.161728,"transit":false,"is_transit":false},{"distance":1901,"time":5,"i_lat":-6.14505,"is_transit":false,"station_name":"Rajawali","line":11,"station_id":"RJW","i_long":106.836569,"transit":false},{"station_name":"Kampung Bandan","line":0,"station_id":"KPB","time":3,"i_long":106.826365,"transit":true,"i_lat":-6.132549,"is_transit":true,"distance":1444},{"distance":4102,"time":9,"station_name":"Angke","is_transit":false,"i_long":106.79867,"line":0,"station_id":"AK","transit":false,"i_lat":-6.144674},{"station_name":"Duri","transit":true,"station_id":"DU","is_transit":true,"time":4,"i_lat":-6.155215,"i_long":106.800832,"line":1,"distance":1230},{"station_id":"THB","is_transit":true,"time":8,"line":1,"i_lat":-6.185545,"transit":false,"station_name":"Tanah Abang","distance":3632,"i_long":106.811091},{"station_name":"Karet","i_lat":-6.20132,"is_transit":false,"distance":2029,"transit":false,"line":1,"time":5,"i_long":106.816351,"station_id":"KAT"},{"transit":false,"station_id":"SUDB","time":1,"i_long":106.819881,"line":1,"i_lat":-6.201433,"is_transit":false,"distance":471,"station_name":"Sudirman Baru"},{"i_lat":-6.202263,"transit":false,"station_name":"Sudirman","line":1,"time":1,"station_id":"SUD","distance":280,"i_long":106.822649,"is_transit":false},{"is_transit":true,"time":4,"distance":3186,"station_id":"MRI","station_name":"Manggarai","i_lat":-6.209883,"i_long":106.84912,"line":0,"transit":false},{"i_lat":-6.212485,"line":1,"i_long":106.858896,"station_id":"MTR","station_name":"Matraman","time":2,"transit":false,"is_transit":false,"distance":1275}],[{"station_id":"BKS","is_transit":false,"station_name":"Bekasi","i_long":106.997013,"i_lat":-6.236616,"transit":false,"line":0,"time":0,"distance":0},{"transit":false,"i_lat":-6.224515,"line":1,"time":4,"distance":2520,"station_name":"Kranji","station_id":"KRI","is_transit":false,"i_long":106.977657},{"station_name":"Cakung","station_id":"CUK","i_lat":-6.219053,"transit":false,"distance":3097,"time":3,"i_long":106.951283,"line":0,"is_transit":false},{"transit":false,"distance":1385,"i_long":106.939679,"station_name":"Klenderbaru","is_transit":false,"line":1,"time":8,"station_id":"KLDB","i_lat":-6.217455},{"is_transit":false,"i_lat":-6.215568,"distance":1305,"time":1,"line":0,"station_name":"Buaran","i_long":106.922662,"transit":false,"station_id":"BUA"},{"is_transit":false,"distance":3100,"transit":false,"station_name":"Klender","time":2,"line":1,"i_lat":-6.2135,"i_long":106.899548,"station_id":"KLD"},{"time":3,"line":0,"distance":3395,"i_lat":-6.215091,"is_transit":true,"transit":true,"i_long":106.86807400000001,"station_id":"JNG","station_name":"Jatinegara"},{"time":2,"is_transit":false,"i_lat":-6.209188,"i_long":106.861737,"line":11,"transit":false,"station_id":"POK","distance":1236,"station_name":"Pondok Jati"},{"station_name":"Kramat","i_lat":-6.193792,"time":2,"line":11,"transit":false,"is_transit":false,"i_long":106.855437,"station_id":"KMT","distance":1829},{"line":11,"is_transit":false,"distance":973,"transit":false,"i_lat":-6.185975,"station_name":"Gang Sentiong","i_long":106.850107,"time":1,"station_id":"GST"},{"distance":1567,"station_name":"Pasar Senen","i_long":106.84368,"station_id":"PSE","line":11,"time":8,"i_lat":-6.174784,"is_transit":false,"transit":false},{"station_name":"Kemayoran","station_id":"KMO","distance":1436,"is_transit":false,"time":4,"i_lat":-6.161728,"transit":false,"line":11,"i_long":106.839204},{"is_transit":false,"transit":false,"i_long":106.836569,"distance":1901,"station_name":"Rajawali","i_lat":-6.14505,"time":5,"station_id":"RJW","line":11},{"station_name":"Kampung Bandan","line":0,"is_transit":true,"transit":true,"i_lat":-6.132549,"time":3,"i_long":106.826365,"station_id":"KPB","distance":1444},{"station_name":"Jakarta Kota","time":3,"is_transit":true,"distance":1364,"i_lat":-6.137569,"i_long":106.812439,"line":0,"transit":true,"station_id":"JAKK"},{"i_lat":-6.141205,"station_id":"JAY","i_long":106.820901,"transit":false,"is_transit":false,"distance":1264,"station_name":"Jayakarta","time":4,"line":7},{"line":2,"i_long":106.82482,"i_lat":-6.149769,"is_transit":false,"distance":1080,"transit":false,"station_id":"MGB","station_name":"Manggabesar","time":2},{"i_long":106.827103,"line":2,"transit":false,"is_transit":false,"i_lat":-6.160725,"time":2,"station_name":"Sawah Besar","station_id":"SW","distance":906},{"time":2,"i_lat":-6.166716,"line":2,"is_transit":false,"station_id":"JUA","station_name":"Juanda","distance":1149,"i_long":106.828284,"transit":false},{"station_name":"Gondangdia","station_id":"GDD","distance":2015,"line":2,"time":4,"is_transit":false,"transit":false,"i_long":106.832183,"i_lat":-6.186295},{"time":3,"station_id":"CKI","station_name":"Cikini","transit":false,"i_lat":-6.198556,"is_transit":false,"distance":1750,"i_long":106.840169,"line":0},{"station_name":"Manggarai","time":4,"transit":true,"i_lat":-6.209883,"distance":1590,"station_id":"MRI","is_transit":true,"line":0,"i_long":106.84912},{"i_lat":-6.212485,"is_transit":false,"station_id":"MTR","line":1,"i_long":106.858896,"time":2,"transit":false,"distance":1275,"station_name":"Matraman"}]]}