{"data":[[{"i_lat":-6.236616,"station_name":"Bekasi","line":1,"i_long":106.997013,"transit":false,"station_id":"BKS","distance":0,"time":0,"is_transit":false},{"line":1,"time":4,"station_id":"KRI","is_transit":false,"transit":false,"i_long":106.977657,"station_name":"Kranji","distance":2520,"i_lat":-6.224515},{"i_lat":-6.219053,"i_long":106.951283,"line":1,"transit":false,"station_name":"Cakung","station_id":"CUK","distance":3097,"is_transit":false,"time":3},{"time":8,"i_lat":-6.217455,"transit":false,"i_long":106.939679,"station_id":"KLDB","is_transit":false,"distance":1385,"station_name":"Klenderbaru","line":1},{"time":1,"i_long":106.922662,"is_transit":false,"transit":false,"station_id":"BUA","i_lat":-6.215568,"line":1,"station_name":"Buaran","distance":1305},{"is_transit":false,"line":1,"time":2,"i_long":106.899548,"i_lat":-6.2135,"station_id":"KLD","station_name":"Klender","transit":false,"distance":3100},{"distance":3395,"station_id":"JNG","line":1,"station_name":"Jatinegara","time":3,"i_lat":-6.215091,"transit":true,"is_transit":true,"i_long":106.86807400000001},{"i_lat":-6.209188,"station_id":"POK","transit":false,"time":2,"is_transit":false,"station_name":"Pondok Jati","line":11,"distance":1236,"i_long":106.861737},{"line":11,"station_id":"KMT","time":2,"station_name":"Kramat","transit":false,"i_lat":-6.193792,"i_long":106.855437,"is_transit":false,"distance":1829},{"time":1,"distance":973,"transit":false,"station_name":"Gang Sentiong","is_transit":false,"i_long":106.850107,"station_id":"GST","line":11,"i_lat":-6.185975},{"line":11,"is_transit":false,"station_name":"Pasar Senen","time":8,"station_id":"PSE","distance":1567,"i_long":106.84368,"i_lat":-6.174784,"transit":false},{"distance":1436,"transit":false,"line":11,"station_id":"KMO","i_lat":-6.161728,"station_name":"Kemayoran","is_transit":false,"i_long":106.839204,"time":4},{"i_long":106.836569,"distance":1901,"i_lat":-6.14505,"line":11,"transit":false,"station_name":"Rajawali","station_id":"RJW","is_transit":false,"time":5}],[{"is_transit":false,"distance":0,"time":0,"i_lat":-6.236616,"station_id":"BKS","i_long":106.997013,"transit":false,"station_name":"Bekasi","line":1},{"station_id":"KRI","station_name":"Kranji","i_long":106.977657,"line":1,"transit":false,"time":4,"distance":2520,"is_transit":false,"i_lat":-6.224515},{"line":1,"station_id":"CUK","time":3,"i_lat":-6.219053,"transit":false,"distance":3097,"station_name":"Cakung","i_long":106.951283,"is_transit":false},{"station_name":"Klenderbaru","time":8,"transit":false,"station_id":"KLDB","distance":1385,"i_lat":-6.217455,"line":1,"is_transit":false,"i_long":106.939679},{"distance":1305,"i_long":106.922662,"line":1,"station_id":"BUA","is_transit":false,"transit":false,"i_lat":-6.215568,"time":1,"station_name":"Buaran"},{"is_transit":false,"station_id":"KLD","time":2,"station_name":"Klender","distance":3100,"i_lat":-6.2135,"transit":false,"i_long":106.899548,"line":1},{"time":3,"station_id":"JNG","line":1,"station_name":"Jatinegara","is_transit":false,"transit":false,"i_lat":-6.215091,"i_long":106.86807400000001,"distance":3395},{"time":2,"i_long":106.858896,"is_transit":false,"distance":1377,"station_name":"Matraman","transit":false,"station_id":"MTR","line":1,"i_lat":-6.212485},{"station_name":"Manggarai","i_lat":-6.209883,"line":2,"is_transit":false,"distance":1275,"time":2,"i_long":106.84912,"transit":false,"station_id":"MRI"},{"time":4,"transit":false,"distance":3186,"i_lat":-6.202263,"i_long":106.822649,"line":1,"is_transit":false,"station_id":"SUD","station_name":"Sudirman"},{"station_id":"SUDB","i_lat":-6.201433,"is_transit":false,"transit":false,"line":1,"station_name":"Sudirman Baru","time":1,"i_long":106.819881,"distance":280},{"transit":false,"i_long":106.816351,"station_name":"Karet","time":1,"distance":471,"line":1,"station_id":"KAT","is_transit":false,"i_lat":-6.20132},{"is_transit":false,"line":1,"station_name":"Tanah Abang","i_lat":-6.185545,"transit":false,"station_id":"THB","distance":2029,"i_long":106.811091,"time":5},{"i_lat":-6.155215,"time":8,"line":1,"distance":3632,"is_transit":false,"station_id":"DU","transit":false,"i_long":106.800832,"station_name":"Duri"},{"is_transit":false,"distance":1230,"line":1,"station_id":"AK","station_name":"Angke","time":4,"i_lat":-6.144674,"i_long":106.79867,"transit":false},{"time":9,"distance":4102,"i_lat":-6.132549,"station_name":"Kampung Bandan","line":4,"is_transit":true,"station_id":"KPB","i_long":106.826365,"transit":true},{"station_id":"RJW","transit":false,"i_lat":-6.14505,"station_name":"Rajawali","distance":1444,"i_long":106.836569,"time":3,"line":11,"is_transit":false}],[{"i_lat":-6.236616,"line":1,"i_long":106.997013,"transit":false,"is_transit":false,"station_name":"Bekasi","distance":0,"station_id":"BKS","time":0},{"i_lat":-6.224515,"transit":false,"station_name":"Kranji","station_id":"KRI","is_transit":false,"time":4,"distance":2520,"line":1,"i_long":106.977657},{"station_id":"CUK","station_name":"Cakung","time":3,"transit":false,"line":1,"i_lat":-6.219053,"is_transit":false,"distance":3097,"i_long":106.951283},{"i_lat":-6.217455,"i_long":106.939679,"station_id":"KLDB","transit":false,"station_name":"Klenderbaru","line":1,"is_transit":false,"distance":1385,"time":8},{"station_id":"BUA","i_lat":-6.215568,"time":1,"is_transit":false,"station_name":"Buaran","distance":1305,"line":1,"transit":false,"i_long":106.922662},{"station_id":"KLD","station_name":"Klender","line":1,"is_transit":false,"transit":false,"distance":3100,"i_long":106.899548,"time":2,"i_lat":-6.2135},{"time":3,"distance":3395,"is_transit":false,"transit":false,"line":1,"i_lat":-6.215091,"i_long":106.86807400000001,"station_id":"JNG","station_name":"Jatinegara"},{"transit":false,"i_long":106.858896,"line":1,"is_transit":false,"i_lat":-6.212485,"station_id":"MTR","time":2,"station_name":"Matraman","distance":1377},{"station_name":"Manggarai","station_id":"MRI","distance":1275,"i_long":106.84912,"line":2,"transit":true,"is_transit":true,"time":2,"i_lat":-6.209883},{"station_name":"Cikini","line":2,"distance":1590,"i_lat":-6.198556,"time":4,"is_transit":false,"transit":false,"station_id":"CKI","i_long":106.840169},{"distance":1750,"time":3,"i_lat":-6.186295,"station_name":"Gondangdia","station_id":"GDD","transit":false,"is_transit":false,"i_long":106.832183,"line":2},{"line":2,"station_name":"Juanda","station_id":"JUA","time":4,"transit":false,"distance":2015,"i_lat":-6.166716,"is_transit":false,"i_long":106.828284},{"line":2,"station_id":"SW","station_name":"Sawah Besar","is_transit":false,"time":2,"i_long":106.827103,"i_lat":-6.160725,"distance":1149,"transit":false},{"distance":906,"i_lat":-6.149769,"line":2,"station_id":"MGB","i_long":106.82482,"is_transit":false,"time":2,"transit":false,"station_name":"Manggabesar"},{"is_transit":false,"time":2,"transit":false,"station_name":"Jayakarta","i_long":106.820901,"i_lat":-6.141205,"distance":1080,"line":2,"station_id":"JAY"},{"station_id":"JAKK","time":4,"transit":true,"distance":1264,"is_transit":true,"line":2,"station_name":"Jakarta Kota","i_lat":-6.137569,"i_long":106.812439},{"station_id":"KPB","is_transit":true,"transit":true,"line":4,"station_name":"Kampung Bandan","distance":1364,"i_long":106.826365,"i_lat":-6.132549,"time":3},{"is_transit":false,"transit":false,"distance":1444,"i_long":106.836569,"line":11,"i_lat":-6.14505,"station_id":"RJW","station_name":"Rajawali","time":3}]]}