{"data":[[{"time":0,"i_lat":-6.236616,"i_long":106.997013,"is_transit":false,"transit":false,"station_id":"BKS","line":0,"distance":0,"station_name":"Bekasi"},{"is_transit":false,"station_id":"KRI","transit":false,"station_name":"Kranji","i_lat":-6.224515,"time":4,"line":1,"distance":2520,"i_long":106.977657},{"transit":false,"station_id":"CUK","distance":3097,"i_lat":-6.219053,"is_transit":false,"i_long":106.951283,"line":0,"station_name":"Cakung","time":3},{"time":8,"station_id":"KLDB","station_name":"Klenderbaru","line":1,"transit":false,"i_lat":-6.217455,"is_transit":false,"distance":1385,"i_long":106.939679},{"station_id":"BUA","transit":false,"distance":1305,"station_name":"Buaran","time":1,"i_lat":-6.215568,"is_transit":false,"i_long":106.922662,"line":0},{"station_name":"Klender","time":2,"i_lat":-6.2135,"i_long":106.899548,"is_transit":false,"distance":3100,"transit":false,"line":1,"station_id":"KLD"},{"distance":3395,"i_lat":-6.215091,"is_transit":true,"line":0,"i_long":106.86807400000001,"station_id":"JNG","transit":false,"time":3,"station_name":"Jatinegara"},{"i_long":106.858896,"station_id":"MTR","line":1,"i_lat":-6.212485,"time":2,"distance":1377,"is_transit":false,"transit":false,"station_name":"Matraman"},{"is_transit":true,"i_long":106.84912,"distance":1275,"time":2,"i_lat":-6.209883,"line":0,"transit":false,"station_id":"MRI","station_name":"Manggarai"},{"i_long":106.822649,"time":4,"is_transit":false,"distance":3186,"station_name":"Sudirman","station_id":"SUD","i_lat":-6.202263,"line":1,"transit":false},{"distance":280,"station_name":"Sudirman Baru","line":1,"i_long":106.819881,"time":1,"i_lat":-6.201433,"station_id":"SUDB","transit":false,"is_transit":false}],[{"is_transit":false,"transit":false,"station_id":"BKS","i_lat":-6.236616,"line":0,"station_name":"Bekasi","time":0,"i_long":106.997013,"distance":0},{"i_lat":-6.224515,"station_id":"KRI","time":4,"line":1,"is_transit":false,"station_name":"Kranji","transit":false,"distance":2520,"i_long":106.977657},{"is_transit":false,"i_long":106.951283,"line":0,"transit":false,"distance":3097,"station_id":"CUK","time":3,"i_lat":-6.219053,"station_name":"Cakung"},{"i_long":106.939679,"transit":false,"i_lat":-6.217455,"station_id":"KLDB","line":1,"is_transit":false,"time":8,"station_name":"Klenderbaru","distance":1385},{"line":0,"time":1,"distance":1305,"i_lat":-6.215568,"station_id":"BUA","is_transit":false,"transit":false,"station_name":"Buaran","i_long":106.922662},{"i_long":106.899548,"is_transit":false,"time":2,"station_name":"Klender","station_id":"KLD","transit":false,"distance":3100,"i_lat":-6.2135,"line":1},{"station_id":"JNG","line":0,"i_long":106.86807400000001,"transit":true,"station_name":"Jatinegara","i_lat":-6.215091,"is_transit":true,"time":3,"distance":3395},{"distance":1236,"time":2,"station_name":"Pondok Jati","station_id":"POK","line":11,"i_long":106.861737,"i_lat":-6.209188,"is_transit":false,"transit":false},{"distance":1829,"transit":false,"time":2,"station_name":"Kramat","line":11,"i_long":106.855437,"is_transit":false,"station_id":"KMT","i_lat":-6.193792},{"transit":false,"distance":973,"i_long":106.850107,"station_name":"Gang Sentiong","is_transit":false,"time":1,"i_lat":-6.185975,"station_id":"GST","line":11},{"is_transit":false,"distance":1567,"i_lat":-6.174784,"i_long":106.84368,"line":11,"station_name":"Pasar Senen","station_id":"PSE","time":8,"transit":false},{"station_name":"Kemayoran","i_long":106.839204,"time":4,"i_lat":-6.161728,"line":11,"is_transit":false,"distance":1436,"station_id":"KMO","transit":false},{"transit":false,"line":11,"station_id":"RJW","station_name":"Rajawali","time":5,"i_lat":-6.14505,"i_long":106.836569,"is_transit":false,"distance":1901},{"i_lat":-6.132549,"line":0,"transit":true,"distance":1444,"is_transit":true,"i_long":106.826365,"time":3,"station_name":"Kampung Bandan","station_id":"KPB"},{"is_transit":false,"station_name":"Angke","station_id":"AK","i_lat":-6.144674,"line":0,"distance":4102,"time":9,"transit":false,"i_long":106.79867},{"time":4,"distance":1230,"i_lat":-6.155215,"station_name":"Duri","station_id":"DU","line":1,"i_long":106.800832,"transit":true,"is_transit":true},{"line":1,"i_lat":-6.185545,"station_name":"Tanah Abang","station_id":"THB","transit":false,"is_transit":true,"distance":3632,"time":8,"i_long":106.811091},{"transit":false,"is_transit":false,"station_name":"Karet","distance":2029,"i_lat":-6.20132,"i_long":106.816351,"line":1,"station_id":"KAT","time":5},{"transit":false,"time":1,"station_id":"SUDB","line":1,"i_long":106.819881,"i_lat":-6.201433,"is_transit":false,"distance":471,"station_name":"Sudirman Baru"}],[{"transit":false,"i_long":106.997013,"is_transit":false,"station_name":"Bekasi","distance":0,"i_lat":-6.236616,"line":0,"time":0,"station_id":"BKS"},{"i_long":106.977657,"transit":false,"i_lat":-6.224515,"time":4,"distance":2520,"line":1,"is_transit":false,"station_name":"Kranji","station_id":"KRI"},{"transit":false,"station_name":"Cakung","i_lat":-6.219053,"i_long":106.951283,"station_id":"CUK","line":0,"distance":3097,"is_transit":false,"time":3},{"station_id":"KLDB","station_name":"Klenderbaru","i_lat":-6.217455,"i_long":106.939679,"line":1,"time":8,"is_transit":false,"transit":false,"distance":1385},{"station_name":"Buaran","time":1,"distance":1305,"i_long":106.922662,"is_transit":false,"line":0,"transit":false,"station_id":"BUA","i_lat":-6.215568},{"time":2,"line":1,"distance":3100,"i_long":106.899548,"transit":false,"i_lat":-6.2135,"station_id":"KLD","is_transit":false,"station_name":"Klender"},{"line":0,"distance":3395,"transit":false,"time":3,"is_transit":true,"station_id":"JNG","station_name":"Jatinegara","i_lat":-6.215091,"i_long":106.86807400000001},{"transit":false,"i_long":106.858896,"time":2,"station_name":"Matraman","distance":1377,"is_transit":false,"station_id":"MTR","i_lat":-6.212485,"line":1},{"line":0,"is_transit":true,"transit":true,"station_id":"MRI","distance":1275,"i_lat":-6.209883,"i_long":106.84912,"station_name":"Manggarai","time":2},{"i_lat":-6.198556,"distance":1590,"line":0,"station_name":"Cikini","time":4,"is_transit":false,"transit":false,"station_id":"CKI","i_long":106.840169},{"transit":false,"station_name":"Gondangdia","station_id":"GDD","is_transit":false,"time":3,"distance":1750,"i_lat":-6.186295,"i_long":106.832183,"line":2},{"distance":2015,"station_id":"JUA","i_lat":-6.166716,"line":2,"time":4,"station_name":"Juanda","i_long":106.828284,"is_transit":false,"transit":false},{"i_lat":-6.160725,"station_id":"SW","time":2,"is_transit":false,"i_long":106.827103,"line":2,"station_name":"Sawah Besar","distance":1149,"transit":false},{"station_name":"Manggabesar","distance":906,"i_lat":-6.149769,"is_transit":false,"transit":false,"line":2,"time":2,"i_long":106.82482,"station_id":"MGB"},{"i_lat":-6.141205,"i_long":106.820901,"time":2,"distance":1080,"is_transit":false,"station_id":"JAY","station_name":"Jayakarta","line":7,"transit":false},{"is_transit":true,"line":0,"time":4,"i_long":106.812439,"transit":true,"station_name":"Jakarta Kota","distance":1264,"i_lat":-6.137569,"station_id":"JAKK"},{"line":0,"transit":false,"i_lat":-6.132549,"i_long":106.826365,"time":3,"station_id":"KPB","distance":1364,"is_transit":true,"station_name":"Kampung Bandan"},{"is_transit":false,"station_id":"AK","i_long":106.79867,"transit":false,"line":0,"i_lat":-6.144674,"time":9,"distance":4102,"station_name":"Angke"},{"is_transit":true,"time":4,"i_long":106.800832,"station_id":"DU","i_lat":-6.155215,"line":1,"station_name":"Duri","distance":1230,"transit":true},{"i_long":106.811091,"distance":3632,"transit":false,"station_id":"THB","i_lat":-6.185545,"line":1,"is_transit":true,"time":8,"station_name":"Tanah Abang"},{"distance":2029,"i_long":106.816351,"is_transit":false,"line":1,"transit":false,"station_name":"Karet","time":5,"i_lat":-6.20132,"station_id":"KAT"},{"line":1,"distance":471,"transit":false,"time":1,"i_lat":-6.201433,"is_transit":false,"i_long":106.819881,"station_name":"Sudirman Baru","station_id":"SUDB"}],[{"i_long":106.997013,"station_id":"BKS","station_name":"Bekasi","distance":0,"line":0,"i_lat":-6.236616,"transit":false,"time":0,"is_transit":false},{"station_id":"KRI","time":4,"i_lat":-6.224515,"station_name":"Kranji","transit":false,"i_long":106.977657,"line":1,"is_transit":false,"distance":2520},{"i_long":106.951283,"station_id":"CUK","transit":false,"distance":3097,"is_transit":false,"station_name":"Cakung","i_lat":-6.219053,"line":0,"time":3},{"is_transit":false,"station_name":"Klenderbaru","station_id":"KLDB","i_lat":-6.217455,"time":8,"distance":1385,"i_long":106.939679,"line":1,"transit":false},{"is_transit":false,"i_lat":-6.215568,"time":1,"i_long":106.922662,"transit":false,"station_id":"BUA","station_name":"Buaran","distance":1305,"line":0},{"is_transit":false,"i_long":106.899548,"line":1,"station_name":"Klender","station_id":"KLD","i_lat":-6.2135,"distance":3100,"transit":false,"time":2},{"i_long":106.86807400000001,"line":0,"transit":true,"station_id":"JNG","time":3,"distance":3395,"i_lat":-6.215091,"is_transit":true,"station_name":"Jatinegara"},{"i_long":106.861737,"is_transit":false,"station_name":"Pondok Jati","transit":false,"time":2,"distance":1236,"i_lat":-6.209188,"station_id":"POK","line":11},{"is_transit":false,"time":2,"line":11,"i_lat":-6.193792,"station_id":"KMT","distance":1829,"transit":false,"station_name":"Kramat","i_long":106.855437},{"station_name":"Gang Sentiong","i_lat":-6.185975,"i_long":106.850107,"line":11,"is_transit":false,"station_id":"GST","transit":false,"distance":973,"time":1},{"line":11,"station_name":"Pasar Senen","time":8,"transit":false,"is_transit":false,"distance":1567,"station_id":"PSE","i_lat":-6.174784,"i_long":106.84368},{"station_name":"Kemayoran","i_long":106.839204,"distance":1436,"time":4,"station_id":"KMO","is_transit":false,"transit":false,"line":11,"i_lat":-6.161728},{"station_name":"Rajawali","station_id":"RJW","distance":1901,"line":11,"transit":false,"time":5,"i_long":106.836569,"i_lat":-6.14505,"is_transit":false},{"i_lat":-6.132549,"i_long":106.826365,"station_name":"Kampung Bandan","line":0,"is_transit":true,"station_id":"KPB","transit":true,"time":3,"distance":1444},{"i_long":106.812439,"distance":1364,"station_id":"JAKK","station_name":"Jakarta Kota","time":3,"is_transit":true,"transit":true,"i_lat":-6.137569,"line":0},{"station_id":"JAY","line":7,"i_lat":-6.141205,"distance":1264,"is_transit":false,"station_name":"Jayakarta","i_long":106.820901,"transit":false,"time":4},{"is_transit":false,"time":2,"station_id":"MGB","i_long":106.82482,"distance":1080,"i_lat":-6.149769,"line":2,"transit":false,"station_name":"Manggabesar"},{"transit":false,"distance":906,"line":2,"is_transit":false,"time":2,"station_id":"SW","station_name":"Sawah Besar","i_lat":-6.160725,"i_long":106.827103},{"transit":false,"i_long":106.828284,"distance":1149,"station_name":"Juanda","station_id":"JUA","line":2,"time":2,"i_lat":-6.166716,"is_transit":false},{"time":4,"station_name":"Gondangdia","transit":false,"i_lat":-6.186295,"is_transit":false,"distance":2015,"station_id":"GDD","i_long":106.832183,"line":2},{"transit":false,"line":0,"time":3,"distance":1750,"i_lat":-6.198556,"i_long":106.840169,"is_transit":false,"station_id":"CKI","station_name":"Cikini"},{"time":4,"i_long":106.84912,"station_id":"MRI","i_lat":-6.209883,"distance":1590,"is_transit":true,"line":0,"station_name":"Manggarai","transit":true},{"transit":false,"line":1,"distance":3186,"station_name":"Sudirman","i_long":106.822649,"time":4,"i_lat":-6.202263,"station_id":"SUD","is_transit":false},{"transit":false,"i_long":106.819881,"is_transit":false,"distance":280,"station_id":"SUDB","i_lat":-6.201433,"time":1,"station_name":"Sudirman Baru","line":1}]]}