{"data":[[{"time":0,"station_name":"Bekasi","station_id":"BKS","transit":false,"i_lat":-6.236616,"line":0,"distance":0,"is_transit":false,"i_long":106.997013},{"time":4,"i_long":106.977657,"line":1,"is_transit":false,"distance":2520,"station_name":"Kranji","transit":false,"station_id":"KRI","i_lat":-6.224515},{"distance":3097,"station_name":"Cakung","i_long":106.951283,"time":3,"station_id":"CUK","line":0,"transit":false,"i_lat":-6.219053,"is_transit":false},{"i_lat":-6.217455,"station_name":"Klenderbaru","i_long":106.939679,"transit":false,"line":1,"station_id":"KLDB","is_transit":false,"time":8,"distance":1385},{"time":1,"i_lat":-6.215568,"is_transit":false,"station_id":"BUA","station_name":"Buaran","i_long":106.922662,"line":0,"distance":1305,"transit":false},{"i_lat":-6.2135,"line":1,"time":2,"i_long":106.899548,"distance":3100,"station_id":"KLD","is_transit":false,"transit":false,"station_name":"Klender"},{"i_lat":-6.215091,"i_long":106.86807400000001,"station_id":"JNG","station_name":"Jatinegara","time":3,"distance":3395,"transit":true,"line":0,"is_transit":true},{"station_id":"POK","station_name":"Pondok Jati","distance":1236,"i_lat":-6.209188,"line":11,"transit":false,"is_transit":false,"i_long":106.861737,"time":2}],[{"time":0,"transit":false,"i_long":106.997013,"line":0,"station_name":"Bekasi","i_lat":-6.236616,"is_transit":false,"distance":0,"station_id":"BKS"},{"station_name":"Kranji","i_lat":-6.224515,"i_long":106.977657,"transit":false,"time":4,"is_transit":false,"distance":2520,"line":1,"station_id":"KRI"},{"distance":3097,"station_name":"Cakung","station_id":"CUK","i_lat":-6.219053,"is_transit":false,"i_long":106.951283,"time":3,"transit":false,"line":0},{"time":8,"distance":1385,"i_long":106.939679,"station_id":"KLDB","station_name":"Klenderbaru","is_transit":false,"transit":false,"i_lat":-6.217455,"line":1},{"station_id":"BUA","time":1,"transit":false,"distance":1305,"i_lat":-6.215568,"i_long":106.922662,"station_name":"Buaran","is_transit":false,"line":0},{"distance":3100,"station_id":"KLD","transit":false,"time":2,"is_transit":false,"i_lat":-6.2135,"i_long":106.899548,"line":1,"station_name":"Klender"},{"station_name":"Jatinegara","i_lat":-6.215091,"is_transit":true,"distance":3395,"time":3,"transit":false,"station_id":"JNG","line":0,"i_long":106.86807400000001},{"station_name":"Matraman","i_long":106.858896,"line":1,"distance":1377,"i_lat":-6.212485,"time":2,"station_id":"MTR","is_transit":false,"transit":false},{"station_id":"MRI","i_lat":-6.209883,"i_long":106.84912,"line":0,"distance":1275,"transit":false,"is_transit":true,"station_name":"Manggarai","time":2},{"is_transit":false,"time":4,"i_lat":-6.202263,"i_long":106.822649,"station_name":"Sudirman","line":1,"station_id":"SUD","transit":false,"distance":3186},{"time":1,"line":1,"i_lat":-6.201433,"station_name":"Sudirman Baru","i_long":106.819881,"distance":280,"is_transit":false,"transit":false,"station_id":"SUDB"},{"station_id":"KAT","transit":false,"i_long":106.816351,"line":1,"i_lat":-6.20132,"station_name":"Karet","is_transit":false,"time":1,"distance":471},{"station_name":"Tanah Abang","station_id":"THB","time":5,"transit":false,"distance":2029,"is_transit":true,"line":1,"i_lat":-6.185545,"i_long":106.811091},{"i_long":106.800832,"is_transit":true,"station_name":"Duri","time":8,"i_lat":-6.155215,"line":1,"distance":3632,"transit":true,"station_id":"DU"},{"transit":false,"station_id":"AK","i_lat":-6.144674,"line":0,"time":4,"i_long":106.79867,"is_transit":false,"distance":1230,"station_name":"Angke"},{"i_long":106.826365,"station_id":"KPB","transit":true,"is_transit":true,"time":9,"i_lat":-6.132549,"line":0,"station_name":"Kampung Bandan","distance":4102},{"time":3,"is_transit":false,"line":11,"i_lat":-6.14505,"station_id":"RJW","distance":1444,"station_name":"Rajawali","i_long":106.836569,"transit":false},{"i_lat":-6.161728,"station_id":"KMO","transit":false,"line":11,"is_transit":false,"i_long":106.839204,"station_name":"Kemayoran","time":5,"distance":1901},{"station_id":"PSE","is_transit":false,"station_name":"Pasar Senen","i_lat":-6.174784,"i_long":106.84368,"line":11,"time":4,"distance":1436,"transit":false},{"distance":1567,"i_lat":-6.185975,"station_id":"GST","is_transit":false,"time":8,"transit":false,"station_name":"Gang Sentiong","i_long":106.850107,"line":11},{"time":1,"transit":false,"station_id":"KMT","is_transit":false,"distance":973,"station_name":"Kramat","i_lat":-6.193792,"i_long":106.855437,"line":11},{"is_transit":false,"i_long":106.861737,"line":11,"station_id":"POK","time":2,"station_name":"Pondok Jati","i_lat":-6.209188,"transit":false,"distance":1829}],[{"station_name":"Bekasi","line":0,"station_id":"BKS","distance":0,"time":0,"i_long":106.997013,"is_transit":false,"i_lat":-6.236616,"transit":false},{"time":4,"is_transit":false,"transit":false,"i_lat":-6.224515,"line":1,"distance":2520,"station_id":"KRI","station_name":"Kranji","i_long":106.977657},{"i_long":106.951283,"transit":false,"is_transit":false,"station_name":"Cakung","line":0,"station_id":"CUK","distance":3097,"time":3,"i_lat":-6.219053},{"i_long":106.939679,"is_transit":false,"line":1,"station_name":"Klenderbaru","time":8,"transit":false,"distance":1385,"i_lat":-6.217455,"station_id":"KLDB"},{"line":0,"i_lat":-6.215568,"station_id":"BUA","station_name":"Buaran","distance":1305,"is_transit":false,"time":1,"transit":false,"i_long":106.922662},{"station_id":"KLD","station_name":"Klender","distance":3100,"line":1,"is_transit":false,"time":2,"i_lat":-6.2135,"transit":false,"i_long":106.899548},{"station_name":"Jatinegara","transit":false,"station_id":"JNG","distance":3395,"i_lat":-6.215091,"is_transit":true,"i_long":106.86807400000001,"time":3,"line":0},{"transit":false,"station_id":"MTR","station_name":"Matraman","distance":1377,"i_lat":-6.212485,"i_long":106.858896,"is_transit":false,"time":2,"line":1},{"transit":true,"station_id":"MRI","is_transit":true,"station_name":"Manggarai","i_lat":-6.209883,"i_long":106.84912,"time":2,"distance":1275,"line":0},{"station_id":"CKI","station_name":"Cikini","time":4,"is_transit":false,"distance":1590,"i_lat":-6.198556,"transit":false,"i_long":106.840169,"line":0},{"i_lat":-6.186295,"i_long":106.832183,"station_name":"Gondangdia","line":2,"transit":false,"is_transit":false,"station_id":"GDD","time":3,"distance":1750},{"station_id":"JUA","transit":false,"i_lat":-6.166716,"line":2,"station_name":"Juanda","is_transit":false,"distance":2015,"i_long":106.828284,"time":4},{"distance":1149,"is_transit":false,"station_name":"Sawah Besar","line":2,"i_lat":-6.160725,"time":2,"station_id":"SW","transit":false,"i_long":106.827103},{"station_id":"MGB","is_transit":false,"station_name":"Manggabesar","time":2,"distance":906,"transit":false,"i_lat":-6.149769,"i_long":106.82482,"line":2},{"station_name":"Jayakarta","i_lat":-6.141205,"distance":1080,"is_transit":false,"transit":false,"time":2,"station_id":"JAY","i_long":106.820901,"line":7},{"station_name":"Jakarta Kota","line":0,"station_id":"JAKK","distance":1264,"is_transit":true,"time":4,"transit":true,"i_lat":-6.137569,"i_long":106.812439},{"is_transit":true,"distance":1364,"station_name":"Kampung Bandan","station_id":"KPB","time":3,"i_long":106.826365,"transit":true,"line":0,"i_lat":-6.132549},{"station_id":"RJW","i_long":106.836569,"distance":1444,"station_name":"Rajawali","line":11,"time":3,"is_transit":false,"transit":false,"i_lat":-6.14505},{"time":5,"distance":1901,"station_name":"Kemayoran","line":11,"i_lat":-6.161728,"transit":false,"station_id":"KMO","is_transit":false,"i_long":106.839204},{"i_long":106.84368,"line":11,"is_transit":false,"station_name":"Pasar Senen","distance":1436,"transit":false,"i_lat":-6.174784,"time":4,"station_id":"PSE"},{"is_transit":false,"i_lat":-6.185975,"station_id":"GST","transit":false,"line":11,"distance":1567,"station_name":"Gang Sentiong","time":8,"i_long":106.850107},{"is_transit":false,"time":1,"i_lat":-6.193792,"transit":false,"i_long":106.855437,"station_name":"Kramat","distance":973,"station_id":"KMT","line":11},{"i_lat":-6.209188,"line":11,"transit":false,"is_transit":false,"time":2,"station_name":"Pondok Jati","i_long":106.861737,"station_id":"POK","distance":1829}]]}