{"data":[[{"line":1,"time":0,"i_long":106.997013,"station_id":"BKS","station_name":"Bekasi","distance":0,"is_transit":false,"transit":false,"i_lat":-6.236616},{"distance":2520,"transit":false,"i_long":106.977657,"station_id":"KRI","station_name":"Kranji","is_transit":false,"line":1,"i_lat":-6.224515,"time":4},{"time":3,"distance":3097,"line":1,"station_id":"CUK","station_name":"Cakung","i_long":106.951283,"i_lat":-6.219053,"is_transit":false,"transit":false},{"station_id":"KLDB","time":8,"station_name":"Klenderbaru","transit":false,"line":1,"i_lat":-6.217455,"is_transit":false,"i_long":106.939679,"distance":1385},{"is_transit":false,"station_name":"Buaran","station_id":"BUA","transit":false,"line":1,"time":1,"i_long":106.922662,"i_lat":-6.215568,"distance":1305},{"station_id":"KLD","time":2,"i_long":106.899548,"transit":false,"station_name":"Klender","i_lat":-6.2135,"line":1,"distance":3100,"is_transit":false},{"i_long":106.86807400000001,"station_id":"JNG","distance":3395,"station_name":"Jatinegara","is_transit":false,"time":3,"line":1,"i_lat":-6.215091,"transit":false},{"distance":1377,"transit":false,"line":1,"station_name":"Matraman","i_long":106.858896,"station_id":"MTR","time":2,"i_lat":-6.212485,"is_transit":false},{"station_id":"MRI","i_lat":-6.209883,"transit":false,"line":2,"station_name":"Manggarai","is_transit":false,"time":2,"distance":1275,"i_long":106.84912},{"station_name":"Sudirman","time":4,"i_lat":-6.202263,"line":1,"transit":false,"i_long":106.822649,"distance":3186,"station_id":"SUD","is_transit":false},{"time":1,"is_transit":false,"station_name":"Sudirman Baru","i_long":106.819881,"line":1,"i_lat":-6.201433,"distance":280,"transit":false,"station_id":"SUDB"},{"is_transit":false,"distance":471,"transit":false,"i_lat":-6.20132,"time":1,"i_long":106.816351,"station_name":"Karet","line":1,"station_id":"KAT"},{"station_id":"THB","transit":true,"time":5,"i_lat":-6.185545,"line":1,"distance":2029,"station_name":"Tanah Abang","i_long":106.811091,"is_transit":true},{"time":6,"distance":3191,"line":6,"i_long":106.79689,"i_lat":-6.207404,"is_transit":false,"transit":false,"station_id":"PLM","station_name":"Palmerah"},{"i_lat":-6.237242,"transit":false,"distance":3737,"station_id":"KBY","is_transit":false,"line":6,"station_name":"Kebayoran","i_long":106.780334,"time":7},{"transit":false,"i_lat":-6.276362,"i_long":106.74273,"line":6,"time":8,"station_id":"PDJ","distance":6218,"is_transit":false,"station_name":"Pondokranji"},{"station_name":"Jurangmangu","distance":2179,"is_transit":false,"time":3,"line":6,"transit":false,"station_id":"JMU","i_lat":-6.288927,"i_long":106.728916},{"time":4,"distance":1994,"line":6,"is_transit":false,"i_long":106.712277,"transit":false,"i_lat":-6.296963,"station_id":"SDM","station_name":"Sudimara"},{"station_name":"Rawa Buntu","line":6,"station_id":"RU","is_transit":false,"transit":false,"distance":4566,"i_long":106.675475,"time":6,"i_lat":-6.314823},{"line":6,"is_transit":false,"i_long":106.66566,"transit":false,"time":4,"station_name":"Serpong","station_id":"SRP","distance":2413,"i_lat":-6.319871},{"time":4,"transit":false,"line":3,"station_name":"Cisauk","i_lat":-6.32484,"i_long":106.640411,"is_transit":false,"station_id":"CSK","distance":1784},{"line":3,"station_id":"CC","station_name":"Cicayur","time":4,"transit":false,"i_lat":-6.329547,"distance":2519,"i_long":106.617853,"is_transit":false},{"i_lat":-6.3441410000000005,"distance":5968,"line":6,"time":8,"transit":false,"i_long":106.568863,"station_name":"Parung Panjang","station_id":"PRP","is_transit":false},{"line":3,"is_transit":false,"transit":false,"distance":7025,"i_long":106.508482,"station_id":"CJT","station_name":"Cilejit","time":9,"i_lat":-6.354349},{"line":0,"station_name":"Daru","transit":false,"time":6,"i_long":106.491338,"i_lat":-6.338021,"station_id":"DAR","is_transit":false,"distance":2675},{"i_long":106.460812,"station_name":"Tenjo","time":5,"distance":3902,"station_id":"TEJ","transit":false,"i_lat":-6.327251,"line":6,"is_transit":false},{"transit":false,"i_long":106.425991,"distance":2974,"station_name":"Tigaraksa","line":6,"i_lat":-6.328533,"station_id":"TGS","time":5,"is_transit":false},{"station_id":"CKY","is_transit":false,"transit":false,"time":3,"distance":2651,"i_lat":-6.33561,"station_name":"Cikoya","i_long":106.411216,"line":3},{"station_name":"Maja","time":4,"line":6,"transit":false,"i_lat":-6.332307,"distance":1853,"is_transit":false,"i_long":106.394373,"station_id":"MJ"},{"station_name":"Citeras","time":10,"transit":false,"i_lat":-6.334892,"i_long":106.332092,"is_transit":false,"distance":7293,"line":3,"station_id":"CTR"}],[{"i_lat":-6.236616,"line":1,"time":0,"transit":false,"station_name":"Bekasi","i_long":106.997013,"is_transit":false,"station_id":"BKS","distance":0},{"station_name":"Kranji","i_long":106.977657,"transit":false,"time":4,"is_transit":false,"distance":2520,"i_lat":-6.224515,"line":1,"station_id":"KRI"},{"station_name":"Cakung","i_lat":-6.219053,"time":3,"transit":false,"distance":3097,"i_long":106.951283,"line":1,"station_id":"CUK","is_transit":false},{"i_long":106.939679,"time":8,"transit":false,"is_transit":false,"i_lat":-6.217455,"line":1,"distance":1385,"station_id":"KLDB","station_name":"Klenderbaru"},{"line":1,"is_transit":false,"i_lat":-6.215568,"i_long":106.922662,"transit":false,"station_name":"Buaran","distance":1305,"station_id":"BUA","time":1},{"line":1,"station_name":"Klender","i_long":106.899548,"is_transit":false,"time":2,"transit":false,"i_lat":-6.2135,"distance":3100,"station_id":"KLD"},{"i_lat":-6.215091,"is_transit":true,"station_id":"JNG","distance":3395,"i_long":106.86807400000001,"line":1,"time":3,"station_name":"Jatinegara","transit":true},{"station_name":"Pondok Jati","i_long":106.861737,"transit":false,"distance":1236,"i_lat":-6.209188,"time":2,"is_transit":false,"station_id":"POK","line":11},{"is_transit":false,"station_name":"Kramat","time":2,"transit":false,"i_long":106.855437,"station_id":"KMT","line":11,"distance":1829,"i_lat":-6.193792},{"is_transit":false,"station_id":"GST","station_name":"Gang Sentiong","distance":973,"i_lat":-6.185975,"i_long":106.850107,"line":11,"transit":false,"time":1},{"is_transit":false,"station_id":"PSE","line":11,"transit":false,"distance":1567,"station_name":"Pasar Senen","i_lat":-6.174784,"time":8,"i_long":106.84368},{"station_id":"KMO","i_long":106.839204,"station_name":"Kemayoran","time":4,"is_transit":false,"i_lat":-6.161728,"line":11,"transit":false,"distance":1436},{"line":11,"station_name":"Rajawali","station_id":"RJW","i_lat":-6.14505,"distance":1901,"transit":false,"is_transit":false,"time":5,"i_long":106.836569},{"i_long":106.826365,"line":4,"station_name":"Kampung Bandan","station_id":"KPB","is_transit":true,"transit":true,"time":3,"distance":1444,"i_lat":-6.132549},{"i_long":106.79867,"i_lat":-6.144674,"line":1,"station_id":"AK","is_transit":false,"transit":false,"station_name":"Angke","time":9,"distance":4102},{"station_name":"Duri","time":4,"i_long":106.800832,"transit":false,"distance":1230,"station_id":"DU","line":1,"is_transit":false,"i_lat":-6.155215},{"i_long":106.811091,"distance":3632,"is_transit":true,"time":8,"i_lat":-6.185545,"line":1,"station_id":"THB","transit":true,"station_name":"Tanah Abang"},{"is_transit":false,"transit":false,"line":6,"station_name":"Palmerah","station_id":"PLM","i_long":106.79689,"distance":3191,"time":6,"i_lat":-6.207404},{"station_name":"Kebayoran","line":6,"time":7,"station_id":"KBY","is_transit":false,"i_long":106.780334,"transit":false,"distance":3737,"i_lat":-6.237242},{"distance":6218,"i_long":106.74273,"transit":false,"line":6,"is_transit":false,"time":8,"station_id":"PDJ","i_lat":-6.276362,"station_name":"Pondokranji"},{"time":3,"station_name":"Jurangmangu","i_lat":-6.288927,"distance":2179,"i_long":106.728916,"is_transit":false,"line":6,"transit":false,"station_id":"JMU"},{"is_transit":false,"line":6,"station_name":"Sudimara","time":4,"distance":1994,"station_id":"SDM","i_lat":-6.296963,"i_long":106.712277,"transit":false},{"station_id":"RU","transit":false,"i_long":106.675475,"time":6,"station_name":"Rawa Buntu","distance":4566,"is_transit":false,"i_lat":-6.314823,"line":6},{"distance":2413,"i_long":106.66566,"line":6,"time":4,"station_name":"Serpong","i_lat":-6.319871,"transit":false,"is_transit":false,"station_id":"SRP"},{"station_id":"CSK","is_transit":false,"distance":1784,"time":4,"transit":false,"i_lat":-6.32484,"i_long":106.640411,"line":3,"station_name":"Cisauk"},{"line":3,"distance":2519,"i_long":106.617853,"transit":false,"station_name":"Cicayur","time":4,"i_lat":-6.329547,"station_id":"CC","is_transit":false},{"i_long":106.568863,"station_id":"PRP","time":8,"i_lat":-6.3441410000000005,"line":6,"station_name":"Parung Panjang","is_transit":false,"transit":false,"distance":5968},{"line":3,"transit":false,"distance":7025,"i_long":106.508482,"station_name":"Cilejit","station_id":"CJT","time":9,"i_lat":-6.354349,"is_transit":false},{"i_long":106.491338,"line":0,"i_lat":-6.338021,"transit":false,"station_name":"Daru","is_transit":false,"distance":2675,"station_id":"DAR","time":6},{"line":6,"transit":false,"is_transit":false,"station_id":"TEJ","i_lat":-6.327251,"station_name":"Tenjo","time":5,"distance":3902,"i_long":106.460812},{"station_id":"TGS","i_long":106.425991,"line":6,"time":5,"distance":2974,"is_transit":false,"i_lat":-6.328533,"transit":false,"station_name":"Tigaraksa"},{"time":3,"i_lat":-6.33561,"distance":2651,"i_long":106.411216,"station_id":"CKY","is_transit":false,"transit":false,"station_name":"Cikoya","line":3},{"transit":false,"station_name":"Maja","line":6,"station_id":"MJ","i_long":106.394373,"time":4,"i_lat":-6.332307,"distance":1853,"is_transit":false},{"line":3,"time":10,"distance":7293,"station_id":"CTR","transit":false,"i_long":106.332092,"is_transit":false,"i_lat":-6.334892,"station_name":"Citeras"}],[{"line":1,"i_lat":-6.236616,"is_transit":false,"station_id":"BKS","distance":0,"transit":false,"station_name":"Bekasi","i_long":106.997013,"time":0},{"distance":2520,"i_long":106.977657,"is_transit":false,"transit":false,"line":1,"station_id":"KRI","i_lat":-6.224515,"time":4,"station_name":"Kranji"},{"i_long":106.951283,"transit":false,"station_name":"Cakung","time":3,"station_id":"CUK","distance":3097,"is_transit":false,"line":1,"i_lat":-6.219053},{"transit":false,"station_id":"KLDB","i_lat":-6.217455,"is_transit":false,"i_long":106.939679,"time":8,"station_name":"Klenderbaru","distance":1385,"line":1},{"i_lat":-6.215568,"is_transit":false,"distance":1305,"station_name":"Buaran","line":1,"transit":false,"time":1,"station_id":"BUA","i_long":106.922662},{"line":1,"station_id":"KLD","i_long":106.899548,"i_lat":-6.2135,"time":2,"is_transit":false,"station_name":"Klender","transit":false,"distance":3100},{"station_id":"JNG","i_lat":-6.215091,"line":1,"transit":false,"station_name":"Jatinegara","i_long":106.86807400000001,"is_transit":false,"time":3,"distance":3395},{"distance":1377,"i_lat":-6.212485,"station_name":"Matraman","transit":false,"time":2,"station_id":"MTR","i_long":106.858896,"is_transit":false,"line":1},{"time":2,"i_lat":-6.209883,"line":2,"i_long":106.84912,"station_name":"Manggarai","transit":true,"distance":1275,"station_id":"MRI","is_transit":true},{"distance":1590,"station_name":"Cikini","i_lat":-6.198556,"is_transit":false,"time":4,"i_long":106.840169,"transit":false,"station_id":"CKI","line":2},{"station_id":"GDD","is_transit":false,"station_name":"Gondangdia","i_long":106.832183,"time":3,"transit":false,"i_lat":-6.186295,"distance":1750,"line":2},{"station_name":"Juanda","distance":2015,"i_long":106.828284,"i_lat":-6.166716,"line":2,"time":4,"is_transit":false,"transit":false,"station_id":"JUA"},{"i_lat":-6.160725,"time":2,"distance":1149,"station_id":"SW","transit":false,"line":2,"i_long":106.827103,"is_transit":false,"station_name":"Sawah Besar"},{"time":2,"line":2,"distance":906,"is_transit":false,"transit":false,"station_name":"Manggabesar","i_lat":-6.149769,"i_long":106.82482,"station_id":"MGB"},{"i_long":106.820901,"line":2,"station_id":"JAY","is_transit":false,"station_name":"Jayakarta","transit":false,"time":2,"distance":1080,"i_lat":-6.141205},{"distance":1264,"station_id":"JAKK","transit":true,"station_name":"Jakarta Kota","time":4,"i_long":106.812439,"line":2,"i_lat":-6.137569,"is_transit":true},{"i_lat":-6.132549,"i_long":106.826365,"line":4,"distance":1364,"station_id":"KPB","transit":true,"is_transit":true,"time":3,"station_name":"Kampung Bandan"},{"is_transit":false,"station_id":"AK","time":9,"transit":false,"i_long":106.79867,"line":1,"station_name":"Angke","i_lat":-6.144674,"distance":4102},{"i_lat":-6.155215,"station_name":"Duri","transit":false,"line":1,"station_id":"DU","distance":1230,"i_long":106.800832,"time":4,"is_transit":false},{"time":8,"is_transit":true,"i_long":106.811091,"station_name":"Tanah Abang","line":1,"distance":3632,"transit":true,"station_id":"THB","i_lat":-6.185545},{"line":6,"transit":false,"is_transit":false,"station_name":"Palmerah","time":6,"distance":3191,"i_long":106.79689,"station_id":"PLM","i_lat":-6.207404},{"line":6,"i_long":106.780334,"time":7,"i_lat":-6.237242,"station_name":"Kebayoran","station_id":"KBY","transit":false,"is_transit":false,"distance":3737},{"i_lat":-6.276362,"line":6,"station_id":"PDJ","time":8,"i_long":106.74273,"distance":6218,"transit":false,"is_transit":false,"station_name":"Pondokranji"},{"time":3,"station_name":"Jurangmangu","i_lat":-6.288927,"i_long":106.728916,"distance":2179,"is_transit":false,"transit":false,"line":6,"station_id":"JMU"},{"is_transit":false,"time":4,"i_lat":-6.296963,"station_id":"SDM","distance":1994,"transit":false,"i_long":106.712277,"line":6,"station_name":"Sudimara"},{"is_transit":false,"station_name":"Rawa Buntu","transit":false,"time":6,"i_long":106.675475,"line":6,"distance":4566,"i_lat":-6.314823,"station_id":"RU"},{"i_long":106.66566,"station_name":"Serpong","line":6,"distance":2413,"transit":false,"is_transit":false,"time":4,"station_id":"SRP","i_lat":-6.319871},{"station_id":"CSK","i_long":106.640411,"time":4,"distance":1784,"i_lat":-6.32484,"transit":false,"is_transit":false,"line":3,"station_name":"Cisauk"},{"is_transit":false,"line":3,"i_long":106.617853,"station_id":"CC","time":4,"transit":false,"station_name":"Cicayur","distance":2519,"i_lat":-6.329547},{"line":6,"time":8,"distance":5968,"station_name":"Parung Panjang","transit":false,"i_long":106.568863,"is_transit":false,"i_lat":-6.3441410000000005,"station_id":"PRP"},{"station_id":"CJT","i_lat":-6.354349,"line":3,"distance":7025,"is_transit":false,"station_name":"Cilejit","time":9,"i_long":106.508482,"transit":false},{"time":6,"transit":false,"station_id":"DAR","station_name":"Daru","distance":2675,"i_long":106.491338,"is_transit":false,"i_lat":-6.338021,"line":0},{"station_name":"Tenjo","time":5,"distance":3902,"is_transit":false,"transit":false,"station_id":"TEJ","line":6,"i_lat":-6.327251,"i_long":106.460812},{"i_lat":-6.328533,"time":5,"is_transit":false,"line":6,"transit":false,"station_id":"TGS","station_name":"Tigaraksa","i_long":106.425991,"distance":2974},{"distance":2651,"i_lat":-6.33561,"line":3,"time":3,"station_id":"CKY","is_transit":false,"transit":false,"i_long":106.411216,"station_name":"Cikoya"},{"transit":false,"i_lat":-6.332307,"station_name":"Maja","i_long":106.394373,"distance":1853,"line":6,"is_transit":false,"station_id":"MJ","time":4},{"station_name":"Citeras","is_transit":false,"transit":false,"i_long":106.332092,"distance":7293,"line":3,"station_id":"CTR","time":10,"i_lat":-6.334892}],[{"time":0,"station_id":"BKS","line":1,"distance":0,"transit":false,"i_long":106.997013,"station_name":"Bekasi","is_transit":false,"i_lat":-6.236616},{"station_id":"KRI","time":4,"i_lat":-6.224515,"i_long":106.977657,"line":1,"transit":false,"is_transit":false,"station_name":"Kranji","distance":2520},{"is_transit":false,"transit":false,"i_lat":-6.219053,"line":1,"i_long":106.951283,"time":3,"distance":3097,"station_name":"Cakung","station_id":"CUK"},{"i_lat":-6.217455,"transit":false,"time":8,"is_transit":false,"i_long":106.939679,"distance":1385,"station_name":"Klenderbaru","station_id":"KLDB","line":1},{"is_transit":false,"distance":1305,"station_name":"Buaran","i_lat":-6.215568,"i_long":106.922662,"transit":false,"line":1,"station_id":"BUA","time":1},{"i_lat":-6.2135,"i_long":106.899548,"station_name":"Klender","station_id":"KLD","is_transit":false,"transit":false,"distance":3100,"line":1,"time":2},{"time":3,"line":1,"is_transit":true,"transit":true,"station_name":"Jatinegara","i_lat":-6.215091,"distance":3395,"i_long":106.86807400000001,"station_id":"JNG"},{"time":2,"i_long":106.861737,"line":11,"distance":1236,"is_transit":false,"station_name":"Pondok Jati","i_lat":-6.209188,"station_id":"POK","transit":false},{"station_id":"KMT","i_long":106.855437,"is_transit":false,"transit":false,"station_name":"Kramat","i_lat":-6.193792,"time":2,"distance":1829,"line":11},{"transit":false,"i_lat":-6.185975,"is_transit":false,"i_long":106.850107,"station_id":"GST","distance":973,"line":11,"station_name":"Gang Sentiong","time":1},{"transit":false,"is_transit":false,"time":8,"station_name":"Pasar Senen","distance":1567,"i_lat":-6.174784,"line":11,"station_id":"PSE","i_long":106.84368},{"time":4,"station_name":"Kemayoran","station_id":"KMO","distance":1436,"i_long":106.839204,"is_transit":false,"transit":false,"line":11,"i_lat":-6.161728},{"time":5,"station_id":"RJW","distance":1901,"station_name":"Rajawali","i_long":106.836569,"line":11,"is_transit":false,"i_lat":-6.14505,"transit":false},{"is_transit":true,"time":3,"station_name":"Kampung Bandan","i_lat":-6.132549,"station_id":"KPB","i_long":106.826365,"transit":true,"distance":1444,"line":4},{"time":3,"station_name":"Jakarta Kota","i_long":106.812439,"is_transit":true,"transit":true,"line":2,"station_id":"JAKK","distance":1364,"i_lat":-6.137569},{"i_long":106.820901,"i_lat":-6.141205,"transit":false,"distance":1264,"station_id":"JAY","line":2,"is_transit":false,"station_name":"Jayakarta","time":4},{"transit":false,"i_long":106.82482,"time":2,"i_lat":-6.149769,"station_id":"MGB","is_transit":false,"station_name":"Manggabesar","line":2,"distance":1080},{"is_transit":false,"i_long":106.827103,"distance":906,"transit":false,"time":2,"line":2,"station_name":"Sawah Besar","i_lat":-6.160725,"station_id":"SW"},{"i_long":106.828284,"transit":false,"line":2,"i_lat":-6.166716,"station_id":"JUA","time":2,"distance":1149,"station_name":"Juanda","is_transit":false},{"transit":false,"station_id":"GDD","distance":2015,"i_lat":-6.186295,"time":4,"i_long":106.832183,"line":2,"station_name":"Gondangdia","is_transit":false},{"station_id":"CKI","line":2,"station_name":"Cikini","distance":1750,"i_lat":-6.198556,"time":3,"i_long":106.840169,"transit":false,"is_transit":false},{"station_name":"Manggarai","transit":true,"i_long":106.84912,"station_id":"MRI","distance":1590,"is_transit":true,"line":2,"i_lat":-6.209883,"time":4},{"i_long":106.822649,"station_id":"SUD","station_name":"Sudirman","distance":3186,"transit":false,"is_transit":false,"time":4,"line":1,"i_lat":-6.202263},{"station_name":"Sudirman Baru","i_lat":-6.201433,"transit":false,"line":1,"is_transit":false,"distance":280,"station_id":"SUDB","time":1,"i_long":106.819881},{"is_transit":false,"station_id":"KAT","transit":false,"i_long":106.816351,"i_lat":-6.20132,"line":1,"station_name":"Karet","time":1,"distance":471},{"i_long":106.811091,"is_transit":true,"station_name":"Tanah Abang","time":5,"distance":2029,"i_lat":-6.185545,"transit":true,"line":1,"station_id":"THB"},{"station_name":"Palmerah","distance":3191,"i_long":106.79689,"station_id":"PLM","line":6,"is_transit":false,"transit":false,"i_lat":-6.207404,"time":6},{"transit":false,"line":6,"is_transit":false,"time":7,"station_name":"Kebayoran","station_id":"KBY","i_lat":-6.237242,"i_long":106.780334,"distance":3737},{"station_id":"PDJ","i_lat":-6.276362,"is_transit":false,"line":6,"i_long":106.74273,"distance":6218,"station_name":"Pondokranji","transit":false,"time":8},{"line":6,"i_lat":-6.288927,"distance":2179,"i_long":106.728916,"station_id":"JMU","station_name":"Jurangmangu","is_transit":false,"time":3,"transit":false},{"station_id":"SDM","i_long":106.712277,"i_lat":-6.296963,"distance":1994,"is_transit":false,"line":6,"transit":false,"station_name":"Sudimara","time":4},{"distance":4566,"i_lat":-6.314823,"i_long":106.675475,"station_id":"RU","is_transit":false,"time":6,"station_name":"Rawa Buntu","transit":false,"line":6},{"time":4,"is_transit":false,"distance":2413,"i_long":106.66566,"station_id":"SRP","line":6,"i_lat":-6.319871,"transit":false,"station_name":"Serpong"},{"is_transit":false,"time":4,"transit":false,"distance":1784,"station_id":"CSK","i_long":106.640411,"line":3,"i_lat":-6.32484,"station_name":"Cisauk"},{"i_lat":-6.329547,"is_transit":false,"station_id":"CC","time":4,"station_name":"Cicayur","distance":2519,"i_long":106.617853,"transit":false,"line":3},{"is_transit":false,"station_id":"PRP","time":8,"station_name":"Parung Panjang","i_lat":-6.3441410000000005,"line":6,"distance":5968,"transit":false,"i_long":106.568863},{"station_id":"CJT","time":9,"i_lat":-6.354349,"i_long":106.508482,"is_transit":false,"line":3,"transit":false,"distance":7025,"station_name":"Cilejit"},{"distance":2675,"i_lat":-6.338021,"i_long":106.491338,"station_id":"DAR","station_name":"Daru","line":0,"transit":false,"is_transit":false,"time":6},{"transit":false,"station_id":"TEJ","i_lat":-6.327251,"time":5,"line":6,"is_transit":false,"distance":3902,"i_long":106.460812,"station_name":"Tenjo"},{"i_long":106.425991,"station_id":"TGS","line":6,"distance":2974,"transit":false,"station_name":"Tigaraksa","is_transit":false,"time":5,"i_lat":-6.328533},{"i_lat":-6.33561,"is_transit":false,"transit":false,"distance":2651,"station_name":"Cikoya","i_long":106.411216,"line":3,"station_id":"CKY","time":3},{"station_id":"MJ","station_name":"Maja","time":4,"distance":1853,"i_long":106.394373,"transit":false,"line":6,"is_transit":false,"i_lat":-6.332307},{"i_lat":-6.334892,"i_long":106.332092,"station_id":"CTR","station_name":"Citeras","line":3,"time":10,"transit":false,"distance":7293,"is_transit":false}]]}