{"data":[[{"transit":false,"station_name":"Bekasi","station_id":"BKS","i_long":106.997013,"line":1,"is_transit":false,"distance":0,"i_lat":-6.236616,"time":0},{"i_lat":-6.224515,"distance":2520,"i_long":106.977657,"line":1,"time":4,"is_transit":false,"station_id":"KRI","station_name":"Kranji","transit":false},{"distance":3097,"station_name":"Cakung","transit":false,"i_lat":-6.219053,"is_transit":false,"i_long":106.951283,"line":1,"station_id":"CUK","time":3},{"i_lat":-6.217455,"station_name":"Klenderbaru","line":1,"is_transit":false,"station_id":"KLDB","i_long":106.939679,"time":8,"distance":1385,"transit":false},{"time":1,"is_transit":false,"distance":1305,"transit":false,"line":1,"i_lat":-6.215568,"i_long":106.922662,"station_id":"BUA","station_name":"Buaran"},{"station_id":"KLD","transit":false,"i_lat":-6.2135,"line":1,"distance":3100,"station_name":"Klender","i_long":106.899548,"is_transit":false,"time":2},{"line":1,"i_long":106.86807400000001,"transit":true,"is_transit":true,"station_name":"Jatinegara","i_lat":-6.215091,"time":3,"distance":3395,"station_id":"JNG"},{"transit":false,"is_transit":false,"distance":1236,"i_long":106.861737,"i_lat":-6.209188,"station_id":"POK","time":2,"station_name":"Pondok Jati","line":11}],[{"time":0,"line":1,"station_name":"Bekasi","i_long":106.997013,"is_transit":false,"station_id":"BKS","transit":false,"distance":0,"i_lat":-6.236616},{"time":4,"station_name":"Kranji","line":1,"is_transit":false,"transit":false,"i_long":106.977657,"distance":2520,"i_lat":-6.224515,"station_id":"KRI"},{"transit":false,"distance":3097,"i_long":106.951283,"station_id":"CUK","time":3,"is_transit":false,"station_name":"Cakung","i_lat":-6.219053,"line":1},{"i_lat":-6.217455,"station_name":"Klenderbaru","distance":1385,"i_long":106.939679,"transit":false,"station_id":"KLDB","line":1,"time":8,"is_transit":false},{"time":1,"i_lat":-6.215568,"station_name":"Buaran","station_id":"BUA","i_long":106.922662,"is_transit":false,"transit":false,"distance":1305,"line":1},{"transit":false,"i_long":106.899548,"i_lat":-6.2135,"station_id":"KLD","station_name":"Klender","line":1,"time":2,"distance":3100,"is_transit":false},{"transit":false,"i_lat":-6.215091,"i_long":106.86807400000001,"station_name":"Jatinegara","line":1,"station_id":"JNG","distance":3395,"time":3,"is_transit":false},{"i_lat":-6.212485,"line":1,"station_name":"Matraman","time":2,"transit":false,"is_transit":false,"i_long":106.858896,"distance":1377,"station_id":"MTR"},{"transit":false,"line":2,"i_long":106.84912,"is_transit":false,"station_id":"MRI","station_name":"Manggarai","distance":1275,"i_lat":-6.209883,"time":2},{"line":1,"station_name":"Sudirman","time":4,"transit":false,"is_transit":false,"station_id":"SUD","distance":3186,"i_lat":-6.202263,"i_long":106.822649},{"i_lat":-6.201433,"station_name":"Sudirman Baru","is_transit":false,"distance":280,"station_id":"SUDB","line":1,"i_long":106.819881,"time":1,"transit":false},{"i_lat":-6.20132,"is_transit":false,"transit":false,"line":1,"i_long":106.816351,"time":1,"distance":471,"station_id":"KAT","station_name":"Karet"},{"station_name":"Tanah Abang","is_transit":false,"time":5,"station_id":"THB","transit":false,"distance":2029,"line":1,"i_long":106.811091,"i_lat":-6.185545},{"is_transit":false,"transit":false,"time":8,"station_id":"DU","i_lat":-6.155215,"i_long":106.800832,"line":1,"station_name":"Duri","distance":3632},{"i_lat":-6.144674,"transit":false,"is_transit":false,"distance":1230,"time":4,"station_name":"Angke","i_long":106.79867,"line":1,"station_id":"AK"},{"is_transit":true,"distance":4102,"time":9,"i_lat":-6.132549,"transit":true,"i_long":106.826365,"line":4,"station_id":"KPB","station_name":"Kampung Bandan"},{"distance":1444,"is_transit":false,"time":3,"station_id":"RJW","transit":false,"i_lat":-6.14505,"station_name":"Rajawali","i_long":106.836569,"line":11},{"is_transit":false,"i_lat":-6.161728,"i_long":106.839204,"station_id":"KMO","time":5,"line":11,"station_name":"Kemayoran","distance":1901,"transit":false},{"distance":1436,"is_transit":false,"i_lat":-6.174784,"station_name":"Pasar Senen","station_id":"PSE","time":4,"transit":false,"i_long":106.84368,"line":11},{"line":11,"station_id":"GST","time":8,"transit":false,"station_name":"Gang Sentiong","is_transit":false,"distance":1567,"i_long":106.850107,"i_lat":-6.185975},{"i_long":106.855437,"station_id":"KMT","distance":973,"time":1,"transit":false,"is_transit":false,"station_name":"Kramat","line":11,"i_lat":-6.193792},{"time":2,"is_transit":false,"transit":false,"i_long":106.861737,"station_name":"Pondok Jati","station_id":"POK","distance":1829,"line":11,"i_lat":-6.209188}],[{"line":1,"transit":false,"i_lat":-6.236616,"station_id":"BKS","time":0,"station_name":"Bekasi","is_transit":false,"distance":0,"i_long":106.997013},{"i_long":106.977657,"line":1,"is_transit":false,"time":4,"distance":2520,"i_lat":-6.224515,"station_id":"KRI","station_name":"Kranji","transit":false},{"is_transit":false,"i_long":106.951283,"distance":3097,"i_lat":-6.219053,"station_name":"Cakung","line":1,"time":3,"station_id":"CUK","transit":false},{"i_long":106.939679,"distance":1385,"line":1,"is_transit":false,"transit":false,"station_name":"Klenderbaru","i_lat":-6.217455,"station_id":"KLDB","time":8},{"line":1,"transit":false,"station_name":"Buaran","i_lat":-6.215568,"is_transit":false,"time":1,"distance":1305,"station_id":"BUA","i_long":106.922662},{"station_id":"KLD","is_transit":false,"station_name":"Klender","time":2,"distance":3100,"i_lat":-6.2135,"line":1,"transit":false,"i_long":106.899548},{"i_lat":-6.215091,"line":1,"station_name":"Jatinegara","distance":3395,"transit":false,"station_id":"JNG","is_transit":false,"time":3,"i_long":106.86807400000001},{"i_lat":-6.212485,"station_name":"Matraman","transit":false,"station_id":"MTR","time":2,"distance":1377,"i_long":106.858896,"is_transit":false,"line":1},{"time":2,"line":2,"station_id":"MRI","transit":true,"i_lat":-6.209883,"is_transit":true,"i_long":106.84912,"distance":1275,"station_name":"Manggarai"},{"transit":false,"is_transit":false,"station_name":"Cikini","i_lat":-6.198556,"distance":1590,"time":4,"line":2,"station_id":"CKI","i_long":106.840169},{"is_transit":false,"station_name":"Gondangdia","i_lat":-6.186295,"time":3,"transit":false,"station_id":"GDD","line":2,"distance":1750,"i_long":106.832183},{"station_name":"Juanda","line":2,"i_long":106.828284,"transit":false,"distance":2015,"is_transit":false,"time":4,"i_lat":-6.166716,"station_id":"JUA"},{"time":2,"station_name":"Sawah Besar","is_transit":false,"distance":1149,"transit":false,"i_lat":-6.160725,"i_long":106.827103,"station_id":"SW","line":2},{"distance":906,"transit":false,"i_lat":-6.149769,"line":2,"i_long":106.82482,"station_id":"MGB","station_name":"Manggabesar","time":2,"is_transit":false},{"transit":false,"i_lat":-6.141205,"time":2,"station_id":"JAY","station_name":"Jayakarta","distance":1080,"line":2,"is_transit":false,"i_long":106.820901},{"line":2,"is_transit":true,"transit":true,"station_id":"JAKK","station_name":"Jakarta Kota","distance":1264,"time":4,"i_long":106.812439,"i_lat":-6.137569},{"transit":true,"time":3,"station_name":"Kampung Bandan","i_lat":-6.132549,"i_long":106.826365,"station_id":"KPB","distance":1364,"line":4,"is_transit":true},{"time":3,"is_transit":false,"transit":false,"i_lat":-6.14505,"station_name":"Rajawali","i_long":106.836569,"station_id":"RJW","distance":1444,"line":11},{"station_name":"Kemayoran","i_long":106.839204,"time":5,"distance":1901,"i_lat":-6.161728,"station_id":"KMO","transit":false,"line":11,"is_transit":false},{"distance":1436,"i_long":106.84368,"line":11,"i_lat":-6.174784,"station_id":"PSE","is_transit":false,"transit":false,"time":4,"station_name":"Pasar Senen"},{"i_long":106.850107,"distance":1567,"line":11,"time":8,"is_transit":false,"i_lat":-6.185975,"station_name":"Gang Sentiong","station_id":"GST","transit":false},{"transit":false,"distance":973,"is_transit":false,"i_lat":-6.193792,"line":11,"i_long":106.855437,"station_id":"KMT","time":1,"station_name":"Kramat"},{"i_lat":-6.209188,"i_long":106.861737,"distance":1829,"station_name":"Pondok Jati","line":11,"station_id":"POK","is_transit":false,"time":2,"transit":false}]]}