{"data":[[{"is_transit":false,"i_long":106.997013,"distance":0,"station_id":"BKS","transit":false,"line":1,"station_name":"Bekasi","time":0,"i_lat":-6.236616},{"line":1,"station_name":"Kranji","station_id":"KRI","i_long":106.977657,"distance":2520,"is_transit":false,"transit":false,"i_lat":-6.224515,"time":4},{"i_long":106.951283,"time":3,"station_id":"CUK","line":1,"station_name":"Cakung","transit":false,"i_lat":-6.219053,"distance":3097,"is_transit":false},{"station_name":"Klenderbaru","i_lat":-6.217455,"is_transit":false,"transit":false,"station_id":"KLDB","i_long":106.939679,"distance":1385,"line":1,"time":8},{"i_long":106.922662,"station_name":"Buaran","transit":false,"time":1,"line":1,"station_id":"BUA","is_transit":false,"i_lat":-6.215568,"distance":1305},{"station_id":"KLD","station_name":"Klender","distance":3100,"i_lat":-6.2135,"i_long":106.899548,"transit":false,"time":2,"is_transit":false,"line":1},{"is_transit":false,"station_id":"JNG","distance":3395,"i_lat":-6.215091,"transit":false,"time":3,"station_name":"Jatinegara","line":1,"i_long":106.86807400000001},{"i_long":106.858896,"station_name":"Matraman","is_transit":false,"line":1,"time":2,"distance":1377,"transit":false,"i_lat":-6.212485,"station_id":"MTR"},{"transit":false,"station_name":"Manggarai","is_transit":false,"distance":1275,"i_lat":-6.209883,"line":2,"i_long":106.84912,"time":2,"station_id":"MRI"},{"time":4,"station_id":"SUD","i_lat":-6.202263,"i_long":106.822649,"is_transit":false,"transit":false,"distance":3186,"line":1,"station_name":"Sudirman"},{"transit":false,"is_transit":false,"line":1,"distance":280,"time":1,"station_id":"SUDB","station_name":"Sudirman Baru","i_long":106.819881,"i_lat":-6.201433},{"time":1,"transit":false,"station_id":"KAT","station_name":"Karet","i_lat":-6.20132,"line":1,"i_long":106.816351,"is_transit":false,"distance":471},{"distance":2029,"station_name":"Tanah Abang","i_lat":-6.185545,"transit":true,"time":5,"station_id":"THB","is_transit":true,"line":1,"i_long":106.811091},{"distance":3191,"i_long":106.79689,"time":6,"station_id":"PLM","is_transit":false,"station_name":"Palmerah","transit":false,"i_lat":-6.207404,"line":6},{"distance":3737,"i_lat":-6.237242,"i_long":106.780334,"time":7,"station_id":"KBY","is_transit":false,"station_name":"Kebayoran","line":6,"transit":false},{"line":6,"time":8,"station_name":"Pondokranji","i_lat":-6.276362,"transit":false,"is_transit":false,"distance":6218,"station_id":"PDJ","i_long":106.74273},{"time":3,"distance":2179,"station_id":"JMU","station_name":"Jurangmangu","transit":false,"line":6,"i_long":106.728916,"is_transit":false,"i_lat":-6.288927},{"distance":1994,"station_id":"SDM","i_lat":-6.296963,"i_long":106.712277,"is_transit":false,"transit":false,"line":6,"time":4,"station_name":"Sudimara"}],[{"is_transit":false,"i_long":106.997013,"i_lat":-6.236616,"distance":0,"time":0,"station_id":"BKS","station_name":"Bekasi","transit":false,"line":1},{"i_lat":-6.224515,"line":1,"transit":false,"i_long":106.977657,"is_transit":false,"distance":2520,"time":4,"station_id":"KRI","station_name":"Kranji"},{"i_long":106.951283,"distance":3097,"line":1,"is_transit":false,"i_lat":-6.219053,"transit":false,"time":3,"station_name":"Cakung","station_id":"CUK"},{"time":8,"is_transit":false,"station_name":"Klenderbaru","i_lat":-6.217455,"line":1,"transit":false,"station_id":"KLDB","i_long":106.939679,"distance":1385},{"transit":false,"time":1,"i_lat":-6.215568,"distance":1305,"line":1,"i_long":106.922662,"station_name":"Buaran","is_transit":false,"station_id":"BUA"},{"is_transit":false,"distance":3100,"station_name":"Klender","i_long":106.899548,"station_id":"KLD","transit":false,"line":1,"i_lat":-6.2135,"time":2},{"time":3,"distance":3395,"line":1,"is_transit":true,"transit":true,"station_name":"Jatinegara","i_lat":-6.215091,"i_long":106.86807400000001,"station_id":"JNG"},{"station_name":"Pondok Jati","station_id":"POK","line":11,"time":2,"i_lat":-6.209188,"transit":false,"i_long":106.861737,"distance":1236,"is_transit":false},{"station_id":"KMT","i_lat":-6.193792,"is_transit":false,"time":2,"line":11,"station_name":"Kramat","transit":false,"distance":1829,"i_long":106.855437},{"is_transit":false,"transit":false,"time":1,"station_id":"GST","station_name":"Gang Sentiong","i_long":106.850107,"distance":973,"i_lat":-6.185975,"line":11},{"time":8,"is_transit":false,"transit":false,"station_name":"Pasar Senen","line":11,"i_lat":-6.174784,"i_long":106.84368,"station_id":"PSE","distance":1567},{"is_transit":false,"station_name":"Kemayoran","time":4,"line":11,"transit":false,"i_long":106.839204,"station_id":"KMO","distance":1436,"i_lat":-6.161728},{"i_lat":-6.14505,"station_name":"Rajawali","station_id":"RJW","distance":1901,"transit":false,"time":5,"is_transit":false,"i_long":106.836569,"line":11},{"time":3,"station_name":"Kampung Bandan","distance":1444,"i_lat":-6.132549,"i_long":106.826365,"is_transit":true,"transit":true,"line":4,"station_id":"KPB"},{"line":1,"i_lat":-6.144674,"time":9,"station_name":"Angke","distance":4102,"is_transit":false,"station_id":"AK","transit":false,"i_long":106.79867},{"transit":false,"line":1,"i_lat":-6.155215,"is_transit":false,"i_long":106.800832,"distance":1230,"time":4,"station_id":"DU","station_name":"Duri"},{"station_id":"THB","transit":true,"is_transit":true,"time":8,"i_lat":-6.185545,"distance":3632,"station_name":"Tanah Abang","i_long":106.811091,"line":1},{"is_transit":false,"i_lat":-6.207404,"line":6,"transit":false,"station_id":"PLM","time":6,"distance":3191,"station_name":"Palmerah","i_long":106.79689},{"i_long":106.780334,"station_id":"KBY","i_lat":-6.237242,"is_transit":false,"time":7,"line":6,"station_name":"Kebayoran","distance":3737,"transit":false},{"is_transit":false,"line":6,"station_id":"PDJ","transit":false,"i_lat":-6.276362,"station_name":"Pondokranji","time":8,"i_long":106.74273,"distance":6218},{"is_transit":false,"i_long":106.728916,"station_id":"JMU","transit":false,"time":3,"station_name":"Jurangmangu","line":6,"distance":2179,"i_lat":-6.288927},{"distance":1994,"time":4,"transit":false,"station_name":"Sudimara","is_transit":false,"i_long":106.712277,"i_lat":-6.296963,"station_id":"SDM","line":6}],[{"i_lat":-6.236616,"distance":0,"transit":false,"is_transit":false,"station_id":"BKS","station_name":"Bekasi","line":1,"time":0,"i_long":106.997013},{"time":4,"is_transit":false,"station_id":"KRI","distance":2520,"transit":false,"line":1,"station_name":"Kranji","i_long":106.977657,"i_lat":-6.224515},{"distance":3097,"i_lat":-6.219053,"transit":false,"station_id":"CUK","time":3,"station_name":"Cakung","i_long":106.951283,"line":1,"is_transit":false},{"station_id":"KLDB","time":8,"station_name":"Klenderbaru","is_transit":false,"line":1,"transit":false,"i_long":106.939679,"i_lat":-6.217455,"distance":1385},{"distance":1305,"is_transit":false,"station_name":"Buaran","time":1,"station_id":"BUA","i_lat":-6.215568,"i_long":106.922662,"line":1,"transit":false},{"transit":false,"i_long":106.899548,"time":2,"station_name":"Klender","i_lat":-6.2135,"is_transit":false,"line":1,"distance":3100,"station_id":"KLD"},{"transit":false,"station_id":"JNG","is_transit":false,"station_name":"Jatinegara","i_lat":-6.215091,"line":1,"distance":3395,"i_long":106.86807400000001,"time":3},{"station_name":"Matraman","i_lat":-6.212485,"distance":1377,"time":2,"is_transit":false,"transit":false,"i_long":106.858896,"line":1,"station_id":"MTR"},{"station_name":"Manggarai","distance":1275,"transit":true,"i_long":106.84912,"line":2,"station_id":"MRI","time":2,"is_transit":true,"i_lat":-6.209883},{"station_id":"CKI","i_lat":-6.198556,"line":2,"distance":1590,"i_long":106.840169,"time":4,"is_transit":false,"transit":false,"station_name":"Cikini"},{"is_transit":false,"transit":false,"i_long":106.832183,"station_name":"Gondangdia","i_lat":-6.186295,"station_id":"GDD","line":2,"distance":1750,"time":3},{"station_id":"JUA","distance":2015,"station_name":"Juanda","i_long":106.828284,"is_transit":false,"transit":false,"line":2,"time":4,"i_lat":-6.166716},{"distance":1149,"transit":false,"is_transit":false,"i_long":106.827103,"station_name":"Sawah Besar","i_lat":-6.160725,"line":2,"station_id":"SW","time":2},{"is_transit":false,"station_id":"MGB","i_long":106.82482,"i_lat":-6.149769,"transit":false,"line":2,"time":2,"distance":906,"station_name":"Manggabesar"},{"is_transit":false,"distance":1080,"station_id":"JAY","station_name":"Jayakarta","i_long":106.820901,"line":2,"transit":false,"i_lat":-6.141205,"time":2},{"transit":true,"time":4,"is_transit":true,"i_lat":-6.137569,"station_id":"JAKK","i_long":106.812439,"station_name":"Jakarta Kota","distance":1264,"line":2},{"i_long":106.826365,"station_name":"Kampung Bandan","station_id":"KPB","time":3,"is_transit":true,"distance":1364,"i_lat":-6.132549,"transit":true,"line":4},{"i_long":106.79867,"is_transit":false,"station_name":"Angke","station_id":"AK","i_lat":-6.144674,"line":1,"transit":false,"time":9,"distance":4102},{"line":1,"distance":1230,"station_name":"Duri","station_id":"DU","transit":false,"i_lat":-6.155215,"time":4,"i_long":106.800832,"is_transit":false},{"i_long":106.811091,"line":1,"distance":3632,"station_id":"THB","transit":true,"station_name":"Tanah Abang","is_transit":true,"i_lat":-6.185545,"time":8},{"i_long":106.79689,"time":6,"station_id":"PLM","distance":3191,"station_name":"Palmerah","i_lat":-6.207404,"is_transit":false,"transit":false,"line":6},{"line":6,"station_id":"KBY","is_transit":false,"distance":3737,"transit":false,"station_name":"Kebayoran","i_lat":-6.237242,"i_long":106.780334,"time":7},{"is_transit":false,"station_name":"Pondokranji","station_id":"PDJ","time":8,"i_long":106.74273,"line":6,"i_lat":-6.276362,"distance":6218,"transit":false},{"station_id":"JMU","time":3,"distance":2179,"i_lat":-6.288927,"transit":false,"station_name":"Jurangmangu","is_transit":false,"i_long":106.728916,"line":6},{"distance":1994,"i_long":106.712277,"transit":false,"i_lat":-6.296963,"station_id":"SDM","is_transit":false,"station_name":"Sudimara","line":6,"time":4}],[{"distance":0,"line":1,"station_id":"BKS","station_name":"Bekasi","time":0,"i_long":106.997013,"i_lat":-6.236616,"is_transit":false,"transit":false},{"distance":2520,"is_transit":false,"transit":false,"line":1,"time":4,"station_id":"KRI","i_lat":-6.224515,"i_long":106.977657,"station_name":"Kranji"},{"line":1,"station_id":"CUK","is_transit":false,"station_name":"Cakung","distance":3097,"i_lat":-6.219053,"i_long":106.951283,"time":3,"transit":false},{"distance":1385,"station_name":"Klenderbaru","is_transit":false,"transit":false,"i_lat":-6.217455,"i_long":106.939679,"line":1,"station_id":"KLDB","time":8},{"transit":false,"i_lat":-6.215568,"distance":1305,"station_id":"BUA","is_transit":false,"i_long":106.922662,"line":1,"station_name":"Buaran","time":1},{"time":2,"distance":3100,"i_long":106.899548,"is_transit":false,"i_lat":-6.2135,"station_name":"Klender","line":1,"station_id":"KLD","transit":false},{"i_long":106.86807400000001,"distance":3395,"station_name":"Jatinegara","station_id":"JNG","time":3,"i_lat":-6.215091,"transit":true,"is_transit":true,"line":1},{"time":2,"transit":false,"i_long":106.861737,"is_transit":false,"line":11,"station_id":"POK","i_lat":-6.209188,"distance":1236,"station_name":"Pondok Jati"},{"distance":1829,"i_lat":-6.193792,"station_name":"Kramat","is_transit":false,"station_id":"KMT","transit":false,"time":2,"i_long":106.855437,"line":11},{"line":11,"time":1,"transit":false,"is_transit":false,"i_long":106.850107,"station_id":"GST","i_lat":-6.185975,"distance":973,"station_name":"Gang Sentiong"},{"time":8,"is_transit":false,"transit":false,"line":11,"i_long":106.84368,"station_id":"PSE","station_name":"Pasar Senen","i_lat":-6.174784,"distance":1567},{"i_lat":-6.161728,"is_transit":false,"distance":1436,"time":4,"station_name":"Kemayoran","transit":false,"line":11,"station_id":"KMO","i_long":106.839204},{"is_transit":false,"distance":1901,"station_id":"RJW","i_lat":-6.14505,"time":5,"transit":false,"station_name":"Rajawali","i_long":106.836569,"line":11},{"station_name":"Kampung Bandan","time":3,"i_lat":-6.132549,"i_long":106.826365,"is_transit":true,"station_id":"KPB","transit":true,"line":4,"distance":1444},{"i_long":106.812439,"station_id":"JAKK","station_name":"Jakarta Kota","transit":true,"distance":1364,"i_lat":-6.137569,"time":3,"line":2,"is_transit":true},{"line":2,"is_transit":false,"i_lat":-6.141205,"station_name":"Jayakarta","station_id":"JAY","transit":false,"i_long":106.820901,"distance":1264,"time":4},{"distance":1080,"i_lat":-6.149769,"station_name":"Manggabesar","is_transit":false,"time":2,"station_id":"MGB","line":2,"transit":false,"i_long":106.82482},{"transit":false,"i_lat":-6.160725,"i_long":106.827103,"station_id":"SW","distance":906,"station_name":"Sawah Besar","line":2,"is_transit":false,"time":2},{"is_transit":false,"time":2,"station_id":"JUA","transit":false,"i_lat":-6.166716,"distance":1149,"line":2,"i_long":106.828284,"station_name":"Juanda"},{"distance":2015,"station_name":"Gondangdia","time":4,"i_lat":-6.186295,"i_long":106.832183,"station_id":"GDD","transit":false,"line":2,"is_transit":false},{"i_lat":-6.198556,"time":3,"is_transit":false,"station_id":"CKI","transit":false,"i_long":106.840169,"line":2,"station_name":"Cikini","distance":1750},{"i_long":106.84912,"line":2,"distance":1590,"is_transit":true,"station_name":"Manggarai","transit":true,"station_id":"MRI","i_lat":-6.209883,"time":4},{"is_transit":false,"line":1,"distance":3186,"station_id":"SUD","transit":false,"station_name":"Sudirman","i_long":106.822649,"time":4,"i_lat":-6.202263},{"distance":280,"line":1,"transit":false,"time":1,"is_transit":false,"i_lat":-6.201433,"station_name":"Sudirman Baru","station_id":"SUDB","i_long":106.819881},{"distance":471,"station_id":"KAT","station_name":"Karet","transit":false,"i_long":106.816351,"line":1,"i_lat":-6.20132,"is_transit":false,"time":1},{"station_name":"Tanah Abang","i_lat":-6.185545,"i_long":106.811091,"station_id":"THB","is_transit":true,"time":5,"distance":2029,"transit":true,"line":1},{"time":6,"station_name":"Palmerah","line":6,"is_transit":false,"distance":3191,"transit":false,"i_lat":-6.207404,"station_id":"PLM","i_long":106.79689},{"transit":false,"station_id":"KBY","i_long":106.780334,"is_transit":false,"distance":3737,"station_name":"Kebayoran","i_lat":-6.237242,"time":7,"line":6},{"i_long":106.74273,"time":8,"i_lat":-6.276362,"distance":6218,"transit":false,"station_id":"PDJ","is_transit":false,"station_name":"Pondokranji","line":6},{"line":6,"distance":2179,"is_transit":false,"transit":false,"station_id":"JMU","i_long":106.728916,"time":3,"station_name":"Jurangmangu","i_lat":-6.288927},{"station_name":"Sudimara","i_lat":-6.296963,"station_id":"SDM","line":6,"is_transit":false,"time":4,"transit":false,"distance":1994,"i_long":106.712277}]]}