{"data":[[{"line":1,"time":0,"distance":0,"i_long":106.997013,"station_id":"BKS","is_transit":false,"i_lat":-6.236616,"station_name":"Bekasi","transit":false},{"i_long":106.977657,"distance":2520,"is_transit":false,"station_name":"Kranji","line":1,"time":4,"station_id":"KRI","transit":false,"i_lat":-6.224515},{"i_long":106.951283,"time":3,"distance":3097,"station_name":"Cakung","is_transit":false,"i_lat":-6.219053,"station_id":"CUK","transit":false,"line":1},{"i_lat":-6.217455,"time":8,"station_name":"Klenderbaru","distance":1385,"station_id":"KLDB","is_transit":false,"i_long":106.939679,"line":1,"transit":false},{"distance":1305,"is_transit":false,"time":1,"station_name":"Buaran","i_lat":-6.215568,"line":1,"transit":false,"i_long":106.922662,"station_id":"BUA"},{"station_name":"Klender","is_transit":false,"transit":false,"i_lat":-6.2135,"line":1,"distance":3100,"i_long":106.899548,"station_id":"KLD","time":2},{"station_name":"Jatinegara","i_long":106.86807400000001,"station_id":"JNG","is_transit":false,"transit":false,"i_lat":-6.215091,"time":3,"distance":3395,"line":1},{"transit":false,"distance":1377,"i_lat":-6.212485,"station_id":"MTR","time":2,"is_transit":false,"i_long":106.858896,"line":1,"station_name":"Matraman"}],[{"distance":0,"time":0,"station_id":"BKS","is_transit":false,"transit":false,"i_lat":-6.236616,"i_long":106.997013,"line":1,"station_name":"Bekasi"},{"station_id":"KRI","i_lat":-6.224515,"time":4,"station_name":"Kranji","line":1,"distance":2520,"transit":false,"i_long":106.977657,"is_transit":false},{"line":1,"station_name":"Cakung","transit":false,"i_lat":-6.219053,"station_id":"CUK","is_transit":false,"time":3,"distance":3097,"i_long":106.951283},{"time":8,"distance":1385,"line":1,"station_id":"KLDB","transit":false,"station_name":"Klenderbaru","i_long":106.939679,"is_transit":false,"i_lat":-6.217455},{"station_name":"Buaran","time":1,"distance":1305,"i_lat":-6.215568,"line":1,"transit":false,"is_transit":false,"station_id":"BUA","i_long":106.922662},{"i_lat":-6.2135,"station_id":"KLD","station_name":"Klender","is_transit":false,"distance":3100,"time":2,"transit":false,"line":1,"i_long":106.899548},{"station_name":"Jatinegara","i_lat":-6.215091,"i_long":106.86807400000001,"distance":3395,"time":3,"station_id":"JNG","line":1,"is_transit":true,"transit":true},{"time":2,"distance":1236,"is_transit":false,"line":11,"station_name":"Pondok Jati","i_lat":-6.209188,"station_id":"POK","i_long":106.861737,"transit":false},{"distance":1829,"is_transit":false,"station_name":"Kramat","line":11,"station_id":"KMT","transit":false,"time":2,"i_lat":-6.193792,"i_long":106.855437},{"transit":false,"is_transit":false,"time":1,"i_lat":-6.185975,"station_name":"Gang Sentiong","i_long":106.850107,"line":11,"station_id":"GST","distance":973},{"i_lat":-6.174784,"station_name":"Pasar Senen","is_transit":false,"transit":false,"distance":1567,"i_long":106.84368,"station_id":"PSE","line":11,"time":8},{"transit":false,"time":4,"distance":1436,"is_transit":false,"line":11,"station_id":"KMO","i_lat":-6.161728,"station_name":"Kemayoran","i_long":106.839204},{"i_lat":-6.14505,"station_id":"RJW","distance":1901,"i_long":106.836569,"station_name":"Rajawali","transit":false,"time":5,"line":11,"is_transit":false},{"time":3,"transit":true,"station_id":"KPB","station_name":"Kampung Bandan","i_lat":-6.132549,"is_transit":true,"i_long":106.826365,"line":4,"distance":1444},{"time":9,"transit":false,"station_id":"AK","line":1,"is_transit":false,"i_lat":-6.144674,"station_name":"Angke","distance":4102,"i_long":106.79867},{"station_name":"Duri","transit":false,"i_lat":-6.155215,"distance":1230,"time":4,"line":1,"station_id":"DU","is_transit":false,"i_long":106.800832},{"is_transit":false,"i_lat":-6.185545,"line":1,"station_id":"THB","time":8,"transit":false,"i_long":106.811091,"station_name":"Tanah Abang","distance":3632},{"station_id":"KAT","i_lat":-6.20132,"time":5,"i_long":106.816351,"distance":2029,"line":1,"station_name":"Karet","is_transit":false,"transit":false},{"time":1,"station_name":"Sudirman Baru","i_long":106.819881,"i_lat":-6.201433,"transit":false,"distance":471,"is_transit":false,"line":1,"station_id":"SUDB"},{"i_long":106.822649,"distance":280,"transit":false,"i_lat":-6.202263,"time":1,"station_id":"SUD","is_transit":false,"line":1,"station_name":"Sudirman"},{"time":4,"is_transit":false,"line":2,"transit":false,"station_id":"MRI","i_lat":-6.209883,"distance":3186,"station_name":"Manggarai","i_long":106.84912},{"i_lat":-6.212485,"station_id":"MTR","time":2,"station_name":"Matraman","is_transit":false,"transit":false,"i_long":106.858896,"line":1,"distance":1275}],[{"is_transit":false,"i_lat":-6.236616,"station_name":"Bekasi","distance":0,"line":1,"station_id":"BKS","i_long":106.997013,"transit":false,"time":0},{"i_lat":-6.224515,"line":1,"i_long":106.977657,"time":4,"station_id":"KRI","station_name":"Kranji","is_transit":false,"transit":false,"distance":2520},{"is_transit":false,"station_id":"CUK","distance":3097,"time":3,"transit":false,"i_lat":-6.219053,"station_name":"Cakung","i_long":106.951283,"line":1},{"station_name":"Klenderbaru","transit":false,"i_long":106.939679,"distance":1385,"station_id":"KLDB","time":8,"i_lat":-6.217455,"is_transit":false,"line":1},{"transit":false,"i_long":106.922662,"station_id":"BUA","i_lat":-6.215568,"station_name":"Buaran","time":1,"is_transit":false,"line":1,"distance":1305},{"transit":false,"time":2,"is_transit":false,"station_id":"KLD","i_lat":-6.2135,"line":1,"distance":3100,"station_name":"Klender","i_long":106.899548},{"i_long":106.86807400000001,"time":3,"distance":3395,"station_id":"JNG","is_transit":true,"i_lat":-6.215091,"line":1,"station_name":"Jatinegara","transit":true},{"time":2,"i_lat":-6.209188,"station_id":"POK","distance":1236,"i_long":106.861737,"line":11,"station_name":"Pondok Jati","is_transit":false,"transit":false},{"time":2,"i_long":106.855437,"station_name":"Kramat","transit":false,"station_id":"KMT","i_lat":-6.193792,"is_transit":false,"distance":1829,"line":11},{"i_long":106.850107,"station_id":"GST","i_lat":-6.185975,"line":11,"is_transit":false,"station_name":"Gang Sentiong","distance":973,"transit":false,"time":1},{"station_name":"Pasar Senen","i_lat":-6.174784,"i_long":106.84368,"time":8,"distance":1567,"line":11,"is_transit":false,"transit":false,"station_id":"PSE"},{"time":4,"station_id":"KMO","station_name":"Kemayoran","is_transit":false,"line":11,"distance":1436,"transit":false,"i_long":106.839204,"i_lat":-6.161728},{"time":5,"distance":1901,"i_long":106.836569,"is_transit":false,"station_name":"Rajawali","transit":false,"line":11,"i_lat":-6.14505,"station_id":"RJW"},{"station_name":"Kampung Bandan","distance":1444,"is_transit":true,"i_long":106.826365,"transit":true,"time":3,"i_lat":-6.132549,"station_id":"KPB","line":4},{"i_long":106.812439,"time":3,"transit":true,"i_lat":-6.137569,"station_name":"Jakarta Kota","line":2,"station_id":"JAKK","is_transit":true,"distance":1364},{"i_lat":-6.141205,"time":4,"is_transit":false,"transit":false,"i_long":106.820901,"station_id":"JAY","station_name":"Jayakarta","distance":1264,"line":2},{"distance":1080,"i_lat":-6.149769,"station_name":"Manggabesar","is_transit":false,"line":2,"transit":false,"time":2,"i_long":106.82482,"station_id":"MGB"},{"time":2,"is_transit":false,"transit":false,"station_id":"SW","station_name":"Sawah Besar","i_lat":-6.160725,"line":2,"i_long":106.827103,"distance":906},{"i_long":106.828284,"is_transit":false,"transit":false,"line":2,"time":2,"i_lat":-6.166716,"station_name":"Juanda","distance":1149,"station_id":"JUA"},{"line":2,"station_name":"Gondangdia","station_id":"GDD","time":4,"i_lat":-6.186295,"transit":false,"is_transit":false,"distance":2015,"i_long":106.832183},{"station_id":"CKI","i_long":106.840169,"line":2,"is_transit":false,"transit":false,"time":3,"i_lat":-6.198556,"station_name":"Cikini","distance":1750},{"time":4,"i_lat":-6.209883,"transit":true,"station_name":"Manggarai","station_id":"MRI","is_transit":true,"distance":1590,"line":2,"i_long":106.84912},{"distance":1275,"station_id":"MTR","time":2,"transit":false,"i_lat":-6.212485,"is_transit":false,"i_long":106.858896,"station_name":"Matraman","line":1}]]}