{"data":[[{"time":0,"transit":false,"i_lat":-6.236616,"station_name":"Bekasi","station_id":"BKS","is_transit":false,"distance":0,"i_long":106.997013,"line":0},{"distance":2520,"transit":false,"time":4,"station_name":"Kranji","station_id":"KRI","i_lat":-6.224515,"i_long":106.977657,"line":1,"is_transit":false},{"time":3,"i_lat":-6.219053,"distance":3097,"is_transit":false,"station_name":"Cakung","transit":false,"station_id":"CUK","line":0,"i_long":106.951283},{"station_id":"KLDB","distance":1385,"i_long":106.939679,"station_name":"Klenderbaru","i_lat":-6.217455,"time":8,"line":1,"transit":false,"is_transit":false},{"line":0,"is_transit":false,"i_lat":-6.215568,"station_name":"Buaran","distance":1305,"time":1,"i_long":106.922662,"transit":false,"station_id":"BUA"},{"i_lat":-6.2135,"transit":false,"line":1,"distance":3100,"i_long":106.899548,"time":2,"station_id":"KLD","station_name":"Klender","is_transit":false},{"time":3,"distance":3395,"transit":false,"station_id":"JNG","i_lat":-6.215091,"is_transit":true,"i_long":106.86807400000001,"station_name":"Jatinegara","line":0}]]}