{"data":[[{"transit":false,"distance":0,"i_lat":-6.236616,"time":0,"i_long":106.997013,"station_name":"Bekasi","is_transit":false,"station_id":"BKS","line":1},{"distance":2520,"station_id":"KRI","i_long":106.977657,"station_name":"Kranji","line":1,"time":4,"transit":false,"is_transit":false,"i_lat":-6.224515},{"transit":false,"time":3,"line":1,"station_name":"Cakung","distance":3097,"i_lat":-6.219053,"i_long":106.951283,"is_transit":false,"station_id":"CUK"},{"line":1,"i_long":106.939679,"time":8,"is_transit":false,"transit":false,"i_lat":-6.217455,"station_name":"Klenderbaru","distance":1385,"station_id":"KLDB"},{"distance":1305,"i_long":106.922662,"line":1,"is_transit":false,"station_id":"BUA","transit":false,"time":1,"station_name":"Buaran","i_lat":-6.215568},{"is_transit":false,"i_lat":-6.2135,"line":1,"station_id":"KLD","station_name":"Klender","distance":3100,"i_long":106.899548,"transit":false,"time":2},{"is_transit":false,"i_long":106.86807400000001,"transit":false,"station_name":"Jatinegara","i_lat":-6.215091,"line":1,"time":3,"distance":3395,"station_id":"JNG"},{"station_id":"MTR","station_name":"Matraman","distance":1377,"i_long":106.858896,"time":2,"line":1,"transit":false,"is_transit":false,"i_lat":-6.212485},{"i_long":106.84912,"i_lat":-6.209883,"is_transit":true,"transit":true,"station_id":"MRI","line":2,"time":2,"distance":1275,"station_name":"Manggarai"},{"distance":2610,"time":4,"i_long":106.857948,"transit":false,"is_transit":false,"station_id":"TEB","i_lat":-6.226659,"line":2,"station_name":"Tebet"},{"transit":false,"time":2,"i_lat":-6.242512,"i_long":106.856607,"station_name":"Cawang","line":2,"distance":1230,"is_transit":false,"station_id":"CW"},{"i_long":106.85449,"is_transit":false,"station_id":"DRN","time":3,"i_lat":-6.255332,"distance":1546,"line":2,"transit":false,"station_name":"Duren Kalibata"},{"is_transit":false,"station_name":"Pasar Minggu Baru","i_lat":-6.263214,"distance":824,"transit":false,"time":2,"station_id":"PSMB","i_long":106.851577,"line":2},{"time":2,"i_lat":-6.2842400000000005,"i_long":106.843999,"distance":2380,"station_id":"PSM","line":2,"transit":false,"is_transit":false,"station_name":"Pasar Minggu"},{"station_name":"Tanjung Barat","is_transit":false,"transit":false,"station_id":"TNT","time":4,"line":2,"i_lat":-6.3080680000000005,"i_long":106.838896,"distance":2820},{"line":2,"station_name":"Lenteng Agung","distance":2671,"i_long":106.832616,"station_id":"LNA","i_lat":-6.330363,"transit":false,"time":3,"is_transit":false},{"distance":1029,"line":2,"transit":false,"is_transit":false,"station_id":"UP","i_lat":-6.339291,"time":2,"station_name":"Univ. Pancasila","i_long":106.834175},{"station_name":"Univ. Indonesia","time":3,"line":2,"transit":false,"station_id":"UI","i_long":106.831474,"is_transit":false,"i_lat":-6.360749,"distance":2264},{"line":2,"transit":false,"time":2,"distance":1109,"station_name":"Pondok Cina","is_transit":false,"station_id":"POC","i_lat":-6.369073,"i_long":106.831114},{"distance":2727,"i_lat":-6.391065,"station_name":"Depokbaru","time":4,"line":2,"transit":false,"station_id":"DPB","i_long":106.819451,"is_transit":false},{"is_transit":false,"distance":1584,"time":3,"line":2,"i_lat":-6.405256,"transit":false,"station_name":"Depok","i_long":106.816926,"station_id":"DP"},{"time":6,"i_lat":-6.448811,"line":2,"is_transit":true,"station_id":"CTA","distance":5084,"station_name":"Citayam","transit":true,"i_long":106.800298},{"distance":0,"is_transit":false,"station_id":"PDRG","time":0,"station_name":"Pondok Rajeg","i_lat":-6.460735,"transit":false,"i_long":106.824374,"line":21},{"i_long":106.851978,"transit":false,"distance":0,"station_name":"Cibinong","time":0,"line":21,"i_lat":-6.46424,"station_id":"CBN","is_transit":false},{"i_lat":-6.466285,"line":21,"station_id":"NMO","i_long":106.905196,"distance":6527,"station_name":"Nambo","transit":false,"is_transit":false,"time":10}],[{"is_transit":false,"station_name":"Bekasi","station_id":"BKS","i_long":106.997013,"i_lat":-6.236616,"line":1,"time":0,"transit":false,"distance":0},{"time":4,"i_lat":-6.224515,"distance":2520,"station_name":"Kranji","i_long":106.977657,"line":1,"transit":false,"station_id":"KRI","is_transit":false},{"distance":3097,"i_long":106.951283,"i_lat":-6.219053,"transit":false,"time":3,"is_transit":false,"line":1,"station_name":"Cakung","station_id":"CUK"},{"line":1,"station_id":"KLDB","i_lat":-6.217455,"distance":1385,"transit":false,"station_name":"Klenderbaru","is_transit":false,"time":8,"i_long":106.939679},{"distance":1305,"is_transit":false,"station_name":"Buaran","time":1,"station_id":"BUA","i_lat":-6.215568,"transit":false,"i_long":106.922662,"line":1},{"i_long":106.899548,"line":1,"i_lat":-6.2135,"distance":3100,"time":2,"transit":false,"is_transit":false,"station_name":"Klender","station_id":"KLD"},{"station_name":"Jatinegara","transit":true,"station_id":"JNG","i_lat":-6.215091,"is_transit":true,"line":1,"distance":3395,"i_long":106.86807400000001,"time":3},{"distance":1236,"transit":false,"time":2,"line":11,"station_name":"Pondok Jati","station_id":"POK","i_long":106.861737,"is_transit":false,"i_lat":-6.209188},{"i_long":106.855437,"is_transit":false,"transit":false,"station_id":"KMT","station_name":"Kramat","time":2,"i_lat":-6.193792,"line":11,"distance":1829},{"distance":973,"line":11,"is_transit":false,"time":1,"i_lat":-6.185975,"transit":false,"station_id":"GST","station_name":"Gang Sentiong","i_long":106.850107},{"i_lat":-6.174784,"i_long":106.84368,"line":11,"station_name":"Pasar Senen","time":8,"station_id":"PSE","distance":1567,"transit":false,"is_transit":false},{"is_transit":false,"station_id":"KMO","i_lat":-6.161728,"i_long":106.839204,"distance":1436,"station_name":"Kemayoran","time":4,"transit":false,"line":11},{"line":11,"is_transit":false,"station_id":"RJW","station_name":"Rajawali","transit":false,"time":5,"i_lat":-6.14505,"distance":1901,"i_long":106.836569},{"transit":true,"i_long":106.826365,"station_id":"KPB","is_transit":true,"time":3,"distance":1444,"line":4,"i_lat":-6.132549,"station_name":"Kampung Bandan"},{"i_lat":-6.144674,"distance":4102,"is_transit":false,"transit":false,"station_id":"AK","line":1,"i_long":106.79867,"station_name":"Angke","time":9},{"i_lat":-6.155215,"station_name":"Duri","transit":false,"station_id":"DU","distance":1230,"time":4,"i_long":106.800832,"line":1,"is_transit":false},{"i_lat":-6.185545,"i_long":106.811091,"transit":false,"station_name":"Tanah Abang","time":8,"is_transit":false,"line":1,"distance":3632,"station_id":"THB"},{"distance":2029,"station_id":"KAT","time":5,"i_long":106.816351,"line":1,"i_lat":-6.20132,"transit":false,"is_transit":false,"station_name":"Karet"},{"station_id":"SUDB","transit":false,"station_name":"Sudirman Baru","i_long":106.819881,"is_transit":false,"distance":471,"time":1,"i_lat":-6.201433,"line":1},{"transit":false,"station_id":"SUD","i_lat":-6.202263,"time":1,"is_transit":false,"i_long":106.822649,"line":1,"distance":280,"station_name":"Sudirman"},{"time":4,"i_long":106.84912,"line":2,"is_transit":true,"station_id":"MRI","i_lat":-6.209883,"transit":true,"station_name":"Manggarai","distance":3186},{"i_lat":-6.226659,"i_long":106.857948,"line":2,"is_transit":false,"time":4,"transit":false,"station_name":"Tebet","distance":2610,"station_id":"TEB"},{"time":2,"i_lat":-6.242512,"transit":false,"station_name":"Cawang","line":2,"station_id":"CW","distance":1230,"i_long":106.856607,"is_transit":false},{"distance":1546,"transit":false,"is_transit":false,"i_long":106.85449,"time":3,"line":2,"station_id":"DRN","i_lat":-6.255332,"station_name":"Duren Kalibata"},{"station_id":"PSMB","i_lat":-6.263214,"i_long":106.851577,"time":2,"is_transit":false,"line":2,"transit":false,"distance":824,"station_name":"Pasar Minggu Baru"},{"station_id":"PSM","i_long":106.843999,"transit":false,"i_lat":-6.2842400000000005,"line":2,"is_transit":false,"station_name":"Pasar Minggu","time":2,"distance":2380},{"i_long":106.838896,"is_transit":false,"line":2,"station_id":"TNT","transit":false,"i_lat":-6.3080680000000005,"distance":2820,"station_name":"Tanjung Barat","time":4},{"i_lat":-6.330363,"distance":2671,"is_transit":false,"transit":false,"station_id":"LNA","i_long":106.832616,"line":2,"time":3,"station_name":"Lenteng Agung"},{"transit":false,"is_transit":false,"time":2,"line":2,"station_id":"UP","station_name":"Univ. Pancasila","i_long":106.834175,"distance":1029,"i_lat":-6.339291},{"i_long":106.831474,"distance":2264,"transit":false,"station_name":"Univ. Indonesia","is_transit":false,"time":3,"i_lat":-6.360749,"station_id":"UI","line":2},{"line":2,"i_long":106.831114,"i_lat":-6.369073,"is_transit":false,"transit":false,"station_id":"POC","time":2,"distance":1109,"station_name":"Pondok Cina"},{"distance":2727,"time":4,"is_transit":false,"i_long":106.819451,"station_name":"Depokbaru","station_id":"DPB","transit":false,"i_lat":-6.391065,"line":2},{"line":2,"station_id":"DP","time":3,"station_name":"Depok","transit":false,"i_long":106.816926,"distance":1584,"is_transit":false,"i_lat":-6.405256},{"station_name":"Citayam","is_transit":true,"distance":5084,"transit":true,"time":6,"station_id":"CTA","i_lat":-6.448811,"line":2,"i_long":106.800298},{"line":21,"time":0,"distance":0,"station_name":"Pondok Rajeg","transit":false,"i_lat":-6.460735,"i_long":106.824374,"is_transit":false,"station_id":"PDRG"},{"is_transit":false,"distance":0,"transit":false,"time":0,"i_lat":-6.46424,"line":21,"station_name":"Cibinong","i_long":106.851978,"station_id":"CBN"},{"station_id":"NMO","i_long":106.905196,"station_name":"Nambo","distance":6527,"i_lat":-6.466285,"line":21,"transit":false,"is_transit":false,"time":10}],[{"line":1,"distance":0,"i_long":106.997013,"station_name":"Bekasi","station_id":"BKS","time":0,"transit":false,"is_transit":false,"i_lat":-6.236616},{"i_long":106.977657,"time":4,"i_lat":-6.224515,"is_transit":false,"transit":false,"station_name":"Kranji","line":1,"distance":2520,"station_id":"KRI"},{"time":3,"transit":false,"station_id":"CUK","line":1,"i_lat":-6.219053,"station_name":"Cakung","is_transit":false,"i_long":106.951283,"distance":3097},{"station_id":"KLDB","i_lat":-6.217455,"time":8,"line":1,"transit":false,"is_transit":false,"station_name":"Klenderbaru","distance":1385,"i_long":106.939679},{"i_lat":-6.215568,"station_id":"BUA","i_long":106.922662,"distance":1305,"station_name":"Buaran","time":1,"line":1,"transit":false,"is_transit":false},{"line":1,"i_long":106.899548,"is_transit":false,"transit":false,"station_name":"Klender","i_lat":-6.2135,"station_id":"KLD","distance":3100,"time":2},{"is_transit":true,"station_id":"JNG","i_long":106.86807400000001,"transit":true,"line":1,"station_name":"Jatinegara","distance":3395,"time":3,"i_lat":-6.215091},{"station_id":"POK","i_lat":-6.209188,"transit":false,"i_long":106.861737,"station_name":"Pondok Jati","distance":1236,"time":2,"line":11,"is_transit":false},{"i_long":106.855437,"distance":1829,"time":2,"i_lat":-6.193792,"transit":false,"line":11,"is_transit":false,"station_id":"KMT","station_name":"Kramat"},{"transit":false,"station_id":"GST","line":11,"is_transit":false,"i_lat":-6.185975,"station_name":"Gang Sentiong","time":1,"i_long":106.850107,"distance":973},{"distance":1567,"transit":false,"station_name":"Pasar Senen","time":8,"is_transit":false,"station_id":"PSE","line":11,"i_lat":-6.174784,"i_long":106.84368},{"distance":1436,"station_id":"KMO","transit":false,"i_long":106.839204,"time":4,"station_name":"Kemayoran","i_lat":-6.161728,"is_transit":false,"line":11},{"i_lat":-6.14505,"is_transit":false,"line":11,"distance":1901,"transit":false,"station_name":"Rajawali","time":5,"i_long":106.836569,"station_id":"RJW"},{"is_transit":true,"distance":1444,"station_name":"Kampung Bandan","i_long":106.826365,"line":4,"station_id":"KPB","time":3,"transit":true,"i_lat":-6.132549},{"station_id":"JAKK","distance":1364,"line":2,"is_transit":true,"i_lat":-6.137569,"time":3,"station_name":"Jakarta Kota","transit":true,"i_long":106.812439},{"line":2,"transit":false,"i_lat":-6.141205,"is_transit":false,"distance":1264,"station_name":"Jayakarta","i_long":106.820901,"station_id":"JAY","time":4},{"i_long":106.82482,"transit":false,"station_id":"MGB","distance":1080,"is_transit":false,"station_name":"Manggabesar","i_lat":-6.149769,"line":2,"time":2},{"distance":906,"i_lat":-6.160725,"time":2,"station_id":"SW","station_name":"Sawah Besar","transit":false,"i_long":106.827103,"is_transit":false,"line":2},{"is_transit":false,"i_long":106.828284,"i_lat":-6.166716,"transit":false,"station_name":"Juanda","time":2,"station_id":"JUA","distance":1149,"line":2},{"i_lat":-6.186295,"line":2,"station_name":"Gondangdia","station_id":"GDD","time":4,"i_long":106.832183,"is_transit":false,"transit":false,"distance":2015},{"distance":1750,"i_lat":-6.198556,"station_name":"Cikini","i_long":106.840169,"is_transit":false,"transit":false,"line":2,"station_id":"CKI","time":3},{"distance":1590,"i_long":106.84912,"i_lat":-6.209883,"station_id":"MRI","time":4,"line":2,"transit":false,"station_name":"Manggarai","is_transit":false},{"transit":false,"i_long":106.857948,"i_lat":-6.226659,"line":2,"is_transit":false,"distance":2610,"station_id":"TEB","station_name":"Tebet","time":4},{"distance":1230,"line":2,"i_long":106.856607,"i_lat":-6.242512,"time":2,"is_transit":false,"transit":false,"station_name":"Cawang","station_id":"CW"},{"station_name":"Duren Kalibata","line":2,"is_transit":false,"transit":false,"i_long":106.85449,"station_id":"DRN","time":3,"i_lat":-6.255332,"distance":1546},{"i_lat":-6.263214,"i_long":106.851577,"distance":824,"line":2,"is_transit":false,"station_name":"Pasar Minggu Baru","time":2,"transit":false,"station_id":"PSMB"},{"time":2,"is_transit":false,"station_id":"PSM","station_name":"Pasar Minggu","transit":false,"line":2,"distance":2380,"i_lat":-6.2842400000000005,"i_long":106.843999},{"distance":2820,"line":2,"transit":false,"is_transit":false,"station_id":"TNT","i_long":106.838896,"i_lat":-6.3080680000000005,"time":4,"station_name":"Tanjung Barat"},{"distance":2671,"station_name":"Lenteng Agung","i_long":106.832616,"line":2,"station_id":"LNA","i_lat":-6.330363,"is_transit":false,"transit":false,"time":3},{"line":2,"transit":false,"station_id":"UP","distance":1029,"time":2,"i_long":106.834175,"is_transit":false,"station_name":"Univ. Pancasila","i_lat":-6.339291},{"is_transit":false,"station_name":"Univ. Indonesia","time":3,"i_long":106.831474,"station_id":"UI","line":2,"i_lat":-6.360749,"distance":2264,"transit":false},{"is_transit":false,"line":2,"transit":false,"i_lat":-6.369073,"i_long":106.831114,"time":2,"station_id":"POC","distance":1109,"station_name":"Pondok Cina"},{"i_long":106.819451,"station_id":"DPB","time":4,"transit":false,"line":2,"i_lat":-6.391065,"distance":2727,"is_transit":false,"station_name":"Depokbaru"},{"station_id":"DP","line":2,"is_transit":false,"distance":1584,"station_name":"Depok","i_long":106.816926,"transit":false,"i_lat":-6.405256,"time":3},{"i_lat":-6.448811,"i_long":106.800298,"line":2,"station_id":"CTA","station_name":"Citayam","is_transit":true,"transit":true,"distance":5084,"time":6},{"station_name":"Pondok Rajeg","is_transit":false,"i_long":106.824374,"line":21,"transit":false,"station_id":"PDRG","distance":0,"i_lat":-6.460735,"time":0},{"i_long":106.851978,"station_id":"CBN","transit":false,"time":0,"distance":0,"station_name":"Cibinong","is_transit":false,"i_lat":-6.46424,"line":21},{"transit":false,"station_id":"NMO","i_long":106.905196,"time":10,"is_transit":false,"line":21,"station_name":"Nambo","i_lat":-6.466285,"distance":6527}]]}