{"data":[[{"time":0,"station_id":"BKS","station_name":"Bekasi","transit":false,"i_lat":-6.236616,"i_long":106.997013,"line":1,"distance":0,"is_transit":false},{"station_id":"KRI","station_name":"Kranji","is_transit":false,"transit":false,"time":4,"i_lat":-6.224515,"i_long":106.977657,"line":1,"distance":2520},{"distance":3097,"station_id":"CUK","station_name":"Cakung","line":1,"transit":false,"i_lat":-6.219053,"is_transit":false,"time":3,"i_long":106.951283},{"distance":1385,"is_transit":false,"station_name":"Klenderbaru","transit":false,"time":8,"station_id":"KLDB","line":1,"i_long":106.939679,"i_lat":-6.217455},{"station_id":"BUA","distance":1305,"i_long":106.922662,"time":1,"is_transit":false,"transit":false,"i_lat":-6.215568,"line":1,"station_name":"Buaran"},{"station_id":"KLD","i_lat":-6.2135,"distance":3100,"transit":false,"line":1,"station_name":"Klender","time":2,"i_long":106.899548,"is_transit":false},{"station_id":"JNG","is_transit":false,"station_name":"Jatinegara","time":3,"distance":3395,"transit":false,"i_lat":-6.215091,"i_long":106.86807400000001,"line":1},{"station_id":"MTR","transit":false,"time":2,"is_transit":false,"station_name":"Matraman","i_long":106.858896,"distance":1377,"line":1,"i_lat":-6.212485},{"transit":true,"distance":1275,"time":2,"station_id":"MRI","station_name":"Manggarai","is_transit":true,"i_lat":-6.209883,"i_long":106.84912,"line":2},{"transit":false,"i_lat":-6.226659,"line":2,"time":4,"is_transit":false,"i_long":106.857948,"distance":2610,"station_name":"Tebet","station_id":"TEB"}],[{"distance":0,"station_id":"BKS","transit":false,"is_transit":false,"line":1,"i_long":106.997013,"station_name":"Bekasi","i_lat":-6.236616,"time":0},{"station_name":"Kranji","is_transit":false,"transit":false,"i_lat":-6.224515,"distance":2520,"station_id":"KRI","line":1,"time":4,"i_long":106.977657},{"station_id":"CUK","time":3,"is_transit":false,"distance":3097,"transit":false,"i_long":106.951283,"i_lat":-6.219053,"station_name":"Cakung","line":1},{"i_lat":-6.217455,"station_name":"Klenderbaru","i_long":106.939679,"time":8,"station_id":"KLDB","transit":false,"distance":1385,"is_transit":false,"line":1},{"station_name":"Buaran","i_long":106.922662,"station_id":"BUA","transit":false,"distance":1305,"is_transit":false,"time":1,"i_lat":-6.215568,"line":1},{"i_long":106.899548,"station_name":"Klender","transit":false,"distance":3100,"time":2,"i_lat":-6.2135,"line":1,"is_transit":false,"station_id":"KLD"},{"transit":true,"distance":3395,"line":1,"i_lat":-6.215091,"time":3,"i_long":106.86807400000001,"station_name":"Jatinegara","is_transit":true,"station_id":"JNG"},{"distance":1236,"transit":false,"i_long":106.861737,"line":11,"time":2,"station_name":"Pondok Jati","is_transit":false,"i_lat":-6.209188,"station_id":"POK"},{"time":2,"is_transit":false,"station_id":"KMT","i_lat":-6.193792,"i_long":106.855437,"transit":false,"distance":1829,"station_name":"Kramat","line":11},{"i_long":106.850107,"distance":973,"station_name":"Gang Sentiong","transit":false,"time":1,"station_id":"GST","i_lat":-6.185975,"is_transit":false,"line":11},{"distance":1567,"is_transit":false,"i_lat":-6.174784,"station_name":"Pasar Senen","station_id":"PSE","line":11,"i_long":106.84368,"transit":false,"time":8},{"i_long":106.839204,"line":11,"distance":1436,"station_name":"Kemayoran","transit":false,"is_transit":false,"station_id":"KMO","i_lat":-6.161728,"time":4},{"line":11,"station_id":"RJW","station_name":"Rajawali","i_lat":-6.14505,"is_transit":false,"time":5,"distance":1901,"transit":false,"i_long":106.836569},{"line":4,"time":3,"is_transit":true,"i_long":106.826365,"i_lat":-6.132549,"distance":1444,"transit":true,"station_id":"KPB","station_name":"Kampung Bandan"},{"is_transit":false,"distance":4102,"transit":false,"time":9,"i_long":106.79867,"station_id":"AK","i_lat":-6.144674,"line":1,"station_name":"Angke"},{"station_name":"Duri","i_lat":-6.155215,"line":1,"distance":1230,"is_transit":false,"transit":false,"i_long":106.800832,"time":4,"station_id":"DU"},{"i_lat":-6.185545,"line":1,"i_long":106.811091,"time":8,"station_name":"Tanah Abang","distance":3632,"is_transit":false,"station_id":"THB","transit":false},{"i_long":106.816351,"station_id":"KAT","transit":false,"is_transit":false,"station_name":"Karet","i_lat":-6.20132,"distance":2029,"time":5,"line":1},{"station_name":"Sudirman Baru","distance":471,"is_transit":false,"transit":false,"station_id":"SUDB","i_lat":-6.201433,"time":1,"i_long":106.819881,"line":1},{"time":1,"is_transit":false,"station_id":"SUD","distance":280,"i_long":106.822649,"i_lat":-6.202263,"station_name":"Sudirman","line":1,"transit":false},{"time":4,"transit":true,"i_lat":-6.209883,"station_id":"MRI","station_name":"Manggarai","is_transit":true,"distance":3186,"i_long":106.84912,"line":2},{"time":4,"i_long":106.857948,"distance":2610,"station_name":"Tebet","transit":false,"is_transit":false,"line":2,"station_id":"TEB","i_lat":-6.226659}],[{"station_name":"Bekasi","time":0,"is_transit":false,"transit":false,"i_long":106.997013,"distance":0,"station_id":"BKS","i_lat":-6.236616,"line":1},{"time":4,"transit":false,"is_transit":false,"station_name":"Kranji","i_lat":-6.224515,"i_long":106.977657,"distance":2520,"station_id":"KRI","line":1},{"distance":3097,"line":1,"station_name":"Cakung","station_id":"CUK","i_lat":-6.219053,"i_long":106.951283,"is_transit":false,"transit":false,"time":3},{"i_long":106.939679,"line":1,"i_lat":-6.217455,"transit":false,"station_id":"KLDB","time":8,"station_name":"Klenderbaru","distance":1385,"is_transit":false},{"is_transit":false,"i_long":106.922662,"transit":false,"station_name":"Buaran","time":1,"line":1,"station_id":"BUA","distance":1305,"i_lat":-6.215568},{"station_id":"KLD","i_long":106.899548,"time":2,"distance":3100,"transit":false,"is_transit":false,"station_name":"Klender","line":1,"i_lat":-6.2135},{"station_name":"Jatinegara","is_transit":true,"i_long":106.86807400000001,"time":3,"transit":true,"i_lat":-6.215091,"distance":3395,"station_id":"JNG","line":1},{"line":11,"distance":1236,"station_name":"Pondok Jati","is_transit":false,"station_id":"POK","time":2,"i_long":106.861737,"i_lat":-6.209188,"transit":false},{"i_long":106.855437,"station_id":"KMT","distance":1829,"line":11,"i_lat":-6.193792,"time":2,"is_transit":false,"transit":false,"station_name":"Kramat"},{"time":1,"transit":false,"is_transit":false,"i_long":106.850107,"station_id":"GST","station_name":"Gang Sentiong","distance":973,"line":11,"i_lat":-6.185975},{"time":8,"distance":1567,"transit":false,"station_id":"PSE","i_long":106.84368,"line":11,"station_name":"Pasar Senen","is_transit":false,"i_lat":-6.174784},{"station_name":"Kemayoran","line":11,"i_lat":-6.161728,"time":4,"transit":false,"distance":1436,"is_transit":false,"station_id":"KMO","i_long":106.839204},{"transit":false,"station_id":"RJW","i_lat":-6.14505,"line":11,"is_transit":false,"station_name":"Rajawali","time":5,"distance":1901,"i_long":106.836569},{"distance":1444,"i_lat":-6.132549,"transit":true,"is_transit":true,"line":4,"time":3,"station_name":"Kampung Bandan","i_long":106.826365,"station_id":"KPB"},{"i_long":106.812439,"station_name":"Jakarta Kota","line":2,"time":3,"is_transit":true,"i_lat":-6.137569,"station_id":"JAKK","distance":1364,"transit":true},{"station_id":"JAY","transit":false,"station_name":"Jayakarta","distance":1264,"i_long":106.820901,"time":4,"i_lat":-6.141205,"is_transit":false,"line":2},{"station_name":"Manggabesar","is_transit":false,"time":2,"transit":false,"line":2,"i_lat":-6.149769,"station_id":"MGB","i_long":106.82482,"distance":1080},{"station_id":"SW","is_transit":false,"time":2,"transit":false,"station_name":"Sawah Besar","distance":906,"i_lat":-6.160725,"line":2,"i_long":106.827103},{"line":2,"i_lat":-6.166716,"i_long":106.828284,"time":2,"station_name":"Juanda","distance":1149,"station_id":"JUA","is_transit":false,"transit":false},{"transit":false,"distance":2015,"station_id":"GDD","line":2,"i_lat":-6.186295,"time":4,"station_name":"Gondangdia","i_long":106.832183,"is_transit":false},{"distance":1750,"transit":false,"line":2,"is_transit":false,"i_long":106.840169,"time":3,"station_id":"CKI","station_name":"Cikini","i_lat":-6.198556},{"line":2,"station_id":"MRI","i_lat":-6.209883,"station_name":"Manggarai","time":4,"distance":1590,"i_long":106.84912,"transit":false,"is_transit":false},{"distance":2610,"is_transit":false,"station_name":"Tebet","line":2,"transit":false,"station_id":"TEB","i_lat":-6.226659,"i_long":106.857948,"time":4}]]}