{"data":[[{"distance":0,"line":1,"i_lat":-6.236616,"is_transit":false,"time":0,"station_name":"Bekasi","station_id":"BKS","transit":false,"i_long":106.997013},{"transit":false,"station_id":"KRI","i_lat":-6.224515,"line":1,"time":4,"station_name":"Kranji","distance":2520,"i_long":106.977657,"is_transit":false},{"is_transit":false,"station_name":"Cakung","distance":3097,"i_lat":-6.219053,"station_id":"CUK","line":1,"time":3,"transit":false,"i_long":106.951283},{"line":1,"transit":false,"time":8,"distance":1385,"is_transit":false,"station_name":"Klenderbaru","station_id":"KLDB","i_lat":-6.217455,"i_long":106.939679},{"time":1,"station_id":"BUA","i_long":106.922662,"line":1,"distance":1305,"i_lat":-6.215568,"is_transit":false,"station_name":"Buaran","transit":false},{"station_name":"Klender","transit":false,"is_transit":false,"distance":3100,"i_lat":-6.2135,"station_id":"KLD","line":1,"i_long":106.899548,"time":2},{"i_long":106.86807400000001,"line":1,"station_name":"Jatinegara","transit":true,"time":3,"distance":3395,"i_lat":-6.215091,"is_transit":true,"station_id":"JNG"},{"line":11,"distance":1236,"transit":false,"station_id":"POK","station_name":"Pondok Jati","time":2,"i_lat":-6.209188,"is_transit":false,"i_long":106.861737},{"time":2,"is_transit":false,"i_long":106.855437,"line":11,"transit":false,"station_name":"Kramat","i_lat":-6.193792,"distance":1829,"station_id":"KMT"},{"i_lat":-6.185975,"distance":973,"time":1,"transit":false,"i_long":106.850107,"station_id":"GST","station_name":"Gang Sentiong","line":11,"is_transit":false},{"transit":false,"distance":1567,"station_id":"PSE","is_transit":false,"i_lat":-6.174784,"i_long":106.84368,"station_name":"Pasar Senen","time":8,"line":11}],[{"station_name":"Bekasi","time":0,"station_id":"BKS","is_transit":false,"distance":0,"transit":false,"i_lat":-6.236616,"i_long":106.997013,"line":1},{"i_lat":-6.224515,"transit":false,"i_long":106.977657,"time":4,"line":1,"distance":2520,"station_name":"Kranji","station_id":"KRI","is_transit":false},{"distance":3097,"transit":false,"time":3,"station_id":"CUK","line":1,"i_long":106.951283,"is_transit":false,"i_lat":-6.219053,"station_name":"Cakung"},{"distance":1385,"is_transit":false,"station_name":"Klenderbaru","time":8,"transit":false,"station_id":"KLDB","i_lat":-6.217455,"line":1,"i_long":106.939679},{"distance":1305,"time":1,"station_id":"BUA","i_lat":-6.215568,"line":1,"is_transit":false,"station_name":"Buaran","i_long":106.922662,"transit":false},{"i_lat":-6.2135,"i_long":106.899548,"time":2,"transit":false,"is_transit":false,"line":1,"station_name":"Klender","distance":3100,"station_id":"KLD"},{"is_transit":false,"distance":3395,"transit":false,"line":1,"station_name":"Jatinegara","time":3,"station_id":"JNG","i_lat":-6.215091,"i_long":106.86807400000001},{"station_id":"MTR","i_lat":-6.212485,"time":2,"i_long":106.858896,"line":1,"transit":false,"is_transit":false,"distance":1377,"station_name":"Matraman"},{"i_lat":-6.209883,"distance":1275,"is_transit":false,"line":2,"station_name":"Manggarai","time":2,"i_long":106.84912,"transit":false,"station_id":"MRI"},{"is_transit":false,"distance":3186,"transit":false,"station_id":"SUD","i_long":106.822649,"line":1,"time":4,"station_name":"Sudirman","i_lat":-6.202263},{"time":1,"station_id":"SUDB","distance":280,"line":1,"i_long":106.819881,"station_name":"Sudirman Baru","transit":false,"is_transit":false,"i_lat":-6.201433},{"time":1,"distance":471,"i_long":106.816351,"station_id":"KAT","is_transit":false,"station_name":"Karet","transit":false,"i_lat":-6.20132,"line":1},{"station_name":"Tanah Abang","line":1,"i_long":106.811091,"transit":false,"time":5,"is_transit":false,"i_lat":-6.185545,"distance":2029,"station_id":"THB"},{"time":8,"i_long":106.800832,"station_name":"Duri","station_id":"DU","line":1,"is_transit":false,"transit":false,"i_lat":-6.155215,"distance":3632},{"station_id":"AK","distance":1230,"station_name":"Angke","is_transit":false,"i_long":106.79867,"line":1,"transit":false,"i_lat":-6.144674,"time":4},{"i_long":106.826365,"station_id":"KPB","distance":4102,"time":9,"station_name":"Kampung Bandan","transit":true,"is_transit":true,"i_lat":-6.132549,"line":4},{"station_name":"Rajawali","line":11,"i_long":106.836569,"time":3,"distance":1444,"station_id":"RJW","transit":false,"is_transit":false,"i_lat":-6.14505},{"transit":false,"line":11,"time":5,"station_name":"Kemayoran","distance":1901,"i_long":106.839204,"station_id":"KMO","is_transit":false,"i_lat":-6.161728},{"i_lat":-6.174784,"i_long":106.84368,"line":11,"transit":false,"is_transit":false,"station_name":"Pasar Senen","station_id":"PSE","distance":1436,"time":4}],[{"line":1,"transit":false,"i_long":106.997013,"distance":0,"time":0,"is_transit":false,"station_name":"Bekasi","station_id":"BKS","i_lat":-6.236616},{"station_id":"KRI","i_long":106.977657,"transit":false,"line":1,"i_lat":-6.224515,"distance":2520,"station_name":"Kranji","is_transit":false,"time":4},{"distance":3097,"transit":false,"station_id":"CUK","time":3,"i_lat":-6.219053,"i_long":106.951283,"is_transit":false,"station_name":"Cakung","line":1},{"time":8,"i_lat":-6.217455,"i_long":106.939679,"transit":false,"distance":1385,"line":1,"station_name":"Klenderbaru","station_id":"KLDB","is_transit":false},{"station_id":"BUA","line":1,"i_long":106.922662,"station_name":"Buaran","i_lat":-6.215568,"is_transit":false,"time":1,"distance":1305,"transit":false},{"transit":false,"distance":3100,"station_id":"KLD","station_name":"Klender","i_lat":-6.2135,"line":1,"time":2,"is_transit":false,"i_long":106.899548},{"i_long":106.86807400000001,"is_transit":false,"distance":3395,"transit":false,"station_id":"JNG","time":3,"line":1,"station_name":"Jatinegara","i_lat":-6.215091},{"is_transit":false,"station_id":"MTR","i_lat":-6.212485,"time":2,"station_name":"Matraman","i_long":106.858896,"distance":1377,"transit":false,"line":1},{"distance":1275,"station_name":"Manggarai","i_long":106.84912,"is_transit":true,"transit":true,"time":2,"i_lat":-6.209883,"station_id":"MRI","line":2},{"transit":false,"i_long":106.840169,"station_id":"CKI","time":4,"i_lat":-6.198556,"station_name":"Cikini","distance":1590,"is_transit":false,"line":2},{"station_id":"GDD","i_long":106.832183,"distance":1750,"is_transit":false,"line":2,"i_lat":-6.186295,"station_name":"Gondangdia","transit":false,"time":3},{"time":4,"transit":false,"is_transit":false,"station_id":"JUA","i_lat":-6.166716,"i_long":106.828284,"line":2,"station_name":"Juanda","distance":2015},{"time":2,"distance":1149,"is_transit":false,"station_name":"Sawah Besar","station_id":"SW","i_long":106.827103,"transit":false,"line":2,"i_lat":-6.160725},{"distance":906,"transit":false,"station_name":"Manggabesar","i_lat":-6.149769,"time":2,"i_long":106.82482,"line":2,"station_id":"MGB","is_transit":false},{"i_lat":-6.141205,"station_name":"Jayakarta","distance":1080,"transit":false,"station_id":"JAY","time":2,"line":2,"is_transit":false,"i_long":106.820901},{"station_name":"Jakarta Kota","i_long":106.812439,"i_lat":-6.137569,"line":2,"transit":true,"station_id":"JAKK","time":4,"is_transit":true,"distance":1264},{"line":4,"station_id":"KPB","distance":1364,"station_name":"Kampung Bandan","i_lat":-6.132549,"is_transit":true,"i_long":106.826365,"transit":true,"time":3},{"i_lat":-6.14505,"line":11,"is_transit":false,"station_name":"Rajawali","distance":1444,"transit":false,"time":3,"i_long":106.836569,"station_id":"RJW"},{"i_long":106.839204,"line":11,"is_transit":false,"station_name":"Kemayoran","distance":1901,"transit":false,"time":5,"station_id":"KMO","i_lat":-6.161728},{"station_id":"PSE","i_long":106.84368,"line":11,"station_name":"Pasar Senen","transit":false,"is_transit":false,"distance":1436,"time":4,"i_lat":-6.174784}]]}