{"data":[[{"station_id":"BKS","time":0,"distance":0,"station_name":"Bekasi","i_lat":-6.236616,"transit":false,"line":1,"is_transit":false,"i_long":106.997013},{"line":1,"distance":2520,"transit":false,"is_transit":false,"i_lat":-6.224515,"station_id":"KRI","time":4,"station_name":"Kranji","i_long":106.977657},{"transit":false,"time":3,"i_lat":-6.219053,"i_long":106.951283,"is_transit":false,"distance":3097,"station_id":"CUK","station_name":"Cakung","line":1},{"line":1,"is_transit":false,"i_lat":-6.217455,"station_name":"Klenderbaru","i_long":106.939679,"transit":false,"time":8,"distance":1385,"station_id":"KLDB"},{"i_long":106.922662,"is_transit":false,"transit":false,"line":1,"station_name":"Buaran","i_lat":-6.215568,"station_id":"BUA","distance":1305,"time":1},{"station_name":"Klender","transit":false,"time":2,"i_long":106.899548,"line":1,"is_transit":false,"distance":3100,"i_lat":-6.2135,"station_id":"KLD"},{"transit":false,"is_transit":false,"time":3,"distance":3395,"i_lat":-6.215091,"station_id":"JNG","line":1,"i_long":106.86807400000001,"station_name":"Jatinegara"},{"is_transit":false,"station_id":"MTR","station_name":"Matraman","time":2,"distance":1377,"i_lat":-6.212485,"i_long":106.858896,"line":1,"transit":false},{"station_id":"MRI","distance":1275,"time":2,"i_lat":-6.209883,"line":2,"transit":true,"is_transit":true,"i_long":106.84912,"station_name":"Manggarai"},{"is_transit":false,"station_id":"TEB","line":2,"transit":false,"i_lat":-6.226659,"time":4,"distance":2610,"i_long":106.857948,"station_name":"Tebet"},{"i_lat":-6.242512,"station_name":"Cawang","line":2,"transit":false,"station_id":"CW","distance":1230,"i_long":106.856607,"time":2,"is_transit":false},{"transit":false,"distance":1546,"i_lat":-6.255332,"line":2,"time":3,"i_long":106.85449,"station_id":"DRN","is_transit":false,"station_name":"Duren Kalibata"},{"station_id":"PSMB","is_transit":false,"station_name":"Pasar Minggu Baru","time":2,"i_lat":-6.263214,"transit":false,"distance":824,"line":2,"i_long":106.851577},{"transit":false,"station_name":"Pasar Minggu","line":2,"i_long":106.843999,"i_lat":-6.2842400000000005,"station_id":"PSM","time":2,"distance":2380,"is_transit":false},{"time":4,"i_lat":-6.3080680000000005,"i_long":106.838896,"station_id":"TNT","line":2,"station_name":"Tanjung Barat","distance":2820,"transit":false,"is_transit":false},{"i_lat":-6.330363,"transit":false,"station_name":"Lenteng Agung","station_id":"LNA","is_transit":false,"time":3,"i_long":106.832616,"line":2,"distance":2671},{"i_lat":-6.339291,"i_long":106.834175,"station_id":"UP","is_transit":false,"time":2,"line":2,"transit":false,"station_name":"Univ. Pancasila","distance":1029},{"station_id":"UI","line":2,"transit":false,"time":3,"i_long":106.831474,"station_name":"Univ. Indonesia","distance":2264,"i_lat":-6.360749,"is_transit":false},{"i_long":106.831114,"is_transit":false,"station_name":"Pondok Cina","transit":false,"station_id":"POC","line":2,"time":2,"i_lat":-6.369073,"distance":1109},{"station_id":"DPB","transit":false,"i_lat":-6.391065,"distance":2727,"i_long":106.819451,"is_transit":false,"line":2,"time":4,"station_name":"Depokbaru"}],[{"time":0,"station_name":"Bekasi","line":1,"is_transit":false,"i_long":106.997013,"distance":0,"station_id":"BKS","i_lat":-6.236616,"transit":false},{"time":4,"station_id":"KRI","is_transit":false,"transit":false,"i_long":106.977657,"line":1,"i_lat":-6.224515,"distance":2520,"station_name":"Kranji"},{"station_name":"Cakung","distance":3097,"transit":false,"time":3,"i_lat":-6.219053,"station_id":"CUK","i_long":106.951283,"line":1,"is_transit":false},{"i_long":106.939679,"distance":1385,"station_name":"Klenderbaru","station_id":"KLDB","line":1,"time":8,"is_transit":false,"i_lat":-6.217455,"transit":false},{"i_long":106.922662,"transit":false,"is_transit":false,"distance":1305,"station_id":"BUA","i_lat":-6.215568,"line":1,"time":1,"station_name":"Buaran"},{"line":1,"transit":false,"i_long":106.899548,"station_id":"KLD","is_transit":false,"i_lat":-6.2135,"time":2,"station_name":"Klender","distance":3100},{"transit":true,"station_name":"Jatinegara","distance":3395,"i_long":106.86807400000001,"station_id":"JNG","time":3,"is_transit":true,"i_lat":-6.215091,"line":1},{"station_name":"Pondok Jati","station_id":"POK","is_transit":false,"i_lat":-6.209188,"distance":1236,"i_long":106.861737,"line":11,"transit":false,"time":2},{"time":2,"line":11,"i_lat":-6.193792,"station_id":"KMT","station_name":"Kramat","transit":false,"distance":1829,"i_long":106.855437,"is_transit":false},{"is_transit":false,"time":1,"transit":false,"distance":973,"i_long":106.850107,"i_lat":-6.185975,"line":11,"station_name":"Gang Sentiong","station_id":"GST"},{"i_lat":-6.174784,"line":11,"station_id":"PSE","transit":false,"time":8,"station_name":"Pasar Senen","is_transit":false,"distance":1567,"i_long":106.84368},{"i_lat":-6.161728,"station_id":"KMO","station_name":"Kemayoran","distance":1436,"i_long":106.839204,"is_transit":false,"transit":false,"line":11,"time":4},{"station_id":"RJW","i_long":106.836569,"i_lat":-6.14505,"is_transit":false,"transit":false,"station_name":"Rajawali","distance":1901,"time":5,"line":11},{"time":3,"line":4,"i_long":106.826365,"transit":true,"station_name":"Kampung Bandan","is_transit":true,"distance":1444,"station_id":"KPB","i_lat":-6.132549},{"transit":false,"distance":4102,"time":9,"station_name":"Angke","i_long":106.79867,"station_id":"AK","line":1,"i_lat":-6.144674,"is_transit":false},{"station_name":"Duri","i_lat":-6.155215,"is_transit":false,"distance":1230,"i_long":106.800832,"station_id":"DU","time":4,"line":1,"transit":false},{"transit":false,"i_long":106.811091,"station_id":"THB","time":8,"line":1,"station_name":"Tanah Abang","i_lat":-6.185545,"is_transit":false,"distance":3632},{"i_long":106.816351,"station_id":"KAT","is_transit":false,"station_name":"Karet","transit":false,"distance":2029,"i_lat":-6.20132,"time":5,"line":1},{"transit":false,"time":1,"i_lat":-6.201433,"i_long":106.819881,"is_transit":false,"station_id":"SUDB","station_name":"Sudirman Baru","line":1,"distance":471},{"i_long":106.822649,"line":1,"station_name":"Sudirman","is_transit":false,"station_id":"SUD","transit":false,"distance":280,"i_lat":-6.202263,"time":1},{"time":4,"i_lat":-6.209883,"transit":true,"distance":3186,"station_id":"MRI","is_transit":true,"station_name":"Manggarai","i_long":106.84912,"line":2},{"i_lat":-6.226659,"transit":false,"station_name":"Tebet","distance":2610,"time":4,"is_transit":false,"i_long":106.857948,"station_id":"TEB","line":2},{"distance":1230,"is_transit":false,"transit":false,"station_name":"Cawang","station_id":"CW","time":2,"i_lat":-6.242512,"i_long":106.856607,"line":2},{"time":3,"station_name":"Duren Kalibata","transit":false,"is_transit":false,"i_long":106.85449,"distance":1546,"i_lat":-6.255332,"line":2,"station_id":"DRN"},{"i_lat":-6.263214,"station_name":"Pasar Minggu Baru","is_transit":false,"time":2,"station_id":"PSMB","line":2,"transit":false,"distance":824,"i_long":106.851577},{"distance":2380,"i_lat":-6.2842400000000005,"station_id":"PSM","line":2,"transit":false,"time":2,"is_transit":false,"i_long":106.843999,"station_name":"Pasar Minggu"},{"transit":false,"line":2,"i_long":106.838896,"time":4,"station_name":"Tanjung Barat","i_lat":-6.3080680000000005,"is_transit":false,"station_id":"TNT","distance":2820},{"distance":2671,"i_lat":-6.330363,"i_long":106.832616,"time":3,"line":2,"is_transit":false,"transit":false,"station_id":"LNA","station_name":"Lenteng Agung"},{"station_id":"UP","is_transit":false,"i_lat":-6.339291,"station_name":"Univ. Pancasila","line":2,"i_long":106.834175,"distance":1029,"transit":false,"time":2},{"station_name":"Univ. Indonesia","line":2,"is_transit":false,"station_id":"UI","i_long":106.831474,"time":3,"distance":2264,"transit":false,"i_lat":-6.360749},{"i_lat":-6.369073,"is_transit":false,"i_long":106.831114,"station_name":"Pondok Cina","line":2,"time":2,"station_id":"POC","transit":false,"distance":1109},{"is_transit":false,"station_id":"DPB","time":4,"transit":false,"i_long":106.819451,"distance":2727,"i_lat":-6.391065,"station_name":"Depokbaru","line":2}],[{"station_id":"BKS","time":0,"transit":false,"is_transit":false,"station_name":"Bekasi","distance":0,"i_lat":-6.236616,"i_long":106.997013,"line":1},{"i_long":106.977657,"time":4,"station_name":"Kranji","station_id":"KRI","transit":false,"is_transit":false,"distance":2520,"i_lat":-6.224515,"line":1},{"is_transit":false,"time":3,"i_lat":-6.219053,"i_long":106.951283,"station_name":"Cakung","station_id":"CUK","transit":false,"line":1,"distance":3097},{"station_name":"Klenderbaru","i_long":106.939679,"is_transit":false,"i_lat":-6.217455,"distance":1385,"time":8,"transit":false,"station_id":"KLDB","line":1},{"transit":false,"is_transit":false,"station_id":"BUA","time":1,"station_name":"Buaran","line":1,"i_lat":-6.215568,"distance":1305,"i_long":106.922662},{"station_id":"KLD","is_transit":false,"time":2,"distance":3100,"i_lat":-6.2135,"transit":false,"station_name":"Klender","i_long":106.899548,"line":1},{"line":1,"time":3,"i_lat":-6.215091,"transit":true,"station_id":"JNG","station_name":"Jatinegara","distance":3395,"is_transit":true,"i_long":106.86807400000001},{"time":2,"distance":1236,"line":11,"is_transit":false,"i_long":106.861737,"i_lat":-6.209188,"station_name":"Pondok Jati","station_id":"POK","transit":false},{"station_id":"KMT","time":2,"distance":1829,"line":11,"i_long":106.855437,"i_lat":-6.193792,"is_transit":false,"transit":false,"station_name":"Kramat"},{"i_long":106.850107,"station_name":"Gang Sentiong","transit":false,"i_lat":-6.185975,"station_id":"GST","time":1,"line":11,"is_transit":false,"distance":973},{"line":11,"transit":false,"i_lat":-6.174784,"station_name":"Pasar Senen","i_long":106.84368,"station_id":"PSE","time":8,"is_transit":false,"distance":1567},{"time":4,"station_id":"KMO","i_lat":-6.161728,"transit":false,"station_name":"Kemayoran","is_transit":false,"distance":1436,"i_long":106.839204,"line":11},{"station_name":"Rajawali","station_id":"RJW","is_transit":false,"time":5,"distance":1901,"i_long":106.836569,"transit":false,"line":11,"i_lat":-6.14505},{"transit":true,"distance":1444,"time":3,"i_long":106.826365,"station_id":"KPB","line":4,"station_name":"Kampung Bandan","i_lat":-6.132549,"is_transit":true},{"distance":1364,"i_long":106.812439,"transit":true,"station_name":"Jakarta Kota","is_transit":true,"line":2,"station_id":"JAKK","i_lat":-6.137569,"time":3},{"station_id":"JAY","line":2,"station_name":"Jayakarta","i_lat":-6.141205,"i_long":106.820901,"time":4,"is_transit":false,"transit":false,"distance":1264},{"i_long":106.82482,"time":2,"i_lat":-6.149769,"station_name":"Manggabesar","is_transit":false,"line":2,"transit":false,"station_id":"MGB","distance":1080},{"is_transit":false,"station_id":"SW","time":2,"distance":906,"station_name":"Sawah Besar","i_lat":-6.160725,"i_long":106.827103,"transit":false,"line":2},{"is_transit":false,"line":2,"station_name":"Juanda","i_lat":-6.166716,"distance":1149,"i_long":106.828284,"transit":false,"station_id":"JUA","time":2},{"station_name":"Gondangdia","i_lat":-6.186295,"station_id":"GDD","i_long":106.832183,"transit":false,"line":2,"time":4,"is_transit":false,"distance":2015},{"distance":1750,"i_long":106.840169,"time":3,"i_lat":-6.198556,"line":2,"transit":false,"station_name":"Cikini","station_id":"CKI","is_transit":false},{"time":4,"i_long":106.84912,"transit":false,"distance":1590,"station_id":"MRI","station_name":"Manggarai","is_transit":false,"line":2,"i_lat":-6.209883},{"distance":2610,"transit":false,"line":2,"i_lat":-6.226659,"station_name":"Tebet","station_id":"TEB","is_transit":false,"time":4,"i_long":106.857948},{"time":2,"station_id":"CW","station_name":"Cawang","is_transit":false,"line":2,"transit":false,"i_lat":-6.242512,"distance":1230,"i_long":106.856607},{"distance":1546,"i_long":106.85449,"line":2,"transit":false,"station_id":"DRN","i_lat":-6.255332,"time":3,"is_transit":false,"station_name":"Duren Kalibata"},{"i_lat":-6.263214,"distance":824,"station_id":"PSMB","is_transit":false,"time":2,"i_long":106.851577,"transit":false,"line":2,"station_name":"Pasar Minggu Baru"},{"i_long":106.843999,"i_lat":-6.2842400000000005,"station_id":"PSM","distance":2380,"line":2,"transit":false,"time":2,"is_transit":false,"station_name":"Pasar Minggu"},{"line":2,"i_lat":-6.3080680000000005,"station_name":"Tanjung Barat","i_long":106.838896,"time":4,"station_id":"TNT","distance":2820,"is_transit":false,"transit":false},{"station_name":"Lenteng Agung","station_id":"LNA","is_transit":false,"transit":false,"distance":2671,"time":3,"i_long":106.832616,"i_lat":-6.330363,"line":2},{"station_id":"UP","transit":false,"distance":1029,"is_transit":false,"station_name":"Univ. Pancasila","i_lat":-6.339291,"line":2,"i_long":106.834175,"time":2},{"is_transit":false,"time":3,"distance":2264,"i_lat":-6.360749,"line":2,"station_name":"Univ. Indonesia","station_id":"UI","i_long":106.831474,"transit":false},{"transit":false,"station_name":"Pondok Cina","i_lat":-6.369073,"i_long":106.831114,"is_transit":false,"line":2,"time":2,"distance":1109,"station_id":"POC"},{"time":4,"distance":2727,"line":2,"transit":false,"i_lat":-6.391065,"station_id":"DPB","is_transit":false,"i_long":106.819451,"station_name":"Depokbaru"}]]}