{"data":[[{"i_long":106.997013,"time":0,"transit":false,"is_transit":false,"i_lat":-6.236616,"line":1,"distance":0,"station_id":"BKS","station_name":"Bekasi"},{"line":1,"is_transit":false,"i_lat":-6.224515,"i_long":106.977657,"transit":false,"station_name":"Kranji","distance":2520,"station_id":"KRI","time":4},{"line":1,"station_name":"Cakung","i_long":106.951283,"is_transit":false,"time":3,"transit":false,"i_lat":-6.219053,"distance":3097,"station_id":"CUK"},{"i_lat":-6.217455,"is_transit":false,"distance":1385,"station_id":"KLDB","i_long":106.939679,"line":1,"time":8,"station_name":"Klenderbaru","transit":false},{"station_name":"Buaran","i_long":106.922662,"transit":false,"distance":1305,"i_lat":-6.215568,"time":1,"is_transit":false,"station_id":"BUA","line":1},{"is_transit":false,"time":2,"station_name":"Klender","transit":false,"i_long":106.899548,"station_id":"KLD","line":1,"distance":3100,"i_lat":-6.2135},{"distance":3395,"station_id":"JNG","is_transit":true,"station_name":"Jatinegara","i_lat":-6.215091,"i_long":106.86807400000001,"line":1,"transit":true,"time":3},{"station_id":"POK","is_transit":false,"line":11,"distance":1236,"transit":false,"station_name":"Pondok Jati","i_lat":-6.209188,"time":2,"i_long":106.861737},{"station_id":"KMT","i_long":106.855437,"station_name":"Kramat","time":2,"is_transit":false,"i_lat":-6.193792,"line":11,"transit":false,"distance":1829},{"line":11,"station_name":"Gang Sentiong","station_id":"GST","i_lat":-6.185975,"distance":973,"transit":false,"is_transit":false,"time":1,"i_long":106.850107},{"i_long":106.84368,"line":11,"station_name":"Pasar Senen","distance":1567,"transit":false,"station_id":"PSE","is_transit":false,"time":8,"i_lat":-6.174784}],[{"i_long":106.997013,"i_lat":-6.236616,"line":1,"station_id":"BKS","transit":false,"is_transit":false,"distance":0,"time":0,"station_name":"Bekasi"},{"station_name":"Kranji","time":4,"i_long":106.977657,"transit":false,"distance":2520,"station_id":"KRI","line":1,"is_transit":false,"i_lat":-6.224515},{"i_long":106.951283,"distance":3097,"is_transit":false,"time":3,"i_lat":-6.219053,"line":1,"station_id":"CUK","transit":false,"station_name":"Cakung"},{"distance":1385,"is_transit":false,"i_lat":-6.217455,"time":8,"i_long":106.939679,"transit":false,"station_name":"Klenderbaru","station_id":"KLDB","line":1},{"line":1,"time":1,"distance":1305,"i_lat":-6.215568,"transit":false,"station_id":"BUA","is_transit":false,"station_name":"Buaran","i_long":106.922662},{"i_long":106.899548,"i_lat":-6.2135,"time":2,"is_transit":false,"transit":false,"station_name":"Klender","line":1,"distance":3100,"station_id":"KLD"},{"i_long":106.86807400000001,"is_transit":false,"line":1,"time":3,"i_lat":-6.215091,"station_id":"JNG","distance":3395,"transit":false,"station_name":"Jatinegara"},{"station_name":"Matraman","transit":false,"is_transit":false,"i_long":106.858896,"distance":1377,"i_lat":-6.212485,"station_id":"MTR","time":2,"line":1},{"line":2,"is_transit":false,"i_long":106.84912,"transit":false,"station_id":"MRI","station_name":"Manggarai","distance":1275,"time":2,"i_lat":-6.209883},{"is_transit":false,"station_name":"Sudirman","i_lat":-6.202263,"transit":false,"time":4,"i_long":106.822649,"line":1,"distance":3186,"station_id":"SUD"},{"transit":false,"time":1,"station_name":"Sudirman Baru","i_long":106.819881,"line":1,"distance":280,"i_lat":-6.201433,"is_transit":false,"station_id":"SUDB"},{"time":1,"line":1,"i_long":106.816351,"is_transit":false,"station_id":"KAT","station_name":"Karet","i_lat":-6.20132,"transit":false,"distance":471},{"time":5,"is_transit":false,"i_long":106.811091,"distance":2029,"station_id":"THB","station_name":"Tanah Abang","transit":false,"i_lat":-6.185545,"line":1},{"transit":false,"station_id":"DU","is_transit":false,"distance":3632,"time":8,"i_long":106.800832,"i_lat":-6.155215,"line":1,"station_name":"Duri"},{"station_id":"AK","time":4,"station_name":"Angke","distance":1230,"transit":false,"is_transit":false,"i_lat":-6.144674,"i_long":106.79867,"line":1},{"station_id":"KPB","is_transit":true,"line":4,"transit":true,"i_lat":-6.132549,"distance":4102,"station_name":"Kampung Bandan","i_long":106.826365,"time":9},{"time":3,"transit":false,"station_name":"Rajawali","distance":1444,"i_long":106.836569,"line":11,"i_lat":-6.14505,"is_transit":false,"station_id":"RJW"},{"time":5,"i_lat":-6.161728,"distance":1901,"i_long":106.839204,"station_id":"KMO","is_transit":false,"transit":false,"station_name":"Kemayoran","line":11},{"transit":false,"station_name":"Pasar Senen","line":11,"station_id":"PSE","i_long":106.84368,"time":4,"i_lat":-6.174784,"distance":1436,"is_transit":false}],[{"time":0,"distance":0,"transit":false,"i_lat":-6.236616,"station_id":"BKS","is_transit":false,"station_name":"Bekasi","i_long":106.997013,"line":1},{"station_name":"Kranji","i_lat":-6.224515,"transit":false,"i_long":106.977657,"time":4,"line":1,"distance":2520,"station_id":"KRI","is_transit":false},{"time":3,"line":1,"distance":3097,"transit":false,"is_transit":false,"i_lat":-6.219053,"station_name":"Cakung","i_long":106.951283,"station_id":"CUK"},{"station_name":"Klenderbaru","transit":false,"is_transit":false,"i_long":106.939679,"distance":1385,"station_id":"KLDB","time":8,"line":1,"i_lat":-6.217455},{"time":1,"station_name":"Buaran","i_lat":-6.215568,"distance":1305,"is_transit":false,"station_id":"BUA","i_long":106.922662,"transit":false,"line":1},{"distance":3100,"transit":false,"is_transit":false,"i_lat":-6.2135,"station_name":"Klender","time":2,"station_id":"KLD","i_long":106.899548,"line":1},{"time":3,"i_lat":-6.215091,"station_id":"JNG","transit":false,"is_transit":false,"distance":3395,"station_name":"Jatinegara","i_long":106.86807400000001,"line":1},{"i_lat":-6.212485,"time":2,"line":1,"is_transit":false,"distance":1377,"transit":false,"station_id":"MTR","station_name":"Matraman","i_long":106.858896},{"transit":true,"station_id":"MRI","is_transit":true,"station_name":"Manggarai","distance":1275,"time":2,"i_lat":-6.209883,"line":2,"i_long":106.84912},{"is_transit":false,"i_lat":-6.198556,"i_long":106.840169,"line":2,"distance":1590,"transit":false,"station_name":"Cikini","time":4,"station_id":"CKI"},{"is_transit":false,"station_name":"Gondangdia","station_id":"GDD","i_lat":-6.186295,"line":2,"distance":1750,"i_long":106.832183,"transit":false,"time":3},{"station_name":"Juanda","i_lat":-6.166716,"station_id":"JUA","distance":2015,"i_long":106.828284,"transit":false,"is_transit":false,"time":4,"line":2},{"i_long":106.827103,"transit":false,"line":2,"distance":1149,"station_id":"SW","is_transit":false,"time":2,"station_name":"Sawah Besar","i_lat":-6.160725},{"time":2,"is_transit":false,"line":2,"i_long":106.82482,"distance":906,"transit":false,"station_id":"MGB","station_name":"Manggabesar","i_lat":-6.149769},{"distance":1080,"transit":false,"i_lat":-6.141205,"line":2,"time":2,"station_name":"Jayakarta","station_id":"JAY","is_transit":false,"i_long":106.820901},{"transit":true,"station_name":"Jakarta Kota","station_id":"JAKK","i_lat":-6.137569,"distance":1264,"i_long":106.812439,"time":4,"line":2,"is_transit":true},{"distance":1364,"line":4,"is_transit":true,"transit":true,"station_id":"KPB","station_name":"Kampung Bandan","i_long":106.826365,"time":3,"i_lat":-6.132549},{"is_transit":false,"distance":1444,"station_name":"Rajawali","i_lat":-6.14505,"i_long":106.836569,"station_id":"RJW","time":3,"transit":false,"line":11},{"station_name":"Kemayoran","i_long":106.839204,"is_transit":false,"line":11,"time":5,"distance":1901,"station_id":"KMO","i_lat":-6.161728,"transit":false},{"station_name":"Pasar Senen","i_lat":-6.174784,"transit":false,"is_transit":false,"time":4,"line":11,"distance":1436,"station_id":"PSE","i_long":106.84368}]]}