{"data":[[{"station_id":"BKS","is_transit":false,"distance":0,"i_long":106.997013,"time":0,"line":1,"i_lat":-6.236616,"station_name":"Bekasi","transit":false},{"is_transit":false,"time":4,"transit":false,"i_lat":-6.224515,"station_id":"KRI","distance":2520,"i_long":106.977657,"line":1,"station_name":"Kranji"},{"station_id":"CUK","is_transit":false,"distance":3097,"i_lat":-6.219053,"i_long":106.951283,"line":1,"station_name":"Cakung","transit":false,"time":3},{"time":8,"line":1,"is_transit":false,"station_name":"Klenderbaru","station_id":"KLDB","distance":1385,"transit":false,"i_long":106.939679,"i_lat":-6.217455},{"i_lat":-6.215568,"distance":1305,"is_transit":false,"line":1,"time":1,"transit":false,"i_long":106.922662,"station_name":"Buaran","station_id":"BUA"},{"station_name":"Klender","is_transit":false,"time":2,"distance":3100,"line":1,"station_id":"KLD","transit":false,"i_long":106.899548,"i_lat":-6.2135},{"station_name":"Jatinegara","line":1,"i_long":106.86807400000001,"distance":3395,"station_id":"JNG","is_transit":false,"transit":false,"i_lat":-6.215091,"time":3},{"station_id":"MTR","distance":1377,"station_name":"Matraman","i_lat":-6.212485,"transit":false,"line":1,"is_transit":false,"i_long":106.858896,"time":2},{"transit":false,"station_name":"Manggarai","time":2,"station_id":"MRI","distance":1275,"i_lat":-6.209883,"is_transit":false,"i_long":106.84912,"line":2},{"line":1,"is_transit":false,"i_long":106.822649,"distance":3186,"time":4,"station_name":"Sudirman","station_id":"SUD","transit":false,"i_lat":-6.202263},{"i_lat":-6.201433,"line":1,"station_name":"Sudirman Baru","is_transit":false,"i_long":106.819881,"distance":280,"transit":false,"time":1,"station_id":"SUDB"},{"i_lat":-6.20132,"transit":false,"station_name":"Karet","distance":471,"station_id":"KAT","i_long":106.816351,"line":1,"is_transit":false,"time":1}],[{"transit":false,"i_long":106.997013,"station_name":"Bekasi","is_transit":false,"time":0,"distance":0,"line":1,"i_lat":-6.236616,"station_id":"BKS"},{"i_long":106.977657,"distance":2520,"station_name":"Kranji","is_transit":false,"station_id":"KRI","time":4,"transit":false,"i_lat":-6.224515,"line":1},{"i_lat":-6.219053,"station_name":"Cakung","i_long":106.951283,"is_transit":false,"line":1,"transit":false,"station_id":"CUK","time":3,"distance":3097},{"i_long":106.939679,"line":1,"transit":false,"is_transit":false,"distance":1385,"station_id":"KLDB","i_lat":-6.217455,"station_name":"Klenderbaru","time":8},{"distance":1305,"transit":false,"station_id":"BUA","station_name":"Buaran","is_transit":false,"i_lat":-6.215568,"time":1,"i_long":106.922662,"line":1},{"time":2,"transit":false,"station_name":"Klender","distance":3100,"is_transit":false,"station_id":"KLD","i_lat":-6.2135,"i_long":106.899548,"line":1},{"line":1,"station_id":"JNG","is_transit":true,"i_long":106.86807400000001,"transit":true,"station_name":"Jatinegara","distance":3395,"time":3,"i_lat":-6.215091},{"line":11,"transit":false,"station_id":"POK","distance":1236,"station_name":"Pondok Jati","is_transit":false,"time":2,"i_lat":-6.209188,"i_long":106.861737},{"i_long":106.855437,"station_name":"Kramat","is_transit":false,"transit":false,"distance":1829,"line":11,"station_id":"KMT","time":2,"i_lat":-6.193792},{"line":11,"i_lat":-6.185975,"distance":973,"station_id":"GST","time":1,"transit":false,"i_long":106.850107,"is_transit":false,"station_name":"Gang Sentiong"},{"i_long":106.84368,"transit":false,"i_lat":-6.174784,"line":11,"is_transit":false,"station_id":"PSE","station_name":"Pasar Senen","time":8,"distance":1567},{"station_id":"KMO","i_lat":-6.161728,"i_long":106.839204,"line":11,"transit":false,"distance":1436,"station_name":"Kemayoran","time":4,"is_transit":false},{"is_transit":false,"time":5,"distance":1901,"i_lat":-6.14505,"i_long":106.836569,"line":11,"transit":false,"station_name":"Rajawali","station_id":"RJW"},{"distance":1444,"time":3,"transit":true,"i_lat":-6.132549,"station_id":"KPB","i_long":106.826365,"line":4,"station_name":"Kampung Bandan","is_transit":true},{"transit":false,"is_transit":false,"distance":4102,"station_name":"Angke","i_lat":-6.144674,"station_id":"AK","time":9,"i_long":106.79867,"line":1},{"i_lat":-6.155215,"time":4,"is_transit":false,"station_name":"Duri","distance":1230,"line":1,"transit":false,"station_id":"DU","i_long":106.800832},{"line":1,"time":8,"i_lat":-6.185545,"station_name":"Tanah Abang","station_id":"THB","transit":false,"is_transit":false,"distance":3632,"i_long":106.811091},{"station_id":"KAT","distance":2029,"i_long":106.816351,"line":1,"time":5,"i_lat":-6.20132,"station_name":"Karet","transit":false,"is_transit":false}],[{"is_transit":false,"distance":0,"transit":false,"time":0,"i_lat":-6.236616,"i_long":106.997013,"line":1,"station_id":"BKS","station_name":"Bekasi"},{"station_name":"Kranji","i_lat":-6.224515,"line":1,"time":4,"distance":2520,"is_transit":false,"station_id":"KRI","transit":false,"i_long":106.977657},{"station_name":"Cakung","is_transit":false,"station_id":"CUK","i_lat":-6.219053,"i_long":106.951283,"line":1,"time":3,"distance":3097,"transit":false},{"station_name":"Klenderbaru","i_lat":-6.217455,"time":8,"line":1,"distance":1385,"transit":false,"station_id":"KLDB","i_long":106.939679,"is_transit":false},{"station_id":"BUA","station_name":"Buaran","i_long":106.922662,"transit":false,"distance":1305,"line":1,"is_transit":false,"time":1,"i_lat":-6.215568},{"distance":3100,"station_name":"Klender","station_id":"KLD","i_long":106.899548,"is_transit":false,"line":1,"transit":false,"time":2,"i_lat":-6.2135},{"transit":false,"station_name":"Jatinegara","station_id":"JNG","time":3,"i_long":106.86807400000001,"i_lat":-6.215091,"is_transit":false,"line":1,"distance":3395},{"station_id":"MTR","is_transit":false,"distance":1377,"line":1,"transit":false,"time":2,"i_lat":-6.212485,"i_long":106.858896,"station_name":"Matraman"},{"transit":true,"is_transit":true,"distance":1275,"i_long":106.84912,"line":2,"station_id":"MRI","station_name":"Manggarai","i_lat":-6.209883,"time":2},{"transit":false,"station_id":"CKI","i_lat":-6.198556,"distance":1590,"time":4,"i_long":106.840169,"station_name":"Cikini","line":2,"is_transit":false},{"transit":false,"station_name":"Gondangdia","line":2,"is_transit":false,"station_id":"GDD","time":3,"i_lat":-6.186295,"i_long":106.832183,"distance":1750},{"time":4,"station_name":"Juanda","station_id":"JUA","distance":2015,"i_long":106.828284,"i_lat":-6.166716,"line":2,"is_transit":false,"transit":false},{"distance":1149,"i_lat":-6.160725,"i_long":106.827103,"line":2,"transit":false,"station_name":"Sawah Besar","is_transit":false,"time":2,"station_id":"SW"},{"i_lat":-6.149769,"is_transit":false,"transit":false,"station_id":"MGB","time":2,"line":2,"i_long":106.82482,"station_name":"Manggabesar","distance":906},{"i_lat":-6.141205,"distance":1080,"station_name":"Jayakarta","station_id":"JAY","i_long":106.820901,"time":2,"transit":false,"line":2,"is_transit":false},{"distance":1264,"station_name":"Jakarta Kota","i_lat":-6.137569,"transit":true,"i_long":106.812439,"station_id":"JAKK","is_transit":true,"time":4,"line":2},{"station_id":"KPB","time":3,"station_name":"Kampung Bandan","distance":1364,"is_transit":true,"i_lat":-6.132549,"line":4,"i_long":106.826365,"transit":true},{"distance":4102,"i_lat":-6.144674,"i_long":106.79867,"station_name":"Angke","transit":false,"is_transit":false,"station_id":"AK","line":1,"time":9},{"time":4,"transit":false,"station_name":"Duri","i_lat":-6.155215,"station_id":"DU","is_transit":false,"i_long":106.800832,"line":1,"distance":1230},{"station_name":"Tanah Abang","line":1,"i_lat":-6.185545,"station_id":"THB","is_transit":false,"i_long":106.811091,"transit":false,"time":8,"distance":3632},{"station_id":"KAT","i_lat":-6.20132,"i_long":106.816351,"is_transit":false,"transit":false,"station_name":"Karet","distance":2029,"time":5,"line":1}],[{"line":1,"station_name":"Bekasi","station_id":"BKS","i_lat":-6.236616,"i_long":106.997013,"time":0,"is_transit":false,"distance":0,"transit":false},{"distance":2520,"line":1,"station_id":"KRI","station_name":"Kranji","i_lat":-6.224515,"transit":false,"i_long":106.977657,"is_transit":false,"time":4},{"distance":3097,"station_id":"CUK","transit":false,"time":3,"i_lat":-6.219053,"station_name":"Cakung","i_long":106.951283,"line":1,"is_transit":false},{"transit":false,"i_lat":-6.217455,"i_long":106.939679,"is_transit":false,"time":8,"station_id":"KLDB","line":1,"distance":1385,"station_name":"Klenderbaru"},{"station_id":"BUA","distance":1305,"time":1,"i_long":106.922662,"station_name":"Buaran","i_lat":-6.215568,"line":1,"transit":false,"is_transit":false},{"station_name":"Klender","i_lat":-6.2135,"station_id":"KLD","time":2,"distance":3100,"i_long":106.899548,"transit":false,"is_transit":false,"line":1},{"station_id":"JNG","i_lat":-6.215091,"station_name":"Jatinegara","transit":true,"distance":3395,"line":1,"is_transit":true,"time":3,"i_long":106.86807400000001},{"transit":false,"station_id":"POK","is_transit":false,"time":2,"i_long":106.861737,"station_name":"Pondok Jati","distance":1236,"line":11,"i_lat":-6.209188},{"transit":false,"station_id":"KMT","time":2,"is_transit":false,"distance":1829,"i_lat":-6.193792,"station_name":"Kramat","i_long":106.855437,"line":11},{"station_id":"GST","is_transit":false,"time":1,"transit":false,"distance":973,"line":11,"i_long":106.850107,"i_lat":-6.185975,"station_name":"Gang Sentiong"},{"is_transit":false,"station_name":"Pasar Senen","transit":false,"station_id":"PSE","time":8,"i_lat":-6.174784,"distance":1567,"line":11,"i_long":106.84368},{"is_transit":false,"i_long":106.839204,"distance":1436,"time":4,"transit":false,"station_id":"KMO","i_lat":-6.161728,"line":11,"station_name":"Kemayoran"},{"is_transit":false,"transit":false,"i_lat":-6.14505,"i_long":106.836569,"station_id":"RJW","distance":1901,"line":11,"station_name":"Rajawali","time":5},{"station_id":"KPB","station_name":"Kampung Bandan","i_long":106.826365,"line":4,"distance":1444,"is_transit":true,"time":3,"i_lat":-6.132549,"transit":true},{"is_transit":true,"station_id":"JAKK","i_long":106.812439,"transit":true,"time":3,"distance":1364,"i_lat":-6.137569,"station_name":"Jakarta Kota","line":2},{"is_transit":false,"station_id":"JAY","distance":1264,"line":2,"i_long":106.820901,"transit":false,"time":4,"station_name":"Jayakarta","i_lat":-6.141205},{"transit":false,"i_lat":-6.149769,"line":2,"distance":1080,"station_name":"Manggabesar","station_id":"MGB","i_long":106.82482,"time":2,"is_transit":false},{"i_long":106.827103,"distance":906,"time":2,"transit":false,"station_id":"SW","line":2,"i_lat":-6.160725,"is_transit":false,"station_name":"Sawah Besar"},{"i_long":106.828284,"is_transit":false,"station_id":"JUA","line":2,"time":2,"transit":false,"station_name":"Juanda","distance":1149,"i_lat":-6.166716},{"station_name":"Gondangdia","i_lat":-6.186295,"transit":false,"station_id":"GDD","line":2,"i_long":106.832183,"time":4,"distance":2015,"is_transit":false},{"is_transit":false,"station_name":"Cikini","transit":false,"station_id":"CKI","i_lat":-6.198556,"distance":1750,"time":3,"i_long":106.840169,"line":2},{"is_transit":true,"station_id":"MRI","time":4,"i_lat":-6.209883,"transit":true,"distance":1590,"line":2,"station_name":"Manggarai","i_long":106.84912},{"station_name":"Sudirman","i_lat":-6.202263,"station_id":"SUD","i_long":106.822649,"is_transit":false,"line":1,"time":4,"transit":false,"distance":3186},{"transit":false,"distance":280,"is_transit":false,"i_lat":-6.201433,"i_long":106.819881,"station_id":"SUDB","time":1,"station_name":"Sudirman Baru","line":1},{"station_id":"KAT","i_lat":-6.20132,"line":1,"transit":false,"is_transit":false,"i_long":106.816351,"distance":471,"station_name":"Karet","time":1}]]}