{"data":[[{"station_id":"BKS","time":0,"i_lat":-6.236616,"station_name":"Bekasi","i_long":106.997013,"is_transit":false,"line":1,"transit":false,"distance":0},{"i_long":106.977657,"time":4,"line":1,"distance":2520,"station_id":"KRI","station_name":"Kranji","transit":false,"is_transit":false,"i_lat":-6.224515},{"time":3,"transit":false,"i_long":106.951283,"distance":3097,"station_id":"CUK","station_name":"Cakung","i_lat":-6.219053,"line":1,"is_transit":false},{"station_name":"Klenderbaru","i_lat":-6.217455,"i_long":106.939679,"is_transit":false,"station_id":"KLDB","transit":false,"time":8,"distance":1385,"line":1},{"is_transit":false,"station_id":"BUA","station_name":"Buaran","time":1,"distance":1305,"i_long":106.922662,"transit":false,"line":1,"i_lat":-6.215568},{"station_name":"Klender","i_lat":-6.2135,"is_transit":false,"distance":3100,"i_long":106.899548,"station_id":"KLD","line":1,"time":2,"transit":false},{"station_id":"JNG","is_transit":false,"i_lat":-6.215091,"distance":3395,"station_name":"Jatinegara","time":3,"transit":false,"i_long":106.86807400000001,"line":1},{"transit":false,"station_name":"Matraman","i_long":106.858896,"distance":1377,"i_lat":-6.212485,"is_transit":false,"line":1,"station_id":"MTR","time":2},{"distance":1275,"station_id":"MRI","transit":true,"i_lat":-6.209883,"station_name":"Manggarai","line":2,"is_transit":true,"time":2,"i_long":106.84912},{"transit":false,"station_id":"TEB","station_name":"Tebet","time":4,"distance":2610,"is_transit":false,"i_long":106.857948,"line":2,"i_lat":-6.226659},{"transit":false,"i_lat":-6.242512,"is_transit":false,"i_long":106.856607,"distance":1230,"station_id":"CW","time":2,"station_name":"Cawang","line":2},{"station_id":"DRN","transit":false,"is_transit":false,"time":3,"station_name":"Duren Kalibata","i_lat":-6.255332,"distance":1546,"i_long":106.85449,"line":2},{"i_long":106.851577,"transit":false,"distance":824,"station_id":"PSMB","is_transit":false,"line":2,"time":2,"i_lat":-6.263214,"station_name":"Pasar Minggu Baru"},{"i_lat":-6.2842400000000005,"time":2,"distance":2380,"station_name":"Pasar Minggu","is_transit":false,"i_long":106.843999,"station_id":"PSM","transit":false,"line":2},{"station_id":"TNT","time":4,"station_name":"Tanjung Barat","transit":false,"line":2,"distance":2820,"is_transit":false,"i_lat":-6.3080680000000005,"i_long":106.838896},{"i_lat":-6.330363,"distance":2671,"line":2,"i_long":106.832616,"time":3,"station_id":"LNA","is_transit":false,"transit":false,"station_name":"Lenteng Agung"},{"distance":1029,"time":2,"is_transit":false,"station_name":"Univ. Pancasila","station_id":"UP","i_lat":-6.339291,"transit":false,"i_long":106.834175,"line":2},{"transit":false,"station_id":"UI","station_name":"Univ. Indonesia","is_transit":false,"i_lat":-6.360749,"time":3,"distance":2264,"i_long":106.831474,"line":2},{"station_id":"POC","time":2,"transit":false,"station_name":"Pondok Cina","distance":1109,"is_transit":false,"i_lat":-6.369073,"i_long":106.831114,"line":2},{"transit":false,"line":2,"is_transit":false,"distance":2727,"station_name":"Depokbaru","i_lat":-6.391065,"station_id":"DPB","i_long":106.819451,"time":4},{"time":3,"transit":false,"station_id":"DP","i_lat":-6.405256,"i_long":106.816926,"is_transit":false,"distance":1584,"station_name":"Depok","line":2},{"station_name":"Citayam","i_long":106.800298,"line":2,"distance":5084,"i_lat":-6.448811,"is_transit":true,"time":6,"transit":true,"station_id":"CTA"},{"distance":0,"is_transit":false,"i_lat":-6.460735,"station_id":"PDRG","line":21,"station_name":"Pondok Rajeg","time":0,"transit":false,"i_long":106.824374},{"distance":0,"transit":false,"station_id":"CBN","time":0,"station_name":"Cibinong","i_long":106.851978,"i_lat":-6.46424,"is_transit":false,"line":21},{"time":10,"station_name":"Nambo","is_transit":false,"line":21,"distance":6527,"i_lat":-6.466285,"transit":false,"i_long":106.905196,"station_id":"NMO"}],[{"distance":0,"i_lat":-6.236616,"station_id":"BKS","line":1,"is_transit":false,"station_name":"Bekasi","transit":false,"i_long":106.997013,"time":0},{"line":1,"time":4,"i_lat":-6.224515,"station_name":"Kranji","station_id":"KRI","i_long":106.977657,"is_transit":false,"transit":false,"distance":2520},{"is_transit":false,"station_id":"CUK","i_long":106.951283,"distance":3097,"time":3,"transit":false,"i_lat":-6.219053,"station_name":"Cakung","line":1},{"i_long":106.939679,"transit":false,"i_lat":-6.217455,"time":8,"is_transit":false,"line":1,"station_id":"KLDB","distance":1385,"station_name":"Klenderbaru"},{"i_long":106.922662,"i_lat":-6.215568,"transit":false,"distance":1305,"station_name":"Buaran","station_id":"BUA","line":1,"is_transit":false,"time":1},{"time":2,"distance":3100,"station_name":"Klender","i_lat":-6.2135,"i_long":106.899548,"transit":false,"is_transit":false,"station_id":"KLD","line":1},{"transit":true,"distance":3395,"station_name":"Jatinegara","i_long":106.86807400000001,"station_id":"JNG","time":3,"is_transit":true,"i_lat":-6.215091,"line":1},{"distance":1236,"station_id":"POK","is_transit":false,"station_name":"Pondok Jati","i_long":106.861737,"line":11,"time":2,"i_lat":-6.209188,"transit":false},{"station_id":"KMT","line":11,"distance":1829,"i_long":106.855437,"station_name":"Kramat","is_transit":false,"transit":false,"time":2,"i_lat":-6.193792},{"i_lat":-6.185975,"line":11,"station_id":"GST","is_transit":false,"transit":false,"station_name":"Gang Sentiong","i_long":106.850107,"time":1,"distance":973},{"station_id":"PSE","distance":1567,"is_transit":false,"i_long":106.84368,"i_lat":-6.174784,"time":8,"line":11,"transit":false,"station_name":"Pasar Senen"},{"distance":1436,"station_id":"KMO","is_transit":false,"i_long":106.839204,"time":4,"station_name":"Kemayoran","i_lat":-6.161728,"line":11,"transit":false},{"is_transit":false,"station_name":"Rajawali","station_id":"RJW","time":5,"i_long":106.836569,"transit":false,"i_lat":-6.14505,"distance":1901,"line":11},{"station_name":"Kampung Bandan","line":4,"station_id":"KPB","distance":1444,"transit":true,"is_transit":true,"time":3,"i_lat":-6.132549,"i_long":106.826365},{"is_transit":false,"i_long":106.79867,"time":9,"distance":4102,"station_name":"Angke","line":1,"transit":false,"station_id":"AK","i_lat":-6.144674},{"station_id":"DU","distance":1230,"is_transit":false,"line":1,"time":4,"transit":false,"station_name":"Duri","i_lat":-6.155215,"i_long":106.800832},{"i_long":106.811091,"i_lat":-6.185545,"line":1,"station_id":"THB","station_name":"Tanah Abang","time":8,"transit":false,"is_transit":false,"distance":3632},{"time":5,"station_id":"KAT","line":1,"transit":false,"distance":2029,"station_name":"Karet","i_lat":-6.20132,"i_long":106.816351,"is_transit":false},{"time":1,"is_transit":false,"station_name":"Sudirman Baru","i_long":106.819881,"transit":false,"station_id":"SUDB","i_lat":-6.201433,"distance":471,"line":1},{"is_transit":false,"time":1,"station_id":"SUD","line":1,"transit":false,"i_long":106.822649,"i_lat":-6.202263,"distance":280,"station_name":"Sudirman"},{"station_id":"MRI","station_name":"Manggarai","i_long":106.84912,"transit":true,"time":4,"distance":3186,"i_lat":-6.209883,"is_transit":true,"line":2},{"time":4,"station_id":"TEB","i_long":106.857948,"line":2,"distance":2610,"i_lat":-6.226659,"station_name":"Tebet","transit":false,"is_transit":false},{"i_lat":-6.242512,"station_id":"CW","is_transit":false,"station_name":"Cawang","time":2,"transit":false,"distance":1230,"line":2,"i_long":106.856607},{"is_transit":false,"station_id":"DRN","station_name":"Duren Kalibata","transit":false,"i_lat":-6.255332,"distance":1546,"i_long":106.85449,"time":3,"line":2},{"transit":false,"line":2,"time":2,"distance":824,"station_name":"Pasar Minggu Baru","station_id":"PSMB","i_long":106.851577,"i_lat":-6.263214,"is_transit":false},{"i_lat":-6.2842400000000005,"station_name":"Pasar Minggu","line":2,"i_long":106.843999,"transit":false,"distance":2380,"is_transit":false,"time":2,"station_id":"PSM"},{"line":2,"distance":2820,"is_transit":false,"i_long":106.838896,"transit":false,"station_name":"Tanjung Barat","i_lat":-6.3080680000000005,"time":4,"station_id":"TNT"},{"time":3,"transit":false,"distance":2671,"i_long":106.832616,"station_id":"LNA","is_transit":false,"line":2,"i_lat":-6.330363,"station_name":"Lenteng Agung"},{"i_long":106.834175,"distance":1029,"line":2,"i_lat":-6.339291,"time":2,"station_name":"Univ. Pancasila","is_transit":false,"transit":false,"station_id":"UP"},{"time":3,"i_lat":-6.360749,"is_transit":false,"i_long":106.831474,"station_name":"Univ. Indonesia","station_id":"UI","line":2,"distance":2264,"transit":false},{"i_lat":-6.369073,"transit":false,"i_long":106.831114,"station_id":"POC","distance":1109,"time":2,"is_transit":false,"station_name":"Pondok Cina","line":2},{"time":4,"i_lat":-6.391065,"station_id":"DPB","transit":false,"is_transit":false,"i_long":106.819451,"line":2,"distance":2727,"station_name":"Depokbaru"},{"i_long":106.816926,"station_id":"DP","time":3,"distance":1584,"station_name":"Depok","line":2,"is_transit":false,"i_lat":-6.405256,"transit":false},{"transit":true,"station_id":"CTA","time":6,"distance":5084,"i_lat":-6.448811,"line":2,"is_transit":true,"station_name":"Citayam","i_long":106.800298},{"i_lat":-6.460735,"is_transit":false,"transit":false,"distance":0,"station_id":"PDRG","station_name":"Pondok Rajeg","time":0,"i_long":106.824374,"line":21},{"station_id":"CBN","time":0,"distance":0,"transit":false,"is_transit":false,"i_long":106.851978,"i_lat":-6.46424,"station_name":"Cibinong","line":21},{"time":10,"is_transit":false,"i_long":106.905196,"distance":6527,"line":21,"transit":false,"station_id":"NMO","station_name":"Nambo","i_lat":-6.466285}],[{"transit":false,"station_name":"Bekasi","distance":0,"is_transit":false,"i_long":106.997013,"line":1,"i_lat":-6.236616,"station_id":"BKS","time":0},{"i_long":106.977657,"line":1,"time":4,"transit":false,"station_id":"KRI","i_lat":-6.224515,"distance":2520,"is_transit":false,"station_name":"Kranji"},{"transit":false,"station_id":"CUK","is_transit":false,"station_name":"Cakung","i_lat":-6.219053,"time":3,"i_long":106.951283,"line":1,"distance":3097},{"time":8,"station_id":"KLDB","station_name":"Klenderbaru","is_transit":false,"i_long":106.939679,"line":1,"transit":false,"distance":1385,"i_lat":-6.217455},{"station_name":"Buaran","station_id":"BUA","i_long":106.922662,"is_transit":false,"i_lat":-6.215568,"line":1,"transit":false,"distance":1305,"time":1},{"transit":false,"station_id":"KLD","distance":3100,"is_transit":false,"i_long":106.899548,"i_lat":-6.2135,"station_name":"Klender","line":1,"time":2},{"station_name":"Jatinegara","is_transit":true,"transit":true,"i_lat":-6.215091,"station_id":"JNG","i_long":106.86807400000001,"distance":3395,"line":1,"time":3},{"distance":1236,"line":11,"time":2,"station_id":"POK","is_transit":false,"i_long":106.861737,"transit":false,"station_name":"Pondok Jati","i_lat":-6.209188},{"time":2,"station_id":"KMT","distance":1829,"is_transit":false,"i_lat":-6.193792,"transit":false,"line":11,"station_name":"Kramat","i_long":106.855437},{"station_name":"Gang Sentiong","i_lat":-6.185975,"line":11,"i_long":106.850107,"distance":973,"time":1,"is_transit":false,"transit":false,"station_id":"GST"},{"time":8,"transit":false,"i_long":106.84368,"i_lat":-6.174784,"station_id":"PSE","line":11,"distance":1567,"is_transit":false,"station_name":"Pasar Senen"},{"station_name":"Kemayoran","i_lat":-6.161728,"distance":1436,"i_long":106.839204,"time":4,"is_transit":false,"station_id":"KMO","line":11,"transit":false},{"transit":false,"time":5,"station_id":"RJW","distance":1901,"i_long":106.836569,"is_transit":false,"i_lat":-6.14505,"station_name":"Rajawali","line":11},{"station_id":"KPB","distance":1444,"transit":true,"i_lat":-6.132549,"station_name":"Kampung Bandan","is_transit":true,"time":3,"i_long":106.826365,"line":4},{"time":3,"station_id":"JAKK","i_long":106.812439,"distance":1364,"station_name":"Jakarta Kota","line":2,"transit":true,"is_transit":true,"i_lat":-6.137569},{"transit":false,"station_id":"JAY","is_transit":false,"time":4,"i_lat":-6.141205,"i_long":106.820901,"line":2,"distance":1264,"station_name":"Jayakarta"},{"distance":1080,"transit":false,"i_lat":-6.149769,"line":2,"station_id":"MGB","i_long":106.82482,"time":2,"station_name":"Manggabesar","is_transit":false},{"station_name":"Sawah Besar","time":2,"is_transit":false,"transit":false,"i_lat":-6.160725,"line":2,"distance":906,"i_long":106.827103,"station_id":"SW"},{"station_id":"JUA","i_long":106.828284,"i_lat":-6.166716,"is_transit":false,"time":2,"line":2,"transit":false,"distance":1149,"station_name":"Juanda"},{"station_name":"Gondangdia","transit":false,"time":4,"i_long":106.832183,"station_id":"GDD","distance":2015,"is_transit":false,"line":2,"i_lat":-6.186295},{"i_lat":-6.198556,"station_name":"Cikini","i_long":106.840169,"line":2,"time":3,"transit":false,"station_id":"CKI","distance":1750,"is_transit":false},{"station_id":"MRI","distance":1590,"i_long":106.84912,"line":2,"time":4,"transit":false,"i_lat":-6.209883,"is_transit":false,"station_name":"Manggarai"},{"station_id":"TEB","station_name":"Tebet","i_long":106.857948,"distance":2610,"i_lat":-6.226659,"is_transit":false,"time":4,"line":2,"transit":false},{"i_lat":-6.242512,"is_transit":false,"time":2,"i_long":106.856607,"line":2,"transit":false,"station_id":"CW","distance":1230,"station_name":"Cawang"},{"transit":false,"line":2,"is_transit":false,"station_id":"DRN","station_name":"Duren Kalibata","i_long":106.85449,"i_lat":-6.255332,"time":3,"distance":1546},{"line":2,"time":2,"transit":false,"is_transit":false,"distance":824,"i_long":106.851577,"i_lat":-6.263214,"station_id":"PSMB","station_name":"Pasar Minggu Baru"},{"time":2,"distance":2380,"is_transit":false,"station_id":"PSM","i_long":106.843999,"station_name":"Pasar Minggu","transit":false,"line":2,"i_lat":-6.2842400000000005},{"i_long":106.838896,"station_name":"Tanjung Barat","station_id":"TNT","time":4,"i_lat":-6.3080680000000005,"transit":false,"distance":2820,"line":2,"is_transit":false},{"time":3,"is_transit":false,"transit":false,"station_id":"LNA","station_name":"Lenteng Agung","line":2,"distance":2671,"i_lat":-6.330363,"i_long":106.832616},{"transit":false,"distance":1029,"i_long":106.834175,"time":2,"station_id":"UP","station_name":"Univ. Pancasila","is_transit":false,"i_lat":-6.339291,"line":2},{"distance":2264,"line":2,"is_transit":false,"i_long":106.831474,"station_id":"UI","transit":false,"time":3,"station_name":"Univ. Indonesia","i_lat":-6.360749},{"i_lat":-6.369073,"station_name":"Pondok Cina","i_long":106.831114,"transit":false,"distance":1109,"time":2,"line":2,"is_transit":false,"station_id":"POC"},{"is_transit":false,"station_id":"DPB","transit":false,"i_long":106.819451,"i_lat":-6.391065,"station_name":"Depokbaru","time":4,"distance":2727,"line":2},{"time":3,"transit":false,"is_transit":false,"line":2,"i_long":106.816926,"station_id":"DP","station_name":"Depok","i_lat":-6.405256,"distance":1584},{"i_lat":-6.448811,"station_name":"Citayam","distance":5084,"time":6,"transit":true,"is_transit":true,"line":2,"station_id":"CTA","i_long":106.800298},{"is_transit":false,"distance":0,"station_id":"PDRG","i_lat":-6.460735,"time":0,"transit":false,"station_name":"Pondok Rajeg","i_long":106.824374,"line":21},{"station_name":"Cibinong","time":0,"i_lat":-6.46424,"i_long":106.851978,"station_id":"CBN","is_transit":false,"transit":false,"line":21,"distance":0},{"i_long":106.905196,"station_id":"NMO","station_name":"Nambo","transit":false,"distance":6527,"i_lat":-6.466285,"time":10,"line":21,"is_transit":false}]]}