{"data":[[{"station_name":"Bekasi","i_lat":-6.236616,"distance":0,"line":1,"station_id":"BKS","is_transit":false,"time":0,"transit":false,"i_long":106.997013},{"line":1,"i_lat":-6.224515,"is_transit":false,"station_id":"KRI","time":4,"distance":2520,"transit":false,"i_long":106.977657,"station_name":"Kranji"},{"station_id":"CUK","is_transit":false,"transit":false,"time":3,"i_lat":-6.219053,"distance":3097,"i_long":106.951283,"line":1,"station_name":"Cakung"},{"i_lat":-6.217455,"line":1,"transit":false,"is_transit":false,"station_name":"Klenderbaru","time":8,"distance":1385,"station_id":"KLDB","i_long":106.939679},{"i_long":106.922662,"distance":1305,"is_transit":false,"transit":false,"i_lat":-6.215568,"station_name":"Buaran","line":1,"station_id":"BUA","time":1},{"transit":false,"is_transit":false,"distance":3100,"station_name":"Klender","i_lat":-6.2135,"time":2,"i_long":106.899548,"line":1,"station_id":"KLD"},{"station_id":"JNG","distance":3395,"i_lat":-6.215091,"time":3,"transit":true,"station_name":"Jatinegara","is_transit":true,"i_long":106.86807400000001,"line":1},{"distance":1236,"time":2,"is_transit":false,"station_id":"POK","i_lat":-6.209188,"station_name":"Pondok Jati","line":11,"i_long":106.861737,"transit":false},{"transit":false,"i_lat":-6.193792,"distance":1829,"time":2,"station_id":"KMT","station_name":"Kramat","line":11,"is_transit":false,"i_long":106.855437},{"station_id":"GST","distance":973,"time":1,"is_transit":false,"station_name":"Gang Sentiong","i_lat":-6.185975,"line":11,"transit":false,"i_long":106.850107}],[{"i_long":106.997013,"time":0,"transit":false,"distance":0,"i_lat":-6.236616,"line":1,"station_name":"Bekasi","station_id":"BKS","is_transit":false},{"station_id":"KRI","station_name":"Kranji","transit":false,"i_lat":-6.224515,"time":4,"i_long":106.977657,"distance":2520,"line":1,"is_transit":false},{"station_name":"Cakung","is_transit":false,"transit":false,"distance":3097,"i_lat":-6.219053,"i_long":106.951283,"line":1,"time":3,"station_id":"CUK"},{"station_id":"KLDB","i_long":106.939679,"i_lat":-6.217455,"is_transit":false,"station_name":"Klenderbaru","transit":false,"distance":1385,"time":8,"line":1},{"transit":false,"line":1,"distance":1305,"time":1,"station_id":"BUA","i_lat":-6.215568,"is_transit":false,"i_long":106.922662,"station_name":"Buaran"},{"transit":false,"is_transit":false,"station_id":"KLD","station_name":"Klender","distance":3100,"time":2,"i_lat":-6.2135,"i_long":106.899548,"line":1},{"is_transit":false,"time":3,"i_long":106.86807400000001,"station_id":"JNG","transit":false,"station_name":"Jatinegara","line":1,"distance":3395,"i_lat":-6.215091},{"i_lat":-6.212485,"distance":1377,"is_transit":false,"i_long":106.858896,"transit":false,"time":2,"station_name":"Matraman","station_id":"MTR","line":1},{"station_id":"MRI","is_transit":false,"i_long":106.84912,"station_name":"Manggarai","line":2,"time":2,"distance":1275,"transit":false,"i_lat":-6.209883},{"transit":false,"time":4,"distance":3186,"is_transit":false,"station_id":"SUD","station_name":"Sudirman","i_lat":-6.202263,"i_long":106.822649,"line":1},{"station_id":"SUDB","distance":280,"i_long":106.819881,"is_transit":false,"i_lat":-6.201433,"time":1,"transit":false,"station_name":"Sudirman Baru","line":1},{"time":1,"station_name":"Karet","transit":false,"station_id":"KAT","i_lat":-6.20132,"is_transit":false,"i_long":106.816351,"distance":471,"line":1},{"is_transit":false,"station_id":"THB","i_long":106.811091,"time":5,"transit":false,"line":1,"station_name":"Tanah Abang","i_lat":-6.185545,"distance":2029},{"is_transit":false,"i_lat":-6.155215,"time":8,"distance":3632,"station_id":"DU","transit":false,"i_long":106.800832,"line":1,"station_name":"Duri"},{"line":1,"station_name":"Angke","distance":1230,"i_long":106.79867,"i_lat":-6.144674,"time":4,"is_transit":false,"transit":false,"station_id":"AK"},{"i_lat":-6.132549,"station_id":"KPB","distance":4102,"station_name":"Kampung Bandan","is_transit":true,"line":4,"i_long":106.826365,"transit":true,"time":9},{"transit":false,"i_lat":-6.14505,"i_long":106.836569,"line":11,"station_name":"Rajawali","time":3,"distance":1444,"station_id":"RJW","is_transit":false},{"distance":1901,"line":11,"is_transit":false,"i_lat":-6.161728,"i_long":106.839204,"transit":false,"station_name":"Kemayoran","time":5,"station_id":"KMO"},{"i_long":106.84368,"i_lat":-6.174784,"is_transit":false,"station_id":"PSE","line":11,"transit":false,"station_name":"Pasar Senen","distance":1436,"time":4},{"i_lat":-6.185975,"is_transit":false,"transit":false,"time":8,"line":11,"distance":1567,"i_long":106.850107,"station_name":"Gang Sentiong","station_id":"GST"}],[{"time":0,"i_lat":-6.236616,"is_transit":false,"station_id":"BKS","i_long":106.997013,"distance":0,"station_name":"Bekasi","line":1,"transit":false},{"time":4,"is_transit":false,"transit":false,"i_long":106.977657,"line":1,"i_lat":-6.224515,"station_name":"Kranji","station_id":"KRI","distance":2520},{"is_transit":false,"line":1,"i_lat":-6.219053,"station_id":"CUK","i_long":106.951283,"distance":3097,"time":3,"station_name":"Cakung","transit":false},{"station_id":"KLDB","distance":1385,"i_long":106.939679,"time":8,"transit":false,"is_transit":false,"station_name":"Klenderbaru","i_lat":-6.217455,"line":1},{"i_long":106.922662,"time":1,"transit":false,"is_transit":false,"line":1,"station_name":"Buaran","distance":1305,"station_id":"BUA","i_lat":-6.215568},{"time":2,"distance":3100,"line":1,"station_name":"Klender","transit":false,"is_transit":false,"i_long":106.899548,"station_id":"KLD","i_lat":-6.2135},{"station_name":"Jatinegara","i_lat":-6.215091,"transit":false,"i_long":106.86807400000001,"is_transit":false,"distance":3395,"line":1,"station_id":"JNG","time":3},{"line":1,"station_name":"Matraman","time":2,"station_id":"MTR","transit":false,"distance":1377,"i_lat":-6.212485,"is_transit":false,"i_long":106.858896},{"is_transit":true,"station_name":"Manggarai","station_id":"MRI","i_lat":-6.209883,"transit":true,"i_long":106.84912,"distance":1275,"line":2,"time":2},{"i_lat":-6.198556,"station_id":"CKI","i_long":106.840169,"line":2,"is_transit":false,"transit":false,"distance":1590,"time":4,"station_name":"Cikini"},{"i_lat":-6.186295,"is_transit":false,"station_name":"Gondangdia","transit":false,"i_long":106.832183,"line":2,"station_id":"GDD","time":3,"distance":1750},{"station_id":"JUA","is_transit":false,"i_lat":-6.166716,"transit":false,"line":2,"i_long":106.828284,"distance":2015,"station_name":"Juanda","time":4},{"station_name":"Sawah Besar","i_long":106.827103,"transit":false,"time":2,"distance":1149,"line":2,"station_id":"SW","is_transit":false,"i_lat":-6.160725},{"i_long":106.82482,"i_lat":-6.149769,"line":2,"transit":false,"time":2,"station_name":"Manggabesar","distance":906,"station_id":"MGB","is_transit":false},{"transit":false,"station_id":"JAY","i_long":106.820901,"is_transit":false,"time":2,"i_lat":-6.141205,"distance":1080,"line":2,"station_name":"Jayakarta"},{"line":2,"time":4,"station_id":"JAKK","i_lat":-6.137569,"station_name":"Jakarta Kota","transit":true,"i_long":106.812439,"distance":1264,"is_transit":true},{"station_id":"KPB","time":3,"i_lat":-6.132549,"station_name":"Kampung Bandan","is_transit":true,"i_long":106.826365,"line":4,"transit":true,"distance":1364},{"station_name":"Rajawali","line":11,"station_id":"RJW","is_transit":false,"distance":1444,"time":3,"transit":false,"i_lat":-6.14505,"i_long":106.836569},{"station_name":"Kemayoran","station_id":"KMO","distance":1901,"time":5,"i_long":106.839204,"line":11,"i_lat":-6.161728,"transit":false,"is_transit":false},{"station_id":"PSE","i_lat":-6.174784,"i_long":106.84368,"station_name":"Pasar Senen","transit":false,"distance":1436,"is_transit":false,"time":4,"line":11},{"distance":1567,"transit":false,"station_id":"GST","time":8,"i_lat":-6.185975,"line":11,"is_transit":false,"i_long":106.850107,"station_name":"Gang Sentiong"}]]}