{"data":[[{"time":0,"line":1,"distance":0,"station_name":"Bekasi","station_id":"BKS","i_long":106.997013,"transit":false,"i_lat":-6.236616,"is_transit":false},{"transit":false,"i_long":106.977657,"i_lat":-6.224515,"time":4,"station_name":"Kranji","line":1,"distance":2520,"station_id":"KRI","is_transit":false},{"i_lat":-6.219053,"station_name":"Cakung","line":1,"station_id":"CUK","transit":false,"i_long":106.951283,"distance":3097,"time":3,"is_transit":false},{"line":1,"i_long":106.939679,"distance":1385,"station_id":"KLDB","time":8,"station_name":"Klenderbaru","transit":false,"is_transit":false,"i_lat":-6.217455},{"i_lat":-6.215568,"station_id":"BUA","i_long":106.922662,"distance":1305,"station_name":"Buaran","time":1,"is_transit":false,"line":1,"transit":false},{"is_transit":false,"i_lat":-6.2135,"distance":3100,"station_id":"KLD","i_long":106.899548,"time":2,"line":1,"transit":false,"station_name":"Klender"},{"transit":false,"station_id":"JNG","is_transit":false,"i_long":106.86807400000001,"station_name":"Jatinegara","line":1,"time":3,"i_lat":-6.215091,"distance":3395},{"i_lat":-6.212485,"line":1,"station_id":"MTR","is_transit":false,"time":2,"distance":1377,"transit":false,"station_name":"Matraman","i_long":106.858896},{"transit":true,"station_name":"Manggarai","i_long":106.84912,"is_transit":true,"i_lat":-6.209883,"station_id":"MRI","time":2,"distance":1275,"line":2},{"distance":2610,"time":4,"is_transit":false,"i_lat":-6.226659,"line":2,"station_id":"TEB","station_name":"Tebet","i_long":106.857948,"transit":false},{"is_transit":false,"time":2,"distance":1230,"station_id":"CW","i_long":106.856607,"transit":false,"line":2,"station_name":"Cawang","i_lat":-6.242512},{"line":2,"transit":false,"i_long":106.85449,"time":3,"station_name":"Duren Kalibata","distance":1546,"station_id":"DRN","is_transit":false,"i_lat":-6.255332},{"line":2,"i_lat":-6.263214,"station_name":"Pasar Minggu Baru","i_long":106.851577,"distance":824,"transit":false,"time":2,"station_id":"PSMB","is_transit":false},{"station_name":"Pasar Minggu","station_id":"PSM","i_long":106.843999,"distance":2380,"i_lat":-6.2842400000000005,"time":2,"transit":false,"line":2,"is_transit":false},{"station_id":"TNT","station_name":"Tanjung Barat","transit":false,"time":4,"i_long":106.838896,"is_transit":false,"distance":2820,"i_lat":-6.3080680000000005,"line":2},{"i_long":106.832616,"station_name":"Lenteng Agung","station_id":"LNA","is_transit":false,"distance":2671,"i_lat":-6.330363,"transit":false,"line":2,"time":3},{"i_lat":-6.339291,"station_name":"Univ. Pancasila","line":2,"is_transit":false,"i_long":106.834175,"time":2,"station_id":"UP","transit":false,"distance":1029},{"time":3,"line":2,"i_long":106.831474,"distance":2264,"transit":false,"station_name":"Univ. Indonesia","is_transit":false,"i_lat":-6.360749,"station_id":"UI"},{"station_name":"Pondok Cina","is_transit":false,"i_lat":-6.369073,"distance":1109,"i_long":106.831114,"time":2,"line":2,"station_id":"POC","transit":false},{"time":4,"transit":false,"station_id":"DPB","i_lat":-6.391065,"i_long":106.819451,"line":2,"is_transit":false,"station_name":"Depokbaru","distance":2727},{"i_lat":-6.405256,"i_long":106.816926,"line":2,"transit":false,"time":3,"is_transit":false,"station_name":"Depok","distance":1584,"station_id":"DP"},{"line":2,"distance":5084,"station_name":"Citayam","is_transit":false,"transit":false,"station_id":"CTA","time":6,"i_lat":-6.448811,"i_long":106.800298}],[{"is_transit":false,"transit":false,"distance":0,"station_id":"BKS","time":0,"i_lat":-6.236616,"line":1,"station_name":"Bekasi","i_long":106.997013},{"transit":false,"is_transit":false,"station_name":"Kranji","station_id":"KRI","distance":2520,"i_long":106.977657,"line":1,"i_lat":-6.224515,"time":4},{"distance":3097,"transit":false,"station_name":"Cakung","i_long":106.951283,"station_id":"CUK","is_transit":false,"i_lat":-6.219053,"time":3,"line":1},{"station_id":"KLDB","transit":false,"is_transit":false,"line":1,"time":8,"station_name":"Klenderbaru","i_long":106.939679,"distance":1385,"i_lat":-6.217455},{"station_id":"BUA","transit":false,"distance":1305,"station_name":"Buaran","i_long":106.922662,"line":1,"i_lat":-6.215568,"time":1,"is_transit":false},{"line":1,"time":2,"station_name":"Klender","station_id":"KLD","distance":3100,"transit":false,"is_transit":false,"i_lat":-6.2135,"i_long":106.899548},{"is_transit":true,"i_long":106.86807400000001,"line":1,"station_name":"Jatinegara","station_id":"JNG","distance":3395,"transit":true,"time":3,"i_lat":-6.215091},{"time":2,"i_long":106.861737,"station_name":"Pondok Jati","distance":1236,"transit":false,"i_lat":-6.209188,"station_id":"POK","is_transit":false,"line":11},{"transit":false,"line":11,"time":2,"distance":1829,"station_name":"Kramat","is_transit":false,"i_lat":-6.193792,"station_id":"KMT","i_long":106.855437},{"i_lat":-6.185975,"i_long":106.850107,"station_name":"Gang Sentiong","transit":false,"line":11,"distance":973,"time":1,"station_id":"GST","is_transit":false},{"i_long":106.84368,"transit":false,"is_transit":false,"time":8,"distance":1567,"station_name":"Pasar Senen","station_id":"PSE","i_lat":-6.174784,"line":11},{"station_id":"KMO","transit":false,"distance":1436,"i_lat":-6.161728,"is_transit":false,"i_long":106.839204,"time":4,"station_name":"Kemayoran","line":11},{"station_id":"RJW","transit":false,"is_transit":false,"station_name":"Rajawali","i_lat":-6.14505,"distance":1901,"line":11,"time":5,"i_long":106.836569},{"is_transit":true,"station_name":"Kampung Bandan","distance":1444,"i_long":106.826365,"line":4,"transit":true,"station_id":"KPB","time":3,"i_lat":-6.132549},{"distance":4102,"transit":false,"station_id":"AK","is_transit":false,"i_lat":-6.144674,"time":9,"line":1,"i_long":106.79867,"station_name":"Angke"},{"distance":1230,"station_id":"DU","i_lat":-6.155215,"station_name":"Duri","is_transit":false,"time":4,"transit":false,"line":1,"i_long":106.800832},{"time":8,"transit":false,"distance":3632,"is_transit":false,"i_long":106.811091,"line":1,"station_id":"THB","station_name":"Tanah Abang","i_lat":-6.185545},{"line":1,"transit":false,"distance":2029,"time":5,"is_transit":false,"i_lat":-6.20132,"station_name":"Karet","i_long":106.816351,"station_id":"KAT"},{"time":1,"is_transit":false,"transit":false,"distance":471,"line":1,"i_long":106.819881,"i_lat":-6.201433,"station_id":"SUDB","station_name":"Sudirman Baru"},{"i_lat":-6.202263,"i_long":106.822649,"transit":false,"line":1,"time":1,"is_transit":false,"station_name":"Sudirman","distance":280,"station_id":"SUD"},{"distance":3186,"transit":true,"station_name":"Manggarai","i_long":106.84912,"line":2,"station_id":"MRI","is_transit":true,"i_lat":-6.209883,"time":4},{"line":2,"i_lat":-6.226659,"station_id":"TEB","transit":false,"i_long":106.857948,"station_name":"Tebet","time":4,"distance":2610,"is_transit":false},{"station_id":"CW","transit":false,"time":2,"i_lat":-6.242512,"station_name":"Cawang","i_long":106.856607,"is_transit":false,"line":2,"distance":1230},{"station_name":"Duren Kalibata","time":3,"distance":1546,"is_transit":false,"line":2,"i_lat":-6.255332,"i_long":106.85449,"station_id":"DRN","transit":false},{"time":2,"i_lat":-6.263214,"i_long":106.851577,"station_id":"PSMB","distance":824,"transit":false,"is_transit":false,"line":2,"station_name":"Pasar Minggu Baru"},{"distance":2380,"line":2,"is_transit":false,"station_id":"PSM","time":2,"station_name":"Pasar Minggu","i_lat":-6.2842400000000005,"transit":false,"i_long":106.843999},{"i_lat":-6.3080680000000005,"station_id":"TNT","i_long":106.838896,"line":2,"station_name":"Tanjung Barat","time":4,"is_transit":false,"distance":2820,"transit":false},{"distance":2671,"transit":false,"station_name":"Lenteng Agung","line":2,"time":3,"is_transit":false,"station_id":"LNA","i_lat":-6.330363,"i_long":106.832616},{"transit":false,"station_id":"UP","i_long":106.834175,"station_name":"Univ. Pancasila","time":2,"is_transit":false,"distance":1029,"line":2,"i_lat":-6.339291},{"i_long":106.831474,"transit":false,"station_name":"Univ. Indonesia","distance":2264,"time":3,"station_id":"UI","line":2,"is_transit":false,"i_lat":-6.360749},{"station_id":"POC","is_transit":false,"i_lat":-6.369073,"station_name":"Pondok Cina","distance":1109,"time":2,"transit":false,"i_long":106.831114,"line":2},{"transit":false,"station_name":"Depokbaru","station_id":"DPB","is_transit":false,"i_lat":-6.391065,"i_long":106.819451,"line":2,"time":4,"distance":2727},{"i_long":106.816926,"transit":false,"line":2,"station_name":"Depok","i_lat":-6.405256,"time":3,"station_id":"DP","is_transit":false,"distance":1584},{"is_transit":false,"time":6,"station_name":"Citayam","i_lat":-6.448811,"transit":false,"i_long":106.800298,"distance":5084,"station_id":"CTA","line":2}],[{"station_id":"BKS","i_long":106.997013,"i_lat":-6.236616,"transit":false,"is_transit":false,"station_name":"Bekasi","time":0,"line":1,"distance":0},{"i_long":106.977657,"time":4,"transit":false,"line":1,"station_name":"Kranji","i_lat":-6.224515,"station_id":"KRI","distance":2520,"is_transit":false},{"distance":3097,"transit":false,"i_lat":-6.219053,"station_name":"Cakung","station_id":"CUK","time":3,"is_transit":false,"line":1,"i_long":106.951283},{"line":1,"i_long":106.939679,"transit":false,"i_lat":-6.217455,"station_id":"KLDB","is_transit":false,"time":8,"distance":1385,"station_name":"Klenderbaru"},{"i_long":106.922662,"time":1,"i_lat":-6.215568,"distance":1305,"transit":false,"station_name":"Buaran","station_id":"BUA","is_transit":false,"line":1},{"station_id":"KLD","distance":3100,"is_transit":false,"time":2,"transit":false,"i_long":106.899548,"i_lat":-6.2135,"station_name":"Klender","line":1},{"station_id":"JNG","is_transit":true,"transit":true,"i_lat":-6.215091,"time":3,"line":1,"station_name":"Jatinegara","i_long":106.86807400000001,"distance":3395},{"i_lat":-6.209188,"time":2,"i_long":106.861737,"line":11,"station_id":"POK","transit":false,"distance":1236,"station_name":"Pondok Jati","is_transit":false},{"is_transit":false,"transit":false,"station_name":"Kramat","station_id":"KMT","distance":1829,"i_lat":-6.193792,"i_long":106.855437,"time":2,"line":11},{"transit":false,"i_lat":-6.185975,"station_name":"Gang Sentiong","line":11,"i_long":106.850107,"distance":973,"station_id":"GST","is_transit":false,"time":1},{"transit":false,"time":8,"station_id":"PSE","i_lat":-6.174784,"i_long":106.84368,"line":11,"station_name":"Pasar Senen","distance":1567,"is_transit":false},{"transit":false,"station_id":"KMO","station_name":"Kemayoran","i_long":106.839204,"distance":1436,"is_transit":false,"line":11,"time":4,"i_lat":-6.161728},{"time":5,"i_long":106.836569,"transit":false,"station_id":"RJW","distance":1901,"i_lat":-6.14505,"station_name":"Rajawali","line":11,"is_transit":false},{"distance":1444,"station_id":"KPB","i_lat":-6.132549,"station_name":"Kampung Bandan","is_transit":true,"line":4,"i_long":106.826365,"transit":true,"time":3},{"station_name":"Jakarta Kota","line":2,"i_lat":-6.137569,"transit":true,"distance":1364,"time":3,"station_id":"JAKK","is_transit":true,"i_long":106.812439},{"transit":false,"station_id":"JAY","distance":1264,"is_transit":false,"i_lat":-6.141205,"station_name":"Jayakarta","line":2,"time":4,"i_long":106.820901},{"station_name":"Manggabesar","transit":false,"i_lat":-6.149769,"is_transit":false,"line":2,"distance":1080,"time":2,"station_id":"MGB","i_long":106.82482},{"transit":false,"is_transit":false,"i_long":106.827103,"line":2,"distance":906,"time":2,"station_name":"Sawah Besar","station_id":"SW","i_lat":-6.160725},{"i_lat":-6.166716,"station_name":"Juanda","distance":1149,"station_id":"JUA","transit":false,"time":2,"is_transit":false,"line":2,"i_long":106.828284},{"is_transit":false,"i_long":106.832183,"i_lat":-6.186295,"line":2,"time":4,"station_name":"Gondangdia","transit":false,"station_id":"GDD","distance":2015},{"is_transit":false,"i_long":106.840169,"station_id":"CKI","line":2,"station_name":"Cikini","distance":1750,"time":3,"transit":false,"i_lat":-6.198556},{"i_lat":-6.209883,"station_id":"MRI","time":4,"distance":1590,"station_name":"Manggarai","i_long":106.84912,"transit":false,"line":2,"is_transit":false},{"station_id":"TEB","distance":2610,"is_transit":false,"i_long":106.857948,"transit":false,"time":4,"station_name":"Tebet","line":2,"i_lat":-6.226659},{"distance":1230,"station_id":"CW","transit":false,"i_lat":-6.242512,"time":2,"station_name":"Cawang","line":2,"is_transit":false,"i_long":106.856607},{"transit":false,"station_id":"DRN","i_lat":-6.255332,"station_name":"Duren Kalibata","line":2,"is_transit":false,"time":3,"distance":1546,"i_long":106.85449},{"time":2,"i_lat":-6.263214,"line":2,"distance":824,"is_transit":false,"station_id":"PSMB","transit":false,"station_name":"Pasar Minggu Baru","i_long":106.851577},{"time":2,"station_id":"PSM","i_long":106.843999,"transit":false,"distance":2380,"station_name":"Pasar Minggu","is_transit":false,"i_lat":-6.2842400000000005,"line":2},{"station_name":"Tanjung Barat","transit":false,"i_long":106.838896,"is_transit":false,"station_id":"TNT","distance":2820,"time":4,"line":2,"i_lat":-6.3080680000000005},{"i_long":106.832616,"station_name":"Lenteng Agung","distance":2671,"is_transit":false,"station_id":"LNA","time":3,"transit":false,"i_lat":-6.330363,"line":2},{"i_long":106.834175,"is_transit":false,"time":2,"station_name":"Univ. Pancasila","distance":1029,"station_id":"UP","i_lat":-6.339291,"line":2,"transit":false},{"line":2,"is_transit":false,"i_lat":-6.360749,"time":3,"distance":2264,"station_name":"Univ. Indonesia","station_id":"UI","i_long":106.831474,"transit":false},{"i_lat":-6.369073,"line":2,"station_id":"POC","is_transit":false,"time":2,"distance":1109,"transit":false,"station_name":"Pondok Cina","i_long":106.831114},{"i_lat":-6.391065,"station_id":"DPB","station_name":"Depokbaru","time":4,"is_transit":false,"transit":false,"distance":2727,"i_long":106.819451,"line":2},{"i_long":106.816926,"station_id":"DP","distance":1584,"time":3,"line":2,"station_name":"Depok","transit":false,"is_transit":false,"i_lat":-6.405256},{"station_name":"Citayam","station_id":"CTA","time":6,"i_lat":-6.448811,"distance":5084,"i_long":106.800298,"line":2,"transit":false,"is_transit":false}]]}