{"data":[[{"distance":0,"station_name":"Bekasi Timur","station_id":"BKST","i_lat":-6.248029,"is_transit":false,"transit":false,"time":0,"i_long":107.016735,"line":1},{"line":1,"time":2,"i_long":106.997013,"i_lat":-6.236616,"station_id":"BKS","transit":false,"distance":2368,"station_name":"Bekasi","is_transit":false},{"transit":false,"line":1,"station_id":"KRI","station_name":"Kranji","time":4,"i_long":106.977657,"distance":2520,"i_lat":-6.224515,"is_transit":false},{"line":1,"distance":3097,"transit":false,"is_transit":false,"station_id":"CUK","time":3,"station_name":"Cakung","i_lat":-6.219053,"i_long":106.951283},{"line":1,"station_name":"Klenderbaru","is_transit":false,"station_id":"KLDB","distance":1385,"transit":false,"time":8,"i_long":106.939679,"i_lat":-6.217455}]]}