{"data":[[{"transit":false,"i_lat":-6.248029,"station_name":"Bekasi Timur","time":0,"station_id":"BKST","i_long":107.016735,"line":1,"is_transit":false,"distance":0},{"station_id":"BKS","station_name":"Bekasi","line":1,"distance":2368,"is_transit":false,"time":2,"i_long":106.997013,"transit":false,"i_lat":-6.236616},{"distance":2520,"i_long":106.977657,"is_transit":false,"station_name":"Kranji","station_id":"KRI","time":4,"transit":false,"i_lat":-6.224515,"line":1},{"station_id":"CUK","transit":false,"line":1,"i_lat":-6.219053,"station_name":"Cakung","time":3,"i_long":106.951283,"distance":3097,"is_transit":false},{"i_long":106.939679,"station_id":"KLDB","line":1,"transit":false,"is_transit":false,"time":8,"distance":1385,"i_lat":-6.217455,"station_name":"Klenderbaru"},{"i_lat":-6.215568,"station_name":"Buaran","distance":1305,"station_id":"BUA","transit":false,"i_long":106.922662,"time":1,"is_transit":false,"line":1},{"time":2,"station_name":"Klender","is_transit":false,"i_lat":-6.2135,"distance":3100,"transit":false,"i_long":106.899548,"station_id":"KLD","line":1},{"distance":3395,"i_lat":-6.215091,"line":1,"time":3,"i_long":106.86807400000001,"transit":false,"is_transit":false,"station_name":"Jatinegara","station_id":"JNG"},{"transit":false,"is_transit":false,"line":1,"station_id":"MTR","i_long":106.858896,"time":2,"distance":1377,"i_lat":-6.212485,"station_name":"Matraman"},{"line":2,"distance":1275,"i_lat":-6.209883,"i_long":106.84912,"transit":false,"time":2,"station_id":"MRI","station_name":"Manggarai","is_transit":false},{"line":1,"station_id":"SUD","transit":false,"i_lat":-6.202263,"station_name":"Sudirman","is_transit":false,"time":4,"i_long":106.822649,"distance":3186},{"time":1,"station_id":"SUDB","i_long":106.819881,"line":1,"transit":false,"is_transit":false,"i_lat":-6.201433,"station_name":"Sudirman Baru","distance":280},{"line":1,"i_lat":-6.20132,"i_long":106.816351,"distance":471,"time":1,"station_id":"KAT","is_transit":false,"transit":false,"station_name":"Karet"},{"time":5,"is_transit":false,"i_lat":-6.185545,"station_id":"THB","i_long":106.811091,"station_name":"Tanah Abang","line":1,"distance":2029,"transit":false},{"station_name":"Duri","i_lat":-6.155215,"i_long":106.800832,"line":1,"time":8,"distance":3632,"is_transit":true,"transit":true,"station_id":"DU"},{"distance":1700,"line":5,"i_lat":-6.162021,"time":3,"station_id":"GRG","station_name":"Grogol","transit":false,"i_long":106.788277,"is_transit":false},{"distance":2036,"is_transit":false,"line":5,"station_name":"Pesing","station_id":"PSG","i_long":106.771379,"transit":false,"i_lat":-6.161433,"time":2},{"distance":1614,"transit":false,"i_lat":-6.1587309999999995,"i_long":106.756522,"line":5,"station_id":"TKO","time":2,"is_transit":false,"station_name":"Taman Kota"},{"station_name":"Bojongindah","transit":false,"distance":2334,"is_transit":false,"time":2,"i_lat":-6.159876,"i_long":106.737035,"station_id":"BOI","line":5},{"station_id":"RW","i_lat":-6.162758,"station_name":"Rawa Buaya","line":5,"distance":1152,"is_transit":false,"time":4,"i_long":106.723064,"transit":false}],[{"distance":0,"is_transit":false,"time":0,"i_lat":-6.248029,"station_name":"Bekasi Timur","transit":false,"station_id":"BKST","i_long":107.016735,"line":1},{"time":2,"line":1,"station_id":"BKS","station_name":"Bekasi","is_transit":false,"i_lat":-6.236616,"transit":false,"distance":2368,"i_long":106.997013},{"station_id":"KRI","i_lat":-6.224515,"i_long":106.977657,"transit":false,"line":1,"distance":2520,"station_name":"Kranji","is_transit":false,"time":4},{"i_long":106.951283,"line":1,"time":3,"i_lat":-6.219053,"transit":false,"distance":3097,"station_id":"CUK","is_transit":false,"station_name":"Cakung"},{"station_name":"Klenderbaru","station_id":"KLDB","distance":1385,"transit":false,"is_transit":false,"i_lat":-6.217455,"line":1,"i_long":106.939679,"time":8},{"station_name":"Buaran","is_transit":false,"i_lat":-6.215568,"i_long":106.922662,"distance":1305,"time":1,"transit":false,"station_id":"BUA","line":1},{"i_long":106.899548,"line":1,"station_name":"Klender","transit":false,"time":2,"station_id":"KLD","distance":3100,"is_transit":false,"i_lat":-6.2135},{"is_transit":true,"line":1,"station_id":"JNG","distance":3395,"station_name":"Jatinegara","transit":true,"time":3,"i_lat":-6.215091,"i_long":106.86807400000001},{"i_long":106.861737,"line":11,"station_name":"Pondok Jati","distance":1236,"station_id":"POK","i_lat":-6.209188,"transit":false,"is_transit":false,"time":2},{"i_long":106.855437,"distance":1829,"station_id":"KMT","is_transit":false,"line":11,"station_name":"Kramat","transit":false,"i_lat":-6.193792,"time":2},{"station_name":"Gang Sentiong","time":1,"distance":973,"transit":false,"line":11,"station_id":"GST","is_transit":false,"i_lat":-6.185975,"i_long":106.850107},{"i_lat":-6.174784,"station_name":"Pasar Senen","station_id":"PSE","transit":false,"is_transit":false,"time":8,"i_long":106.84368,"line":11,"distance":1567},{"time":4,"station_id":"KMO","distance":1436,"i_long":106.839204,"i_lat":-6.161728,"transit":false,"station_name":"Kemayoran","line":11,"is_transit":false},{"station_id":"RJW","station_name":"Rajawali","transit":false,"is_transit":false,"time":5,"i_lat":-6.14505,"line":11,"distance":1901,"i_long":106.836569},{"station_id":"KPB","transit":true,"time":3,"line":4,"i_long":106.826365,"distance":1444,"station_name":"Kampung Bandan","is_transit":true,"i_lat":-6.132549},{"station_id":"AK","is_transit":false,"distance":4102,"station_name":"Angke","time":9,"i_lat":-6.144674,"line":1,"transit":false,"i_long":106.79867},{"station_name":"Duri","distance":1230,"station_id":"DU","i_lat":-6.155215,"transit":true,"i_long":106.800832,"is_transit":true,"time":4,"line":1},{"is_transit":false,"distance":1700,"station_id":"GRG","station_name":"Grogol","transit":false,"i_long":106.788277,"i_lat":-6.162021,"time":3,"line":5},{"distance":2036,"station_name":"Pesing","is_transit":false,"i_long":106.771379,"line":5,"transit":false,"time":2,"station_id":"PSG","i_lat":-6.161433},{"time":2,"transit":false,"i_long":106.756522,"i_lat":-6.1587309999999995,"distance":1614,"station_name":"Taman Kota","station_id":"TKO","is_transit":false,"line":5},{"i_lat":-6.159876,"distance":2334,"station_name":"Bojongindah","is_transit":false,"time":2,"station_id":"BOI","transit":false,"line":5,"i_long":106.737035},{"distance":1152,"i_lat":-6.162758,"i_long":106.723064,"is_transit":false,"station_name":"Rawa Buaya","station_id":"RW","transit":false,"line":5,"time":4}],[{"is_transit":false,"distance":0,"i_long":107.016735,"station_name":"Bekasi Timur","transit":false,"i_lat":-6.248029,"station_id":"BKST","line":1,"time":0},{"station_name":"Bekasi","is_transit":false,"i_long":106.997013,"distance":2368,"station_id":"BKS","time":2,"transit":false,"i_lat":-6.236616,"line":1},{"is_transit":false,"station_id":"KRI","distance":2520,"line":1,"i_lat":-6.224515,"time":4,"station_name":"Kranji","transit":false,"i_long":106.977657},{"station_name":"Cakung","line":1,"is_transit":false,"distance":3097,"station_id":"CUK","i_lat":-6.219053,"time":3,"i_long":106.951283,"transit":false},{"station_name":"Klenderbaru","line":1,"distance":1385,"time":8,"i_long":106.939679,"station_id":"KLDB","i_lat":-6.217455,"transit":false,"is_transit":false},{"is_transit":false,"station_id":"BUA","time":1,"i_lat":-6.215568,"line":1,"i_long":106.922662,"transit":false,"station_name":"Buaran","distance":1305},{"time":2,"i_lat":-6.2135,"transit":false,"line":1,"station_name":"Klender","distance":3100,"i_long":106.899548,"station_id":"KLD","is_transit":false},{"station_id":"JNG","station_name":"Jatinegara","time":3,"is_transit":false,"transit":false,"i_lat":-6.215091,"line":1,"distance":3395,"i_long":106.86807400000001},{"is_transit":false,"station_id":"MTR","time":2,"i_lat":-6.212485,"distance":1377,"line":1,"transit":false,"i_long":106.858896,"station_name":"Matraman"},{"distance":1275,"station_id":"MRI","station_name":"Manggarai","is_transit":true,"i_long":106.84912,"line":2,"time":2,"transit":true,"i_lat":-6.209883},{"station_name":"Cikini","station_id":"CKI","is_transit":false,"time":4,"i_long":106.840169,"line":2,"i_lat":-6.198556,"transit":false,"distance":1590},{"time":3,"is_transit":false,"distance":1750,"line":2,"station_id":"GDD","i_lat":-6.186295,"i_long":106.832183,"transit":false,"station_name":"Gondangdia"},{"station_name":"Juanda","is_transit":false,"time":4,"i_lat":-6.166716,"i_long":106.828284,"line":2,"station_id":"JUA","distance":2015,"transit":false},{"time":2,"station_id":"SW","i_lat":-6.160725,"distance":1149,"station_name":"Sawah Besar","i_long":106.827103,"line":2,"is_transit":false,"transit":false},{"station_name":"Manggabesar","time":2,"i_long":106.82482,"line":2,"i_lat":-6.149769,"transit":false,"station_id":"MGB","distance":906,"is_transit":false},{"time":2,"is_transit":false,"i_lat":-6.141205,"i_long":106.820901,"line":2,"distance":1080,"transit":false,"station_id":"JAY","station_name":"Jayakarta"},{"i_long":106.812439,"station_name":"Jakarta Kota","station_id":"JAKK","is_transit":true,"transit":true,"time":4,"line":2,"i_lat":-6.137569,"distance":1264},{"station_id":"KPB","distance":1364,"transit":true,"station_name":"Kampung Bandan","time":3,"is_transit":true,"i_long":106.826365,"line":4,"i_lat":-6.132549},{"distance":4102,"is_transit":false,"time":9,"station_id":"AK","i_lat":-6.144674,"station_name":"Angke","transit":false,"i_long":106.79867,"line":1},{"station_name":"Duri","time":4,"station_id":"DU","line":1,"i_lat":-6.155215,"i_long":106.800832,"distance":1230,"transit":true,"is_transit":true},{"i_long":106.788277,"station_name":"Grogol","transit":false,"distance":1700,"line":5,"station_id":"GRG","is_transit":false,"i_lat":-6.162021,"time":3},{"transit":false,"line":5,"station_id":"PSG","station_name":"Pesing","distance":2036,"is_transit":false,"time":2,"i_lat":-6.161433,"i_long":106.771379},{"is_transit":false,"station_id":"TKO","transit":false,"i_lat":-6.1587309999999995,"i_long":106.756522,"distance":1614,"line":5,"station_name":"Taman Kota","time":2},{"station_id":"BOI","station_name":"Bojongindah","is_transit":false,"time":2,"i_lat":-6.159876,"i_long":106.737035,"line":5,"transit":false,"distance":2334},{"station_name":"Rawa Buaya","transit":false,"time":4,"line":5,"distance":1152,"i_long":106.723064,"station_id":"RW","i_lat":-6.162758,"is_transit":false}],[{"station_name":"Bekasi Timur","station_id":"BKST","transit":false,"i_long":107.016735,"distance":0,"time":0,"i_lat":-6.248029,"line":1,"is_transit":false},{"distance":2368,"i_lat":-6.236616,"is_transit":false,"station_name":"Bekasi","i_long":106.997013,"station_id":"BKS","time":2,"transit":false,"line":1},{"i_long":106.977657,"station_name":"Kranji","time":4,"i_lat":-6.224515,"distance":2520,"line":1,"transit":false,"station_id":"KRI","is_transit":false},{"station_name":"Cakung","distance":3097,"transit":false,"is_transit":false,"i_lat":-6.219053,"station_id":"CUK","i_long":106.951283,"time":3,"line":1},{"is_transit":false,"station_id":"KLDB","transit":false,"line":1,"i_long":106.939679,"time":8,"distance":1385,"station_name":"Klenderbaru","i_lat":-6.217455},{"station_id":"BUA","is_transit":false,"distance":1305,"line":1,"time":1,"i_long":106.922662,"station_name":"Buaran","transit":false,"i_lat":-6.215568},{"distance":3100,"station_name":"Klender","i_lat":-6.2135,"transit":false,"time":2,"i_long":106.899548,"is_transit":false,"station_id":"KLD","line":1},{"distance":3395,"station_id":"JNG","transit":true,"time":3,"i_long":106.86807400000001,"is_transit":true,"i_lat":-6.215091,"line":1,"station_name":"Jatinegara"},{"i_lat":-6.209188,"distance":1236,"time":2,"i_long":106.861737,"is_transit":false,"station_name":"Pondok Jati","station_id":"POK","transit":false,"line":11},{"i_lat":-6.193792,"station_name":"Kramat","transit":false,"station_id":"KMT","distance":1829,"i_long":106.855437,"is_transit":false,"time":2,"line":11},{"distance":973,"i_long":106.850107,"i_lat":-6.185975,"transit":false,"station_name":"Gang Sentiong","time":1,"station_id":"GST","is_transit":false,"line":11},{"i_lat":-6.174784,"i_long":106.84368,"station_name":"Pasar Senen","is_transit":false,"transit":false,"line":11,"distance":1567,"station_id":"PSE","time":8},{"line":11,"is_transit":false,"distance":1436,"time":4,"i_long":106.839204,"station_name":"Kemayoran","transit":false,"i_lat":-6.161728,"station_id":"KMO"},{"is_transit":false,"line":11,"distance":1901,"station_id":"RJW","time":5,"i_long":106.836569,"station_name":"Rajawali","transit":false,"i_lat":-6.14505},{"is_transit":true,"transit":true,"i_lat":-6.132549,"line":4,"i_long":106.826365,"distance":1444,"station_name":"Kampung Bandan","station_id":"KPB","time":3},{"i_long":106.812439,"station_id":"JAKK","transit":true,"line":2,"i_lat":-6.137569,"station_name":"Jakarta Kota","is_transit":true,"distance":1364,"time":3},{"transit":false,"line":2,"i_long":106.820901,"i_lat":-6.141205,"station_name":"Jayakarta","distance":1264,"is_transit":false,"time":4,"station_id":"JAY"},{"station_name":"Manggabesar","transit":false,"distance":1080,"is_transit":false,"line":2,"i_lat":-6.149769,"station_id":"MGB","time":2,"i_long":106.82482},{"distance":906,"i_lat":-6.160725,"time":2,"i_long":106.827103,"line":2,"station_id":"SW","station_name":"Sawah Besar","transit":false,"is_transit":false},{"time":2,"i_lat":-6.166716,"station_name":"Juanda","is_transit":false,"i_long":106.828284,"transit":false,"station_id":"JUA","line":2,"distance":1149},{"i_long":106.832183,"distance":2015,"station_id":"GDD","transit":false,"i_lat":-6.186295,"station_name":"Gondangdia","time":4,"line":2,"is_transit":false},{"i_lat":-6.198556,"station_name":"Cikini","transit":false,"distance":1750,"i_long":106.840169,"line":2,"time":3,"is_transit":false,"station_id":"CKI"},{"station_name":"Manggarai","transit":true,"distance":1590,"is_transit":true,"i_lat":-6.209883,"time":4,"station_id":"MRI","i_long":106.84912,"line":2},{"station_id":"SUD","transit":false,"is_transit":false,"station_name":"Sudirman","i_long":106.822649,"time":4,"i_lat":-6.202263,"line":1,"distance":3186},{"station_name":"Sudirman Baru","transit":false,"i_lat":-6.201433,"time":1,"station_id":"SUDB","i_long":106.819881,"line":1,"distance":280,"is_transit":false},{"station_name":"Karet","line":1,"distance":471,"station_id":"KAT","time":1,"i_long":106.816351,"transit":false,"is_transit":false,"i_lat":-6.20132},{"i_long":106.811091,"station_id":"THB","is_transit":false,"i_lat":-6.185545,"transit":false,"distance":2029,"time":5,"line":1,"station_name":"Tanah Abang"},{"i_long":106.800832,"line":1,"station_name":"Duri","is_transit":true,"i_lat":-6.155215,"transit":true,"station_id":"DU","distance":3632,"time":8},{"distance":1700,"time":3,"is_transit":false,"station_id":"GRG","transit":false,"line":5,"station_name":"Grogol","i_lat":-6.162021,"i_long":106.788277},{"i_lat":-6.161433,"line":5,"transit":false,"distance":2036,"station_id":"PSG","i_long":106.771379,"is_transit":false,"time":2,"station_name":"Pesing"},{"station_id":"TKO","line":5,"time":2,"distance":1614,"station_name":"Taman Kota","is_transit":false,"i_lat":-6.1587309999999995,"i_long":106.756522,"transit":false},{"station_name":"Bojongindah","i_lat":-6.159876,"i_long":106.737035,"station_id":"BOI","is_transit":false,"time":2,"distance":2334,"line":5,"transit":false},{"time":4,"i_lat":-6.162758,"i_long":106.723064,"station_id":"RW","line":5,"transit":false,"station_name":"Rawa Buaya","distance":1152,"is_transit":false}]]}