{"data":[[{"transit":false,"distance":0,"i_long":107.016735,"station_name":"Bekasi Timur","is_transit":false,"line":0,"time":0,"station_id":"BKST","i_lat":-6.248029},{"is_transit":false,"i_lat":-6.236616,"distance":2368,"time":2,"line":0,"station_name":"Bekasi","i_long":106.997013,"transit":false,"station_id":"BKS"},{"is_transit":false,"distance":2520,"transit":false,"station_name":"Kranji","time":4,"line":1,"i_lat":-6.224515,"i_long":106.977657,"station_id":"KRI"},{"time":3,"line":0,"distance":3097,"i_lat":-6.219053,"is_transit":false,"transit":false,"i_long":106.951283,"station_id":"CUK","station_name":"Cakung"},{"time":8,"is_transit":false,"i_lat":-6.217455,"i_long":106.939679,"line":1,"transit":false,"station_id":"KLDB","distance":1385,"station_name":"Klenderbaru"},{"station_name":"Buaran","i_lat":-6.215568,"time":1,"line":0,"transit":false,"is_transit":false,"i_long":106.922662,"station_id":"BUA","distance":1305},{"line":1,"is_transit":false,"distance":3100,"transit":false,"i_lat":-6.2135,"station_name":"Klender","i_long":106.899548,"time":2,"station_id":"KLD"},{"distance":3395,"station_name":"Jatinegara","i_long":106.86807400000001,"station_id":"JNG","line":0,"time":3,"i_lat":-6.215091,"is_transit":true,"transit":false},{"station_name":"Matraman","station_id":"MTR","distance":1377,"is_transit":false,"time":2,"i_lat":-6.212485,"transit":false,"line":1,"i_long":106.858896},{"is_transit":true,"transit":false,"i_long":106.84912,"distance":1275,"station_name":"Manggarai","i_lat":-6.209883,"time":2,"station_id":"MRI","line":0},{"station_name":"Sudirman","line":1,"is_transit":false,"transit":false,"i_lat":-6.202263,"time":4,"i_long":106.822649,"station_id":"SUD","distance":3186},{"station_name":"Sudirman Baru","time":1,"is_transit":false,"distance":280,"i_lat":-6.201433,"i_long":106.819881,"line":1,"transit":false,"station_id":"SUDB"},{"i_lat":-6.20132,"station_id":"KAT","i_long":106.816351,"transit":false,"is_transit":false,"distance":471,"station_name":"Karet","time":1,"line":1},{"line":1,"i_long":106.811091,"i_lat":-6.185545,"is_transit":true,"distance":2029,"transit":true,"station_id":"THB","station_name":"Tanah Abang","time":5},{"time":6,"i_lat":-6.207404,"distance":3191,"station_name":"Palmerah","is_transit":false,"transit":false,"i_long":106.79689,"line":6,"station_id":"PLM"},{"i_lat":-6.237242,"station_name":"Kebayoran","station_id":"KBY","is_transit":false,"time":7,"distance":3737,"i_long":106.780334,"transit":false,"line":6},{"transit":false,"i_lat":-6.276362,"station_id":"PDJ","time":8,"line":6,"is_transit":false,"station_name":"Pondokranji","distance":6218,"i_long":106.74273},{"time":3,"station_id":"JMU","station_name":"Jurangmangu","transit":false,"i_lat":-6.288927,"is_transit":false,"distance":2179,"i_long":106.728916,"line":6},{"station_name":"Sudimara","time":4,"transit":false,"i_lat":-6.296963,"distance":1994,"station_id":"SDM","is_transit":false,"line":6,"i_long":106.712277}],[{"i_lat":-6.248029,"is_transit":false,"station_id":"BKST","line":0,"i_long":107.016735,"time":0,"transit":false,"distance":0,"station_name":"Bekasi Timur"},{"transit":false,"line":0,"i_lat":-6.236616,"station_id":"BKS","is_transit":false,"time":2,"distance":2368,"station_name":"Bekasi","i_long":106.997013},{"transit":false,"i_lat":-6.224515,"time":4,"is_transit":false,"distance":2520,"line":1,"station_id":"KRI","station_name":"Kranji","i_long":106.977657},{"is_transit":false,"time":3,"transit":false,"i_lat":-6.219053,"line":0,"station_id":"CUK","distance":3097,"station_name":"Cakung","i_long":106.951283},{"distance":1385,"i_long":106.939679,"line":1,"time":8,"station_name":"Klenderbaru","i_lat":-6.217455,"transit":false,"is_transit":false,"station_id":"KLDB"},{"time":1,"station_id":"BUA","is_transit":false,"distance":1305,"i_lat":-6.215568,"station_name":"Buaran","line":0,"transit":false,"i_long":106.922662},{"is_transit":false,"station_name":"Klender","distance":3100,"i_long":106.899548,"transit":false,"i_lat":-6.2135,"line":1,"time":2,"station_id":"KLD"},{"i_lat":-6.215091,"is_transit":true,"distance":3395,"station_id":"JNG","transit":true,"time":3,"station_name":"Jatinegara","i_long":106.86807400000001,"line":0},{"time":2,"line":11,"i_long":106.861737,"transit":false,"distance":1236,"station_id":"POK","is_transit":false,"station_name":"Pondok Jati","i_lat":-6.209188},{"transit":false,"distance":1829,"station_id":"KMT","i_long":106.855437,"i_lat":-6.193792,"is_transit":false,"line":11,"station_name":"Kramat","time":2},{"station_id":"GST","is_transit":false,"line":11,"i_lat":-6.185975,"transit":false,"i_long":106.850107,"time":1,"distance":973,"station_name":"Gang Sentiong"},{"i_long":106.84368,"time":8,"distance":1567,"station_name":"Pasar Senen","station_id":"PSE","line":11,"i_lat":-6.174784,"transit":false,"is_transit":false},{"i_lat":-6.161728,"line":11,"station_name":"Kemayoran","transit":false,"i_long":106.839204,"distance":1436,"is_transit":false,"time":4,"station_id":"KMO"},{"transit":false,"time":5,"is_transit":false,"distance":1901,"station_id":"RJW","line":11,"i_long":106.836569,"station_name":"Rajawali","i_lat":-6.14505},{"transit":true,"distance":1444,"i_lat":-6.132549,"i_long":106.826365,"time":3,"station_name":"Kampung Bandan","station_id":"KPB","is_transit":true,"line":0},{"station_name":"Angke","is_transit":false,"time":9,"distance":4102,"transit":false,"station_id":"AK","i_lat":-6.144674,"line":0,"i_long":106.79867},{"station_id":"DU","i_lat":-6.155215,"i_long":106.800832,"transit":true,"is_transit":true,"distance":1230,"time":4,"station_name":"Duri","line":1},{"station_id":"THB","i_lat":-6.185545,"is_transit":true,"transit":true,"time":8,"line":1,"station_name":"Tanah Abang","distance":3632,"i_long":106.811091},{"distance":3191,"i_long":106.79689,"time":6,"is_transit":false,"line":6,"transit":false,"i_lat":-6.207404,"station_name":"Palmerah","station_id":"PLM"},{"is_transit":false,"i_long":106.780334,"transit":false,"i_lat":-6.237242,"distance":3737,"line":6,"station_id":"KBY","station_name":"Kebayoran","time":7},{"transit":false,"i_lat":-6.276362,"station_id":"PDJ","is_transit":false,"station_name":"Pondokranji","i_long":106.74273,"time":8,"distance":6218,"line":6},{"transit":false,"line":6,"time":3,"station_id":"JMU","station_name":"Jurangmangu","i_long":106.728916,"is_transit":false,"distance":2179,"i_lat":-6.288927},{"i_long":106.712277,"transit":false,"station_id":"SDM","is_transit":false,"time":4,"i_lat":-6.296963,"station_name":"Sudimara","line":6,"distance":1994}],[{"time":0,"transit":false,"is_transit":false,"station_id":"BKST","station_name":"Bekasi Timur","distance":0,"line":0,"i_lat":-6.248029,"i_long":107.016735},{"i_lat":-6.236616,"line":0,"is_transit":false,"transit":false,"time":2,"station_id":"BKS","i_long":106.997013,"station_name":"Bekasi","distance":2368},{"i_lat":-6.224515,"time":4,"is_transit":false,"station_id":"KRI","transit":false,"station_name":"Kranji","line":1,"i_long":106.977657,"distance":2520},{"i_long":106.951283,"distance":3097,"line":0,"is_transit":false,"time":3,"transit":false,"i_lat":-6.219053,"station_name":"Cakung","station_id":"CUK"},{"station_name":"Klenderbaru","i_lat":-6.217455,"station_id":"KLDB","transit":false,"i_long":106.939679,"time":8,"line":1,"distance":1385,"is_transit":false},{"distance":1305,"transit":false,"i_lat":-6.215568,"is_transit":false,"time":1,"station_name":"Buaran","i_long":106.922662,"line":0,"station_id":"BUA"},{"transit":false,"distance":3100,"line":1,"is_transit":false,"station_id":"KLD","station_name":"Klender","i_lat":-6.2135,"i_long":106.899548,"time":2},{"station_id":"JNG","is_transit":true,"transit":false,"i_lat":-6.215091,"line":0,"distance":3395,"station_name":"Jatinegara","i_long":106.86807400000001,"time":3},{"station_name":"Matraman","line":1,"transit":false,"i_lat":-6.212485,"is_transit":false,"time":2,"station_id":"MTR","distance":1377,"i_long":106.858896},{"station_id":"MRI","time":2,"i_long":106.84912,"transit":true,"distance":1275,"station_name":"Manggarai","line":0,"i_lat":-6.209883,"is_transit":true},{"distance":1590,"i_lat":-6.198556,"line":0,"station_id":"CKI","time":4,"station_name":"Cikini","transit":false,"i_long":106.840169,"is_transit":false},{"i_long":106.832183,"time":3,"is_transit":false,"distance":1750,"station_name":"Gondangdia","transit":false,"i_lat":-6.186295,"line":2,"station_id":"GDD"},{"i_lat":-6.166716,"station_id":"JUA","transit":false,"distance":2015,"line":2,"time":4,"is_transit":false,"station_name":"Juanda","i_long":106.828284},{"line":2,"transit":false,"i_lat":-6.160725,"distance":1149,"station_name":"Sawah Besar","station_id":"SW","is_transit":false,"i_long":106.827103,"time":2},{"station_id":"MGB","distance":906,"i_long":106.82482,"line":2,"is_transit":false,"station_name":"Manggabesar","transit":false,"time":2,"i_lat":-6.149769},{"time":2,"i_lat":-6.141205,"line":7,"transit":false,"station_id":"JAY","i_long":106.820901,"station_name":"Jayakarta","is_transit":false,"distance":1080},{"is_transit":true,"time":4,"station_name":"Jakarta Kota","i_long":106.812439,"line":0,"i_lat":-6.137569,"distance":1264,"station_id":"JAKK","transit":true},{"station_id":"KPB","i_lat":-6.132549,"is_transit":true,"station_name":"Kampung Bandan","i_long":106.826365,"time":3,"distance":1364,"line":0,"transit":false},{"line":0,"transit":false,"station_id":"AK","time":9,"i_long":106.79867,"is_transit":false,"i_lat":-6.144674,"distance":4102,"station_name":"Angke"},{"line":1,"i_lat":-6.155215,"distance":1230,"time":4,"station_id":"DU","is_transit":true,"station_name":"Duri","transit":true,"i_long":106.800832},{"i_lat":-6.185545,"station_name":"Tanah Abang","line":1,"i_long":106.811091,"time":8,"station_id":"THB","is_transit":true,"transit":true,"distance":3632},{"time":6,"station_name":"Palmerah","distance":3191,"transit":false,"line":6,"station_id":"PLM","i_lat":-6.207404,"is_transit":false,"i_long":106.79689},{"time":7,"is_transit":false,"station_id":"KBY","i_long":106.780334,"i_lat":-6.237242,"line":6,"station_name":"Kebayoran","distance":3737,"transit":false},{"station_id":"PDJ","is_transit":false,"station_name":"Pondokranji","distance":6218,"i_lat":-6.276362,"transit":false,"time":8,"i_long":106.74273,"line":6},{"station_name":"Jurangmangu","transit":false,"distance":2179,"line":6,"i_long":106.728916,"is_transit":false,"i_lat":-6.288927,"time":3,"station_id":"JMU"},{"station_id":"SDM","i_lat":-6.296963,"distance":1994,"is_transit":false,"transit":false,"line":6,"time":4,"station_name":"Sudimara","i_long":106.712277}],[{"is_transit":false,"distance":0,"line":0,"time":0,"station_name":"Bekasi Timur","station_id":"BKST","transit":false,"i_long":107.016735,"i_lat":-6.248029},{"distance":2368,"time":2,"station_id":"BKS","is_transit":false,"line":0,"i_lat":-6.236616,"i_long":106.997013,"transit":false,"station_name":"Bekasi"},{"i_lat":-6.224515,"station_id":"KRI","transit":false,"distance":2520,"time":4,"i_long":106.977657,"line":1,"station_name":"Kranji","is_transit":false},{"distance":3097,"station_name":"Cakung","i_lat":-6.219053,"line":0,"time":3,"transit":false,"station_id":"CUK","is_transit":false,"i_long":106.951283},{"distance":1385,"is_transit":false,"line":1,"i_lat":-6.217455,"i_long":106.939679,"station_name":"Klenderbaru","transit":false,"station_id":"KLDB","time":8},{"i_lat":-6.215568,"distance":1305,"is_transit":false,"time":1,"line":0,"transit":false,"station_id":"BUA","station_name":"Buaran","i_long":106.922662},{"time":2,"line":1,"is_transit":false,"i_lat":-6.2135,"i_long":106.899548,"station_id":"KLD","transit":false,"distance":3100,"station_name":"Klender"},{"station_id":"JNG","i_long":106.86807400000001,"line":0,"is_transit":true,"transit":true,"i_lat":-6.215091,"time":3,"distance":3395,"station_name":"Jatinegara"},{"distance":1236,"transit":false,"station_name":"Pondok Jati","time":2,"i_lat":-6.209188,"station_id":"POK","i_long":106.861737,"line":11,"is_transit":false},{"station_id":"KMT","time":2,"i_long":106.855437,"is_transit":false,"distance":1829,"line":11,"transit":false,"i_lat":-6.193792,"station_name":"Kramat"},{"i_lat":-6.185975,"i_long":106.850107,"time":1,"distance":973,"transit":false,"station_name":"Gang Sentiong","line":11,"is_transit":false,"station_id":"GST"},{"i_lat":-6.174784,"time":8,"station_name":"Pasar Senen","i_long":106.84368,"distance":1567,"station_id":"PSE","is_transit":false,"transit":false,"line":11},{"station_name":"Kemayoran","transit":false,"line":11,"time":4,"station_id":"KMO","i_lat":-6.161728,"i_long":106.839204,"distance":1436,"is_transit":false},{"station_name":"Rajawali","is_transit":false,"line":11,"i_lat":-6.14505,"i_long":106.836569,"time":5,"distance":1901,"transit":false,"station_id":"RJW"},{"transit":true,"station_id":"KPB","i_long":106.826365,"station_name":"Kampung Bandan","distance":1444,"is_transit":true,"time":3,"i_lat":-6.132549,"line":0},{"distance":1364,"time":3,"is_transit":true,"station_id":"JAKK","station_name":"Jakarta Kota","transit":true,"i_lat":-6.137569,"i_long":106.812439,"line":0},{"station_id":"JAY","line":7,"i_lat":-6.141205,"is_transit":false,"distance":1264,"transit":false,"i_long":106.820901,"station_name":"Jayakarta","time":4},{"station_id":"MGB","transit":false,"i_lat":-6.149769,"line":2,"is_transit":false,"time":2,"station_name":"Manggabesar","i_long":106.82482,"distance":1080},{"is_transit":false,"i_lat":-6.160725,"i_long":106.827103,"station_id":"SW","station_name":"Sawah Besar","distance":906,"time":2,"transit":false,"line":2},{"time":2,"i_lat":-6.166716,"distance":1149,"i_long":106.828284,"line":2,"station_name":"Juanda","transit":false,"station_id":"JUA","is_transit":false},{"is_transit":false,"station_name":"Gondangdia","i_long":106.832183,"distance":2015,"i_lat":-6.186295,"line":2,"time":4,"station_id":"GDD","transit":false},{"is_transit":false,"distance":1750,"station_name":"Cikini","i_long":106.840169,"station_id":"CKI","time":3,"transit":false,"line":0,"i_lat":-6.198556},{"station_id":"MRI","distance":1590,"transit":true,"is_transit":true,"i_lat":-6.209883,"line":0,"station_name":"Manggarai","i_long":106.84912,"time":4},{"transit":false,"distance":3186,"i_lat":-6.202263,"station_id":"SUD","station_name":"Sudirman","line":1,"time":4,"is_transit":false,"i_long":106.822649},{"line":1,"station_name":"Sudirman Baru","time":1,"is_transit":false,"i_lat":-6.201433,"transit":false,"distance":280,"station_id":"SUDB","i_long":106.819881},{"i_long":106.816351,"transit":false,"station_name":"Karet","distance":471,"is_transit":false,"i_lat":-6.20132,"station_id":"KAT","time":1,"line":1},{"transit":true,"i_long":106.811091,"line":1,"i_lat":-6.185545,"is_transit":true,"station_name":"Tanah Abang","station_id":"THB","distance":2029,"time":5},{"i_lat":-6.207404,"station_name":"Palmerah","line":6,"station_id":"PLM","is_transit":false,"distance":3191,"transit":false,"i_long":106.79689,"time":6},{"station_id":"KBY","station_name":"Kebayoran","transit":false,"i_long":106.780334,"line":6,"time":7,"is_transit":false,"distance":3737,"i_lat":-6.237242},{"distance":6218,"i_lat":-6.276362,"station_name":"Pondokranji","line":6,"time":8,"i_long":106.74273,"is_transit":false,"transit":false,"station_id":"PDJ"},{"line":6,"transit":false,"time":3,"distance":2179,"i_lat":-6.288927,"is_transit":false,"station_id":"JMU","station_name":"Jurangmangu","i_long":106.728916},{"station_name":"Sudimara","station_id":"SDM","transit":false,"time":4,"line":6,"is_transit":false,"distance":1994,"i_lat":-6.296963,"i_long":106.712277}]]}