{"data":[[{"station_name":"Bekasi Timur","distance":0,"is_transit":false,"i_lat":-6.248029,"station_id":"BKST","i_long":107.016735,"line":1,"transit":false,"time":0},{"station_id":"BKS","line":1,"time":2,"distance":2368,"station_name":"Bekasi","transit":false,"i_lat":-6.236616,"is_transit":false,"i_long":106.997013},{"is_transit":false,"station_name":"Kranji","i_lat":-6.224515,"i_long":106.977657,"station_id":"KRI","time":4,"line":1,"distance":2520,"transit":false},{"i_long":106.951283,"line":1,"station_id":"CUK","i_lat":-6.219053,"time":3,"station_name":"Cakung","is_transit":false,"distance":3097,"transit":false},{"station_name":"Klenderbaru","station_id":"KLDB","i_lat":-6.217455,"i_long":106.939679,"line":1,"time":8,"transit":false,"is_transit":false,"distance":1385},{"station_name":"Buaran","distance":1305,"time":1,"i_lat":-6.215568,"is_transit":false,"transit":false,"i_long":106.922662,"line":1,"station_id":"BUA"},{"i_long":106.899548,"line":1,"station_id":"KLD","transit":false,"i_lat":-6.2135,"is_transit":false,"station_name":"Klender","time":2,"distance":3100},{"time":3,"station_name":"Jatinegara","i_long":106.86807400000001,"transit":false,"i_lat":-6.215091,"station_id":"JNG","is_transit":false,"distance":3395,"line":1},{"i_lat":-6.212485,"station_name":"Matraman","station_id":"MTR","transit":false,"line":1,"is_transit":false,"i_long":106.858896,"distance":1377,"time":2},{"is_transit":true,"distance":1275,"station_name":"Manggarai","station_id":"MRI","transit":true,"i_lat":-6.209883,"line":2,"i_long":106.84912,"time":2},{"i_long":106.857948,"distance":2610,"is_transit":false,"line":2,"time":4,"transit":false,"station_id":"TEB","station_name":"Tebet","i_lat":-6.226659},{"station_id":"CW","i_long":106.856607,"is_transit":false,"line":2,"station_name":"Cawang","transit":false,"time":2,"distance":1230,"i_lat":-6.242512},{"distance":1546,"station_id":"DRN","is_transit":false,"i_long":106.85449,"time":3,"station_name":"Duren Kalibata","i_lat":-6.255332,"transit":false,"line":2},{"distance":824,"is_transit":false,"time":2,"i_long":106.851577,"i_lat":-6.263214,"line":2,"transit":false,"station_name":"Pasar Minggu Baru","station_id":"PSMB"},{"i_lat":-6.2842400000000005,"line":2,"station_id":"PSM","time":2,"distance":2380,"i_long":106.843999,"transit":false,"station_name":"Pasar Minggu","is_transit":false},{"station_name":"Tanjung Barat","i_long":106.838896,"time":4,"distance":2820,"transit":false,"is_transit":false,"station_id":"TNT","i_lat":-6.3080680000000005,"line":2},{"transit":false,"station_id":"LNA","station_name":"Lenteng Agung","is_transit":false,"i_lat":-6.330363,"i_long":106.832616,"line":2,"distance":2671,"time":3},{"station_id":"UP","is_transit":false,"i_lat":-6.339291,"time":2,"distance":1029,"i_long":106.834175,"station_name":"Univ. Pancasila","transit":false,"line":2},{"line":2,"distance":2264,"is_transit":false,"i_long":106.831474,"station_id":"UI","transit":false,"i_lat":-6.360749,"station_name":"Univ. Indonesia","time":3},{"i_long":106.831114,"transit":false,"station_id":"POC","distance":1109,"is_transit":false,"time":2,"line":2,"station_name":"Pondok Cina","i_lat":-6.369073},{"station_id":"DPB","time":4,"is_transit":false,"station_name":"Depokbaru","i_lat":-6.391065,"line":2,"i_long":106.819451,"distance":2727,"transit":false}],[{"time":0,"station_name":"Bekasi Timur","i_long":107.016735,"i_lat":-6.248029,"transit":false,"distance":0,"station_id":"BKST","line":1,"is_transit":false},{"station_id":"BKS","station_name":"Bekasi","time":2,"distance":2368,"line":1,"i_lat":-6.236616,"transit":false,"is_transit":false,"i_long":106.997013},{"transit":false,"station_id":"KRI","is_transit":false,"station_name":"Kranji","line":1,"time":4,"i_lat":-6.224515,"i_long":106.977657,"distance":2520},{"station_id":"CUK","i_lat":-6.219053,"time":3,"station_name":"Cakung","transit":false,"is_transit":false,"line":1,"i_long":106.951283,"distance":3097},{"is_transit":false,"station_name":"Klenderbaru","i_long":106.939679,"transit":false,"time":8,"station_id":"KLDB","i_lat":-6.217455,"line":1,"distance":1385},{"distance":1305,"time":1,"station_id":"BUA","is_transit":false,"i_long":106.922662,"station_name":"Buaran","i_lat":-6.215568,"line":1,"transit":false},{"is_transit":false,"i_long":106.899548,"line":1,"station_name":"Klender","transit":false,"i_lat":-6.2135,"time":2,"distance":3100,"station_id":"KLD"},{"i_long":106.86807400000001,"line":1,"distance":3395,"is_transit":true,"time":3,"transit":true,"i_lat":-6.215091,"station_name":"Jatinegara","station_id":"JNG"},{"time":2,"station_name":"Pondok Jati","i_long":106.861737,"distance":1236,"station_id":"POK","is_transit":false,"i_lat":-6.209188,"transit":false,"line":11},{"distance":1829,"is_transit":false,"i_long":106.855437,"line":11,"station_name":"Kramat","time":2,"station_id":"KMT","i_lat":-6.193792,"transit":false},{"station_id":"GST","transit":false,"time":1,"distance":973,"i_lat":-6.185975,"line":11,"i_long":106.850107,"is_transit":false,"station_name":"Gang Sentiong"},{"station_id":"PSE","transit":false,"i_long":106.84368,"distance":1567,"station_name":"Pasar Senen","is_transit":false,"line":11,"time":8,"i_lat":-6.174784},{"distance":1436,"station_name":"Kemayoran","i_long":106.839204,"transit":false,"is_transit":false,"station_id":"KMO","i_lat":-6.161728,"line":11,"time":4},{"is_transit":false,"transit":false,"station_name":"Rajawali","i_lat":-6.14505,"i_long":106.836569,"line":11,"station_id":"RJW","distance":1901,"time":5},{"i_long":106.826365,"line":4,"is_transit":true,"station_id":"KPB","time":3,"distance":1444,"transit":true,"station_name":"Kampung Bandan","i_lat":-6.132549},{"i_long":106.79867,"station_name":"Angke","station_id":"AK","i_lat":-6.144674,"is_transit":false,"line":1,"time":9,"distance":4102,"transit":false},{"distance":1230,"station_id":"DU","i_long":106.800832,"line":1,"is_transit":false,"transit":false,"time":4,"station_name":"Duri","i_lat":-6.155215},{"i_lat":-6.185545,"distance":3632,"station_name":"Tanah Abang","i_long":106.811091,"line":1,"time":8,"station_id":"THB","transit":false,"is_transit":false},{"time":5,"is_transit":false,"i_lat":-6.20132,"i_long":106.816351,"distance":2029,"station_id":"KAT","station_name":"Karet","line":1,"transit":false},{"station_name":"Sudirman Baru","station_id":"SUDB","is_transit":false,"line":1,"transit":false,"i_lat":-6.201433,"distance":471,"time":1,"i_long":106.819881},{"station_id":"SUD","transit":false,"line":1,"distance":280,"i_lat":-6.202263,"time":1,"is_transit":false,"i_long":106.822649,"station_name":"Sudirman"},{"i_lat":-6.209883,"i_long":106.84912,"line":2,"is_transit":true,"transit":true,"time":4,"distance":3186,"station_id":"MRI","station_name":"Manggarai"},{"is_transit":false,"i_lat":-6.226659,"transit":false,"station_name":"Tebet","time":4,"i_long":106.857948,"distance":2610,"station_id":"TEB","line":2},{"is_transit":false,"i_lat":-6.242512,"i_long":106.856607,"distance":1230,"time":2,"station_name":"Cawang","line":2,"transit":false,"station_id":"CW"},{"time":3,"distance":1546,"i_lat":-6.255332,"i_long":106.85449,"line":2,"transit":false,"station_name":"Duren Kalibata","is_transit":false,"station_id":"DRN"},{"is_transit":false,"line":2,"distance":824,"station_id":"PSMB","i_lat":-6.263214,"i_long":106.851577,"station_name":"Pasar Minggu Baru","transit":false,"time":2},{"distance":2380,"i_lat":-6.2842400000000005,"transit":false,"i_long":106.843999,"line":2,"time":2,"station_name":"Pasar Minggu","station_id":"PSM","is_transit":false},{"transit":false,"line":2,"station_id":"TNT","i_long":106.838896,"is_transit":false,"i_lat":-6.3080680000000005,"time":4,"station_name":"Tanjung Barat","distance":2820},{"is_transit":false,"transit":false,"i_lat":-6.330363,"station_name":"Lenteng Agung","line":2,"i_long":106.832616,"distance":2671,"time":3,"station_id":"LNA"},{"i_long":106.834175,"line":2,"distance":1029,"station_name":"Univ. Pancasila","is_transit":false,"time":2,"transit":false,"i_lat":-6.339291,"station_id":"UP"},{"time":3,"transit":false,"station_id":"UI","i_lat":-6.360749,"i_long":106.831474,"distance":2264,"is_transit":false,"line":2,"station_name":"Univ. Indonesia"},{"station_name":"Pondok Cina","transit":false,"time":2,"station_id":"POC","distance":1109,"is_transit":false,"i_lat":-6.369073,"i_long":106.831114,"line":2},{"i_long":106.819451,"is_transit":false,"transit":false,"station_name":"Depokbaru","distance":2727,"station_id":"DPB","i_lat":-6.391065,"time":4,"line":2}],[{"station_name":"Bekasi Timur","is_transit":false,"distance":0,"i_long":107.016735,"line":1,"station_id":"BKST","time":0,"transit":false,"i_lat":-6.248029},{"is_transit":false,"i_lat":-6.236616,"distance":2368,"station_name":"Bekasi","i_long":106.997013,"station_id":"BKS","line":1,"time":2,"transit":false},{"station_id":"KRI","is_transit":false,"i_long":106.977657,"time":4,"distance":2520,"line":1,"station_name":"Kranji","transit":false,"i_lat":-6.224515},{"is_transit":false,"i_lat":-6.219053,"line":1,"time":3,"distance":3097,"transit":false,"station_id":"CUK","i_long":106.951283,"station_name":"Cakung"},{"time":8,"line":1,"transit":false,"i_long":106.939679,"distance":1385,"station_id":"KLDB","i_lat":-6.217455,"is_transit":false,"station_name":"Klenderbaru"},{"station_id":"BUA","distance":1305,"is_transit":false,"time":1,"i_lat":-6.215568,"transit":false,"station_name":"Buaran","i_long":106.922662,"line":1},{"i_long":106.899548,"distance":3100,"transit":false,"time":2,"station_name":"Klender","station_id":"KLD","is_transit":false,"i_lat":-6.2135,"line":1},{"line":1,"distance":3395,"time":3,"is_transit":true,"i_long":106.86807400000001,"transit":true,"station_id":"JNG","i_lat":-6.215091,"station_name":"Jatinegara"},{"station_id":"POK","is_transit":false,"time":2,"i_lat":-6.209188,"distance":1236,"station_name":"Pondok Jati","i_long":106.861737,"transit":false,"line":11},{"i_lat":-6.193792,"line":11,"time":2,"is_transit":false,"station_name":"Kramat","distance":1829,"transit":false,"i_long":106.855437,"station_id":"KMT"},{"station_name":"Gang Sentiong","distance":973,"line":11,"transit":false,"i_lat":-6.185975,"station_id":"GST","is_transit":false,"i_long":106.850107,"time":1},{"distance":1567,"station_id":"PSE","transit":false,"i_lat":-6.174784,"is_transit":false,"i_long":106.84368,"time":8,"line":11,"station_name":"Pasar Senen"},{"distance":1436,"station_name":"Kemayoran","is_transit":false,"transit":false,"time":4,"i_lat":-6.161728,"i_long":106.839204,"line":11,"station_id":"KMO"},{"time":5,"station_name":"Rajawali","station_id":"RJW","line":11,"i_lat":-6.14505,"is_transit":false,"distance":1901,"transit":false,"i_long":106.836569},{"distance":1444,"i_long":106.826365,"time":3,"station_name":"Kampung Bandan","line":4,"i_lat":-6.132549,"is_transit":true,"transit":true,"station_id":"KPB"},{"i_lat":-6.137569,"i_long":106.812439,"time":3,"line":2,"station_name":"Jakarta Kota","transit":true,"is_transit":true,"station_id":"JAKK","distance":1364},{"is_transit":false,"station_id":"JAY","time":4,"station_name":"Jayakarta","i_long":106.820901,"transit":false,"i_lat":-6.141205,"line":2,"distance":1264},{"i_lat":-6.149769,"line":2,"station_name":"Manggabesar","is_transit":false,"time":2,"distance":1080,"i_long":106.82482,"transit":false,"station_id":"MGB"},{"time":2,"station_name":"Sawah Besar","is_transit":false,"i_long":106.827103,"distance":906,"line":2,"station_id":"SW","i_lat":-6.160725,"transit":false},{"is_transit":false,"i_lat":-6.166716,"i_long":106.828284,"distance":1149,"time":2,"transit":false,"line":2,"station_name":"Juanda","station_id":"JUA"},{"time":4,"is_transit":false,"distance":2015,"i_long":106.832183,"line":2,"station_name":"Gondangdia","station_id":"GDD","transit":false,"i_lat":-6.186295},{"station_name":"Cikini","i_long":106.840169,"station_id":"CKI","line":2,"transit":false,"i_lat":-6.198556,"time":3,"distance":1750,"is_transit":false},{"station_name":"Manggarai","distance":1590,"transit":false,"line":2,"i_lat":-6.209883,"station_id":"MRI","time":4,"is_transit":false,"i_long":106.84912},{"station_name":"Tebet","time":4,"distance":2610,"transit":false,"is_transit":false,"station_id":"TEB","i_lat":-6.226659,"line":2,"i_long":106.857948},{"line":2,"station_id":"CW","transit":false,"is_transit":false,"station_name":"Cawang","i_long":106.856607,"time":2,"distance":1230,"i_lat":-6.242512},{"is_transit":false,"i_long":106.85449,"transit":false,"i_lat":-6.255332,"time":3,"distance":1546,"line":2,"station_id":"DRN","station_name":"Duren Kalibata"},{"time":2,"line":2,"station_id":"PSMB","is_transit":false,"i_lat":-6.263214,"i_long":106.851577,"transit":false,"distance":824,"station_name":"Pasar Minggu Baru"},{"distance":2380,"station_id":"PSM","line":2,"transit":false,"i_lat":-6.2842400000000005,"time":2,"is_transit":false,"i_long":106.843999,"station_name":"Pasar Minggu"},{"station_name":"Tanjung Barat","i_lat":-6.3080680000000005,"station_id":"TNT","i_long":106.838896,"transit":false,"distance":2820,"is_transit":false,"line":2,"time":4},{"line":2,"station_name":"Lenteng Agung","station_id":"LNA","time":3,"is_transit":false,"i_lat":-6.330363,"distance":2671,"transit":false,"i_long":106.832616},{"distance":1029,"i_long":106.834175,"time":2,"station_name":"Univ. Pancasila","i_lat":-6.339291,"station_id":"UP","transit":false,"is_transit":false,"line":2},{"time":3,"transit":false,"is_transit":false,"distance":2264,"i_long":106.831474,"station_id":"UI","line":2,"i_lat":-6.360749,"station_name":"Univ. Indonesia"},{"time":2,"station_name":"Pondok Cina","is_transit":false,"i_lat":-6.369073,"i_long":106.831114,"transit":false,"distance":1109,"line":2,"station_id":"POC"},{"transit":false,"line":2,"station_id":"DPB","distance":2727,"i_lat":-6.391065,"time":4,"station_name":"Depokbaru","i_long":106.819451,"is_transit":false}]]}