{"data":[[{"station_name":"Bekasi Timur","line":1,"distance":0,"is_transit":false,"station_id":"BKST","i_lat":-6.248029,"transit":false,"i_long":107.016735,"time":0},{"distance":2368,"time":2,"station_name":"Bekasi","is_transit":false,"transit":false,"station_id":"BKS","line":1,"i_long":106.997013,"i_lat":-6.236616},{"is_transit":false,"line":1,"i_lat":-6.224515,"distance":2520,"station_id":"KRI","station_name":"Kranji","transit":false,"time":4,"i_long":106.977657},{"station_name":"Cakung","distance":3097,"is_transit":false,"i_long":106.951283,"transit":false,"station_id":"CUK","i_lat":-6.219053,"time":3,"line":1},{"station_name":"Klenderbaru","transit":false,"is_transit":false,"i_lat":-6.217455,"station_id":"KLDB","i_long":106.939679,"time":8,"distance":1385,"line":1},{"line":1,"time":1,"distance":1305,"i_long":106.922662,"station_id":"BUA","transit":false,"i_lat":-6.215568,"station_name":"Buaran","is_transit":false},{"transit":false,"is_transit":false,"station_name":"Klender","line":1,"i_lat":-6.2135,"distance":3100,"time":2,"station_id":"KLD","i_long":106.899548},{"i_lat":-6.215091,"transit":true,"station_id":"JNG","line":1,"station_name":"Jatinegara","is_transit":true,"i_long":106.86807400000001,"time":3,"distance":3395},{"line":11,"i_lat":-6.209188,"is_transit":false,"distance":1236,"i_long":106.861737,"transit":false,"station_name":"Pondok Jati","time":2,"station_id":"POK"},{"transit":false,"distance":1829,"i_long":106.855437,"station_id":"KMT","is_transit":false,"time":2,"station_name":"Kramat","i_lat":-6.193792,"line":11},{"i_long":106.850107,"distance":973,"line":11,"is_transit":false,"station_id":"GST","time":1,"station_name":"Gang Sentiong","transit":false,"i_lat":-6.185975}],[{"i_lat":-6.248029,"line":1,"transit":false,"i_long":107.016735,"time":0,"station_id":"BKST","distance":0,"is_transit":false,"station_name":"Bekasi Timur"},{"station_name":"Bekasi","transit":false,"i_long":106.997013,"line":1,"i_lat":-6.236616,"distance":2368,"is_transit":false,"time":2,"station_id":"BKS"},{"transit":false,"station_name":"Kranji","is_transit":false,"i_lat":-6.224515,"station_id":"KRI","i_long":106.977657,"line":1,"distance":2520,"time":4},{"transit":false,"line":1,"i_long":106.951283,"distance":3097,"station_id":"CUK","station_name":"Cakung","time":3,"i_lat":-6.219053,"is_transit":false},{"line":1,"i_long":106.939679,"station_id":"KLDB","time":8,"distance":1385,"transit":false,"i_lat":-6.217455,"is_transit":false,"station_name":"Klenderbaru"},{"distance":1305,"station_name":"Buaran","station_id":"BUA","time":1,"line":1,"i_lat":-6.215568,"is_transit":false,"transit":false,"i_long":106.922662},{"station_name":"Klender","i_long":106.899548,"distance":3100,"i_lat":-6.2135,"time":2,"transit":false,"station_id":"KLD","is_transit":false,"line":1},{"time":3,"station_id":"JNG","i_lat":-6.215091,"station_name":"Jatinegara","distance":3395,"transit":false,"line":1,"i_long":106.86807400000001,"is_transit":false},{"station_id":"MTR","is_transit":false,"i_long":106.858896,"time":2,"transit":false,"distance":1377,"station_name":"Matraman","i_lat":-6.212485,"line":1},{"line":2,"time":2,"is_transit":false,"station_id":"MRI","i_lat":-6.209883,"transit":false,"station_name":"Manggarai","distance":1275,"i_long":106.84912},{"line":1,"transit":false,"i_lat":-6.202263,"station_id":"SUD","i_long":106.822649,"distance":3186,"station_name":"Sudirman","time":4,"is_transit":false},{"transit":false,"i_lat":-6.201433,"station_id":"SUDB","distance":280,"time":1,"station_name":"Sudirman Baru","line":1,"is_transit":false,"i_long":106.819881},{"time":1,"is_transit":false,"i_long":106.816351,"line":1,"transit":false,"station_name":"Karet","i_lat":-6.20132,"station_id":"KAT","distance":471},{"line":1,"station_name":"Tanah Abang","i_long":106.811091,"time":5,"distance":2029,"i_lat":-6.185545,"station_id":"THB","is_transit":false,"transit":false},{"transit":false,"i_lat":-6.155215,"i_long":106.800832,"time":8,"is_transit":false,"line":1,"distance":3632,"station_name":"Duri","station_id":"DU"},{"distance":1230,"transit":false,"line":1,"station_id":"AK","i_lat":-6.144674,"is_transit":false,"i_long":106.79867,"station_name":"Angke","time":4},{"distance":4102,"time":9,"station_name":"Kampung Bandan","i_long":106.826365,"is_transit":true,"transit":true,"i_lat":-6.132549,"station_id":"KPB","line":4},{"i_lat":-6.14505,"time":3,"is_transit":false,"station_name":"Rajawali","i_long":106.836569,"station_id":"RJW","distance":1444,"transit":false,"line":11},{"i_lat":-6.161728,"station_id":"KMO","i_long":106.839204,"distance":1901,"line":11,"station_name":"Kemayoran","is_transit":false,"time":5,"transit":false},{"i_lat":-6.174784,"station_name":"Pasar Senen","station_id":"PSE","transit":false,"distance":1436,"line":11,"is_transit":false,"time":4,"i_long":106.84368},{"line":11,"is_transit":false,"transit":false,"i_long":106.850107,"time":8,"station_id":"GST","station_name":"Gang Sentiong","distance":1567,"i_lat":-6.185975}],[{"i_lat":-6.248029,"distance":0,"transit":false,"i_long":107.016735,"time":0,"station_id":"BKST","station_name":"Bekasi Timur","is_transit":false,"line":1},{"i_long":106.997013,"time":2,"line":1,"i_lat":-6.236616,"station_id":"BKS","is_transit":false,"station_name":"Bekasi","transit":false,"distance":2368},{"i_lat":-6.224515,"time":4,"station_name":"Kranji","i_long":106.977657,"distance":2520,"line":1,"is_transit":false,"transit":false,"station_id":"KRI"},{"transit":false,"is_transit":false,"station_id":"CUK","line":1,"distance":3097,"i_long":106.951283,"time":3,"station_name":"Cakung","i_lat":-6.219053},{"station_name":"Klenderbaru","i_long":106.939679,"line":1,"station_id":"KLDB","distance":1385,"i_lat":-6.217455,"is_transit":false,"time":8,"transit":false},{"is_transit":false,"i_lat":-6.215568,"i_long":106.922662,"line":1,"time":1,"distance":1305,"station_name":"Buaran","station_id":"BUA","transit":false},{"transit":false,"line":1,"is_transit":false,"time":2,"station_id":"KLD","distance":3100,"i_lat":-6.2135,"i_long":106.899548,"station_name":"Klender"},{"station_id":"JNG","i_lat":-6.215091,"line":1,"time":3,"distance":3395,"is_transit":false,"i_long":106.86807400000001,"station_name":"Jatinegara","transit":false},{"transit":false,"station_id":"MTR","i_long":106.858896,"station_name":"Matraman","time":2,"distance":1377,"is_transit":false,"i_lat":-6.212485,"line":1},{"transit":true,"is_transit":true,"i_lat":-6.209883,"station_id":"MRI","i_long":106.84912,"distance":1275,"time":2,"line":2,"station_name":"Manggarai"},{"transit":false,"time":4,"i_long":106.840169,"line":2,"station_id":"CKI","distance":1590,"i_lat":-6.198556,"is_transit":false,"station_name":"Cikini"},{"distance":1750,"time":3,"transit":false,"i_lat":-6.186295,"line":2,"station_name":"Gondangdia","i_long":106.832183,"is_transit":false,"station_id":"GDD"},{"transit":false,"line":2,"is_transit":false,"station_name":"Juanda","distance":2015,"i_long":106.828284,"station_id":"JUA","i_lat":-6.166716,"time":4},{"distance":1149,"line":2,"i_lat":-6.160725,"is_transit":false,"time":2,"station_id":"SW","station_name":"Sawah Besar","transit":false,"i_long":106.827103},{"station_name":"Manggabesar","time":2,"station_id":"MGB","is_transit":false,"transit":false,"line":2,"distance":906,"i_lat":-6.149769,"i_long":106.82482},{"is_transit":false,"time":2,"i_lat":-6.141205,"distance":1080,"transit":false,"i_long":106.820901,"station_id":"JAY","line":2,"station_name":"Jayakarta"},{"station_name":"Jakarta Kota","i_long":106.812439,"distance":1264,"station_id":"JAKK","transit":true,"time":4,"i_lat":-6.137569,"line":2,"is_transit":true},{"station_name":"Kampung Bandan","i_long":106.826365,"line":4,"time":3,"i_lat":-6.132549,"is_transit":true,"distance":1364,"transit":true,"station_id":"KPB"},{"station_name":"Rajawali","distance":1444,"transit":false,"time":3,"is_transit":false,"i_lat":-6.14505,"i_long":106.836569,"line":11,"station_id":"RJW"},{"distance":1901,"time":5,"i_lat":-6.161728,"i_long":106.839204,"transit":false,"line":11,"station_name":"Kemayoran","is_transit":false,"station_id":"KMO"},{"line":11,"i_lat":-6.174784,"i_long":106.84368,"station_name":"Pasar Senen","station_id":"PSE","is_transit":false,"time":4,"transit":false,"distance":1436},{"station_name":"Gang Sentiong","is_transit":false,"i_lat":-6.185975,"distance":1567,"station_id":"GST","time":8,"i_long":106.850107,"transit":false,"line":11}]]}