{"data":[[{"is_transit":false,"time":0,"transit":false,"distance":0,"i_lat":-6.248029,"station_name":"Bekasi Timur","station_id":"BKST","i_long":107.016735,"line":1},{"i_long":106.997013,"station_id":"BKS","line":1,"station_name":"Bekasi","time":2,"distance":2368,"is_transit":false,"transit":false,"i_lat":-6.236616},{"i_lat":-6.224515,"i_long":106.977657,"line":1,"station_name":"Kranji","time":4,"transit":false,"is_transit":false,"station_id":"KRI","distance":2520},{"station_id":"CUK","station_name":"Cakung","distance":3097,"i_lat":-6.219053,"i_long":106.951283,"line":1,"transit":false,"time":3,"is_transit":false},{"distance":1385,"i_lat":-6.217455,"transit":false,"station_name":"Klenderbaru","time":8,"station_id":"KLDB","i_long":106.939679,"line":1,"is_transit":false},{"transit":false,"time":1,"distance":1305,"i_long":106.922662,"station_id":"BUA","line":1,"i_lat":-6.215568,"is_transit":false,"station_name":"Buaran"},{"distance":3100,"is_transit":false,"station_id":"KLD","transit":false,"station_name":"Klender","time":2,"line":1,"i_lat":-6.2135,"i_long":106.899548},{"station_name":"Jatinegara","is_transit":false,"time":3,"distance":3395,"i_lat":-6.215091,"i_long":106.86807400000001,"line":1,"transit":false,"station_id":"JNG"},{"is_transit":false,"line":1,"station_name":"Matraman","station_id":"MTR","i_long":106.858896,"distance":1377,"time":2,"i_lat":-6.212485,"transit":false},{"distance":1275,"transit":true,"station_id":"MRI","time":2,"i_lat":-6.209883,"station_name":"Manggarai","i_long":106.84912,"line":2,"is_transit":true},{"line":2,"station_id":"TEB","distance":2610,"is_transit":false,"i_long":106.857948,"time":4,"transit":false,"i_lat":-6.226659,"station_name":"Tebet"},{"transit":false,"station_name":"Cawang","station_id":"CW","time":2,"is_transit":false,"distance":1230,"i_long":106.856607,"line":2,"i_lat":-6.242512}],[{"station_name":"Bekasi Timur","i_long":107.016735,"station_id":"BKST","i_lat":-6.248029,"line":1,"transit":false,"distance":0,"time":0,"is_transit":false},{"transit":false,"line":1,"distance":2368,"station_id":"BKS","is_transit":false,"i_lat":-6.236616,"time":2,"station_name":"Bekasi","i_long":106.997013},{"station_name":"Kranji","is_transit":false,"time":4,"distance":2520,"station_id":"KRI","i_long":106.977657,"i_lat":-6.224515,"transit":false,"line":1},{"station_id":"CUK","transit":false,"line":1,"time":3,"is_transit":false,"i_lat":-6.219053,"i_long":106.951283,"station_name":"Cakung","distance":3097},{"is_transit":false,"station_name":"Klenderbaru","i_lat":-6.217455,"transit":false,"station_id":"KLDB","time":8,"distance":1385,"line":1,"i_long":106.939679},{"distance":1305,"time":1,"i_lat":-6.215568,"transit":false,"i_long":106.922662,"station_name":"Buaran","is_transit":false,"station_id":"BUA","line":1},{"transit":false,"station_id":"KLD","i_lat":-6.2135,"station_name":"Klender","time":2,"distance":3100,"i_long":106.899548,"line":1,"is_transit":false},{"line":1,"station_id":"JNG","distance":3395,"time":3,"i_lat":-6.215091,"is_transit":true,"transit":true,"station_name":"Jatinegara","i_long":106.86807400000001},{"is_transit":false,"time":2,"station_name":"Pondok Jati","line":11,"transit":false,"station_id":"POK","i_long":106.861737,"distance":1236,"i_lat":-6.209188},{"distance":1829,"i_lat":-6.193792,"station_id":"KMT","time":2,"station_name":"Kramat","is_transit":false,"line":11,"transit":false,"i_long":106.855437},{"i_lat":-6.185975,"i_long":106.850107,"station_name":"Gang Sentiong","line":11,"distance":973,"station_id":"GST","is_transit":false,"transit":false,"time":1},{"station_name":"Pasar Senen","time":8,"distance":1567,"i_long":106.84368,"station_id":"PSE","is_transit":false,"i_lat":-6.174784,"line":11,"transit":false},{"line":11,"transit":false,"station_name":"Kemayoran","is_transit":false,"station_id":"KMO","i_lat":-6.161728,"i_long":106.839204,"distance":1436,"time":4},{"station_id":"RJW","time":5,"i_long":106.836569,"is_transit":false,"distance":1901,"station_name":"Rajawali","transit":false,"i_lat":-6.14505,"line":11},{"i_lat":-6.132549,"station_id":"KPB","station_name":"Kampung Bandan","distance":1444,"is_transit":true,"transit":true,"i_long":106.826365,"line":4,"time":3},{"distance":4102,"i_lat":-6.144674,"i_long":106.79867,"line":1,"time":9,"is_transit":false,"station_name":"Angke","station_id":"AK","transit":false},{"line":1,"station_id":"DU","i_long":106.800832,"time":4,"station_name":"Duri","distance":1230,"is_transit":false,"i_lat":-6.155215,"transit":false},{"i_long":106.811091,"line":1,"transit":false,"station_name":"Tanah Abang","time":8,"distance":3632,"is_transit":false,"i_lat":-6.185545,"station_id":"THB"},{"station_name":"Karet","i_lat":-6.20132,"i_long":106.816351,"transit":false,"distance":2029,"line":1,"time":5,"station_id":"KAT","is_transit":false},{"is_transit":false,"station_name":"Sudirman Baru","time":1,"i_long":106.819881,"distance":471,"line":1,"transit":false,"i_lat":-6.201433,"station_id":"SUDB"},{"distance":280,"is_transit":false,"i_lat":-6.202263,"transit":false,"time":1,"station_name":"Sudirman","i_long":106.822649,"line":1,"station_id":"SUD"},{"i_lat":-6.209883,"i_long":106.84912,"is_transit":true,"transit":true,"station_name":"Manggarai","time":4,"line":2,"distance":3186,"station_id":"MRI"},{"station_id":"TEB","distance":2610,"transit":false,"is_transit":false,"time":4,"i_long":106.857948,"line":2,"i_lat":-6.226659,"station_name":"Tebet"},{"station_name":"Cawang","transit":false,"is_transit":false,"i_lat":-6.242512,"time":2,"distance":1230,"i_long":106.856607,"line":2,"station_id":"CW"}],[{"station_name":"Bekasi Timur","is_transit":false,"time":0,"line":1,"distance":0,"transit":false,"i_long":107.016735,"station_id":"BKST","i_lat":-6.248029},{"station_id":"BKS","is_transit":false,"i_lat":-6.236616,"time":2,"station_name":"Bekasi","i_long":106.997013,"transit":false,"line":1,"distance":2368},{"is_transit":false,"time":4,"station_name":"Kranji","i_lat":-6.224515,"station_id":"KRI","transit":false,"distance":2520,"i_long":106.977657,"line":1},{"i_lat":-6.219053,"transit":false,"time":3,"is_transit":false,"i_long":106.951283,"station_name":"Cakung","station_id":"CUK","distance":3097,"line":1},{"station_id":"KLDB","is_transit":false,"i_lat":-6.217455,"station_name":"Klenderbaru","time":8,"distance":1385,"line":1,"i_long":106.939679,"transit":false},{"station_name":"Buaran","time":1,"distance":1305,"transit":false,"i_lat":-6.215568,"station_id":"BUA","line":1,"is_transit":false,"i_long":106.922662},{"is_transit":false,"i_long":106.899548,"time":2,"line":1,"i_lat":-6.2135,"station_name":"Klender","distance":3100,"station_id":"KLD","transit":false},{"i_lat":-6.215091,"transit":true,"i_long":106.86807400000001,"time":3,"is_transit":true,"line":1,"distance":3395,"station_id":"JNG","station_name":"Jatinegara"},{"i_long":106.861737,"station_name":"Pondok Jati","is_transit":false,"line":11,"distance":1236,"transit":false,"time":2,"i_lat":-6.209188,"station_id":"POK"},{"distance":1829,"i_lat":-6.193792,"station_name":"Kramat","line":11,"transit":false,"i_long":106.855437,"station_id":"KMT","is_transit":false,"time":2},{"transit":false,"station_id":"GST","time":1,"i_lat":-6.185975,"line":11,"distance":973,"is_transit":false,"i_long":106.850107,"station_name":"Gang Sentiong"},{"i_lat":-6.174784,"line":11,"i_long":106.84368,"station_name":"Pasar Senen","station_id":"PSE","transit":false,"distance":1567,"is_transit":false,"time":8},{"line":11,"station_name":"Kemayoran","station_id":"KMO","is_transit":false,"time":4,"distance":1436,"i_long":106.839204,"transit":false,"i_lat":-6.161728},{"distance":1901,"i_long":106.836569,"station_name":"Rajawali","line":11,"transit":false,"i_lat":-6.14505,"station_id":"RJW","time":5,"is_transit":false},{"station_id":"KPB","is_transit":true,"distance":1444,"line":4,"station_name":"Kampung Bandan","i_long":106.826365,"i_lat":-6.132549,"transit":true,"time":3},{"transit":true,"i_long":106.812439,"line":2,"i_lat":-6.137569,"station_id":"JAKK","distance":1364,"station_name":"Jakarta Kota","time":3,"is_transit":true},{"distance":1264,"station_name":"Jayakarta","transit":false,"time":4,"i_lat":-6.141205,"i_long":106.820901,"line":2,"is_transit":false,"station_id":"JAY"},{"transit":false,"is_transit":false,"i_long":106.82482,"time":2,"distance":1080,"station_name":"Manggabesar","i_lat":-6.149769,"station_id":"MGB","line":2},{"time":2,"i_lat":-6.160725,"distance":906,"i_long":106.827103,"station_id":"SW","transit":false,"is_transit":false,"line":2,"station_name":"Sawah Besar"},{"i_long":106.828284,"time":2,"distance":1149,"station_name":"Juanda","is_transit":false,"station_id":"JUA","i_lat":-6.166716,"transit":false,"line":2},{"station_name":"Gondangdia","time":4,"distance":2015,"transit":false,"line":2,"station_id":"GDD","is_transit":false,"i_lat":-6.186295,"i_long":106.832183},{"station_id":"CKI","distance":1750,"i_long":106.840169,"transit":false,"station_name":"Cikini","time":3,"i_lat":-6.198556,"line":2,"is_transit":false},{"time":4,"station_name":"Manggarai","transit":false,"station_id":"MRI","is_transit":false,"i_long":106.84912,"i_lat":-6.209883,"line":2,"distance":1590},{"is_transit":false,"transit":false,"distance":2610,"line":2,"i_lat":-6.226659,"station_name":"Tebet","time":4,"i_long":106.857948,"station_id":"TEB"},{"station_name":"Cawang","is_transit":false,"distance":1230,"i_lat":-6.242512,"transit":false,"i_long":106.856607,"line":2,"time":2,"station_id":"CW"}]]}