{"data":[[{"i_long":107.016735,"line":1,"time":0,"i_lat":-6.248029,"station_id":"BKST","station_name":"Bekasi Timur","transit":false,"is_transit":false,"distance":0},{"i_lat":-6.236616,"distance":2368,"i_long":106.997013,"transit":false,"station_id":"BKS","is_transit":false,"line":1,"station_name":"Bekasi","time":2},{"line":1,"time":4,"transit":false,"distance":2520,"station_id":"KRI","station_name":"Kranji","is_transit":false,"i_lat":-6.224515,"i_long":106.977657},{"i_lat":-6.219053,"station_id":"CUK","distance":3097,"station_name":"Cakung","i_long":106.951283,"transit":false,"line":1,"is_transit":false,"time":3},{"is_transit":false,"station_name":"Klenderbaru","transit":false,"time":8,"i_lat":-6.217455,"line":1,"station_id":"KLDB","distance":1385,"i_long":106.939679},{"station_name":"Buaran","is_transit":false,"transit":false,"i_long":106.922662,"distance":1305,"i_lat":-6.215568,"line":1,"station_id":"BUA","time":1},{"i_lat":-6.2135,"i_long":106.899548,"line":1,"transit":false,"distance":3100,"station_id":"KLD","station_name":"Klender","is_transit":false,"time":2},{"line":1,"i_lat":-6.215091,"is_transit":false,"i_long":106.86807400000001,"transit":false,"station_id":"JNG","station_name":"Jatinegara","time":3,"distance":3395},{"i_lat":-6.212485,"transit":false,"is_transit":false,"station_id":"MTR","station_name":"Matraman","line":1,"i_long":106.858896,"distance":1377,"time":2},{"distance":1275,"is_transit":false,"station_name":"Manggarai","time":2,"i_lat":-6.209883,"station_id":"MRI","i_long":106.84912,"transit":false,"line":2},{"is_transit":false,"distance":3186,"i_long":106.822649,"transit":false,"i_lat":-6.202263,"line":1,"station_name":"Sudirman","time":4,"station_id":"SUD"},{"is_transit":false,"transit":false,"station_id":"SUDB","time":1,"i_long":106.819881,"station_name":"Sudirman Baru","distance":280,"line":1,"i_lat":-6.201433},{"transit":false,"time":1,"is_transit":false,"station_id":"KAT","i_lat":-6.20132,"i_long":106.816351,"line":1,"distance":471,"station_name":"Karet"},{"i_long":106.811091,"line":1,"transit":false,"time":5,"is_transit":false,"i_lat":-6.185545,"station_name":"Tanah Abang","distance":2029,"station_id":"THB"},{"distance":3632,"is_transit":false,"i_lat":-6.155215,"transit":false,"line":1,"station_id":"DU","station_name":"Duri","time":8,"i_long":106.800832},{"station_id":"AK","station_name":"Angke","time":4,"transit":false,"i_long":106.79867,"line":1,"distance":1230,"is_transit":false,"i_lat":-6.144674}],[{"station_name":"Bekasi Timur","line":1,"i_lat":-6.248029,"distance":0,"time":0,"i_long":107.016735,"station_id":"BKST","transit":false,"is_transit":false},{"i_long":106.997013,"is_transit":false,"station_name":"Bekasi","transit":false,"station_id":"BKS","line":1,"time":2,"distance":2368,"i_lat":-6.236616},{"time":4,"i_lat":-6.224515,"i_long":106.977657,"transit":false,"line":1,"distance":2520,"station_id":"KRI","station_name":"Kranji","is_transit":false},{"line":1,"distance":3097,"transit":false,"time":3,"station_name":"Cakung","station_id":"CUK","is_transit":false,"i_lat":-6.219053,"i_long":106.951283},{"i_long":106.939679,"line":1,"is_transit":false,"transit":false,"distance":1385,"station_name":"Klenderbaru","station_id":"KLDB","time":8,"i_lat":-6.217455},{"station_id":"BUA","distance":1305,"is_transit":false,"transit":false,"station_name":"Buaran","i_lat":-6.215568,"line":1,"time":1,"i_long":106.922662},{"station_name":"Klender","is_transit":false,"time":2,"distance":3100,"station_id":"KLD","i_long":106.899548,"transit":false,"i_lat":-6.2135,"line":1},{"line":1,"distance":3395,"i_long":106.86807400000001,"is_transit":true,"time":3,"station_name":"Jatinegara","i_lat":-6.215091,"station_id":"JNG","transit":true},{"transit":false,"i_lat":-6.209188,"i_long":106.861737,"station_id":"POK","distance":1236,"is_transit":false,"time":2,"line":11,"station_name":"Pondok Jati"},{"line":11,"distance":1829,"station_id":"KMT","station_name":"Kramat","i_lat":-6.193792,"i_long":106.855437,"is_transit":false,"transit":false,"time":2},{"distance":973,"i_lat":-6.185975,"i_long":106.850107,"line":11,"station_name":"Gang Sentiong","transit":false,"time":1,"station_id":"GST","is_transit":false},{"line":11,"distance":1567,"station_name":"Pasar Senen","is_transit":false,"transit":false,"i_lat":-6.174784,"station_id":"PSE","time":8,"i_long":106.84368},{"i_long":106.839204,"time":4,"line":11,"station_id":"KMO","station_name":"Kemayoran","distance":1436,"is_transit":false,"i_lat":-6.161728,"transit":false},{"i_long":106.836569,"time":5,"station_id":"RJW","station_name":"Rajawali","i_lat":-6.14505,"transit":false,"line":11,"is_transit":false,"distance":1901},{"distance":1444,"is_transit":true,"line":4,"station_id":"KPB","time":3,"i_long":106.826365,"i_lat":-6.132549,"station_name":"Kampung Bandan","transit":true},{"transit":false,"i_long":106.79867,"distance":4102,"line":1,"station_name":"Angke","is_transit":false,"time":9,"station_id":"AK","i_lat":-6.144674}],[{"transit":false,"i_lat":-6.248029,"station_name":"Bekasi Timur","time":0,"is_transit":false,"line":1,"station_id":"BKST","i_long":107.016735,"distance":0},{"distance":2368,"i_lat":-6.236616,"station_id":"BKS","line":1,"station_name":"Bekasi","time":2,"is_transit":false,"i_long":106.997013,"transit":false},{"time":4,"is_transit":false,"distance":2520,"i_long":106.977657,"line":1,"i_lat":-6.224515,"station_id":"KRI","transit":false,"station_name":"Kranji"},{"time":3,"i_lat":-6.219053,"station_name":"Cakung","station_id":"CUK","line":1,"transit":false,"is_transit":false,"distance":3097,"i_long":106.951283},{"time":8,"i_lat":-6.217455,"is_transit":false,"station_id":"KLDB","line":1,"station_name":"Klenderbaru","transit":false,"distance":1385,"i_long":106.939679},{"time":1,"i_long":106.922662,"station_id":"BUA","station_name":"Buaran","line":1,"transit":false,"is_transit":false,"i_lat":-6.215568,"distance":1305},{"i_long":106.899548,"time":2,"distance":3100,"i_lat":-6.2135,"station_id":"KLD","transit":false,"is_transit":false,"line":1,"station_name":"Klender"},{"transit":false,"i_long":106.86807400000001,"line":1,"time":3,"distance":3395,"is_transit":false,"station_id":"JNG","station_name":"Jatinegara","i_lat":-6.215091},{"station_name":"Matraman","time":2,"i_long":106.858896,"station_id":"MTR","line":1,"transit":false,"is_transit":false,"distance":1377,"i_lat":-6.212485},{"station_id":"MRI","transit":true,"time":2,"distance":1275,"station_name":"Manggarai","i_lat":-6.209883,"i_long":106.84912,"is_transit":true,"line":2},{"time":4,"is_transit":false,"distance":1590,"i_lat":-6.198556,"i_long":106.840169,"transit":false,"line":2,"station_name":"Cikini","station_id":"CKI"},{"is_transit":false,"i_lat":-6.186295,"station_name":"Gondangdia","transit":false,"station_id":"GDD","line":2,"i_long":106.832183,"distance":1750,"time":3},{"is_transit":false,"i_long":106.828284,"time":4,"station_id":"JUA","distance":2015,"i_lat":-6.166716,"line":2,"station_name":"Juanda","transit":false},{"i_long":106.827103,"line":2,"station_id":"SW","station_name":"Sawah Besar","transit":false,"time":2,"distance":1149,"is_transit":false,"i_lat":-6.160725},{"line":2,"station_name":"Manggabesar","station_id":"MGB","is_transit":false,"transit":false,"distance":906,"time":2,"i_long":106.82482,"i_lat":-6.149769},{"time":2,"i_lat":-6.141205,"station_name":"Jayakarta","is_transit":false,"transit":false,"distance":1080,"line":2,"station_id":"JAY","i_long":106.820901},{"time":4,"station_id":"JAKK","is_transit":true,"i_long":106.812439,"station_name":"Jakarta Kota","line":2,"distance":1264,"transit":true,"i_lat":-6.137569},{"station_name":"Kampung Bandan","i_lat":-6.132549,"i_long":106.826365,"is_transit":true,"time":3,"distance":1364,"transit":true,"station_id":"KPB","line":4},{"i_long":106.79867,"time":9,"distance":4102,"i_lat":-6.144674,"line":1,"transit":false,"is_transit":false,"station_id":"AK","station_name":"Angke"}],[{"time":0,"line":1,"is_transit":false,"station_name":"Bekasi Timur","transit":false,"distance":0,"station_id":"BKST","i_lat":-6.248029,"i_long":107.016735},{"distance":2368,"transit":false,"station_id":"BKS","time":2,"line":1,"i_long":106.997013,"is_transit":false,"i_lat":-6.236616,"station_name":"Bekasi"},{"time":4,"i_lat":-6.224515,"line":1,"distance":2520,"is_transit":false,"i_long":106.977657,"station_id":"KRI","station_name":"Kranji","transit":false},{"station_id":"CUK","time":3,"station_name":"Cakung","is_transit":false,"transit":false,"line":1,"i_long":106.951283,"distance":3097,"i_lat":-6.219053},{"distance":1385,"station_name":"Klenderbaru","station_id":"KLDB","line":1,"i_lat":-6.217455,"is_transit":false,"time":8,"i_long":106.939679,"transit":false},{"time":1,"is_transit":false,"i_long":106.922662,"transit":false,"distance":1305,"line":1,"station_id":"BUA","station_name":"Buaran","i_lat":-6.215568},{"time":2,"i_lat":-6.2135,"line":1,"transit":false,"i_long":106.899548,"station_name":"Klender","distance":3100,"station_id":"KLD","is_transit":false},{"i_long":106.86807400000001,"time":3,"transit":true,"station_name":"Jatinegara","is_transit":true,"distance":3395,"station_id":"JNG","i_lat":-6.215091,"line":1},{"line":11,"station_name":"Pondok Jati","i_long":106.861737,"i_lat":-6.209188,"distance":1236,"transit":false,"time":2,"station_id":"POK","is_transit":false},{"i_lat":-6.193792,"line":11,"is_transit":false,"distance":1829,"station_id":"KMT","transit":false,"station_name":"Kramat","time":2,"i_long":106.855437},{"is_transit":false,"i_lat":-6.185975,"line":11,"i_long":106.850107,"station_id":"GST","station_name":"Gang Sentiong","transit":false,"time":1,"distance":973},{"is_transit":false,"line":11,"i_lat":-6.174784,"transit":false,"distance":1567,"time":8,"i_long":106.84368,"station_id":"PSE","station_name":"Pasar Senen"},{"i_long":106.839204,"line":11,"is_transit":false,"station_name":"Kemayoran","transit":false,"distance":1436,"time":4,"station_id":"KMO","i_lat":-6.161728},{"i_long":106.836569,"is_transit":false,"station_id":"RJW","transit":false,"station_name":"Rajawali","time":5,"i_lat":-6.14505,"line":11,"distance":1901},{"time":3,"i_long":106.826365,"distance":1444,"station_name":"Kampung Bandan","station_id":"KPB","transit":true,"is_transit":true,"line":4,"i_lat":-6.132549},{"station_name":"Jakarta Kota","station_id":"JAKK","i_long":106.812439,"time":3,"is_transit":true,"i_lat":-6.137569,"transit":true,"distance":1364,"line":2},{"time":4,"station_name":"Jayakarta","i_long":106.820901,"distance":1264,"transit":false,"is_transit":false,"line":2,"i_lat":-6.141205,"station_id":"JAY"},{"time":2,"transit":false,"i_long":106.82482,"line":2,"is_transit":false,"station_name":"Manggabesar","i_lat":-6.149769,"station_id":"MGB","distance":1080},{"station_id":"SW","transit":false,"line":2,"i_long":106.827103,"i_lat":-6.160725,"distance":906,"station_name":"Sawah Besar","time":2,"is_transit":false},{"station_id":"JUA","line":2,"is_transit":false,"transit":false,"i_lat":-6.166716,"time":2,"i_long":106.828284,"distance":1149,"station_name":"Juanda"},{"station_id":"GDD","line":2,"distance":2015,"time":4,"i_lat":-6.186295,"transit":false,"is_transit":false,"i_long":106.832183,"station_name":"Gondangdia"},{"i_lat":-6.198556,"line":2,"time":3,"station_id":"CKI","distance":1750,"transit":false,"is_transit":false,"i_long":106.840169,"station_name":"Cikini"},{"is_transit":true,"i_long":106.84912,"line":2,"station_id":"MRI","distance":1590,"station_name":"Manggarai","transit":true,"i_lat":-6.209883,"time":4},{"station_name":"Sudirman","time":4,"station_id":"SUD","line":1,"i_lat":-6.202263,"i_long":106.822649,"is_transit":false,"distance":3186,"transit":false},{"transit":false,"time":1,"distance":280,"i_lat":-6.201433,"is_transit":false,"station_name":"Sudirman Baru","line":1,"station_id":"SUDB","i_long":106.819881},{"i_lat":-6.20132,"line":1,"distance":471,"time":1,"is_transit":false,"transit":false,"i_long":106.816351,"station_name":"Karet","station_id":"KAT"},{"is_transit":false,"distance":2029,"station_id":"THB","time":5,"i_lat":-6.185545,"i_long":106.811091,"line":1,"station_name":"Tanah Abang","transit":false},{"station_name":"Duri","i_lat":-6.155215,"transit":false,"i_long":106.800832,"time":8,"distance":3632,"station_id":"DU","line":1,"is_transit":false},{"time":4,"i_long":106.79867,"line":1,"is_transit":false,"distance":1230,"station_name":"Angke","station_id":"AK","i_lat":-6.144674,"transit":false}]]}