{"data":[[{"is_transit":false,"distance":0,"i_lat":-6.248029,"time":0,"station_id":"BKST","i_long":107.016735,"transit":false,"line":1,"station_name":"Bekasi Timur"},{"station_name":"Bekasi","i_long":106.997013,"time":2,"transit":false,"is_transit":false,"distance":2368,"line":1,"i_lat":-6.236616,"station_id":"BKS"},{"i_long":106.977657,"distance":2520,"station_id":"KRI","transit":false,"line":1,"i_lat":-6.224515,"is_transit":false,"station_name":"Kranji","time":4},{"station_name":"Cakung","transit":false,"i_lat":-6.219053,"is_transit":false,"time":3,"station_id":"CUK","i_long":106.951283,"line":1,"distance":3097},{"i_long":106.939679,"transit":false,"distance":1385,"station_id":"KLDB","i_lat":-6.217455,"is_transit":false,"line":1,"station_name":"Klenderbaru","time":8},{"station_id":"BUA","transit":false,"station_name":"Buaran","i_lat":-6.215568,"distance":1305,"is_transit":false,"time":1,"i_long":106.922662,"line":1},{"i_lat":-6.2135,"station_id":"KLD","time":2,"transit":false,"station_name":"Klender","distance":3100,"is_transit":false,"line":1,"i_long":106.899548},{"i_long":106.86807400000001,"time":3,"station_id":"JNG","is_transit":false,"transit":false,"distance":3395,"station_name":"Jatinegara","i_lat":-6.215091,"line":1},{"is_transit":false,"station_name":"Matraman","line":1,"i_lat":-6.212485,"i_long":106.858896,"distance":1377,"time":2,"transit":false,"station_id":"MTR"},{"station_id":"MRI","transit":false,"is_transit":false,"i_long":106.84912,"line":2,"distance":1275,"i_lat":-6.209883,"time":2,"station_name":"Manggarai"}],[{"time":0,"i_lat":-6.248029,"is_transit":false,"station_id":"BKST","transit":false,"station_name":"Bekasi Timur","line":1,"i_long":107.016735,"distance":0},{"station_name":"Bekasi","i_lat":-6.236616,"i_long":106.997013,"distance":2368,"station_id":"BKS","time":2,"is_transit":false,"transit":false,"line":1},{"station_name":"Kranji","line":1,"time":4,"distance":2520,"station_id":"KRI","is_transit":false,"transit":false,"i_lat":-6.224515,"i_long":106.977657},{"station_id":"CUK","i_long":106.951283,"is_transit":false,"time":3,"distance":3097,"i_lat":-6.219053,"station_name":"Cakung","transit":false,"line":1},{"i_lat":-6.217455,"station_name":"Klenderbaru","i_long":106.939679,"distance":1385,"line":1,"time":8,"station_id":"KLDB","is_transit":false,"transit":false},{"is_transit":false,"time":1,"i_lat":-6.215568,"transit":false,"distance":1305,"station_name":"Buaran","station_id":"BUA","line":1,"i_long":106.922662},{"i_lat":-6.2135,"distance":3100,"station_id":"KLD","time":2,"transit":false,"is_transit":false,"station_name":"Klender","i_long":106.899548,"line":1},{"station_id":"JNG","station_name":"Jatinegara","i_long":106.86807400000001,"time":3,"line":1,"i_lat":-6.215091,"transit":true,"is_transit":true,"distance":3395},{"i_long":106.861737,"station_id":"POK","i_lat":-6.209188,"transit":false,"is_transit":false,"distance":1236,"time":2,"line":11,"station_name":"Pondok Jati"},{"time":2,"station_id":"KMT","i_lat":-6.193792,"is_transit":false,"transit":false,"distance":1829,"line":11,"i_long":106.855437,"station_name":"Kramat"},{"station_id":"GST","station_name":"Gang Sentiong","transit":false,"distance":973,"time":1,"is_transit":false,"line":11,"i_long":106.850107,"i_lat":-6.185975},{"line":11,"i_lat":-6.174784,"transit":false,"station_name":"Pasar Senen","is_transit":false,"distance":1567,"time":8,"station_id":"PSE","i_long":106.84368},{"i_long":106.839204,"transit":false,"i_lat":-6.161728,"time":4,"station_name":"Kemayoran","is_transit":false,"line":11,"station_id":"KMO","distance":1436},{"station_id":"RJW","time":5,"station_name":"Rajawali","i_long":106.836569,"line":11,"is_transit":false,"transit":false,"distance":1901,"i_lat":-6.14505},{"is_transit":true,"station_id":"KPB","time":3,"transit":true,"station_name":"Kampung Bandan","distance":1444,"i_lat":-6.132549,"line":4,"i_long":106.826365},{"i_lat":-6.144674,"time":9,"i_long":106.79867,"station_id":"AK","line":1,"is_transit":false,"distance":4102,"transit":false,"station_name":"Angke"},{"station_name":"Duri","i_long":106.800832,"transit":false,"is_transit":false,"i_lat":-6.155215,"distance":1230,"station_id":"DU","line":1,"time":4},{"i_lat":-6.185545,"distance":3632,"is_transit":false,"transit":false,"time":8,"station_name":"Tanah Abang","line":1,"i_long":106.811091,"station_id":"THB"},{"station_id":"KAT","is_transit":false,"i_lat":-6.20132,"distance":2029,"transit":false,"i_long":106.816351,"station_name":"Karet","time":5,"line":1},{"line":1,"station_id":"SUDB","is_transit":false,"station_name":"Sudirman Baru","distance":471,"i_long":106.819881,"i_lat":-6.201433,"time":1,"transit":false},{"distance":280,"station_name":"Sudirman","transit":false,"line":1,"station_id":"SUD","i_lat":-6.202263,"time":1,"i_long":106.822649,"is_transit":false},{"line":2,"distance":3186,"transit":false,"station_id":"MRI","is_transit":false,"i_lat":-6.209883,"station_name":"Manggarai","time":4,"i_long":106.84912}],[{"time":0,"station_id":"BKST","station_name":"Bekasi Timur","transit":false,"is_transit":false,"i_lat":-6.248029,"line":1,"i_long":107.016735,"distance":0},{"transit":false,"line":1,"station_id":"BKS","distance":2368,"time":2,"is_transit":false,"i_lat":-6.236616,"station_name":"Bekasi","i_long":106.997013},{"station_name":"Kranji","i_long":106.977657,"is_transit":false,"transit":false,"time":4,"i_lat":-6.224515,"line":1,"station_id":"KRI","distance":2520},{"i_long":106.951283,"line":1,"distance":3097,"is_transit":false,"station_id":"CUK","station_name":"Cakung","i_lat":-6.219053,"time":3,"transit":false},{"station_name":"Klenderbaru","i_lat":-6.217455,"i_long":106.939679,"is_transit":false,"station_id":"KLDB","transit":false,"line":1,"distance":1385,"time":8},{"transit":false,"station_name":"Buaran","station_id":"BUA","distance":1305,"is_transit":false,"time":1,"i_long":106.922662,"i_lat":-6.215568,"line":1},{"i_long":106.899548,"transit":false,"distance":3100,"station_id":"KLD","time":2,"line":1,"station_name":"Klender","is_transit":false,"i_lat":-6.2135},{"distance":3395,"line":1,"i_lat":-6.215091,"station_id":"JNG","transit":true,"time":3,"is_transit":true,"station_name":"Jatinegara","i_long":106.86807400000001},{"transit":false,"i_lat":-6.209188,"i_long":106.861737,"distance":1236,"line":11,"time":2,"station_name":"Pondok Jati","is_transit":false,"station_id":"POK"},{"is_transit":false,"time":2,"line":11,"transit":false,"i_long":106.855437,"station_name":"Kramat","station_id":"KMT","distance":1829,"i_lat":-6.193792},{"i_lat":-6.185975,"is_transit":false,"distance":973,"station_id":"GST","transit":false,"time":1,"i_long":106.850107,"line":11,"station_name":"Gang Sentiong"},{"time":8,"transit":false,"is_transit":false,"distance":1567,"i_lat":-6.174784,"i_long":106.84368,"station_name":"Pasar Senen","line":11,"station_id":"PSE"},{"station_id":"KMO","station_name":"Kemayoran","distance":1436,"i_long":106.839204,"line":11,"is_transit":false,"transit":false,"time":4,"i_lat":-6.161728},{"i_lat":-6.14505,"i_long":106.836569,"is_transit":false,"station_id":"RJW","time":5,"line":11,"distance":1901,"transit":false,"station_name":"Rajawali"},{"i_lat":-6.132549,"transit":true,"station_name":"Kampung Bandan","i_long":106.826365,"distance":1444,"line":4,"station_id":"KPB","is_transit":true,"time":3},{"i_lat":-6.137569,"line":2,"time":3,"distance":1364,"station_name":"Jakarta Kota","is_transit":true,"station_id":"JAKK","transit":true,"i_long":106.812439},{"transit":false,"i_lat":-6.141205,"line":2,"is_transit":false,"station_id":"JAY","station_name":"Jayakarta","i_long":106.820901,"time":4,"distance":1264},{"i_lat":-6.149769,"is_transit":false,"station_name":"Manggabesar","station_id":"MGB","i_long":106.82482,"line":2,"transit":false,"distance":1080,"time":2},{"station_id":"SW","i_long":106.827103,"i_lat":-6.160725,"is_transit":false,"line":2,"station_name":"Sawah Besar","time":2,"transit":false,"distance":906},{"station_id":"JUA","time":2,"line":2,"i_lat":-6.166716,"distance":1149,"station_name":"Juanda","is_transit":false,"transit":false,"i_long":106.828284},{"line":2,"i_long":106.832183,"station_name":"Gondangdia","i_lat":-6.186295,"station_id":"GDD","is_transit":false,"transit":false,"time":4,"distance":2015},{"station_id":"CKI","distance":1750,"transit":false,"is_transit":false,"line":2,"station_name":"Cikini","time":3,"i_lat":-6.198556,"i_long":106.840169},{"station_name":"Manggarai","time":4,"is_transit":false,"line":2,"transit":false,"distance":1590,"i_lat":-6.209883,"station_id":"MRI","i_long":106.84912}]]}