{"data":[[{"transit":false,"distance":0,"i_long":107.016735,"station_name":"Bekasi Timur","is_transit":false,"line":0,"time":0,"station_id":"BKST","i_lat":-6.248029},{"is_transit":false,"i_lat":-6.236616,"distance":2368,"time":2,"line":0,"station_name":"Bekasi","i_long":106.997013,"transit":false,"station_id":"BKS"},{"is_transit":false,"distance":2520,"transit":false,"station_name":"Kranji","time":4,"line":1,"i_lat":-6.224515,"i_long":106.977657,"station_id":"KRI"},{"time":3,"line":0,"distance":3097,"i_lat":-6.219053,"is_transit":false,"transit":false,"i_long":106.951283,"station_id":"CUK","station_name":"Cakung"},{"time":8,"is_transit":false,"i_lat":-6.217455,"i_long":106.939679,"line":1,"transit":false,"station_id":"KLDB","distance":1385,"station_name":"Klenderbaru"},{"station_name":"Buaran","i_lat":-6.215568,"time":1,"line":0,"transit":false,"is_transit":false,"i_long":106.922662,"station_id":"BUA","distance":1305},{"line":1,"is_transit":false,"distance":3100,"transit":false,"i_lat":-6.2135,"station_name":"Klender","i_long":106.899548,"time":2,"station_id":"KLD"},{"distance":3395,"station_name":"Jatinegara","i_long":106.86807400000001,"station_id":"JNG","line":0,"time":3,"i_lat":-6.215091,"is_transit":true,"transit":false},{"station_name":"Matraman","station_id":"MTR","distance":1377,"is_transit":false,"time":2,"i_lat":-6.212485,"transit":false,"line":1,"i_long":106.858896},{"is_transit":true,"transit":false,"i_long":106.84912,"distance":1275,"station_name":"Manggarai","i_lat":-6.209883,"time":2,"station_id":"MRI","line":0},{"station_name":"Sudirman","line":1,"is_transit":false,"transit":false,"i_lat":-6.202263,"time":4,"i_long":106.822649,"station_id":"SUD","distance":3186},{"station_name":"Sudirman Baru","time":1,"is_transit":false,"distance":280,"i_lat":-6.201433,"i_long":106.819881,"line":1,"transit":false,"station_id":"SUDB"},{"i_lat":-6.20132,"station_id":"KAT","i_long":106.816351,"transit":false,"is_transit":false,"distance":471,"station_name":"Karet","time":1,"line":1},{"line":1,"i_long":106.811091,"i_lat":-6.185545,"is_transit":true,"distance":2029,"transit":true,"station_id":"THB","station_name":"Tanah Abang","time":5},{"time":6,"i_lat":-6.207404,"distance":3191,"station_name":"Palmerah","is_transit":false,"transit":false,"i_long":106.79689,"line":6,"station_id":"PLM"},{"i_lat":-6.237242,"station_name":"Kebayoran","station_id":"KBY","is_transit":false,"time":7,"distance":3737,"i_long":106.780334,"transit":false,"line":6},{"transit":false,"i_lat":-6.276362,"station_id":"PDJ","time":8,"line":6,"is_transit":false,"station_name":"Pondokranji","distance":6218,"i_long":106.74273},{"time":3,"station_id":"JMU","station_name":"Jurangmangu","transit":false,"i_lat":-6.288927,"is_transit":false,"distance":2179,"i_long":106.728916,"line":6},{"station_name":"Sudimara","time":4,"transit":false,"i_lat":-6.296963,"distance":1994,"station_id":"SDM","is_transit":false,"line":6,"i_long":106.712277},{"i_lat":-6.314823,"is_transit":false,"station_id":"RU","line":6,"i_long":106.675475,"time":6,"transit":false,"distance":4566,"station_name":"Rawa Buntu"}],[{"transit":false,"line":0,"i_lat":-6.248029,"station_id":"BKST","is_transit":false,"time":0,"distance":0,"station_name":"Bekasi Timur","i_long":107.016735},{"transit":false,"i_lat":-6.236616,"time":2,"is_transit":false,"distance":2368,"line":0,"station_id":"BKS","station_name":"Bekasi","i_long":106.997013},{"is_transit":false,"time":4,"transit":false,"i_lat":-6.224515,"line":1,"station_id":"KRI","distance":2520,"station_name":"Kranji","i_long":106.977657},{"distance":3097,"i_long":106.951283,"line":0,"time":3,"station_name":"Cakung","i_lat":-6.219053,"transit":false,"is_transit":false,"station_id":"CUK"},{"time":8,"station_id":"KLDB","is_transit":false,"distance":1385,"i_lat":-6.217455,"station_name":"Klenderbaru","line":1,"transit":false,"i_long":106.939679},{"is_transit":false,"station_name":"Buaran","distance":1305,"i_long":106.922662,"transit":false,"i_lat":-6.215568,"line":0,"time":1,"station_id":"BUA"},{"i_lat":-6.2135,"is_transit":false,"distance":3100,"station_id":"KLD","transit":false,"time":2,"station_name":"Klender","i_long":106.899548,"line":1},{"time":3,"line":0,"i_long":106.86807400000001,"transit":true,"distance":3395,"station_id":"JNG","is_transit":true,"station_name":"Jatinegara","i_lat":-6.215091},{"transit":false,"distance":1236,"station_id":"POK","i_long":106.861737,"i_lat":-6.209188,"is_transit":false,"line":11,"station_name":"Pondok Jati","time":2},{"station_id":"KMT","is_transit":false,"line":11,"i_lat":-6.193792,"transit":false,"i_long":106.855437,"time":2,"distance":1829,"station_name":"Kramat"},{"i_long":106.850107,"time":1,"distance":973,"station_name":"Gang Sentiong","station_id":"GST","line":11,"i_lat":-6.185975,"transit":false,"is_transit":false},{"i_lat":-6.174784,"line":11,"station_name":"Pasar Senen","transit":false,"i_long":106.84368,"distance":1567,"is_transit":false,"time":8,"station_id":"PSE"},{"transit":false,"time":4,"is_transit":false,"distance":1436,"station_id":"KMO","line":11,"i_long":106.839204,"station_name":"Kemayoran","i_lat":-6.161728},{"transit":false,"distance":1901,"i_lat":-6.14505,"i_long":106.836569,"time":5,"station_name":"Rajawali","station_id":"RJW","is_transit":false,"line":11},{"station_name":"Kampung Bandan","is_transit":true,"time":3,"distance":1444,"transit":true,"station_id":"KPB","i_lat":-6.132549,"line":0,"i_long":106.826365},{"station_id":"AK","i_lat":-6.144674,"i_long":106.79867,"transit":false,"is_transit":false,"distance":4102,"time":9,"station_name":"Angke","line":0},{"is_transit":true,"time":4,"i_long":106.800832,"station_id":"DU","transit":true,"i_lat":-6.155215,"line":1,"station_name":"Duri","distance":1230},{"distance":3632,"i_long":106.811091,"time":8,"is_transit":true,"line":1,"transit":true,"i_lat":-6.185545,"station_name":"Tanah Abang","station_id":"THB"},{"is_transit":false,"i_long":106.79689,"transit":false,"i_lat":-6.207404,"distance":3191,"line":6,"station_id":"PLM","station_name":"Palmerah","time":6},{"transit":false,"i_lat":-6.237242,"station_id":"KBY","is_transit":false,"station_name":"Kebayoran","i_long":106.780334,"time":7,"distance":3737,"line":6},{"transit":false,"line":6,"time":8,"station_id":"PDJ","station_name":"Pondokranji","i_long":106.74273,"is_transit":false,"distance":6218,"i_lat":-6.276362},{"i_long":106.728916,"transit":false,"station_id":"JMU","is_transit":false,"time":3,"i_lat":-6.288927,"station_name":"Jurangmangu","line":6,"distance":2179},{"time":4,"transit":false,"is_transit":false,"station_id":"SDM","station_name":"Sudimara","distance":1994,"line":6,"i_lat":-6.296963,"i_long":106.712277},{"i_lat":-6.314823,"line":6,"is_transit":false,"transit":false,"time":6,"station_id":"RU","i_long":106.675475,"station_name":"Rawa Buntu","distance":4566}],[{"i_lat":-6.248029,"time":0,"is_transit":false,"station_id":"BKST","transit":false,"station_name":"Bekasi Timur","line":0,"i_long":107.016735,"distance":0},{"i_long":106.997013,"distance":2368,"line":0,"is_transit":false,"time":2,"transit":false,"i_lat":-6.236616,"station_name":"Bekasi","station_id":"BKS"},{"station_name":"Kranji","i_lat":-6.224515,"station_id":"KRI","transit":false,"i_long":106.977657,"time":4,"line":1,"distance":2520,"is_transit":false},{"distance":3097,"transit":false,"i_lat":-6.219053,"is_transit":false,"time":3,"station_name":"Cakung","i_long":106.951283,"line":0,"station_id":"CUK"},{"transit":false,"distance":1385,"line":1,"is_transit":false,"station_id":"KLDB","station_name":"Klenderbaru","i_lat":-6.217455,"i_long":106.939679,"time":8},{"station_id":"BUA","is_transit":false,"transit":false,"i_lat":-6.215568,"line":0,"distance":1305,"station_name":"Buaran","i_long":106.922662,"time":1},{"station_name":"Klender","line":1,"transit":false,"i_lat":-6.2135,"is_transit":false,"time":2,"station_id":"KLD","distance":3100,"i_long":106.899548},{"station_id":"JNG","time":3,"i_long":106.86807400000001,"transit":false,"distance":3395,"station_name":"Jatinegara","line":0,"i_lat":-6.215091,"is_transit":true},{"distance":1377,"i_lat":-6.212485,"line":1,"station_id":"MTR","time":2,"station_name":"Matraman","transit":false,"i_long":106.858896,"is_transit":false},{"i_long":106.84912,"time":2,"is_transit":true,"distance":1275,"station_name":"Manggarai","transit":true,"i_lat":-6.209883,"line":0,"station_id":"MRI"},{"i_lat":-6.198556,"station_id":"CKI","transit":false,"distance":1590,"line":0,"time":4,"is_transit":false,"station_name":"Cikini","i_long":106.840169},{"line":2,"transit":false,"i_lat":-6.186295,"distance":1750,"station_name":"Gondangdia","station_id":"GDD","is_transit":false,"i_long":106.832183,"time":3},{"station_id":"JUA","distance":2015,"i_long":106.828284,"line":2,"is_transit":false,"station_name":"Juanda","transit":false,"time":4,"i_lat":-6.166716},{"time":2,"i_lat":-6.160725,"line":2,"transit":false,"station_id":"SW","i_long":106.827103,"station_name":"Sawah Besar","is_transit":false,"distance":1149},{"is_transit":false,"time":2,"station_name":"Manggabesar","i_long":106.82482,"line":2,"i_lat":-6.149769,"distance":906,"station_id":"MGB","transit":false},{"station_name":"Jayakarta","is_transit":false,"transit":false,"time":2,"distance":1080,"line":7,"i_lat":-6.141205,"i_long":106.820901,"station_id":"JAY"},{"i_lat":-6.137569,"is_transit":true,"station_id":"JAKK","i_long":106.812439,"line":0,"distance":1264,"time":4,"transit":true,"station_name":"Jakarta Kota"},{"line":0,"i_lat":-6.132549,"distance":1364,"time":3,"station_id":"KPB","is_transit":true,"station_name":"Kampung Bandan","transit":false,"i_long":106.826365},{"i_lat":-6.144674,"station_name":"Angke","line":0,"i_long":106.79867,"time":9,"station_id":"AK","is_transit":false,"transit":false,"distance":4102},{"time":4,"station_name":"Duri","distance":1230,"transit":true,"line":1,"station_id":"DU","i_lat":-6.155215,"is_transit":true,"i_long":106.800832},{"time":8,"is_transit":true,"station_id":"THB","i_long":106.811091,"i_lat":-6.185545,"line":1,"station_name":"Tanah Abang","distance":3632,"transit":true},{"station_id":"PLM","is_transit":false,"station_name":"Palmerah","distance":3191,"i_lat":-6.207404,"transit":false,"time":6,"i_long":106.79689,"line":6},{"station_name":"Kebayoran","transit":false,"distance":3737,"line":6,"i_long":106.780334,"is_transit":false,"i_lat":-6.237242,"time":7,"station_id":"KBY"},{"station_id":"PDJ","i_lat":-6.276362,"distance":6218,"is_transit":false,"transit":false,"line":6,"time":8,"station_name":"Pondokranji","i_long":106.74273},{"is_transit":false,"distance":2179,"line":6,"time":3,"station_name":"Jurangmangu","station_id":"JMU","transit":false,"i_long":106.728916,"i_lat":-6.288927},{"distance":1994,"time":4,"station_id":"SDM","is_transit":false,"line":6,"i_lat":-6.296963,"i_long":106.712277,"transit":false,"station_name":"Sudimara"},{"i_lat":-6.314823,"station_id":"RU","transit":false,"distance":4566,"time":6,"i_long":106.675475,"line":6,"station_name":"Rawa Buntu","is_transit":false}],[{"distance":0,"station_name":"Bekasi Timur","i_lat":-6.248029,"line":0,"time":0,"transit":false,"station_id":"BKST","is_transit":false,"i_long":107.016735},{"distance":2368,"is_transit":false,"line":0,"i_lat":-6.236616,"i_long":106.997013,"station_name":"Bekasi","transit":false,"station_id":"BKS","time":2},{"i_lat":-6.224515,"distance":2520,"is_transit":false,"time":4,"line":1,"transit":false,"station_id":"KRI","station_name":"Kranji","i_long":106.977657},{"time":3,"line":0,"is_transit":false,"i_lat":-6.219053,"i_long":106.951283,"station_id":"CUK","transit":false,"distance":3097,"station_name":"Cakung"},{"station_id":"KLDB","i_long":106.939679,"line":1,"is_transit":false,"transit":false,"i_lat":-6.217455,"time":8,"distance":1385,"station_name":"Klenderbaru"},{"distance":1305,"transit":false,"station_name":"Buaran","time":1,"i_lat":-6.215568,"station_id":"BUA","i_long":106.922662,"line":0,"is_transit":false},{"station_id":"KLD","time":2,"i_long":106.899548,"is_transit":false,"distance":3100,"line":1,"transit":false,"i_lat":-6.2135,"station_name":"Klender"},{"i_lat":-6.215091,"i_long":106.86807400000001,"time":3,"distance":3395,"transit":true,"station_name":"Jatinegara","line":0,"is_transit":true,"station_id":"JNG"},{"i_lat":-6.209188,"time":2,"station_name":"Pondok Jati","i_long":106.861737,"distance":1236,"station_id":"POK","is_transit":false,"transit":false,"line":11},{"station_name":"Kramat","transit":false,"line":11,"time":2,"station_id":"KMT","i_lat":-6.193792,"i_long":106.855437,"distance":1829,"is_transit":false},{"station_name":"Gang Sentiong","is_transit":false,"line":11,"i_lat":-6.185975,"i_long":106.850107,"time":1,"distance":973,"transit":false,"station_id":"GST"},{"transit":false,"station_id":"PSE","i_long":106.84368,"station_name":"Pasar Senen","distance":1567,"is_transit":false,"time":8,"i_lat":-6.174784,"line":11},{"distance":1436,"time":4,"is_transit":false,"station_id":"KMO","station_name":"Kemayoran","transit":false,"i_lat":-6.161728,"i_long":106.839204,"line":11},{"station_id":"RJW","line":11,"i_lat":-6.14505,"is_transit":false,"distance":1901,"transit":false,"i_long":106.836569,"station_name":"Rajawali","time":5},{"station_id":"KPB","station_name":"Kampung Bandan","i_lat":-6.132549,"time":3,"i_long":106.826365,"is_transit":true,"line":0,"transit":true,"distance":1444},{"station_id":"JAKK","i_long":106.812439,"line":0,"is_transit":true,"distance":1364,"transit":true,"station_name":"Jakarta Kota","i_lat":-6.137569,"time":3},{"station_id":"JAY","station_name":"Jayakarta","distance":1264,"transit":false,"i_lat":-6.141205,"time":4,"i_long":106.820901,"line":7,"is_transit":false},{"is_transit":false,"station_name":"Manggabesar","i_long":106.82482,"distance":1080,"i_lat":-6.149769,"line":2,"time":2,"station_id":"MGB","transit":false},{"is_transit":false,"distance":906,"station_name":"Sawah Besar","i_long":106.827103,"station_id":"SW","time":2,"transit":false,"line":2,"i_lat":-6.160725},{"station_id":"JUA","distance":1149,"transit":false,"is_transit":false,"i_lat":-6.166716,"line":2,"station_name":"Juanda","i_long":106.828284,"time":2},{"transit":false,"distance":2015,"i_lat":-6.186295,"station_id":"GDD","station_name":"Gondangdia","line":2,"time":4,"is_transit":false,"i_long":106.832183},{"line":0,"station_name":"Cikini","time":3,"is_transit":false,"i_lat":-6.198556,"transit":false,"distance":1750,"station_id":"CKI","i_long":106.840169},{"i_long":106.84912,"transit":true,"station_name":"Manggarai","distance":1590,"is_transit":true,"i_lat":-6.209883,"station_id":"MRI","time":4,"line":0},{"transit":false,"i_long":106.822649,"line":1,"i_lat":-6.202263,"is_transit":false,"station_name":"Sudirman","station_id":"SUD","distance":3186,"time":4},{"i_lat":-6.201433,"station_name":"Sudirman Baru","line":1,"station_id":"SUDB","is_transit":false,"distance":280,"transit":false,"i_long":106.819881,"time":1},{"station_id":"KAT","station_name":"Karet","transit":false,"i_long":106.816351,"line":1,"time":1,"is_transit":false,"distance":471,"i_lat":-6.20132},{"distance":2029,"i_lat":-6.185545,"station_name":"Tanah Abang","line":1,"time":5,"i_long":106.811091,"is_transit":true,"transit":true,"station_id":"THB"},{"line":6,"transit":false,"time":6,"distance":3191,"i_lat":-6.207404,"is_transit":false,"station_id":"PLM","station_name":"Palmerah","i_long":106.79689},{"station_name":"Kebayoran","station_id":"KBY","transit":false,"time":7,"line":6,"is_transit":false,"distance":3737,"i_lat":-6.237242,"i_long":106.780334},{"i_lat":-6.276362,"time":8,"transit":false,"is_transit":false,"line":6,"station_id":"PDJ","distance":6218,"station_name":"Pondokranji","i_long":106.74273},{"transit":false,"station_name":"Jurangmangu","is_transit":false,"distance":2179,"station_id":"JMU","time":3,"i_lat":-6.288927,"i_long":106.728916,"line":6},{"station_name":"Sudimara","i_lat":-6.296963,"station_id":"SDM","is_transit":false,"i_long":106.712277,"distance":1994,"time":4,"transit":false,"line":6},{"time":6,"line":6,"station_id":"RU","is_transit":false,"distance":4566,"station_name":"Rawa Buntu","transit":false,"i_lat":-6.314823,"i_long":106.675475}]]}