{"data":[[{"i_long":107.016735,"station_id":"BKST","i_lat":-6.248029,"line":0,"transit":false,"is_transit":false,"station_name":"Bekasi Timur","time":0,"distance":0},{"station_name":"Bekasi","distance":2368,"line":0,"time":2,"i_long":106.997013,"is_transit":false,"station_id":"BKS","transit":false,"i_lat":-6.236616},{"station_name":"Kranji","distance":2520,"is_transit":false,"station_id":"KRI","time":4,"transit":false,"i_lat":-6.224515,"line":1,"i_long":106.977657},{"station_name":"Cakung","station_id":"CUK","line":0,"i_lat":-6.219053,"time":3,"i_long":106.951283,"is_transit":false,"transit":false,"distance":3097},{"distance":1385,"station_name":"Klenderbaru","station_id":"KLDB","is_transit":false,"line":1,"i_long":106.939679,"transit":false,"i_lat":-6.217455,"time":8}]]}