{"data":[[{"transit":false,"station_name":"Bekasi Timur","i_long":107.016735,"time":0,"station_id":"BKST","distance":0,"is_transit":false,"line":0,"i_lat":-6.248029},{"transit":false,"i_lat":-6.236616,"station_id":"BKS","is_transit":false,"distance":2368,"i_long":106.997013,"line":0,"time":2,"station_name":"Bekasi"},{"is_transit":false,"station_name":"Kranji","i_lat":-6.224515,"i_long":106.977657,"time":4,"distance":2520,"line":1,"transit":false,"station_id":"KRI"},{"time":3,"line":0,"distance":3097,"station_id":"CUK","is_transit":false,"station_name":"Cakung","i_lat":-6.219053,"i_long":106.951283,"transit":false},{"distance":1385,"transit":false,"i_long":106.939679,"line":1,"time":8,"is_transit":false,"station_name":"Klenderbaru","station_id":"KLDB","i_lat":-6.217455},{"is_transit":false,"line":0,"i_long":106.922662,"station_name":"Buaran","time":1,"distance":1305,"transit":false,"station_id":"BUA","i_lat":-6.215568},{"station_name":"Klender","transit":false,"i_long":106.899548,"time":2,"distance":3100,"i_lat":-6.2135,"line":1,"is_transit":false,"station_id":"KLD"},{"line":0,"transit":false,"distance":3395,"station_name":"Jatinegara","i_long":106.86807400000001,"time":3,"is_transit":true,"station_id":"JNG","i_lat":-6.215091},{"station_id":"MTR","station_name":"Matraman","i_long":106.858896,"distance":1377,"i_lat":-6.212485,"is_transit":false,"time":2,"transit":false,"line":1},{"line":0,"station_name":"Manggarai","i_long":106.84912,"i_lat":-6.209883,"station_id":"MRI","transit":false,"is_transit":true,"time":2,"distance":1275},{"transit":false,"time":4,"line":1,"station_id":"SUD","distance":3186,"i_lat":-6.202263,"i_long":106.822649,"station_name":"Sudirman","is_transit":false},{"distance":280,"time":1,"station_name":"Sudirman Baru","station_id":"SUDB","i_lat":-6.201433,"i_long":106.819881,"is_transit":false,"transit":false,"line":1},{"i_lat":-6.20132,"station_name":"Karet","transit":false,"time":1,"distance":471,"i_long":106.816351,"line":1,"is_transit":false,"station_id":"KAT"},{"station_name":"Tanah Abang","time":5,"is_transit":true,"station_id":"THB","i_lat":-6.185545,"distance":2029,"line":1,"transit":false,"i_long":106.811091},{"station_id":"DU","i_lat":-6.155215,"transit":true,"distance":3632,"is_transit":true,"station_name":"Duri","i_long":106.800832,"time":8,"line":1},{"station_name":"Grogol","transit":false,"is_transit":false,"station_id":"GGL","line":5,"distance":1700,"time":3,"i_lat":-6.162021,"i_long":106.788277},{"time":2,"is_transit":false,"distance":2036,"station_id":"PSG","transit":false,"station_name":"Pesing","i_long":106.771379,"i_lat":-6.161433,"line":5},{"transit":false,"station_name":"Taman Kota","time":2,"i_lat":-6.1587309999999995,"line":5,"distance":1614,"i_long":106.756522,"is_transit":false,"station_id":"TKO"},{"station_id":"BOI","transit":false,"distance":2334,"station_name":"Bojongindah","i_long":106.737035,"line":0,"i_lat":-6.159876,"time":2,"is_transit":false},{"station_id":"RW","i_lat":-6.162758,"is_transit":false,"station_name":"Rawa Buaya","transit":false,"line":5,"time":4,"distance":1152,"i_long":106.723064}],[{"transit":false,"i_long":107.016735,"is_transit":false,"i_lat":-6.248029,"time":0,"distance":0,"line":0,"station_name":"Bekasi Timur","station_id":"BKST"},{"station_name":"Bekasi","transit":false,"is_transit":false,"distance":2368,"i_lat":-6.236616,"i_long":106.997013,"station_id":"BKS","line":0,"time":2},{"station_name":"Kranji","is_transit":false,"i_long":106.977657,"transit":false,"distance":2520,"station_id":"KRI","i_lat":-6.224515,"line":1,"time":4},{"time":3,"distance":3097,"station_name":"Cakung","i_long":106.951283,"line":0,"station_id":"CUK","is_transit":false,"i_lat":-6.219053,"transit":false},{"station_name":"Klenderbaru","station_id":"KLDB","transit":false,"line":1,"distance":1385,"time":8,"is_transit":false,"i_long":106.939679,"i_lat":-6.217455},{"distance":1305,"i_lat":-6.215568,"station_name":"Buaran","station_id":"BUA","line":0,"transit":false,"i_long":106.922662,"is_transit":false,"time":1},{"is_transit":false,"station_name":"Klender","distance":3100,"i_long":106.899548,"i_lat":-6.2135,"time":2,"station_id":"KLD","line":1,"transit":false},{"i_lat":-6.215091,"is_transit":true,"time":3,"distance":3395,"station_id":"JNG","station_name":"Jatinegara","i_long":106.86807400000001,"transit":true,"line":0},{"station_name":"Pondok Jati","distance":1236,"is_transit":false,"time":2,"station_id":"POK","i_long":106.861737,"transit":false,"i_lat":-6.209188,"line":11},{"station_id":"KMT","station_name":"Kramat","i_long":106.855437,"distance":1829,"i_lat":-6.193792,"time":2,"line":11,"transit":false,"is_transit":false},{"time":1,"transit":false,"line":11,"i_long":106.850107,"i_lat":-6.185975,"is_transit":false,"station_id":"GST","station_name":"Gang Sentiong","distance":973},{"i_lat":-6.174784,"i_long":106.84368,"line":11,"is_transit":false,"station_id":"PSE","transit":false,"distance":1567,"station_name":"Pasar Senen","time":8},{"i_long":106.839204,"line":11,"is_transit":false,"station_name":"Kemayoran","time":4,"distance":1436,"i_lat":-6.161728,"station_id":"KMO","transit":false},{"station_name":"Rajawali","station_id":"RJW","time":5,"line":11,"i_long":106.836569,"transit":false,"distance":1901,"i_lat":-6.14505,"is_transit":false},{"time":3,"station_id":"KPB","i_lat":-6.132549,"line":0,"transit":true,"is_transit":true,"station_name":"Kampung Bandan","distance":1444,"i_long":106.826365},{"is_transit":false,"time":9,"transit":false,"i_lat":-6.144674,"station_name":"Angke","line":0,"i_long":106.79867,"distance":4102,"station_id":"AK"},{"distance":1230,"time":4,"transit":true,"i_lat":-6.155215,"i_long":106.800832,"station_id":"DU","station_name":"Duri","is_transit":true,"line":1},{"station_id":"GGL","line":5,"station_name":"Grogol","is_transit":false,"time":3,"transit":false,"distance":1700,"i_lat":-6.162021,"i_long":106.788277},{"time":2,"transit":false,"is_transit":false,"distance":2036,"station_name":"Pesing","i_lat":-6.161433,"line":5,"station_id":"PSG","i_long":106.771379},{"station_name":"Taman Kota","i_long":106.756522,"station_id":"TKO","line":5,"is_transit":false,"distance":1614,"transit":false,"i_lat":-6.1587309999999995,"time":2},{"i_long":106.737035,"line":0,"station_name":"Bojongindah","time":2,"distance":2334,"transit":false,"station_id":"BOI","i_lat":-6.159876,"is_transit":false},{"is_transit":false,"station_id":"RW","i_long":106.723064,"station_name":"Rawa Buaya","transit":false,"line":5,"i_lat":-6.162758,"distance":1152,"time":4}],[{"station_id":"BKST","station_name":"Bekasi Timur","is_transit":false,"transit":false,"distance":0,"i_long":107.016735,"i_lat":-6.248029,"line":0,"time":0},{"line":0,"i_long":106.997013,"station_id":"BKS","distance":2368,"is_transit":false,"transit":false,"i_lat":-6.236616,"time":2,"station_name":"Bekasi"},{"distance":2520,"station_id":"KRI","i_lat":-6.224515,"transit":false,"line":1,"station_name":"Kranji","is_transit":false,"i_long":106.977657,"time":4},{"distance":3097,"i_lat":-6.219053,"station_id":"CUK","line":0,"transit":false,"time":3,"is_transit":false,"station_name":"Cakung","i_long":106.951283},{"time":8,"is_transit":false,"station_id":"KLDB","distance":1385,"station_name":"Klenderbaru","i_long":106.939679,"i_lat":-6.217455,"transit":false,"line":1},{"station_id":"BUA","distance":1305,"station_name":"Buaran","i_lat":-6.215568,"line":0,"time":1,"i_long":106.922662,"is_transit":false,"transit":false},{"transit":false,"i_lat":-6.2135,"is_transit":false,"station_name":"Klender","line":1,"distance":3100,"time":2,"station_id":"KLD","i_long":106.899548},{"station_name":"Jatinegara","i_long":106.86807400000001,"transit":false,"line":0,"is_transit":true,"time":3,"station_id":"JNG","distance":3395,"i_lat":-6.215091},{"station_id":"MTR","i_long":106.858896,"station_name":"Matraman","distance":1377,"i_lat":-6.212485,"is_transit":false,"line":1,"time":2,"transit":false},{"station_id":"MRI","i_lat":-6.209883,"distance":1275,"station_name":"Manggarai","transit":true,"i_long":106.84912,"is_transit":true,"time":2,"line":0},{"is_transit":false,"transit":false,"station_name":"Cikini","i_lat":-6.198556,"time":4,"distance":1590,"station_id":"CKI","i_long":106.840169,"line":0},{"station_name":"Gondangdia","i_long":106.832183,"is_transit":false,"time":3,"i_lat":-6.186295,"line":2,"transit":false,"station_id":"GDD","distance":1750},{"time":4,"station_name":"Juanda","station_id":"JUA","distance":2015,"line":2,"is_transit":false,"i_lat":-6.166716,"i_long":106.828284,"transit":false},{"is_transit":false,"time":2,"station_id":"SW","distance":1149,"station_name":"Sawah Besar","transit":false,"i_long":106.827103,"line":2,"i_lat":-6.160725},{"time":2,"is_transit":false,"station_name":"Manggabesar","line":2,"station_id":"MGB","transit":false,"distance":906,"i_lat":-6.149769,"i_long":106.82482},{"is_transit":false,"time":2,"i_lat":-6.141205,"line":7,"i_long":106.820901,"station_name":"Jayakarta","transit":false,"station_id":"JAY","distance":1080},{"i_lat":-6.137569,"i_long":106.812439,"is_transit":true,"time":4,"station_name":"Jakarta Kota","station_id":"JAKK","transit":true,"line":0,"distance":1264},{"is_transit":true,"distance":1364,"i_long":106.826365,"time":3,"transit":false,"line":0,"i_lat":-6.132549,"station_id":"KPB","station_name":"Kampung Bandan"},{"i_long":106.79867,"distance":4102,"i_lat":-6.144674,"line":0,"is_transit":false,"station_name":"Angke","station_id":"AK","transit":false,"time":9},{"time":4,"station_name":"Duri","distance":1230,"is_transit":true,"transit":true,"i_long":106.800832,"station_id":"DU","line":1,"i_lat":-6.155215},{"i_lat":-6.162021,"line":5,"station_id":"GGL","i_long":106.788277,"station_name":"Grogol","time":3,"transit":false,"is_transit":false,"distance":1700},{"i_long":106.771379,"time":2,"distance":2036,"line":5,"transit":false,"station_id":"PSG","is_transit":false,"station_name":"Pesing","i_lat":-6.161433},{"time":2,"station_name":"Taman Kota","is_transit":false,"distance":1614,"station_id":"TKO","transit":false,"i_lat":-6.1587309999999995,"line":5,"i_long":106.756522},{"station_id":"BOI","line":0,"time":2,"i_long":106.737035,"station_name":"Bojongindah","distance":2334,"transit":false,"i_lat":-6.159876,"is_transit":false},{"line":5,"i_long":106.723064,"station_id":"RW","is_transit":false,"station_name":"Rawa Buaya","transit":false,"distance":1152,"time":4,"i_lat":-6.162758}],[{"distance":0,"i_long":107.016735,"transit":false,"time":0,"station_name":"Bekasi Timur","is_transit":false,"i_lat":-6.248029,"station_id":"BKST","line":0},{"is_transit":false,"distance":2368,"i_long":106.997013,"station_name":"Bekasi","transit":false,"i_lat":-6.236616,"line":0,"time":2,"station_id":"BKS"},{"transit":false,"line":1,"station_name":"Kranji","station_id":"KRI","i_long":106.977657,"i_lat":-6.224515,"is_transit":false,"time":4,"distance":2520},{"distance":3097,"transit":false,"station_id":"CUK","time":3,"i_lat":-6.219053,"station_name":"Cakung","is_transit":false,"line":0,"i_long":106.951283},{"transit":false,"station_id":"KLDB","station_name":"Klenderbaru","i_long":106.939679,"line":1,"i_lat":-6.217455,"is_transit":false,"time":8,"distance":1385},{"time":1,"is_transit":false,"transit":false,"line":0,"i_lat":-6.215568,"station_id":"BUA","i_long":106.922662,"station_name":"Buaran","distance":1305},{"time":2,"distance":3100,"i_long":106.899548,"is_transit":false,"station_id":"KLD","i_lat":-6.2135,"line":1,"station_name":"Klender","transit":false},{"transit":true,"time":3,"i_lat":-6.215091,"i_long":106.86807400000001,"station_name":"Jatinegara","distance":3395,"line":0,"is_transit":true,"station_id":"JNG"},{"is_transit":false,"station_name":"Pondok Jati","line":11,"time":2,"i_long":106.861737,"station_id":"POK","transit":false,"distance":1236,"i_lat":-6.209188},{"is_transit":false,"distance":1829,"line":11,"time":2,"station_id":"KMT","station_name":"Kramat","i_lat":-6.193792,"transit":false,"i_long":106.855437},{"station_id":"GST","distance":973,"i_lat":-6.185975,"i_long":106.850107,"station_name":"Gang Sentiong","line":11,"transit":false,"time":1,"is_transit":false},{"station_id":"PSE","i_long":106.84368,"is_transit":false,"distance":1567,"i_lat":-6.174784,"line":11,"transit":false,"time":8,"station_name":"Pasar Senen"},{"distance":1436,"station_id":"KMO","station_name":"Kemayoran","i_lat":-6.161728,"transit":false,"i_long":106.839204,"line":11,"is_transit":false,"time":4},{"i_lat":-6.14505,"station_name":"Rajawali","station_id":"RJW","line":11,"distance":1901,"is_transit":false,"i_long":106.836569,"transit":false,"time":5},{"station_name":"Kampung Bandan","is_transit":true,"transit":true,"distance":1444,"i_long":106.826365,"line":0,"station_id":"KPB","time":3,"i_lat":-6.132549},{"is_transit":true,"station_id":"JAKK","i_lat":-6.137569,"line":0,"transit":true,"distance":1364,"time":3,"station_name":"Jakarta Kota","i_long":106.812439},{"is_transit":false,"station_name":"Jayakarta","station_id":"JAY","i_lat":-6.141205,"i_long":106.820901,"line":7,"time":4,"transit":false,"distance":1264},{"transit":false,"line":2,"i_lat":-6.149769,"station_id":"MGB","station_name":"Manggabesar","i_long":106.82482,"distance":1080,"is_transit":false,"time":2},{"transit":false,"i_long":106.827103,"station_name":"Sawah Besar","station_id":"SW","distance":906,"i_lat":-6.160725,"line":2,"is_transit":false,"time":2},{"line":2,"station_name":"Juanda","i_long":106.828284,"station_id":"JUA","transit":false,"is_transit":false,"time":2,"distance":1149,"i_lat":-6.166716},{"transit":false,"line":2,"station_id":"GDD","i_lat":-6.186295,"is_transit":false,"time":4,"station_name":"Gondangdia","distance":2015,"i_long":106.832183},{"i_long":106.840169,"time":3,"distance":1750,"station_name":"Cikini","i_lat":-6.198556,"transit":false,"is_transit":false,"line":0,"station_id":"CKI"},{"station_name":"Manggarai","transit":true,"i_lat":-6.209883,"i_long":106.84912,"distance":1590,"is_transit":true,"station_id":"MRI","line":0,"time":4},{"i_lat":-6.202263,"station_id":"SUD","i_long":106.822649,"line":1,"is_transit":false,"time":4,"station_name":"Sudirman","transit":false,"distance":3186},{"distance":280,"i_lat":-6.201433,"line":1,"time":1,"station_name":"Sudirman Baru","is_transit":false,"station_id":"SUDB","i_long":106.819881,"transit":false},{"i_long":106.816351,"is_transit":false,"time":1,"line":1,"station_id":"KAT","transit":false,"distance":471,"station_name":"Karet","i_lat":-6.20132},{"distance":2029,"time":5,"station_id":"THB","i_lat":-6.185545,"station_name":"Tanah Abang","i_long":106.811091,"is_transit":true,"transit":false,"line":1},{"i_long":106.800832,"station_name":"Duri","i_lat":-6.155215,"transit":true,"line":1,"time":8,"is_transit":true,"station_id":"DU","distance":3632},{"distance":1700,"is_transit":false,"station_name":"Grogol","transit":false,"i_lat":-6.162021,"i_long":106.788277,"line":5,"time":3,"station_id":"GGL"},{"line":5,"is_transit":false,"transit":false,"i_long":106.771379,"distance":2036,"i_lat":-6.161433,"station_id":"PSG","station_name":"Pesing","time":2},{"distance":1614,"transit":false,"i_long":106.756522,"station_name":"Taman Kota","i_lat":-6.1587309999999995,"is_transit":false,"time":2,"station_id":"TKO","line":5},{"is_transit":false,"time":2,"station_name":"Bojongindah","transit":false,"i_long":106.737035,"line":0,"distance":2334,"station_id":"BOI","i_lat":-6.159876},{"transit":false,"i_long":106.723064,"distance":1152,"i_lat":-6.162758,"station_id":"RW","station_name":"Rawa Buaya","line":5,"is_transit":false,"time":4}]]}