{"data":[[{"transit":false,"is_transit":false,"i_long":107.016735,"i_lat":-6.248029,"line":1,"time":0,"distance":0,"station_name":"Bekasi Timur","station_id":"BKST"},{"i_lat":-6.236616,"is_transit":false,"line":1,"time":2,"i_long":106.997013,"station_name":"Bekasi","distance":2368,"station_id":"BKS","transit":false},{"station_id":"KRI","time":4,"station_name":"Kranji","i_long":106.977657,"transit":false,"i_lat":-6.224515,"is_transit":false,"line":1,"distance":2520},{"station_name":"Cakung","i_long":106.951283,"station_id":"CUK","transit":false,"time":3,"is_transit":false,"i_lat":-6.219053,"distance":3097,"line":1},{"station_name":"Klenderbaru","distance":1385,"station_id":"KLDB","line":1,"time":8,"i_lat":-6.217455,"transit":false,"is_transit":false,"i_long":106.939679},{"is_transit":false,"i_long":106.922662,"line":1,"station_name":"Buaran","distance":1305,"time":1,"transit":false,"station_id":"BUA","i_lat":-6.215568},{"line":1,"station_name":"Klender","time":2,"i_lat":-6.2135,"is_transit":false,"distance":3100,"i_long":106.899548,"transit":false,"station_id":"KLD"},{"time":3,"distance":3395,"i_lat":-6.215091,"line":1,"transit":false,"i_long":106.86807400000001,"station_name":"Jatinegara","is_transit":false,"station_id":"JNG"},{"line":1,"is_transit":false,"i_lat":-6.212485,"distance":1377,"transit":false,"time":2,"station_name":"Matraman","station_id":"MTR","i_long":106.858896},{"is_transit":false,"line":2,"station_name":"Manggarai","station_id":"MRI","distance":1275,"i_long":106.84912,"transit":false,"i_lat":-6.209883,"time":2},{"station_id":"SUD","is_transit":false,"station_name":"Sudirman","i_long":106.822649,"distance":3186,"i_lat":-6.202263,"time":4,"transit":false,"line":1},{"transit":false,"station_name":"Sudirman Baru","time":1,"i_lat":-6.201433,"distance":280,"i_long":106.819881,"line":1,"station_id":"SUDB","is_transit":false},{"i_lat":-6.20132,"transit":false,"is_transit":false,"station_name":"Karet","station_id":"KAT","distance":471,"i_long":106.816351,"line":1,"time":1},{"distance":2029,"is_transit":true,"station_id":"THB","i_lat":-6.185545,"time":5,"station_name":"Tanah Abang","i_long":106.811091,"line":1,"transit":true},{"time":6,"is_transit":false,"distance":3191,"station_name":"Palmerah","line":6,"transit":false,"i_long":106.79689,"station_id":"PLM","i_lat":-6.207404},{"station_id":"KBY","time":7,"distance":3737,"is_transit":false,"i_long":106.780334,"station_name":"Kebayoran","i_lat":-6.237242,"line":6,"transit":false},{"distance":6218,"i_long":106.74273,"line":6,"i_lat":-6.276362,"station_name":"Pondokranji","transit":false,"is_transit":false,"time":8,"station_id":"PDJ"},{"station_id":"JMU","station_name":"Jurangmangu","is_transit":false,"i_lat":-6.288927,"line":6,"transit":false,"distance":2179,"time":3,"i_long":106.728916},{"transit":false,"station_name":"Sudimara","time":4,"line":6,"is_transit":false,"station_id":"SDM","i_lat":-6.296963,"distance":1994,"i_long":106.712277}],[{"i_lat":-6.248029,"i_long":107.016735,"is_transit":false,"distance":0,"station_name":"Bekasi Timur","time":0,"transit":false,"station_id":"BKST","line":1},{"station_name":"Bekasi","line":1,"i_long":106.997013,"is_transit":false,"time":2,"station_id":"BKS","distance":2368,"transit":false,"i_lat":-6.236616},{"i_long":106.977657,"station_name":"Kranji","transit":false,"distance":2520,"i_lat":-6.224515,"is_transit":false,"time":4,"line":1,"station_id":"KRI"},{"distance":3097,"station_name":"Cakung","line":1,"is_transit":false,"transit":false,"time":3,"station_id":"CUK","i_long":106.951283,"i_lat":-6.219053},{"station_name":"Klenderbaru","time":8,"i_long":106.939679,"line":1,"transit":false,"distance":1385,"station_id":"KLDB","i_lat":-6.217455,"is_transit":false},{"distance":1305,"station_id":"BUA","line":1,"transit":false,"i_long":106.922662,"i_lat":-6.215568,"time":1,"station_name":"Buaran","is_transit":false},{"station_id":"KLD","station_name":"Klender","transit":false,"i_lat":-6.2135,"line":1,"time":2,"i_long":106.899548,"is_transit":false,"distance":3100},{"distance":3395,"time":3,"i_long":106.86807400000001,"station_id":"JNG","line":1,"is_transit":true,"station_name":"Jatinegara","i_lat":-6.215091,"transit":true},{"line":11,"i_long":106.861737,"distance":1236,"station_name":"Pondok Jati","transit":false,"is_transit":false,"time":2,"station_id":"POK","i_lat":-6.209188},{"station_id":"KMT","transit":false,"is_transit":false,"distance":1829,"i_lat":-6.193792,"i_long":106.855437,"time":2,"line":11,"station_name":"Kramat"},{"line":11,"i_lat":-6.185975,"station_id":"GST","transit":false,"station_name":"Gang Sentiong","is_transit":false,"time":1,"i_long":106.850107,"distance":973},{"station_id":"PSE","time":8,"station_name":"Pasar Senen","i_long":106.84368,"line":11,"transit":false,"is_transit":false,"i_lat":-6.174784,"distance":1567},{"station_id":"KMO","transit":false,"station_name":"Kemayoran","i_long":106.839204,"line":11,"time":4,"i_lat":-6.161728,"is_transit":false,"distance":1436},{"transit":false,"station_name":"Rajawali","time":5,"station_id":"RJW","i_lat":-6.14505,"line":11,"distance":1901,"is_transit":false,"i_long":106.836569},{"station_name":"Kampung Bandan","time":3,"transit":true,"station_id":"KPB","i_long":106.826365,"distance":1444,"i_lat":-6.132549,"line":4,"is_transit":true},{"distance":4102,"i_lat":-6.144674,"time":9,"station_name":"Angke","transit":false,"line":1,"station_id":"AK","i_long":106.79867,"is_transit":false},{"station_name":"Duri","is_transit":false,"i_lat":-6.155215,"distance":1230,"time":4,"station_id":"DU","line":1,"i_long":106.800832,"transit":false},{"distance":3632,"station_id":"THB","line":1,"i_lat":-6.185545,"i_long":106.811091,"station_name":"Tanah Abang","transit":true,"is_transit":true,"time":8},{"time":6,"is_transit":false,"i_long":106.79689,"station_id":"PLM","transit":false,"distance":3191,"i_lat":-6.207404,"station_name":"Palmerah","line":6},{"time":7,"i_long":106.780334,"is_transit":false,"distance":3737,"station_id":"KBY","i_lat":-6.237242,"line":6,"transit":false,"station_name":"Kebayoran"},{"transit":false,"time":8,"i_long":106.74273,"line":6,"station_id":"PDJ","i_lat":-6.276362,"distance":6218,"is_transit":false,"station_name":"Pondokranji"},{"i_lat":-6.288927,"time":3,"transit":false,"station_name":"Jurangmangu","is_transit":false,"station_id":"JMU","i_long":106.728916,"distance":2179,"line":6},{"i_lat":-6.296963,"transit":false,"station_id":"SDM","line":6,"time":4,"station_name":"Sudimara","i_long":106.712277,"is_transit":false,"distance":1994}],[{"i_long":107.016735,"station_name":"Bekasi Timur","distance":0,"time":0,"is_transit":false,"i_lat":-6.248029,"line":1,"transit":false,"station_id":"BKST"},{"i_long":106.997013,"time":2,"station_name":"Bekasi","station_id":"BKS","line":1,"is_transit":false,"transit":false,"distance":2368,"i_lat":-6.236616},{"i_long":106.977657,"line":1,"station_id":"KRI","station_name":"Kranji","distance":2520,"transit":false,"is_transit":false,"i_lat":-6.224515,"time":4},{"station_name":"Cakung","station_id":"CUK","line":1,"time":3,"distance":3097,"i_lat":-6.219053,"i_long":106.951283,"transit":false,"is_transit":false},{"transit":false,"i_long":106.939679,"i_lat":-6.217455,"time":8,"station_name":"Klenderbaru","line":1,"station_id":"KLDB","distance":1385,"is_transit":false},{"distance":1305,"is_transit":false,"time":1,"i_lat":-6.215568,"i_long":106.922662,"transit":false,"station_id":"BUA","line":1,"station_name":"Buaran"},{"transit":false,"i_lat":-6.2135,"is_transit":false,"station_id":"KLD","i_long":106.899548,"line":1,"time":2,"distance":3100,"station_name":"Klender"},{"transit":false,"station_name":"Jatinegara","time":3,"distance":3395,"is_transit":false,"i_lat":-6.215091,"i_long":106.86807400000001,"station_id":"JNG","line":1},{"transit":false,"line":1,"distance":1377,"station_name":"Matraman","i_lat":-6.212485,"station_id":"MTR","time":2,"is_transit":false,"i_long":106.858896},{"time":2,"line":2,"i_long":106.84912,"transit":true,"distance":1275,"station_name":"Manggarai","station_id":"MRI","is_transit":true,"i_lat":-6.209883},{"i_lat":-6.198556,"i_long":106.840169,"line":2,"transit":false,"station_id":"CKI","is_transit":false,"distance":1590,"station_name":"Cikini","time":4},{"distance":1750,"is_transit":false,"transit":false,"station_name":"Gondangdia","station_id":"GDD","line":2,"i_long":106.832183,"time":3,"i_lat":-6.186295},{"station_name":"Juanda","distance":2015,"time":4,"station_id":"JUA","transit":false,"is_transit":false,"i_long":106.828284,"line":2,"i_lat":-6.166716},{"time":2,"i_lat":-6.160725,"i_long":106.827103,"line":2,"station_name":"Sawah Besar","is_transit":false,"station_id":"SW","distance":1149,"transit":false},{"i_long":106.82482,"station_id":"MGB","distance":906,"is_transit":false,"station_name":"Manggabesar","line":2,"time":2,"i_lat":-6.149769,"transit":false},{"line":2,"station_id":"JAY","station_name":"Jayakarta","transit":false,"i_lat":-6.141205,"is_transit":false,"distance":1080,"i_long":106.820901,"time":2},{"station_id":"JAKK","station_name":"Jakarta Kota","i_long":106.812439,"i_lat":-6.137569,"line":2,"transit":true,"distance":1264,"is_transit":true,"time":4},{"is_transit":true,"i_lat":-6.132549,"i_long":106.826365,"transit":true,"time":3,"distance":1364,"station_name":"Kampung Bandan","station_id":"KPB","line":4},{"transit":false,"is_transit":false,"i_lat":-6.144674,"station_id":"AK","i_long":106.79867,"distance":4102,"time":9,"station_name":"Angke","line":1},{"time":4,"station_id":"DU","i_lat":-6.155215,"is_transit":false,"line":1,"transit":false,"i_long":106.800832,"distance":1230,"station_name":"Duri"},{"i_lat":-6.185545,"line":1,"transit":true,"distance":3632,"is_transit":true,"time":8,"station_id":"THB","i_long":106.811091,"station_name":"Tanah Abang"},{"transit":false,"i_long":106.79689,"distance":3191,"station_name":"Palmerah","line":6,"is_transit":false,"i_lat":-6.207404,"time":6,"station_id":"PLM"},{"line":6,"i_lat":-6.237242,"station_id":"KBY","transit":false,"distance":3737,"station_name":"Kebayoran","i_long":106.780334,"is_transit":false,"time":7},{"i_lat":-6.276362,"time":8,"i_long":106.74273,"line":6,"distance":6218,"station_id":"PDJ","station_name":"Pondokranji","is_transit":false,"transit":false},{"time":3,"line":6,"distance":2179,"is_transit":false,"station_name":"Jurangmangu","station_id":"JMU","i_lat":-6.288927,"transit":false,"i_long":106.728916},{"line":6,"time":4,"distance":1994,"is_transit":false,"i_lat":-6.296963,"transit":false,"i_long":106.712277,"station_id":"SDM","station_name":"Sudimara"}],[{"i_lat":-6.248029,"is_transit":false,"station_name":"Bekasi Timur","line":1,"station_id":"BKST","time":0,"transit":false,"i_long":107.016735,"distance":0},{"i_lat":-6.236616,"is_transit":false,"transit":false,"station_id":"BKS","distance":2368,"station_name":"Bekasi","time":2,"i_long":106.997013,"line":1},{"station_name":"Kranji","is_transit":false,"transit":false,"distance":2520,"station_id":"KRI","i_long":106.977657,"line":1,"i_lat":-6.224515,"time":4},{"time":3,"is_transit":false,"transit":false,"station_name":"Cakung","station_id":"CUK","i_long":106.951283,"i_lat":-6.219053,"line":1,"distance":3097},{"i_lat":-6.217455,"distance":1385,"is_transit":false,"transit":false,"station_id":"KLDB","line":1,"i_long":106.939679,"station_name":"Klenderbaru","time":8},{"distance":1305,"time":1,"station_id":"BUA","station_name":"Buaran","i_long":106.922662,"line":1,"transit":false,"is_transit":false,"i_lat":-6.215568},{"time":2,"line":1,"is_transit":false,"station_name":"Klender","distance":3100,"station_id":"KLD","i_long":106.899548,"transit":false,"i_lat":-6.2135},{"i_lat":-6.215091,"station_name":"Jatinegara","line":1,"is_transit":true,"time":3,"distance":3395,"i_long":106.86807400000001,"transit":true,"station_id":"JNG"},{"is_transit":false,"line":11,"station_id":"POK","i_lat":-6.209188,"transit":false,"time":2,"station_name":"Pondok Jati","i_long":106.861737,"distance":1236},{"time":2,"transit":false,"i_lat":-6.193792,"station_id":"KMT","distance":1829,"is_transit":false,"i_long":106.855437,"line":11,"station_name":"Kramat"},{"distance":973,"i_long":106.850107,"line":11,"is_transit":false,"time":1,"station_id":"GST","station_name":"Gang Sentiong","transit":false,"i_lat":-6.185975},{"is_transit":false,"station_id":"PSE","i_long":106.84368,"transit":false,"station_name":"Pasar Senen","time":8,"i_lat":-6.174784,"distance":1567,"line":11},{"i_lat":-6.161728,"i_long":106.839204,"line":11,"station_id":"KMO","transit":false,"is_transit":false,"station_name":"Kemayoran","time":4,"distance":1436},{"time":5,"transit":false,"station_name":"Rajawali","is_transit":false,"i_long":106.836569,"station_id":"RJW","i_lat":-6.14505,"distance":1901,"line":11},{"transit":true,"station_name":"Kampung Bandan","station_id":"KPB","time":3,"line":4,"i_long":106.826365,"distance":1444,"i_lat":-6.132549,"is_transit":true},{"i_lat":-6.137569,"transit":true,"station_id":"JAKK","line":2,"station_name":"Jakarta Kota","i_long":106.812439,"distance":1364,"is_transit":true,"time":3},{"station_name":"Jayakarta","time":4,"line":2,"transit":false,"i_long":106.820901,"distance":1264,"is_transit":false,"station_id":"JAY","i_lat":-6.141205},{"distance":1080,"station_id":"MGB","time":2,"i_long":106.82482,"is_transit":false,"i_lat":-6.149769,"station_name":"Manggabesar","line":2,"transit":false},{"is_transit":false,"time":2,"station_name":"Sawah Besar","transit":false,"distance":906,"station_id":"SW","i_lat":-6.160725,"i_long":106.827103,"line":2},{"station_id":"JUA","line":2,"is_transit":false,"i_lat":-6.166716,"transit":false,"i_long":106.828284,"distance":1149,"station_name":"Juanda","time":2},{"station_id":"GDD","line":2,"is_transit":false,"transit":false,"station_name":"Gondangdia","time":4,"i_lat":-6.186295,"distance":2015,"i_long":106.832183},{"time":3,"transit":false,"i_lat":-6.198556,"is_transit":false,"station_name":"Cikini","distance":1750,"station_id":"CKI","i_long":106.840169,"line":2},{"transit":true,"station_name":"Manggarai","station_id":"MRI","is_transit":true,"i_lat":-6.209883,"time":4,"i_long":106.84912,"line":2,"distance":1590},{"transit":false,"time":4,"station_id":"SUD","i_lat":-6.202263,"i_long":106.822649,"line":1,"is_transit":false,"distance":3186,"station_name":"Sudirman"},{"station_name":"Sudirman Baru","i_long":106.819881,"time":1,"is_transit":false,"distance":280,"transit":false,"station_id":"SUDB","line":1,"i_lat":-6.201433},{"distance":471,"station_id":"KAT","i_long":106.816351,"transit":false,"is_transit":false,"station_name":"Karet","time":1,"i_lat":-6.20132,"line":1},{"transit":true,"distance":2029,"time":5,"i_long":106.811091,"station_name":"Tanah Abang","is_transit":true,"i_lat":-6.185545,"station_id":"THB","line":1},{"i_lat":-6.207404,"station_name":"Palmerah","distance":3191,"is_transit":false,"time":6,"station_id":"PLM","i_long":106.79689,"line":6,"transit":false},{"is_transit":false,"time":7,"station_id":"KBY","i_lat":-6.237242,"transit":false,"station_name":"Kebayoran","line":6,"i_long":106.780334,"distance":3737},{"i_lat":-6.276362,"station_name":"Pondokranji","i_long":106.74273,"is_transit":false,"station_id":"PDJ","transit":false,"time":8,"line":6,"distance":6218},{"transit":false,"distance":2179,"i_long":106.728916,"i_lat":-6.288927,"station_name":"Jurangmangu","line":6,"station_id":"JMU","time":3,"is_transit":false},{"is_transit":false,"station_id":"SDM","transit":false,"i_long":106.712277,"station_name":"Sudimara","time":4,"i_lat":-6.296963,"distance":1994,"line":6}]]}