{"data":[[{"is_transit":false,"distance":0,"station_id":"BKST","transit":false,"i_long":107.016735,"station_name":"Bekasi Timur","time":0,"i_lat":-6.248029,"line":1},{"time":2,"is_transit":false,"station_name":"Bekasi","line":1,"station_id":"BKS","transit":false,"i_lat":-6.236616,"i_long":106.997013,"distance":2368},{"time":4,"i_lat":-6.224515,"line":1,"transit":false,"distance":2520,"is_transit":false,"station_name":"Kranji","station_id":"KRI","i_long":106.977657},{"distance":3097,"i_lat":-6.219053,"time":3,"is_transit":false,"transit":false,"line":1,"i_long":106.951283,"station_id":"CUK","station_name":"Cakung"},{"transit":false,"is_transit":false,"i_lat":-6.217455,"station_id":"KLDB","distance":1385,"station_name":"Klenderbaru","time":8,"line":1,"i_long":106.939679},{"station_name":"Buaran","is_transit":false,"station_id":"BUA","transit":false,"distance":1305,"i_lat":-6.215568,"i_long":106.922662,"time":1,"line":1},{"station_name":"Klender","line":1,"is_transit":false,"i_long":106.899548,"i_lat":-6.2135,"time":2,"distance":3100,"station_id":"KLD","transit":false},{"station_name":"Jatinegara","is_transit":false,"transit":false,"distance":3395,"line":1,"time":3,"station_id":"JNG","i_lat":-6.215091,"i_long":106.86807400000001},{"is_transit":false,"line":1,"station_name":"Matraman","distance":1377,"i_long":106.858896,"station_id":"MTR","time":2,"transit":false,"i_lat":-6.212485},{"distance":1275,"time":2,"is_transit":false,"station_name":"Manggarai","station_id":"MRI","i_long":106.84912,"transit":false,"i_lat":-6.209883,"line":2}],[{"distance":0,"station_name":"Bekasi Timur","station_id":"BKST","i_lat":-6.248029,"i_long":107.016735,"time":0,"is_transit":false,"transit":false,"line":1},{"i_long":106.997013,"line":1,"is_transit":false,"time":2,"transit":false,"station_name":"Bekasi","station_id":"BKS","i_lat":-6.236616,"distance":2368},{"station_id":"KRI","time":4,"i_lat":-6.224515,"i_long":106.977657,"transit":false,"station_name":"Kranji","distance":2520,"line":1,"is_transit":false},{"line":1,"is_transit":false,"time":3,"i_lat":-6.219053,"station_id":"CUK","distance":3097,"station_name":"Cakung","transit":false,"i_long":106.951283},{"distance":1385,"time":8,"line":1,"station_name":"Klenderbaru","transit":false,"i_lat":-6.217455,"station_id":"KLDB","i_long":106.939679,"is_transit":false},{"i_lat":-6.215568,"i_long":106.922662,"line":1,"station_id":"BUA","transit":false,"time":1,"distance":1305,"station_name":"Buaran","is_transit":false},{"is_transit":false,"i_long":106.899548,"i_lat":-6.2135,"line":1,"transit":false,"distance":3100,"station_id":"KLD","station_name":"Klender","time":2},{"is_transit":true,"i_long":106.86807400000001,"transit":true,"line":1,"station_name":"Jatinegara","time":3,"i_lat":-6.215091,"distance":3395,"station_id":"JNG"},{"transit":false,"is_transit":false,"line":11,"distance":1236,"station_name":"Pondok Jati","time":2,"station_id":"POK","i_lat":-6.209188,"i_long":106.861737},{"transit":false,"line":11,"station_name":"Kramat","i_long":106.855437,"distance":1829,"time":2,"i_lat":-6.193792,"is_transit":false,"station_id":"KMT"},{"is_transit":false,"transit":false,"line":11,"i_long":106.850107,"station_id":"GST","distance":973,"station_name":"Gang Sentiong","i_lat":-6.185975,"time":1},{"line":11,"i_lat":-6.174784,"station_name":"Pasar Senen","is_transit":false,"station_id":"PSE","distance":1567,"transit":false,"time":8,"i_long":106.84368},{"distance":1436,"station_name":"Kemayoran","i_long":106.839204,"is_transit":false,"line":11,"time":4,"transit":false,"i_lat":-6.161728,"station_id":"KMO"},{"line":11,"is_transit":false,"transit":false,"station_name":"Rajawali","i_lat":-6.14505,"station_id":"RJW","i_long":106.836569,"distance":1901,"time":5},{"station_name":"Kampung Bandan","i_long":106.826365,"line":4,"transit":true,"distance":1444,"time":3,"station_id":"KPB","is_transit":true,"i_lat":-6.132549},{"distance":4102,"line":1,"transit":false,"station_name":"Angke","time":9,"station_id":"AK","i_lat":-6.144674,"is_transit":false,"i_long":106.79867},{"station_name":"Duri","is_transit":false,"time":4,"station_id":"DU","i_lat":-6.155215,"distance":1230,"i_long":106.800832,"line":1,"transit":false},{"i_lat":-6.185545,"is_transit":false,"line":1,"time":8,"transit":false,"i_long":106.811091,"station_name":"Tanah Abang","station_id":"THB","distance":3632},{"station_name":"Karet","i_lat":-6.20132,"transit":false,"i_long":106.816351,"is_transit":false,"station_id":"KAT","distance":2029,"line":1,"time":5},{"distance":471,"i_long":106.819881,"time":1,"station_id":"SUDB","is_transit":false,"i_lat":-6.201433,"transit":false,"line":1,"station_name":"Sudirman Baru"},{"station_name":"Sudirman","is_transit":false,"station_id":"SUD","i_long":106.822649,"distance":280,"i_lat":-6.202263,"time":1,"transit":false,"line":1},{"line":2,"time":4,"i_long":106.84912,"is_transit":false,"distance":3186,"station_name":"Manggarai","transit":false,"i_lat":-6.209883,"station_id":"MRI"}],[{"is_transit":false,"transit":false,"time":0,"line":1,"station_id":"BKST","station_name":"Bekasi Timur","i_long":107.016735,"distance":0,"i_lat":-6.248029},{"time":2,"distance":2368,"is_transit":false,"transit":false,"i_long":106.997013,"line":1,"station_id":"BKS","i_lat":-6.236616,"station_name":"Bekasi"},{"station_id":"KRI","station_name":"Kranji","i_lat":-6.224515,"i_long":106.977657,"time":4,"distance":2520,"transit":false,"line":1,"is_transit":false},{"station_name":"Cakung","is_transit":false,"station_id":"CUK","line":1,"i_long":106.951283,"time":3,"i_lat":-6.219053,"distance":3097,"transit":false},{"station_name":"Klenderbaru","is_transit":false,"transit":false,"time":8,"i_lat":-6.217455,"i_long":106.939679,"line":1,"station_id":"KLDB","distance":1385},{"time":1,"station_name":"Buaran","transit":false,"station_id":"BUA","distance":1305,"i_lat":-6.215568,"i_long":106.922662,"is_transit":false,"line":1},{"i_long":106.899548,"is_transit":false,"station_id":"KLD","station_name":"Klender","transit":false,"time":2,"i_lat":-6.2135,"line":1,"distance":3100},{"time":3,"station_name":"Jatinegara","i_lat":-6.215091,"is_transit":true,"distance":3395,"transit":true,"i_long":106.86807400000001,"line":1,"station_id":"JNG"},{"station_id":"POK","distance":1236,"time":2,"i_lat":-6.209188,"i_long":106.861737,"station_name":"Pondok Jati","transit":false,"line":11,"is_transit":false},{"i_lat":-6.193792,"time":2,"i_long":106.855437,"station_name":"Kramat","is_transit":false,"line":11,"station_id":"KMT","distance":1829,"transit":false},{"i_long":106.850107,"line":11,"distance":973,"i_lat":-6.185975,"time":1,"station_id":"GST","transit":false,"is_transit":false,"station_name":"Gang Sentiong"},{"station_name":"Pasar Senen","i_lat":-6.174784,"time":8,"is_transit":false,"distance":1567,"station_id":"PSE","i_long":106.84368,"line":11,"transit":false},{"time":4,"transit":false,"line":11,"distance":1436,"i_lat":-6.161728,"station_name":"Kemayoran","station_id":"KMO","is_transit":false,"i_long":106.839204},{"transit":false,"i_lat":-6.14505,"i_long":106.836569,"station_name":"Rajawali","line":11,"is_transit":false,"distance":1901,"station_id":"RJW","time":5},{"is_transit":true,"station_name":"Kampung Bandan","transit":true,"distance":1444,"time":3,"station_id":"KPB","i_lat":-6.132549,"i_long":106.826365,"line":4},{"i_long":106.812439,"line":2,"station_name":"Jakarta Kota","time":3,"station_id":"JAKK","is_transit":true,"i_lat":-6.137569,"distance":1364,"transit":true},{"i_long":106.820901,"station_id":"JAY","is_transit":false,"station_name":"Jayakarta","transit":false,"i_lat":-6.141205,"line":2,"distance":1264,"time":4},{"i_lat":-6.149769,"station_id":"MGB","i_long":106.82482,"transit":false,"line":2,"station_name":"Manggabesar","distance":1080,"time":2,"is_transit":false},{"station_id":"SW","transit":false,"i_long":106.827103,"line":2,"is_transit":false,"i_lat":-6.160725,"distance":906,"station_name":"Sawah Besar","time":2},{"time":2,"i_long":106.828284,"is_transit":false,"i_lat":-6.166716,"line":2,"station_name":"Juanda","station_id":"JUA","transit":false,"distance":1149},{"line":2,"station_name":"Gondangdia","i_lat":-6.186295,"station_id":"GDD","is_transit":false,"i_long":106.832183,"time":4,"distance":2015,"transit":false},{"i_long":106.840169,"transit":false,"distance":1750,"time":3,"station_id":"CKI","is_transit":false,"i_lat":-6.198556,"line":2,"station_name":"Cikini"},{"transit":false,"i_lat":-6.209883,"distance":1590,"station_id":"MRI","is_transit":false,"station_name":"Manggarai","i_long":106.84912,"line":2,"time":4}]]}