{"data":[[{"transit":false,"station_id":"BKST","time":0,"is_transit":false,"line":1,"distance":0,"station_name":"Bekasi Timur","i_lat":-6.248029,"i_long":107.016735},{"station_id":"BKS","i_long":106.997013,"transit":false,"is_transit":false,"line":1,"station_name":"Bekasi","time":2,"distance":2368,"i_lat":-6.236616},{"i_long":106.977657,"station_id":"KRI","line":1,"transit":false,"time":4,"is_transit":false,"distance":2520,"i_lat":-6.224515,"station_name":"Kranji"},{"is_transit":false,"distance":3097,"station_name":"Cakung","i_long":106.951283,"line":1,"station_id":"CUK","i_lat":-6.219053,"transit":false,"time":3},{"line":1,"time":8,"i_lat":-6.217455,"is_transit":false,"station_id":"KLDB","transit":false,"distance":1385,"station_name":"Klenderbaru","i_long":106.939679},{"is_transit":false,"distance":1305,"i_lat":-6.215568,"i_long":106.922662,"station_id":"BUA","line":1,"transit":false,"station_name":"Buaran","time":1},{"line":1,"station_id":"KLD","station_name":"Klender","transit":false,"i_lat":-6.2135,"is_transit":false,"time":2,"i_long":106.899548,"distance":3100},{"line":1,"distance":3395,"station_name":"Jatinegara","i_lat":-6.215091,"i_long":106.86807400000001,"time":3,"is_transit":false,"transit":false,"station_id":"JNG"},{"line":1,"transit":false,"station_id":"MTR","time":2,"distance":1377,"i_lat":-6.212485,"i_long":106.858896,"station_name":"Matraman","is_transit":false},{"distance":1275,"transit":false,"station_id":"MRI","i_lat":-6.209883,"is_transit":false,"i_long":106.84912,"station_name":"Manggarai","line":2,"time":2},{"transit":false,"i_long":106.822649,"i_lat":-6.202263,"station_id":"SUD","time":4,"is_transit":false,"distance":3186,"station_name":"Sudirman","line":1},{"distance":280,"transit":false,"time":1,"station_id":"SUDB","is_transit":false,"line":1,"i_lat":-6.201433,"station_name":"Sudirman Baru","i_long":106.819881},{"time":1,"station_name":"Karet","is_transit":false,"transit":false,"station_id":"KAT","distance":471,"i_long":106.816351,"i_lat":-6.20132,"line":1},{"station_name":"Tanah Abang","transit":false,"is_transit":false,"distance":2029,"i_long":106.811091,"line":1,"station_id":"THB","time":5,"i_lat":-6.185545}],[{"distance":0,"station_id":"BKST","is_transit":false,"i_lat":-6.248029,"time":0,"i_long":107.016735,"station_name":"Bekasi Timur","transit":false,"line":1},{"transit":false,"is_transit":false,"i_lat":-6.236616,"station_name":"Bekasi","time":2,"line":1,"distance":2368,"station_id":"BKS","i_long":106.997013},{"station_name":"Kranji","time":4,"i_lat":-6.224515,"i_long":106.977657,"line":1,"distance":2520,"station_id":"KRI","is_transit":false,"transit":false},{"line":1,"time":3,"i_long":106.951283,"station_name":"Cakung","distance":3097,"transit":false,"i_lat":-6.219053,"is_transit":false,"station_id":"CUK"},{"station_id":"KLDB","line":1,"time":8,"i_long":106.939679,"is_transit":false,"distance":1385,"transit":false,"station_name":"Klenderbaru","i_lat":-6.217455},{"distance":1305,"i_lat":-6.215568,"transit":false,"line":1,"is_transit":false,"station_id":"BUA","time":1,"i_long":106.922662,"station_name":"Buaran"},{"distance":3100,"time":2,"station_name":"Klender","line":1,"transit":false,"station_id":"KLD","is_transit":false,"i_lat":-6.2135,"i_long":106.899548},{"transit":true,"line":1,"distance":3395,"time":3,"station_name":"Jatinegara","station_id":"JNG","i_lat":-6.215091,"i_long":106.86807400000001,"is_transit":true},{"distance":1236,"time":2,"station_name":"Pondok Jati","line":11,"station_id":"POK","transit":false,"i_lat":-6.209188,"i_long":106.861737,"is_transit":false},{"line":11,"station_name":"Kramat","transit":false,"time":2,"distance":1829,"station_id":"KMT","is_transit":false,"i_long":106.855437,"i_lat":-6.193792},{"time":1,"distance":973,"station_name":"Gang Sentiong","i_long":106.850107,"line":11,"transit":false,"station_id":"GST","is_transit":false,"i_lat":-6.185975},{"distance":1567,"i_lat":-6.174784,"is_transit":false,"station_name":"Pasar Senen","time":8,"transit":false,"i_long":106.84368,"line":11,"station_id":"PSE"},{"is_transit":false,"transit":false,"station_name":"Kemayoran","distance":1436,"i_long":106.839204,"line":11,"i_lat":-6.161728,"station_id":"KMO","time":4},{"time":5,"i_lat":-6.14505,"line":11,"transit":false,"station_id":"RJW","distance":1901,"station_name":"Rajawali","i_long":106.836569,"is_transit":false},{"station_name":"Kampung Bandan","is_transit":true,"i_lat":-6.132549,"i_long":106.826365,"line":4,"station_id":"KPB","time":3,"distance":1444,"transit":true},{"station_name":"Angke","distance":4102,"is_transit":false,"transit":false,"time":9,"i_lat":-6.144674,"i_long":106.79867,"station_id":"AK","line":1},{"station_name":"Duri","is_transit":false,"line":1,"i_lat":-6.155215,"time":4,"transit":false,"distance":1230,"i_long":106.800832,"station_id":"DU"},{"station_id":"THB","distance":3632,"time":8,"transit":false,"station_name":"Tanah Abang","i_lat":-6.185545,"i_long":106.811091,"line":1,"is_transit":false}],[{"line":1,"distance":0,"time":0,"i_lat":-6.248029,"station_name":"Bekasi Timur","station_id":"BKST","i_long":107.016735,"is_transit":false,"transit":false},{"is_transit":false,"station_name":"Bekasi","transit":false,"distance":2368,"i_long":106.997013,"time":2,"station_id":"BKS","i_lat":-6.236616,"line":1},{"time":4,"distance":2520,"i_lat":-6.224515,"i_long":106.977657,"is_transit":false,"transit":false,"station_name":"Kranji","station_id":"KRI","line":1},{"i_long":106.951283,"station_name":"Cakung","transit":false,"time":3,"distance":3097,"station_id":"CUK","i_lat":-6.219053,"line":1,"is_transit":false},{"i_long":106.939679,"station_name":"Klenderbaru","transit":false,"is_transit":false,"time":8,"station_id":"KLDB","distance":1385,"i_lat":-6.217455,"line":1},{"transit":false,"is_transit":false,"i_lat":-6.215568,"station_id":"BUA","i_long":106.922662,"line":1,"distance":1305,"time":1,"station_name":"Buaran"},{"time":2,"transit":false,"distance":3100,"line":1,"i_long":106.899548,"station_name":"Klender","station_id":"KLD","is_transit":false,"i_lat":-6.2135},{"line":1,"i_lat":-6.215091,"is_transit":false,"station_name":"Jatinegara","distance":3395,"time":3,"i_long":106.86807400000001,"transit":false,"station_id":"JNG"},{"station_id":"MTR","line":1,"i_lat":-6.212485,"station_name":"Matraman","transit":false,"is_transit":false,"distance":1377,"i_long":106.858896,"time":2},{"distance":1275,"i_long":106.84912,"transit":true,"i_lat":-6.209883,"time":2,"line":2,"station_name":"Manggarai","is_transit":true,"station_id":"MRI"},{"transit":false,"station_id":"CKI","i_lat":-6.198556,"distance":1590,"i_long":106.840169,"station_name":"Cikini","time":4,"is_transit":false,"line":2},{"station_id":"GDD","time":3,"transit":false,"i_long":106.832183,"line":2,"distance":1750,"station_name":"Gondangdia","i_lat":-6.186295,"is_transit":false},{"line":2,"transit":false,"i_lat":-6.166716,"station_name":"Juanda","distance":2015,"i_long":106.828284,"station_id":"JUA","time":4,"is_transit":false},{"is_transit":false,"i_lat":-6.160725,"distance":1149,"i_long":106.827103,"station_id":"SW","time":2,"transit":false,"line":2,"station_name":"Sawah Besar"},{"station_id":"MGB","i_lat":-6.149769,"line":2,"time":2,"station_name":"Manggabesar","distance":906,"i_long":106.82482,"transit":false,"is_transit":false},{"station_name":"Jayakarta","time":2,"i_long":106.820901,"i_lat":-6.141205,"distance":1080,"station_id":"JAY","line":2,"is_transit":false,"transit":false},{"is_transit":true,"transit":true,"station_id":"JAKK","i_long":106.812439,"station_name":"Jakarta Kota","time":4,"line":2,"distance":1264,"i_lat":-6.137569},{"distance":1364,"line":4,"time":3,"i_lat":-6.132549,"transit":true,"i_long":106.826365,"station_id":"KPB","station_name":"Kampung Bandan","is_transit":true},{"transit":false,"i_lat":-6.144674,"is_transit":false,"i_long":106.79867,"line":1,"station_name":"Angke","station_id":"AK","time":9,"distance":4102},{"is_transit":false,"station_id":"DU","distance":1230,"i_lat":-6.155215,"transit":false,"station_name":"Duri","time":4,"i_long":106.800832,"line":1},{"is_transit":false,"station_name":"Tanah Abang","station_id":"THB","time":8,"distance":3632,"transit":false,"i_lat":-6.185545,"i_long":106.811091,"line":1}],[{"line":1,"is_transit":false,"station_name":"Bekasi Timur","time":0,"i_lat":-6.248029,"transit":false,"station_id":"BKST","distance":0,"i_long":107.016735},{"transit":false,"i_lat":-6.236616,"i_long":106.997013,"distance":2368,"station_name":"Bekasi","line":1,"is_transit":false,"time":2,"station_id":"BKS"},{"is_transit":false,"i_long":106.977657,"transit":false,"i_lat":-6.224515,"line":1,"distance":2520,"station_id":"KRI","time":4,"station_name":"Kranji"},{"transit":false,"line":1,"station_id":"CUK","i_long":106.951283,"i_lat":-6.219053,"station_name":"Cakung","time":3,"distance":3097,"is_transit":false},{"i_long":106.939679,"station_name":"Klenderbaru","station_id":"KLDB","line":1,"is_transit":false,"i_lat":-6.217455,"distance":1385,"transit":false,"time":8},{"transit":false,"station_name":"Buaran","i_lat":-6.215568,"distance":1305,"i_long":106.922662,"line":1,"is_transit":false,"time":1,"station_id":"BUA"},{"station_id":"KLD","line":1,"station_name":"Klender","i_lat":-6.2135,"transit":false,"time":2,"distance":3100,"i_long":106.899548,"is_transit":false},{"station_name":"Jatinegara","line":1,"i_lat":-6.215091,"is_transit":true,"transit":true,"station_id":"JNG","distance":3395,"i_long":106.86807400000001,"time":3},{"distance":1236,"station_name":"Pondok Jati","transit":false,"station_id":"POK","i_long":106.861737,"i_lat":-6.209188,"line":11,"time":2,"is_transit":false},{"time":2,"i_long":106.855437,"transit":false,"i_lat":-6.193792,"line":11,"station_name":"Kramat","station_id":"KMT","distance":1829,"is_transit":false},{"is_transit":false,"i_lat":-6.185975,"transit":false,"station_id":"GST","time":1,"distance":973,"station_name":"Gang Sentiong","line":11,"i_long":106.850107},{"station_name":"Pasar Senen","is_transit":false,"station_id":"PSE","i_lat":-6.174784,"i_long":106.84368,"distance":1567,"transit":false,"time":8,"line":11},{"i_long":106.839204,"distance":1436,"station_id":"KMO","i_lat":-6.161728,"line":11,"station_name":"Kemayoran","is_transit":false,"transit":false,"time":4},{"time":5,"station_name":"Rajawali","is_transit":false,"i_long":106.836569,"station_id":"RJW","distance":1901,"transit":false,"line":11,"i_lat":-6.14505},{"transit":true,"i_lat":-6.132549,"is_transit":true,"line":4,"station_name":"Kampung Bandan","time":3,"i_long":106.826365,"station_id":"KPB","distance":1444},{"station_name":"Jakarta Kota","i_lat":-6.137569,"station_id":"JAKK","i_long":106.812439,"transit":true,"line":2,"time":3,"distance":1364,"is_transit":true},{"distance":1264,"station_name":"Jayakarta","i_lat":-6.141205,"transit":false,"line":2,"station_id":"JAY","i_long":106.820901,"is_transit":false,"time":4},{"transit":false,"station_name":"Manggabesar","i_lat":-6.149769,"i_long":106.82482,"line":2,"time":2,"distance":1080,"is_transit":false,"station_id":"MGB"},{"i_long":106.827103,"station_name":"Sawah Besar","time":2,"i_lat":-6.160725,"distance":906,"line":2,"transit":false,"station_id":"SW","is_transit":false},{"time":2,"i_long":106.828284,"is_transit":false,"distance":1149,"line":2,"station_name":"Juanda","i_lat":-6.166716,"transit":false,"station_id":"JUA"},{"distance":2015,"station_id":"GDD","i_lat":-6.186295,"line":2,"transit":false,"time":4,"is_transit":false,"i_long":106.832183,"station_name":"Gondangdia"},{"time":3,"transit":false,"station_name":"Cikini","distance":1750,"i_long":106.840169,"station_id":"CKI","i_lat":-6.198556,"line":2,"is_transit":false},{"station_name":"Manggarai","station_id":"MRI","is_transit":true,"time":4,"distance":1590,"line":2,"i_long":106.84912,"transit":true,"i_lat":-6.209883},{"station_id":"SUD","transit":false,"line":1,"station_name":"Sudirman","is_transit":false,"i_long":106.822649,"time":4,"distance":3186,"i_lat":-6.202263},{"station_name":"Sudirman Baru","time":1,"i_long":106.819881,"line":1,"station_id":"SUDB","is_transit":false,"i_lat":-6.201433,"transit":false,"distance":280},{"transit":false,"is_transit":false,"i_long":106.816351,"line":1,"time":1,"station_id":"KAT","distance":471,"i_lat":-6.20132,"station_name":"Karet"},{"transit":false,"i_long":106.811091,"time":5,"station_id":"THB","is_transit":false,"station_name":"Tanah Abang","line":1,"i_lat":-6.185545,"distance":2029}]]}