{"data":[[{"distance":0,"i_long":107.016735,"time":0,"i_lat":-6.248029,"line":1,"transit":false,"station_id":"BKST","is_transit":false,"station_name":"Bekasi Timur"},{"line":1,"i_lat":-6.236616,"i_long":106.997013,"transit":false,"time":2,"station_id":"BKS","distance":2368,"station_name":"Bekasi","is_transit":false},{"station_name":"Kranji","station_id":"KRI","i_long":106.977657,"is_transit":false,"distance":2520,"line":1,"time":4,"transit":false,"i_lat":-6.224515},{"station_id":"CUK","is_transit":false,"distance":3097,"transit":false,"i_lat":-6.219053,"station_name":"Cakung","time":3,"i_long":106.951283,"line":1},{"i_long":106.939679,"station_id":"KLDB","line":1,"transit":false,"station_name":"Klenderbaru","distance":1385,"time":8,"is_transit":false,"i_lat":-6.217455},{"station_id":"BUA","transit":false,"station_name":"Buaran","time":1,"distance":1305,"i_lat":-6.215568,"i_long":106.922662,"is_transit":false,"line":1},{"transit":false,"line":1,"i_lat":-6.2135,"station_name":"Klender","station_id":"KLD","is_transit":false,"distance":3100,"i_long":106.899548,"time":2},{"line":1,"is_transit":false,"transit":false,"station_id":"JNG","distance":3395,"i_long":106.86807400000001,"station_name":"Jatinegara","time":3,"i_lat":-6.215091},{"i_lat":-6.212485,"i_long":106.858896,"transit":false,"station_name":"Matraman","is_transit":false,"distance":1377,"line":1,"station_id":"MTR","time":2},{"i_lat":-6.209883,"time":2,"line":2,"station_name":"Manggarai","transit":false,"station_id":"MRI","is_transit":false,"i_long":106.84912,"distance":1275},{"i_lat":-6.202263,"i_long":106.822649,"line":1,"station_id":"SUD","station_name":"Sudirman","is_transit":false,"time":4,"transit":false,"distance":3186},{"i_long":106.819881,"line":1,"transit":false,"station_name":"Sudirman Baru","time":1,"distance":280,"is_transit":false,"i_lat":-6.201433,"station_id":"SUDB"},{"station_name":"Karet","i_lat":-6.20132,"i_long":106.816351,"transit":false,"distance":471,"line":1,"time":1,"station_id":"KAT","is_transit":false},{"is_transit":true,"station_name":"Tanah Abang","time":5,"i_long":106.811091,"distance":2029,"line":1,"transit":true,"i_lat":-6.185545,"station_id":"THB"},{"distance":3191,"is_transit":false,"i_lat":-6.207404,"transit":false,"time":6,"station_name":"Palmerah","i_long":106.79689,"line":6,"station_id":"PLM"},{"i_lat":-6.237242,"i_long":106.780334,"is_transit":false,"transit":false,"station_name":"Kebayoran","time":7,"line":6,"distance":3737,"station_id":"KBY"},{"station_id":"PDJ","distance":6218,"transit":false,"is_transit":false,"time":8,"i_long":106.74273,"line":6,"i_lat":-6.276362,"station_name":"Pondokranji"},{"transit":false,"distance":2179,"is_transit":false,"station_name":"Jurangmangu","i_lat":-6.288927,"time":3,"i_long":106.728916,"line":6,"station_id":"JMU"},{"i_lat":-6.296963,"station_name":"Sudimara","station_id":"SDM","time":4,"distance":1994,"i_long":106.712277,"transit":false,"is_transit":false,"line":6},{"time":6,"line":6,"distance":4566,"transit":false,"station_name":"Rawa Buntu","station_id":"RU","is_transit":false,"i_long":106.675475,"i_lat":-6.314823},{"station_id":"SRP","distance":2413,"i_long":106.66566,"is_transit":false,"i_lat":-6.319871,"line":6,"transit":false,"station_name":"Serpong","time":4},{"transit":false,"time":4,"i_lat":-6.32484,"i_long":106.640411,"distance":1784,"line":3,"station_name":"Cisauk","is_transit":false,"station_id":"CSK"},{"station_id":"CC","station_name":"Cicayur","line":3,"distance":2519,"i_lat":-6.329547,"is_transit":false,"transit":false,"i_long":106.617853,"time":4},{"transit":false,"i_long":106.568863,"is_transit":false,"distance":5968,"station_name":"Parung Panjang","i_lat":-6.3441410000000005,"station_id":"PRP","time":8,"line":6},{"line":3,"station_id":"CJT","distance":7025,"i_long":106.508482,"is_transit":false,"transit":false,"station_name":"Cilejit","i_lat":-6.354349,"time":9},{"transit":false,"station_name":"Daru","station_id":"DAR","is_transit":false,"line":0,"time":6,"distance":2675,"i_long":106.491338,"i_lat":-6.338021},{"line":6,"distance":3902,"transit":false,"station_name":"Tenjo","is_transit":false,"time":5,"i_long":106.460812,"station_id":"TEJ","i_lat":-6.327251},{"distance":2974,"line":6,"i_long":106.425991,"i_lat":-6.328533,"is_transit":false,"transit":false,"time":5,"station_name":"Tigaraksa","station_id":"TGS"},{"station_id":"CKY","transit":false,"is_transit":false,"time":3,"i_lat":-6.33561,"distance":2651,"station_name":"Cikoya","i_long":106.411216,"line":3},{"distance":1853,"station_name":"Maja","is_transit":false,"line":6,"i_long":106.394373,"time":4,"i_lat":-6.332307,"transit":false,"station_id":"MJ"}],[{"is_transit":false,"station_name":"Bekasi Timur","transit":false,"station_id":"BKST","time":0,"distance":0,"i_long":107.016735,"line":1,"i_lat":-6.248029},{"transit":false,"time":2,"line":1,"is_transit":false,"distance":2368,"station_name":"Bekasi","i_long":106.997013,"station_id":"BKS","i_lat":-6.236616},{"i_lat":-6.224515,"i_long":106.977657,"transit":false,"is_transit":false,"station_name":"Kranji","time":4,"distance":2520,"station_id":"KRI","line":1},{"time":3,"transit":false,"station_name":"Cakung","i_lat":-6.219053,"line":1,"i_long":106.951283,"station_id":"CUK","is_transit":false,"distance":3097},{"distance":1385,"transit":false,"i_lat":-6.217455,"time":8,"station_name":"Klenderbaru","i_long":106.939679,"line":1,"is_transit":false,"station_id":"KLDB"},{"transit":false,"is_transit":false,"i_long":106.922662,"time":1,"distance":1305,"station_name":"Buaran","i_lat":-6.215568,"station_id":"BUA","line":1},{"time":2,"i_lat":-6.2135,"distance":3100,"i_long":106.899548,"station_id":"KLD","transit":false,"is_transit":false,"line":1,"station_name":"Klender"},{"i_long":106.86807400000001,"time":3,"distance":3395,"station_name":"Jatinegara","is_transit":true,"station_id":"JNG","i_lat":-6.215091,"transit":true,"line":1},{"station_name":"Pondok Jati","time":2,"distance":1236,"transit":false,"line":11,"station_id":"POK","is_transit":false,"i_lat":-6.209188,"i_long":106.861737},{"station_id":"KMT","distance":1829,"i_long":106.855437,"transit":false,"station_name":"Kramat","time":2,"i_lat":-6.193792,"line":11,"is_transit":false},{"time":1,"station_name":"Gang Sentiong","transit":false,"station_id":"GST","is_transit":false,"i_long":106.850107,"i_lat":-6.185975,"line":11,"distance":973},{"is_transit":false,"transit":false,"distance":1567,"line":11,"i_lat":-6.174784,"station_name":"Pasar Senen","time":8,"i_long":106.84368,"station_id":"PSE"},{"station_name":"Kemayoran","is_transit":false,"distance":1436,"i_lat":-6.161728,"transit":false,"i_long":106.839204,"line":11,"time":4,"station_id":"KMO"},{"i_long":106.836569,"is_transit":false,"time":5,"station_id":"RJW","i_lat":-6.14505,"transit":false,"distance":1901,"line":11,"station_name":"Rajawali"},{"station_id":"KPB","i_lat":-6.132549,"line":4,"transit":true,"distance":1444,"i_long":106.826365,"is_transit":true,"time":3,"station_name":"Kampung Bandan"},{"time":9,"i_long":106.79867,"i_lat":-6.144674,"distance":4102,"line":1,"is_transit":false,"station_name":"Angke","transit":false,"station_id":"AK"},{"i_long":106.800832,"transit":false,"distance":1230,"time":4,"station_name":"Duri","i_lat":-6.155215,"station_id":"DU","line":1,"is_transit":false},{"distance":3632,"i_lat":-6.185545,"station_id":"THB","time":8,"is_transit":true,"station_name":"Tanah Abang","transit":true,"line":1,"i_long":106.811091},{"station_id":"PLM","time":6,"is_transit":false,"i_lat":-6.207404,"line":6,"transit":false,"distance":3191,"i_long":106.79689,"station_name":"Palmerah"},{"distance":3737,"i_lat":-6.237242,"time":7,"station_name":"Kebayoran","station_id":"KBY","is_transit":false,"transit":false,"i_long":106.780334,"line":6},{"time":8,"is_transit":false,"station_id":"PDJ","line":6,"i_long":106.74273,"transit":false,"distance":6218,"station_name":"Pondokranji","i_lat":-6.276362},{"line":6,"time":3,"distance":2179,"i_long":106.728916,"station_id":"JMU","station_name":"Jurangmangu","is_transit":false,"i_lat":-6.288927,"transit":false},{"transit":false,"i_lat":-6.296963,"station_id":"SDM","station_name":"Sudimara","is_transit":false,"time":4,"distance":1994,"i_long":106.712277,"line":6},{"i_lat":-6.314823,"transit":false,"distance":4566,"station_name":"Rawa Buntu","line":6,"station_id":"RU","is_transit":false,"time":6,"i_long":106.675475},{"i_long":106.66566,"line":6,"station_name":"Serpong","time":4,"i_lat":-6.319871,"is_transit":false,"station_id":"SRP","transit":false,"distance":2413},{"i_lat":-6.32484,"station_name":"Cisauk","is_transit":false,"line":3,"time":4,"transit":false,"station_id":"CSK","distance":1784,"i_long":106.640411},{"station_id":"CC","i_long":106.617853,"is_transit":false,"transit":false,"i_lat":-6.329547,"distance":2519,"time":4,"station_name":"Cicayur","line":3},{"transit":false,"station_id":"PRP","time":8,"distance":5968,"station_name":"Parung Panjang","is_transit":false,"i_lat":-6.3441410000000005,"line":6,"i_long":106.568863},{"station_name":"Cilejit","is_transit":false,"transit":false,"distance":7025,"station_id":"CJT","i_long":106.508482,"i_lat":-6.354349,"time":9,"line":3},{"line":0,"transit":false,"distance":2675,"station_name":"Daru","time":6,"station_id":"DAR","i_long":106.491338,"is_transit":false,"i_lat":-6.338021},{"station_name":"Tenjo","i_long":106.460812,"is_transit":false,"distance":3902,"line":6,"transit":false,"time":5,"station_id":"TEJ","i_lat":-6.327251},{"station_id":"TGS","i_long":106.425991,"line":6,"distance":2974,"i_lat":-6.328533,"station_name":"Tigaraksa","time":5,"is_transit":false,"transit":false},{"i_long":106.411216,"line":3,"distance":2651,"transit":false,"station_name":"Cikoya","station_id":"CKY","i_lat":-6.33561,"is_transit":false,"time":3},{"i_long":106.394373,"transit":false,"line":6,"station_name":"Maja","is_transit":false,"time":4,"distance":1853,"station_id":"MJ","i_lat":-6.332307}],[{"distance":0,"station_id":"BKST","transit":false,"is_transit":false,"station_name":"Bekasi Timur","line":1,"i_lat":-6.248029,"i_long":107.016735,"time":0},{"transit":false,"is_transit":false,"station_id":"BKS","i_lat":-6.236616,"distance":2368,"i_long":106.997013,"station_name":"Bekasi","time":2,"line":1},{"is_transit":false,"line":1,"i_lat":-6.224515,"time":4,"station_name":"Kranji","station_id":"KRI","transit":false,"i_long":106.977657,"distance":2520},{"i_lat":-6.219053,"line":1,"station_id":"CUK","time":3,"is_transit":false,"i_long":106.951283,"station_name":"Cakung","distance":3097,"transit":false},{"is_transit":false,"i_long":106.939679,"line":1,"time":8,"station_id":"KLDB","distance":1385,"i_lat":-6.217455,"station_name":"Klenderbaru","transit":false},{"is_transit":false,"time":1,"i_lat":-6.215568,"transit":false,"line":1,"station_name":"Buaran","distance":1305,"station_id":"BUA","i_long":106.922662},{"time":2,"distance":3100,"station_id":"KLD","line":1,"transit":false,"i_lat":-6.2135,"is_transit":false,"i_long":106.899548,"station_name":"Klender"},{"station_name":"Jatinegara","is_transit":false,"line":1,"distance":3395,"i_lat":-6.215091,"transit":false,"i_long":106.86807400000001,"time":3,"station_id":"JNG"},{"i_long":106.858896,"station_name":"Matraman","i_lat":-6.212485,"line":1,"transit":false,"time":2,"distance":1377,"is_transit":false,"station_id":"MTR"},{"is_transit":true,"station_id":"MRI","line":2,"station_name":"Manggarai","i_lat":-6.209883,"transit":true,"distance":1275,"i_long":106.84912,"time":2},{"transit":false,"is_transit":false,"station_id":"CKI","i_lat":-6.198556,"station_name":"Cikini","time":4,"distance":1590,"i_long":106.840169,"line":2},{"is_transit":false,"distance":1750,"i_lat":-6.186295,"transit":false,"i_long":106.832183,"station_id":"GDD","line":2,"time":3,"station_name":"Gondangdia"},{"i_lat":-6.166716,"is_transit":false,"distance":2015,"transit":false,"time":4,"station_id":"JUA","station_name":"Juanda","line":2,"i_long":106.828284},{"station_id":"SW","transit":false,"is_transit":false,"station_name":"Sawah Besar","distance":1149,"i_long":106.827103,"time":2,"i_lat":-6.160725,"line":2},{"station_id":"MGB","distance":906,"i_long":106.82482,"line":2,"is_transit":false,"station_name":"Manggabesar","time":2,"transit":false,"i_lat":-6.149769},{"line":2,"transit":false,"station_id":"JAY","station_name":"Jayakarta","is_transit":false,"distance":1080,"time":2,"i_lat":-6.141205,"i_long":106.820901},{"line":2,"transit":true,"time":4,"i_long":106.812439,"station_id":"JAKK","is_transit":true,"distance":1264,"i_lat":-6.137569,"station_name":"Jakarta Kota"},{"time":3,"transit":true,"i_long":106.826365,"line":4,"station_name":"Kampung Bandan","i_lat":-6.132549,"distance":1364,"is_transit":true,"station_id":"KPB"},{"is_transit":false,"line":1,"transit":false,"time":9,"i_long":106.79867,"station_name":"Angke","station_id":"AK","distance":4102,"i_lat":-6.144674},{"transit":false,"is_transit":false,"station_name":"Duri","i_lat":-6.155215,"line":1,"distance":1230,"time":4,"i_long":106.800832,"station_id":"DU"},{"line":1,"distance":3632,"time":8,"station_id":"THB","i_lat":-6.185545,"i_long":106.811091,"is_transit":true,"station_name":"Tanah Abang","transit":true},{"transit":false,"station_name":"Palmerah","distance":3191,"time":6,"i_lat":-6.207404,"line":6,"is_transit":false,"station_id":"PLM","i_long":106.79689},{"i_lat":-6.237242,"line":6,"is_transit":false,"distance":3737,"time":7,"transit":false,"station_id":"KBY","station_name":"Kebayoran","i_long":106.780334},{"distance":6218,"i_lat":-6.276362,"line":6,"i_long":106.74273,"station_name":"Pondokranji","station_id":"PDJ","transit":false,"time":8,"is_transit":false},{"station_name":"Jurangmangu","i_lat":-6.288927,"line":6,"station_id":"JMU","transit":false,"time":3,"i_long":106.728916,"is_transit":false,"distance":2179},{"station_id":"SDM","line":6,"i_lat":-6.296963,"transit":false,"distance":1994,"station_name":"Sudimara","is_transit":false,"time":4,"i_long":106.712277},{"station_name":"Rawa Buntu","distance":4566,"transit":false,"station_id":"RU","i_long":106.675475,"line":6,"time":6,"i_lat":-6.314823,"is_transit":false},{"line":6,"station_name":"Serpong","distance":2413,"i_long":106.66566,"i_lat":-6.319871,"transit":false,"time":4,"is_transit":false,"station_id":"SRP"},{"is_transit":false,"i_lat":-6.32484,"transit":false,"time":4,"line":3,"i_long":106.640411,"station_name":"Cisauk","station_id":"CSK","distance":1784},{"distance":2519,"i_long":106.617853,"line":3,"i_lat":-6.329547,"station_name":"Cicayur","transit":false,"station_id":"CC","time":4,"is_transit":false},{"station_name":"Parung Panjang","line":6,"distance":5968,"is_transit":false,"station_id":"PRP","i_lat":-6.3441410000000005,"i_long":106.568863,"time":8,"transit":false},{"distance":7025,"station_id":"CJT","transit":false,"is_transit":false,"i_lat":-6.354349,"time":9,"line":3,"station_name":"Cilejit","i_long":106.508482},{"i_lat":-6.338021,"i_long":106.491338,"distance":2675,"transit":false,"station_id":"DAR","is_transit":false,"station_name":"Daru","time":6,"line":0},{"station_id":"TEJ","line":6,"i_long":106.460812,"distance":3902,"is_transit":false,"transit":false,"station_name":"Tenjo","time":5,"i_lat":-6.327251},{"line":6,"station_id":"TGS","station_name":"Tigaraksa","i_lat":-6.328533,"i_long":106.425991,"time":5,"is_transit":false,"distance":2974,"transit":false},{"i_lat":-6.33561,"distance":2651,"time":3,"station_id":"CKY","i_long":106.411216,"station_name":"Cikoya","is_transit":false,"transit":false,"line":3},{"distance":1853,"time":4,"station_id":"MJ","i_lat":-6.332307,"i_long":106.394373,"is_transit":false,"station_name":"Maja","transit":false,"line":6}],[{"station_name":"Bekasi Timur","station_id":"BKST","transit":false,"line":1,"i_long":107.016735,"i_lat":-6.248029,"time":0,"is_transit":false,"distance":0},{"is_transit":false,"station_name":"Bekasi","time":2,"line":1,"distance":2368,"i_long":106.997013,"station_id":"BKS","transit":false,"i_lat":-6.236616},{"station_id":"KRI","transit":false,"station_name":"Kranji","i_lat":-6.224515,"i_long":106.977657,"time":4,"is_transit":false,"distance":2520,"line":1},{"time":3,"i_lat":-6.219053,"i_long":106.951283,"line":1,"station_name":"Cakung","is_transit":false,"transit":false,"distance":3097,"station_id":"CUK"},{"transit":false,"time":8,"is_transit":false,"station_name":"Klenderbaru","distance":1385,"station_id":"KLDB","i_lat":-6.217455,"line":1,"i_long":106.939679},{"station_name":"Buaran","transit":false,"distance":1305,"line":1,"station_id":"BUA","time":1,"i_lat":-6.215568,"is_transit":false,"i_long":106.922662},{"line":1,"is_transit":false,"i_long":106.899548,"transit":false,"station_id":"KLD","station_name":"Klender","distance":3100,"time":2,"i_lat":-6.2135},{"i_lat":-6.215091,"i_long":106.86807400000001,"distance":3395,"is_transit":true,"station_id":"JNG","transit":true,"time":3,"line":1,"station_name":"Jatinegara"},{"transit":false,"i_lat":-6.209188,"time":2,"i_long":106.861737,"line":11,"distance":1236,"station_id":"POK","station_name":"Pondok Jati","is_transit":false},{"is_transit":false,"i_long":106.855437,"station_id":"KMT","transit":false,"line":11,"distance":1829,"i_lat":-6.193792,"station_name":"Kramat","time":2},{"distance":973,"station_id":"GST","line":11,"transit":false,"station_name":"Gang Sentiong","is_transit":false,"time":1,"i_lat":-6.185975,"i_long":106.850107},{"time":8,"is_transit":false,"line":11,"i_long":106.84368,"distance":1567,"station_name":"Pasar Senen","i_lat":-6.174784,"transit":false,"station_id":"PSE"},{"line":11,"station_id":"KMO","is_transit":false,"station_name":"Kemayoran","time":4,"distance":1436,"i_long":106.839204,"transit":false,"i_lat":-6.161728},{"i_lat":-6.14505,"is_transit":false,"station_name":"Rajawali","station_id":"RJW","i_long":106.836569,"line":11,"transit":false,"distance":1901,"time":5},{"station_id":"KPB","i_long":106.826365,"i_lat":-6.132549,"is_transit":true,"line":4,"station_name":"Kampung Bandan","transit":true,"time":3,"distance":1444},{"station_id":"JAKK","time":3,"line":2,"i_lat":-6.137569,"distance":1364,"station_name":"Jakarta Kota","is_transit":true,"transit":true,"i_long":106.812439},{"line":2,"i_long":106.820901,"station_name":"Jayakarta","i_lat":-6.141205,"station_id":"JAY","is_transit":false,"transit":false,"time":4,"distance":1264},{"station_id":"MGB","transit":false,"distance":1080,"is_transit":false,"line":2,"station_name":"Manggabesar","time":2,"i_lat":-6.149769,"i_long":106.82482},{"station_name":"Sawah Besar","time":2,"is_transit":false,"line":2,"transit":false,"distance":906,"i_lat":-6.160725,"station_id":"SW","i_long":106.827103},{"i_lat":-6.166716,"station_id":"JUA","station_name":"Juanda","is_transit":false,"transit":false,"distance":1149,"time":2,"i_long":106.828284,"line":2},{"i_lat":-6.186295,"is_transit":false,"station_name":"Gondangdia","station_id":"GDD","i_long":106.832183,"transit":false,"line":2,"time":4,"distance":2015},{"i_lat":-6.198556,"line":2,"is_transit":false,"time":3,"station_id":"CKI","station_name":"Cikini","distance":1750,"i_long":106.840169,"transit":false},{"station_name":"Manggarai","line":2,"is_transit":true,"transit":true,"station_id":"MRI","i_lat":-6.209883,"i_long":106.84912,"time":4,"distance":1590},{"line":1,"i_lat":-6.202263,"time":4,"station_id":"SUD","i_long":106.822649,"is_transit":false,"station_name":"Sudirman","transit":false,"distance":3186},{"station_id":"SUDB","transit":false,"i_lat":-6.201433,"distance":280,"time":1,"i_long":106.819881,"is_transit":false,"station_name":"Sudirman Baru","line":1},{"time":1,"station_id":"KAT","i_lat":-6.20132,"line":1,"is_transit":false,"i_long":106.816351,"station_name":"Karet","transit":false,"distance":471},{"transit":true,"time":5,"i_long":106.811091,"station_id":"THB","is_transit":true,"distance":2029,"i_lat":-6.185545,"line":1,"station_name":"Tanah Abang"},{"transit":false,"distance":3191,"time":6,"i_lat":-6.207404,"station_id":"PLM","is_transit":false,"station_name":"Palmerah","line":6,"i_long":106.79689},{"distance":3737,"time":7,"station_name":"Kebayoran","is_transit":false,"transit":false,"station_id":"KBY","i_long":106.780334,"line":6,"i_lat":-6.237242},{"i_long":106.74273,"transit":false,"is_transit":false,"station_id":"PDJ","line":6,"distance":6218,"time":8,"station_name":"Pondokranji","i_lat":-6.276362},{"time":3,"transit":false,"i_long":106.728916,"station_name":"Jurangmangu","line":6,"distance":2179,"is_transit":false,"station_id":"JMU","i_lat":-6.288927},{"i_long":106.712277,"is_transit":false,"distance":1994,"station_name":"Sudimara","time":4,"line":6,"transit":false,"station_id":"SDM","i_lat":-6.296963},{"distance":4566,"i_long":106.675475,"is_transit":false,"line":6,"i_lat":-6.314823,"station_id":"RU","transit":false,"station_name":"Rawa Buntu","time":6},{"line":6,"station_name":"Serpong","i_long":106.66566,"distance":2413,"time":4,"is_transit":false,"station_id":"SRP","transit":false,"i_lat":-6.319871},{"time":4,"i_lat":-6.32484,"i_long":106.640411,"transit":false,"station_id":"CSK","is_transit":false,"station_name":"Cisauk","distance":1784,"line":3},{"station_name":"Cicayur","i_lat":-6.329547,"line":3,"station_id":"CC","time":4,"distance":2519,"is_transit":false,"i_long":106.617853,"transit":false},{"i_long":106.568863,"is_transit":false,"transit":false,"time":8,"line":6,"i_lat":-6.3441410000000005,"distance":5968,"station_name":"Parung Panjang","station_id":"PRP"},{"station_id":"CJT","station_name":"Cilejit","transit":false,"i_long":106.508482,"distance":7025,"i_lat":-6.354349,"time":9,"line":3,"is_transit":false},{"is_transit":false,"line":0,"i_lat":-6.338021,"station_name":"Daru","transit":false,"distance":2675,"time":6,"i_long":106.491338,"station_id":"DAR"},{"is_transit":false,"line":6,"station_id":"TEJ","transit":false,"i_long":106.460812,"station_name":"Tenjo","i_lat":-6.327251,"distance":3902,"time":5},{"transit":false,"station_id":"TGS","is_transit":false,"station_name":"Tigaraksa","time":5,"distance":2974,"i_lat":-6.328533,"i_long":106.425991,"line":6},{"station_id":"CKY","time":3,"is_transit":false,"station_name":"Cikoya","distance":2651,"i_lat":-6.33561,"i_long":106.411216,"line":3,"transit":false},{"time":4,"line":6,"transit":false,"is_transit":false,"station_name":"Maja","distance":1853,"i_lat":-6.332307,"station_id":"MJ","i_long":106.394373}]]}