{"data":[[{"line":1,"i_long":107.016735,"time":0,"i_lat":-6.248029,"station_name":"Bekasi Timur","station_id":"BKST","transit":false,"is_transit":false,"distance":0},{"i_lat":-6.236616,"line":1,"station_id":"BKS","time":2,"i_long":106.997013,"distance":2368,"transit":false,"is_transit":false,"station_name":"Bekasi"},{"time":4,"station_name":"Kranji","i_lat":-6.224515,"i_long":106.977657,"distance":2520,"is_transit":false,"transit":false,"line":1,"station_id":"KRI"},{"is_transit":false,"time":3,"i_lat":-6.219053,"distance":3097,"station_id":"CUK","transit":false,"i_long":106.951283,"line":1,"station_name":"Cakung"},{"is_transit":false,"station_name":"Klenderbaru","transit":false,"time":8,"i_long":106.939679,"line":1,"distance":1385,"i_lat":-6.217455,"station_id":"KLDB"},{"i_long":106.922662,"station_name":"Buaran","line":1,"distance":1305,"transit":false,"is_transit":false,"time":1,"station_id":"BUA","i_lat":-6.215568},{"station_id":"KLD","i_long":106.899548,"distance":3100,"time":2,"i_lat":-6.2135,"transit":false,"is_transit":false,"line":1,"station_name":"Klender"},{"is_transit":false,"line":1,"i_long":106.86807400000001,"station_id":"JNG","time":3,"distance":3395,"station_name":"Jatinegara","transit":false,"i_lat":-6.215091},{"line":1,"time":2,"distance":1377,"station_name":"Matraman","transit":false,"i_long":106.858896,"is_transit":false,"i_lat":-6.212485,"station_id":"MTR"},{"station_id":"MRI","i_lat":-6.209883,"line":2,"distance":1275,"station_name":"Manggarai","is_transit":false,"time":2,"i_long":106.84912,"transit":false},{"time":4,"station_name":"Sudirman","station_id":"SUD","transit":false,"distance":3186,"i_long":106.822649,"is_transit":false,"i_lat":-6.202263,"line":1},{"station_name":"Sudirman Baru","distance":280,"time":1,"is_transit":false,"transit":false,"station_id":"SUDB","line":1,"i_lat":-6.201433,"i_long":106.819881},{"time":1,"station_name":"Karet","transit":false,"i_long":106.816351,"station_id":"KAT","line":1,"i_lat":-6.20132,"is_transit":false,"distance":471},{"transit":true,"i_lat":-6.185545,"i_long":106.811091,"is_transit":true,"line":1,"distance":2029,"time":5,"station_id":"THB","station_name":"Tanah Abang"},{"is_transit":false,"station_id":"PLM","time":6,"station_name":"Palmerah","distance":3191,"i_lat":-6.207404,"i_long":106.79689,"line":6,"transit":false},{"is_transit":false,"station_name":"Kebayoran","transit":false,"time":7,"station_id":"KBY","i_long":106.780334,"line":6,"distance":3737,"i_lat":-6.237242},{"transit":false,"station_name":"Pondokranji","station_id":"PDJ","i_long":106.74273,"time":8,"distance":6218,"line":6,"i_lat":-6.276362,"is_transit":false},{"time":3,"i_lat":-6.288927,"station_name":"Jurangmangu","distance":2179,"i_long":106.728916,"station_id":"JMU","transit":false,"is_transit":false,"line":6},{"i_lat":-6.296963,"line":6,"time":4,"is_transit":false,"i_long":106.712277,"station_id":"SDM","station_name":"Sudimara","distance":1994,"transit":false},{"station_id":"RU","i_lat":-6.314823,"distance":4566,"is_transit":false,"station_name":"Rawa Buntu","time":6,"transit":false,"i_long":106.675475,"line":6},{"line":6,"i_lat":-6.319871,"distance":2413,"station_id":"SRP","station_name":"Serpong","transit":false,"i_long":106.66566,"is_transit":false,"time":4},{"i_long":106.640411,"transit":false,"line":3,"time":4,"distance":1784,"is_transit":false,"station_name":"Cisauk","station_id":"CSK","i_lat":-6.32484},{"distance":2519,"time":4,"station_id":"CC","i_lat":-6.329547,"line":3,"station_name":"Cicayur","i_long":106.617853,"is_transit":false,"transit":false},{"station_id":"PRP","station_name":"Parung Panjang","is_transit":false,"distance":5968,"transit":false,"time":8,"i_lat":-6.3441410000000005,"i_long":106.568863,"line":6},{"transit":false,"distance":7025,"i_long":106.508482,"line":3,"i_lat":-6.354349,"is_transit":false,"station_id":"CJT","station_name":"Cilejit","time":9},{"station_name":"Daru","time":6,"i_lat":-6.338021,"line":0,"transit":false,"station_id":"DAR","is_transit":false,"i_long":106.491338,"distance":2675},{"time":5,"station_name":"Tenjo","is_transit":false,"transit":false,"i_lat":-6.327251,"distance":3902,"line":6,"station_id":"TEJ","i_long":106.460812},{"time":5,"station_name":"Tigaraksa","station_id":"TGS","transit":false,"i_long":106.425991,"is_transit":false,"distance":2974,"i_lat":-6.328533,"line":6},{"line":3,"i_long":106.411216,"is_transit":false,"distance":2651,"time":3,"transit":false,"station_name":"Cikoya","i_lat":-6.33561,"station_id":"CKY"},{"distance":1853,"i_lat":-6.332307,"i_long":106.394373,"station_name":"Maja","time":4,"station_id":"MJ","line":6,"transit":false,"is_transit":false}],[{"i_long":107.016735,"time":0,"transit":false,"station_name":"Bekasi Timur","station_id":"BKST","distance":0,"i_lat":-6.248029,"line":1,"is_transit":false},{"station_id":"BKS","distance":2368,"line":1,"i_long":106.997013,"is_transit":false,"time":2,"transit":false,"i_lat":-6.236616,"station_name":"Bekasi"},{"transit":false,"is_transit":false,"i_long":106.977657,"time":4,"distance":2520,"station_name":"Kranji","line":1,"i_lat":-6.224515,"station_id":"KRI"},{"distance":3097,"i_long":106.951283,"time":3,"is_transit":false,"transit":false,"i_lat":-6.219053,"station_id":"CUK","station_name":"Cakung","line":1},{"i_long":106.939679,"station_id":"KLDB","distance":1385,"transit":false,"station_name":"Klenderbaru","i_lat":-6.217455,"line":1,"is_transit":false,"time":8},{"is_transit":false,"time":1,"line":1,"distance":1305,"i_lat":-6.215568,"station_name":"Buaran","station_id":"BUA","i_long":106.922662,"transit":false},{"distance":3100,"station_name":"Klender","is_transit":false,"i_lat":-6.2135,"time":2,"transit":false,"i_long":106.899548,"line":1,"station_id":"KLD"},{"i_lat":-6.215091,"station_id":"JNG","distance":3395,"time":3,"station_name":"Jatinegara","i_long":106.86807400000001,"line":1,"is_transit":true,"transit":true},{"line":11,"station_id":"POK","is_transit":false,"i_long":106.861737,"station_name":"Pondok Jati","distance":1236,"time":2,"transit":false,"i_lat":-6.209188},{"is_transit":false,"station_name":"Kramat","distance":1829,"station_id":"KMT","i_lat":-6.193792,"i_long":106.855437,"time":2,"line":11,"transit":false},{"station_name":"Gang Sentiong","distance":973,"time":1,"station_id":"GST","transit":false,"line":11,"i_lat":-6.185975,"i_long":106.850107,"is_transit":false},{"transit":false,"is_transit":false,"station_name":"Pasar Senen","station_id":"PSE","distance":1567,"time":8,"i_lat":-6.174784,"line":11,"i_long":106.84368},{"i_long":106.839204,"station_name":"Kemayoran","line":11,"station_id":"KMO","transit":false,"time":4,"is_transit":false,"distance":1436,"i_lat":-6.161728},{"station_id":"RJW","time":5,"line":11,"transit":false,"i_long":106.836569,"i_lat":-6.14505,"station_name":"Rajawali","is_transit":false,"distance":1901},{"i_long":106.826365,"time":3,"station_id":"KPB","i_lat":-6.132549,"station_name":"Kampung Bandan","is_transit":true,"distance":1444,"transit":true,"line":4},{"station_name":"Angke","station_id":"AK","i_long":106.79867,"time":9,"is_transit":false,"transit":false,"line":1,"i_lat":-6.144674,"distance":4102},{"distance":1230,"line":1,"time":4,"station_id":"DU","transit":false,"is_transit":false,"station_name":"Duri","i_long":106.800832,"i_lat":-6.155215},{"station_name":"Tanah Abang","i_lat":-6.185545,"i_long":106.811091,"is_transit":true,"line":1,"station_id":"THB","time":8,"distance":3632,"transit":true},{"i_long":106.79689,"i_lat":-6.207404,"time":6,"transit":false,"line":6,"station_name":"Palmerah","is_transit":false,"distance":3191,"station_id":"PLM"},{"i_long":106.780334,"i_lat":-6.237242,"time":7,"line":6,"station_id":"KBY","is_transit":false,"transit":false,"station_name":"Kebayoran","distance":3737},{"distance":6218,"time":8,"station_id":"PDJ","transit":false,"station_name":"Pondokranji","i_lat":-6.276362,"i_long":106.74273,"line":6,"is_transit":false},{"time":3,"i_lat":-6.288927,"i_long":106.728916,"line":6,"station_id":"JMU","is_transit":false,"distance":2179,"transit":false,"station_name":"Jurangmangu"},{"line":6,"station_id":"SDM","distance":1994,"i_lat":-6.296963,"time":4,"is_transit":false,"station_name":"Sudimara","transit":false,"i_long":106.712277},{"time":6,"station_name":"Rawa Buntu","distance":4566,"transit":false,"station_id":"RU","i_lat":-6.314823,"is_transit":false,"line":6,"i_long":106.675475},{"station_name":"Serpong","is_transit":false,"transit":false,"station_id":"SRP","distance":2413,"time":4,"i_lat":-6.319871,"i_long":106.66566,"line":6},{"i_lat":-6.32484,"transit":false,"i_long":106.640411,"station_id":"CSK","line":3,"distance":1784,"time":4,"station_name":"Cisauk","is_transit":false},{"station_id":"CC","distance":2519,"transit":false,"station_name":"Cicayur","time":4,"i_long":106.617853,"is_transit":false,"line":3,"i_lat":-6.329547},{"station_id":"PRP","i_long":106.568863,"time":8,"transit":false,"is_transit":false,"line":6,"i_lat":-6.3441410000000005,"station_name":"Parung Panjang","distance":5968},{"distance":7025,"i_lat":-6.354349,"time":9,"station_id":"CJT","transit":false,"i_long":106.508482,"station_name":"Cilejit","line":3,"is_transit":false},{"i_long":106.491338,"station_name":"Daru","time":6,"i_lat":-6.338021,"station_id":"DAR","line":0,"transit":false,"distance":2675,"is_transit":false},{"line":6,"i_lat":-6.327251,"distance":3902,"is_transit":false,"transit":false,"station_id":"TEJ","station_name":"Tenjo","i_long":106.460812,"time":5},{"i_lat":-6.328533,"line":6,"time":5,"transit":false,"station_name":"Tigaraksa","is_transit":false,"station_id":"TGS","i_long":106.425991,"distance":2974},{"transit":false,"distance":2651,"is_transit":false,"station_name":"Cikoya","i_lat":-6.33561,"line":3,"time":3,"station_id":"CKY","i_long":106.411216},{"station_name":"Maja","distance":1853,"transit":false,"time":4,"i_long":106.394373,"i_lat":-6.332307,"is_transit":false,"station_id":"MJ","line":6}],[{"i_lat":-6.248029,"is_transit":false,"i_long":107.016735,"station_id":"BKST","line":1,"station_name":"Bekasi Timur","distance":0,"time":0,"transit":false},{"station_name":"Bekasi","i_long":106.997013,"i_lat":-6.236616,"distance":2368,"station_id":"BKS","transit":false,"is_transit":false,"time":2,"line":1},{"station_id":"KRI","i_long":106.977657,"i_lat":-6.224515,"line":1,"distance":2520,"transit":false,"station_name":"Kranji","is_transit":false,"time":4},{"distance":3097,"i_lat":-6.219053,"transit":false,"station_name":"Cakung","station_id":"CUK","is_transit":false,"i_long":106.951283,"time":3,"line":1},{"time":8,"is_transit":false,"line":1,"distance":1385,"station_id":"KLDB","station_name":"Klenderbaru","i_long":106.939679,"transit":false,"i_lat":-6.217455},{"station_name":"Buaran","station_id":"BUA","distance":1305,"i_long":106.922662,"is_transit":false,"transit":false,"time":1,"i_lat":-6.215568,"line":1},{"line":1,"is_transit":false,"station_id":"KLD","distance":3100,"i_long":106.899548,"i_lat":-6.2135,"time":2,"transit":false,"station_name":"Klender"},{"i_long":106.86807400000001,"is_transit":false,"time":3,"distance":3395,"transit":false,"i_lat":-6.215091,"station_name":"Jatinegara","line":1,"station_id":"JNG"},{"station_name":"Matraman","station_id":"MTR","line":1,"i_lat":-6.212485,"distance":1377,"time":2,"i_long":106.858896,"is_transit":false,"transit":false},{"station_id":"MRI","line":2,"i_lat":-6.209883,"distance":1275,"time":2,"transit":true,"is_transit":true,"i_long":106.84912,"station_name":"Manggarai"},{"is_transit":false,"transit":false,"i_long":106.840169,"line":2,"station_name":"Cikini","i_lat":-6.198556,"time":4,"station_id":"CKI","distance":1590},{"time":3,"station_id":"GDD","transit":false,"is_transit":false,"station_name":"Gondangdia","line":2,"i_long":106.832183,"i_lat":-6.186295,"distance":1750},{"transit":false,"line":2,"station_id":"JUA","is_transit":false,"distance":2015,"i_long":106.828284,"station_name":"Juanda","i_lat":-6.166716,"time":4},{"transit":false,"is_transit":false,"i_long":106.827103,"i_lat":-6.160725,"station_name":"Sawah Besar","line":2,"time":2,"distance":1149,"station_id":"SW"},{"is_transit":false,"station_name":"Manggabesar","distance":906,"transit":false,"line":2,"i_lat":-6.149769,"i_long":106.82482,"station_id":"MGB","time":2},{"line":2,"distance":1080,"i_long":106.820901,"time":2,"station_id":"JAY","transit":false,"i_lat":-6.141205,"is_transit":false,"station_name":"Jayakarta"},{"line":2,"time":4,"station_name":"Jakarta Kota","station_id":"JAKK","transit":true,"i_long":106.812439,"distance":1264,"is_transit":true,"i_lat":-6.137569},{"station_id":"KPB","station_name":"Kampung Bandan","is_transit":true,"time":3,"transit":true,"i_lat":-6.132549,"line":4,"i_long":106.826365,"distance":1364},{"distance":4102,"time":9,"station_id":"AK","line":1,"station_name":"Angke","transit":false,"i_lat":-6.144674,"i_long":106.79867,"is_transit":false},{"station_id":"DU","transit":false,"line":1,"i_lat":-6.155215,"i_long":106.800832,"distance":1230,"station_name":"Duri","is_transit":false,"time":4},{"i_lat":-6.185545,"i_long":106.811091,"time":8,"line":1,"station_name":"Tanah Abang","is_transit":true,"distance":3632,"transit":true,"station_id":"THB"},{"station_id":"PLM","time":6,"station_name":"Palmerah","distance":3191,"transit":false,"line":6,"i_lat":-6.207404,"i_long":106.79689,"is_transit":false},{"i_lat":-6.237242,"is_transit":false,"time":7,"station_id":"KBY","i_long":106.780334,"line":6,"transit":false,"station_name":"Kebayoran","distance":3737},{"line":6,"station_name":"Pondokranji","time":8,"transit":false,"i_long":106.74273,"i_lat":-6.276362,"station_id":"PDJ","is_transit":false,"distance":6218},{"station_id":"JMU","is_transit":false,"distance":2179,"i_long":106.728916,"line":6,"transit":false,"i_lat":-6.288927,"station_name":"Jurangmangu","time":3},{"station_id":"SDM","i_lat":-6.296963,"is_transit":false,"distance":1994,"time":4,"transit":false,"i_long":106.712277,"station_name":"Sudimara","line":6},{"station_name":"Rawa Buntu","distance":4566,"line":6,"transit":false,"is_transit":false,"time":6,"i_long":106.675475,"i_lat":-6.314823,"station_id":"RU"},{"station_name":"Serpong","i_long":106.66566,"transit":false,"distance":2413,"is_transit":false,"line":6,"time":4,"station_id":"SRP","i_lat":-6.319871},{"station_name":"Cisauk","i_long":106.640411,"distance":1784,"time":4,"station_id":"CSK","i_lat":-6.32484,"is_transit":false,"line":3,"transit":false},{"is_transit":false,"station_name":"Cicayur","station_id":"CC","time":4,"transit":false,"i_lat":-6.329547,"distance":2519,"line":3,"i_long":106.617853},{"distance":5968,"is_transit":false,"line":6,"station_id":"PRP","station_name":"Parung Panjang","i_lat":-6.3441410000000005,"time":8,"transit":false,"i_long":106.568863},{"transit":false,"i_lat":-6.354349,"line":3,"time":9,"is_transit":false,"i_long":106.508482,"station_name":"Cilejit","station_id":"CJT","distance":7025},{"station_id":"DAR","station_name":"Daru","line":0,"is_transit":false,"distance":2675,"time":6,"i_long":106.491338,"transit":false,"i_lat":-6.338021},{"is_transit":false,"time":5,"i_lat":-6.327251,"i_long":106.460812,"station_id":"TEJ","transit":false,"station_name":"Tenjo","distance":3902,"line":6},{"station_id":"TGS","distance":2974,"line":6,"transit":false,"i_lat":-6.328533,"station_name":"Tigaraksa","is_transit":false,"time":5,"i_long":106.425991},{"time":3,"station_id":"CKY","line":3,"distance":2651,"transit":false,"station_name":"Cikoya","i_lat":-6.33561,"i_long":106.411216,"is_transit":false},{"i_long":106.394373,"station_name":"Maja","i_lat":-6.332307,"line":6,"time":4,"distance":1853,"is_transit":false,"station_id":"MJ","transit":false}],[{"i_long":107.016735,"is_transit":false,"station_id":"BKST","distance":0,"time":0,"line":1,"transit":false,"i_lat":-6.248029,"station_name":"Bekasi Timur"},{"transit":false,"i_long":106.997013,"is_transit":false,"station_id":"BKS","distance":2368,"i_lat":-6.236616,"time":2,"line":1,"station_name":"Bekasi"},{"transit":false,"i_lat":-6.224515,"distance":2520,"time":4,"is_transit":false,"i_long":106.977657,"station_id":"KRI","station_name":"Kranji","line":1},{"time":3,"line":1,"is_transit":false,"station_id":"CUK","distance":3097,"i_lat":-6.219053,"i_long":106.951283,"transit":false,"station_name":"Cakung"},{"station_id":"KLDB","transit":false,"i_long":106.939679,"i_lat":-6.217455,"distance":1385,"line":1,"time":8,"station_name":"Klenderbaru","is_transit":false},{"is_transit":false,"distance":1305,"transit":false,"i_lat":-6.215568,"i_long":106.922662,"time":1,"station_id":"BUA","station_name":"Buaran","line":1},{"line":1,"station_id":"KLD","i_long":106.899548,"is_transit":false,"transit":false,"i_lat":-6.2135,"distance":3100,"station_name":"Klender","time":2},{"distance":3395,"station_id":"JNG","time":3,"is_transit":true,"i_long":106.86807400000001,"station_name":"Jatinegara","transit":true,"i_lat":-6.215091,"line":1},{"transit":false,"i_long":106.861737,"station_id":"POK","station_name":"Pondok Jati","distance":1236,"time":2,"i_lat":-6.209188,"line":11,"is_transit":false},{"distance":1829,"i_long":106.855437,"time":2,"station_id":"KMT","transit":false,"line":11,"station_name":"Kramat","i_lat":-6.193792,"is_transit":false},{"station_id":"GST","is_transit":false,"i_long":106.850107,"distance":973,"line":11,"i_lat":-6.185975,"time":1,"transit":false,"station_name":"Gang Sentiong"},{"station_id":"PSE","i_lat":-6.174784,"i_long":106.84368,"line":11,"transit":false,"time":8,"is_transit":false,"distance":1567,"station_name":"Pasar Senen"},{"station_name":"Kemayoran","is_transit":false,"station_id":"KMO","transit":false,"i_lat":-6.161728,"distance":1436,"i_long":106.839204,"line":11,"time":4},{"station_name":"Rajawali","i_lat":-6.14505,"line":11,"is_transit":false,"distance":1901,"station_id":"RJW","time":5,"transit":false,"i_long":106.836569},{"time":3,"distance":1444,"is_transit":true,"i_lat":-6.132549,"station_name":"Kampung Bandan","transit":true,"station_id":"KPB","i_long":106.826365,"line":4},{"line":2,"distance":1364,"is_transit":true,"time":3,"i_long":106.812439,"transit":true,"i_lat":-6.137569,"station_id":"JAKK","station_name":"Jakarta Kota"},{"i_long":106.820901,"is_transit":false,"transit":false,"station_id":"JAY","station_name":"Jayakarta","distance":1264,"line":2,"i_lat":-6.141205,"time":4},{"time":2,"i_lat":-6.149769,"distance":1080,"i_long":106.82482,"line":2,"station_name":"Manggabesar","transit":false,"is_transit":false,"station_id":"MGB"},{"station_id":"SW","line":2,"station_name":"Sawah Besar","distance":906,"time":2,"i_long":106.827103,"i_lat":-6.160725,"transit":false,"is_transit":false},{"i_lat":-6.166716,"time":2,"station_id":"JUA","station_name":"Juanda","is_transit":false,"line":2,"transit":false,"distance":1149,"i_long":106.828284},{"station_name":"Gondangdia","distance":2015,"station_id":"GDD","is_transit":false,"i_lat":-6.186295,"i_long":106.832183,"time":4,"transit":false,"line":2},{"station_name":"Cikini","is_transit":false,"distance":1750,"i_lat":-6.198556,"transit":false,"station_id":"CKI","i_long":106.840169,"line":2,"time":3},{"is_transit":true,"time":4,"distance":1590,"i_long":106.84912,"station_name":"Manggarai","i_lat":-6.209883,"station_id":"MRI","transit":true,"line":2},{"distance":3186,"transit":false,"line":1,"time":4,"is_transit":false,"i_long":106.822649,"i_lat":-6.202263,"station_id":"SUD","station_name":"Sudirman"},{"station_id":"SUDB","line":1,"i_long":106.819881,"is_transit":false,"transit":false,"i_lat":-6.201433,"distance":280,"time":1,"station_name":"Sudirman Baru"},{"line":1,"is_transit":false,"station_id":"KAT","distance":471,"transit":false,"time":1,"i_long":106.816351,"i_lat":-6.20132,"station_name":"Karet"},{"is_transit":true,"i_lat":-6.185545,"time":5,"i_long":106.811091,"station_name":"Tanah Abang","distance":2029,"station_id":"THB","transit":true,"line":1},{"station_name":"Palmerah","i_long":106.79689,"transit":false,"i_lat":-6.207404,"distance":3191,"line":6,"is_transit":false,"time":6,"station_id":"PLM"},{"distance":3737,"transit":false,"i_lat":-6.237242,"line":6,"time":7,"i_long":106.780334,"is_transit":false,"station_id":"KBY","station_name":"Kebayoran"},{"is_transit":false,"i_lat":-6.276362,"i_long":106.74273,"station_id":"PDJ","distance":6218,"transit":false,"time":8,"station_name":"Pondokranji","line":6},{"transit":false,"station_name":"Jurangmangu","distance":2179,"i_long":106.728916,"is_transit":false,"station_id":"JMU","time":3,"i_lat":-6.288927,"line":6},{"transit":false,"i_long":106.712277,"is_transit":false,"i_lat":-6.296963,"station_id":"SDM","line":6,"distance":1994,"station_name":"Sudimara","time":4},{"station_id":"RU","station_name":"Rawa Buntu","transit":false,"line":6,"is_transit":false,"time":6,"distance":4566,"i_lat":-6.314823,"i_long":106.675475},{"transit":false,"distance":2413,"i_long":106.66566,"time":4,"station_id":"SRP","line":6,"i_lat":-6.319871,"station_name":"Serpong","is_transit":false},{"time":4,"station_name":"Cisauk","transit":false,"i_lat":-6.32484,"line":3,"distance":1784,"is_transit":false,"station_id":"CSK","i_long":106.640411},{"station_name":"Cicayur","transit":false,"line":3,"i_long":106.617853,"distance":2519,"time":4,"station_id":"CC","i_lat":-6.329547,"is_transit":false},{"line":6,"i_long":106.568863,"station_name":"Parung Panjang","i_lat":-6.3441410000000005,"is_transit":false,"time":8,"distance":5968,"station_id":"PRP","transit":false},{"i_long":106.508482,"station_name":"Cilejit","station_id":"CJT","distance":7025,"line":3,"is_transit":false,"time":9,"transit":false,"i_lat":-6.354349},{"time":6,"is_transit":false,"transit":false,"i_lat":-6.338021,"line":0,"i_long":106.491338,"station_name":"Daru","station_id":"DAR","distance":2675},{"station_name":"Tenjo","time":5,"i_lat":-6.327251,"station_id":"TEJ","distance":3902,"line":6,"i_long":106.460812,"transit":false,"is_transit":false},{"station_name":"Tigaraksa","i_lat":-6.328533,"distance":2974,"i_long":106.425991,"transit":false,"line":6,"is_transit":false,"time":5,"station_id":"TGS"},{"distance":2651,"transit":false,"i_lat":-6.33561,"line":3,"time":3,"i_long":106.411216,"station_id":"CKY","station_name":"Cikoya","is_transit":false},{"time":4,"i_long":106.394373,"transit":false,"line":6,"station_name":"Maja","i_lat":-6.332307,"is_transit":false,"distance":1853,"station_id":"MJ"}]]}