{"data":[[{"station_name":"Bekasi Timur","i_lat":-6.248029,"is_transit":false,"i_long":107.016735,"time":0,"transit":false,"distance":0,"line":1,"station_id":"BKST"},{"line":1,"i_long":106.997013,"station_id":"BKS","time":2,"distance":2368,"transit":false,"i_lat":-6.236616,"station_name":"Bekasi","is_transit":false},{"i_long":106.977657,"line":1,"i_lat":-6.224515,"is_transit":false,"station_name":"Kranji","distance":2520,"transit":false,"station_id":"KRI","time":4},{"line":1,"distance":3097,"i_lat":-6.219053,"i_long":106.951283,"is_transit":false,"transit":false,"station_id":"CUK","time":3,"station_name":"Cakung"},{"station_id":"KLDB","i_long":106.939679,"station_name":"Klenderbaru","transit":false,"i_lat":-6.217455,"distance":1385,"line":1,"time":8,"is_transit":false},{"time":1,"transit":false,"distance":1305,"i_long":106.922662,"station_id":"BUA","line":1,"station_name":"Buaran","is_transit":false,"i_lat":-6.215568},{"station_id":"KLD","line":1,"distance":3100,"i_lat":-6.2135,"i_long":106.899548,"is_transit":false,"transit":false,"time":2,"station_name":"Klender"},{"distance":3395,"i_long":106.86807400000001,"station_name":"Jatinegara","transit":false,"line":1,"station_id":"JNG","time":3,"i_lat":-6.215091,"is_transit":false},{"station_id":"MTR","transit":false,"i_long":106.858896,"is_transit":false,"station_name":"Matraman","time":2,"distance":1377,"i_lat":-6.212485,"line":1},{"station_name":"Manggarai","station_id":"MRI","time":2,"line":2,"i_long":106.84912,"is_transit":false,"i_lat":-6.209883,"distance":1275,"transit":false},{"station_name":"Sudirman","i_lat":-6.202263,"station_id":"SUD","line":1,"time":4,"is_transit":false,"distance":3186,"transit":false,"i_long":106.822649},{"i_lat":-6.201433,"is_transit":false,"station_name":"Sudirman Baru","time":1,"transit":false,"i_long":106.819881,"distance":280,"station_id":"SUDB","line":1},{"station_name":"Karet","transit":false,"station_id":"KAT","i_lat":-6.20132,"distance":471,"time":1,"is_transit":false,"i_long":106.816351,"line":1},{"transit":false,"i_lat":-6.185545,"station_name":"Tanah Abang","is_transit":false,"distance":2029,"station_id":"THB","i_long":106.811091,"line":1,"time":5},{"i_long":106.800832,"is_transit":true,"time":8,"transit":true,"line":1,"i_lat":-6.155215,"distance":3632,"station_name":"Duri","station_id":"DU"},{"i_long":106.788277,"station_id":"GGL","line":5,"is_transit":false,"i_lat":-6.162021,"station_name":"Grogol","distance":1700,"time":3,"transit":false},{"is_transit":false,"i_lat":-6.161433,"line":5,"station_id":"PSG","distance":2036,"station_name":"Pesing","i_long":106.771379,"time":2,"transit":false},{"i_lat":-6.1587309999999995,"station_id":"TKO","line":5,"station_name":"Taman Kota","transit":false,"time":2,"i_long":106.756522,"distance":1614,"is_transit":false},{"distance":2334,"i_lat":-6.159876,"transit":false,"is_transit":false,"station_id":"BOI","line":5,"i_long":106.737035,"station_name":"Bojongindah","time":2},{"i_lat":-6.162758,"station_name":"Rawa Buaya","is_transit":false,"time":4,"station_id":"RW","line":5,"transit":false,"distance":1152,"i_long":106.723064}],[{"distance":0,"i_long":107.016735,"line":1,"i_lat":-6.248029,"time":0,"station_id":"BKST","is_transit":false,"station_name":"Bekasi Timur","transit":false},{"is_transit":false,"station_id":"BKS","transit":false,"i_lat":-6.236616,"i_long":106.997013,"line":1,"time":2,"distance":2368,"station_name":"Bekasi"},{"distance":2520,"station_id":"KRI","time":4,"i_long":106.977657,"station_name":"Kranji","line":1,"transit":false,"is_transit":false,"i_lat":-6.224515},{"line":1,"i_lat":-6.219053,"distance":3097,"transit":false,"station_id":"CUK","time":3,"i_long":106.951283,"station_name":"Cakung","is_transit":false},{"station_name":"Klenderbaru","i_lat":-6.217455,"transit":false,"distance":1385,"station_id":"KLDB","line":1,"i_long":106.939679,"is_transit":false,"time":8},{"station_id":"BUA","station_name":"Buaran","i_long":106.922662,"time":1,"distance":1305,"i_lat":-6.215568,"line":1,"transit":false,"is_transit":false},{"time":2,"station_name":"Klender","line":1,"transit":false,"i_lat":-6.2135,"i_long":106.899548,"station_id":"KLD","is_transit":false,"distance":3100},{"is_transit":true,"station_id":"JNG","i_lat":-6.215091,"line":1,"transit":true,"station_name":"Jatinegara","i_long":106.86807400000001,"time":3,"distance":3395},{"station_name":"Pondok Jati","distance":1236,"transit":false,"i_long":106.861737,"line":11,"i_lat":-6.209188,"station_id":"POK","is_transit":false,"time":2},{"time":2,"distance":1829,"line":11,"is_transit":false,"transit":false,"station_id":"KMT","i_lat":-6.193792,"station_name":"Kramat","i_long":106.855437},{"line":11,"time":1,"transit":false,"is_transit":false,"distance":973,"i_lat":-6.185975,"i_long":106.850107,"station_name":"Gang Sentiong","station_id":"GST"},{"line":11,"is_transit":false,"i_lat":-6.174784,"distance":1567,"i_long":106.84368,"station_name":"Pasar Senen","transit":false,"time":8,"station_id":"PSE"},{"station_id":"KMO","is_transit":false,"transit":false,"station_name":"Kemayoran","line":11,"time":4,"distance":1436,"i_long":106.839204,"i_lat":-6.161728},{"is_transit":false,"station_name":"Rajawali","line":11,"i_long":106.836569,"time":5,"transit":false,"distance":1901,"station_id":"RJW","i_lat":-6.14505},{"distance":1444,"time":3,"station_id":"KPB","i_long":106.826365,"i_lat":-6.132549,"transit":true,"station_name":"Kampung Bandan","line":4,"is_transit":true},{"time":9,"transit":false,"line":1,"station_name":"Angke","distance":4102,"i_lat":-6.144674,"station_id":"AK","i_long":106.79867,"is_transit":false},{"station_name":"Duri","is_transit":true,"i_lat":-6.155215,"line":1,"distance":1230,"station_id":"DU","time":4,"i_long":106.800832,"transit":true},{"station_id":"GGL","i_long":106.788277,"distance":1700,"transit":false,"line":5,"station_name":"Grogol","is_transit":false,"i_lat":-6.162021,"time":3},{"transit":false,"station_name":"Pesing","distance":2036,"i_lat":-6.161433,"i_long":106.771379,"is_transit":false,"line":5,"station_id":"PSG","time":2},{"station_name":"Taman Kota","distance":1614,"i_long":106.756522,"line":5,"i_lat":-6.1587309999999995,"time":2,"transit":false,"is_transit":false,"station_id":"TKO"},{"station_id":"BOI","i_lat":-6.159876,"i_long":106.737035,"distance":2334,"time":2,"is_transit":false,"line":5,"station_name":"Bojongindah","transit":false},{"station_id":"RW","is_transit":false,"distance":1152,"i_lat":-6.162758,"line":5,"time":4,"i_long":106.723064,"station_name":"Rawa Buaya","transit":false}],[{"is_transit":false,"station_name":"Bekasi Timur","i_long":107.016735,"distance":0,"station_id":"BKST","transit":false,"i_lat":-6.248029,"time":0,"line":1},{"is_transit":false,"station_id":"BKS","i_long":106.997013,"time":2,"i_lat":-6.236616,"line":1,"station_name":"Bekasi","transit":false,"distance":2368},{"i_lat":-6.224515,"line":1,"transit":false,"time":4,"station_id":"KRI","i_long":106.977657,"distance":2520,"station_name":"Kranji","is_transit":false},{"i_long":106.951283,"is_transit":false,"i_lat":-6.219053,"distance":3097,"time":3,"station_name":"Cakung","line":1,"transit":false,"station_id":"CUK"},{"transit":false,"i_long":106.939679,"is_transit":false,"time":8,"station_id":"KLDB","i_lat":-6.217455,"distance":1385,"line":1,"station_name":"Klenderbaru"},{"station_name":"Buaran","is_transit":false,"time":1,"station_id":"BUA","i_lat":-6.215568,"distance":1305,"line":1,"transit":false,"i_long":106.922662},{"time":2,"station_id":"KLD","i_lat":-6.2135,"is_transit":false,"line":1,"transit":false,"i_long":106.899548,"station_name":"Klender","distance":3100},{"station_id":"JNG","i_long":106.86807400000001,"distance":3395,"i_lat":-6.215091,"is_transit":false,"line":1,"transit":false,"station_name":"Jatinegara","time":3},{"station_id":"MTR","station_name":"Matraman","i_lat":-6.212485,"line":1,"time":2,"transit":false,"i_long":106.858896,"is_transit":false,"distance":1377},{"i_lat":-6.209883,"is_transit":true,"distance":1275,"station_name":"Manggarai","station_id":"MRI","transit":true,"i_long":106.84912,"line":2,"time":2},{"is_transit":false,"time":4,"distance":1590,"station_id":"CKI","station_name":"Cikini","line":2,"transit":false,"i_lat":-6.198556,"i_long":106.840169},{"time":3,"i_long":106.832183,"distance":1750,"i_lat":-6.186295,"is_transit":false,"station_name":"Gondangdia","transit":false,"station_id":"GDD","line":2},{"is_transit":false,"time":4,"i_lat":-6.166716,"distance":2015,"transit":false,"station_name":"Juanda","i_long":106.828284,"line":2,"station_id":"JUA"},{"i_lat":-6.160725,"station_name":"Sawah Besar","time":2,"transit":false,"station_id":"SW","is_transit":false,"i_long":106.827103,"distance":1149,"line":2},{"line":2,"time":2,"distance":906,"station_id":"MGB","station_name":"Manggabesar","is_transit":false,"i_lat":-6.149769,"transit":false,"i_long":106.82482},{"i_lat":-6.141205,"station_name":"Jayakarta","transit":false,"i_long":106.820901,"line":2,"distance":1080,"station_id":"JAY","is_transit":false,"time":2},{"station_id":"JAKK","time":4,"line":2,"station_name":"Jakarta Kota","is_transit":true,"transit":true,"distance":1264,"i_long":106.812439,"i_lat":-6.137569},{"station_id":"KPB","station_name":"Kampung Bandan","transit":true,"i_long":106.826365,"distance":1364,"line":4,"is_transit":true,"i_lat":-6.132549,"time":3},{"station_name":"Angke","is_transit":false,"station_id":"AK","i_long":106.79867,"transit":false,"time":9,"distance":4102,"i_lat":-6.144674,"line":1},{"station_name":"Duri","station_id":"DU","is_transit":true,"line":1,"time":4,"distance":1230,"i_lat":-6.155215,"i_long":106.800832,"transit":true},{"time":3,"station_name":"Grogol","station_id":"GGL","line":5,"is_transit":false,"transit":false,"distance":1700,"i_lat":-6.162021,"i_long":106.788277},{"distance":2036,"station_name":"Pesing","is_transit":false,"station_id":"PSG","line":5,"transit":false,"i_lat":-6.161433,"time":2,"i_long":106.771379},{"station_id":"TKO","transit":false,"i_lat":-6.1587309999999995,"line":5,"station_name":"Taman Kota","time":2,"i_long":106.756522,"is_transit":false,"distance":1614},{"station_name":"Bojongindah","time":2,"station_id":"BOI","i_long":106.737035,"line":5,"i_lat":-6.159876,"transit":false,"is_transit":false,"distance":2334},{"line":5,"time":4,"transit":false,"i_lat":-6.162758,"station_name":"Rawa Buaya","is_transit":false,"distance":1152,"station_id":"RW","i_long":106.723064}],[{"line":1,"is_transit":false,"i_long":107.016735,"transit":false,"station_name":"Bekasi Timur","time":0,"i_lat":-6.248029,"station_id":"BKST","distance":0},{"i_long":106.997013,"station_name":"Bekasi","station_id":"BKS","line":1,"i_lat":-6.236616,"is_transit":false,"time":2,"distance":2368,"transit":false},{"distance":2520,"line":1,"is_transit":false,"station_id":"KRI","station_name":"Kranji","i_long":106.977657,"i_lat":-6.224515,"time":4,"transit":false},{"line":1,"station_name":"Cakung","i_long":106.951283,"time":3,"distance":3097,"transit":false,"station_id":"CUK","is_transit":false,"i_lat":-6.219053},{"i_lat":-6.217455,"station_id":"KLDB","i_long":106.939679,"is_transit":false,"distance":1385,"line":1,"transit":false,"time":8,"station_name":"Klenderbaru"},{"i_lat":-6.215568,"i_long":106.922662,"line":1,"distance":1305,"station_name":"Buaran","transit":false,"station_id":"BUA","is_transit":false,"time":1},{"i_long":106.899548,"transit":false,"line":1,"distance":3100,"station_name":"Klender","station_id":"KLD","time":2,"is_transit":false,"i_lat":-6.2135},{"time":3,"station_id":"JNG","station_name":"Jatinegara","i_lat":-6.215091,"i_long":106.86807400000001,"line":1,"transit":true,"is_transit":true,"distance":3395},{"is_transit":false,"transit":false,"station_name":"Pondok Jati","i_lat":-6.209188,"line":11,"time":2,"distance":1236,"station_id":"POK","i_long":106.861737},{"station_id":"KMT","time":2,"station_name":"Kramat","is_transit":false,"transit":false,"distance":1829,"line":11,"i_long":106.855437,"i_lat":-6.193792},{"time":1,"transit":false,"distance":973,"i_long":106.850107,"i_lat":-6.185975,"is_transit":false,"station_id":"GST","line":11,"station_name":"Gang Sentiong"},{"is_transit":false,"line":11,"station_name":"Pasar Senen","distance":1567,"transit":false,"i_lat":-6.174784,"i_long":106.84368,"station_id":"PSE","time":8},{"i_long":106.839204,"station_id":"KMO","transit":false,"line":11,"i_lat":-6.161728,"time":4,"is_transit":false,"distance":1436,"station_name":"Kemayoran"},{"station_name":"Rajawali","time":5,"i_lat":-6.14505,"i_long":106.836569,"line":11,"is_transit":false,"transit":false,"distance":1901,"station_id":"RJW"},{"time":3,"i_long":106.826365,"line":4,"station_id":"KPB","distance":1444,"is_transit":true,"transit":true,"i_lat":-6.132549,"station_name":"Kampung Bandan"},{"time":3,"transit":true,"is_transit":true,"station_id":"JAKK","line":2,"i_long":106.812439,"i_lat":-6.137569,"station_name":"Jakarta Kota","distance":1364},{"station_name":"Jayakarta","i_long":106.820901,"time":4,"line":2,"is_transit":false,"i_lat":-6.141205,"station_id":"JAY","distance":1264,"transit":false},{"i_lat":-6.149769,"line":2,"i_long":106.82482,"station_id":"MGB","station_name":"Manggabesar","is_transit":false,"distance":1080,"transit":false,"time":2},{"i_lat":-6.160725,"i_long":106.827103,"line":2,"transit":false,"station_id":"SW","time":2,"distance":906,"station_name":"Sawah Besar","is_transit":false},{"i_lat":-6.166716,"station_name":"Juanda","is_transit":false,"line":2,"i_long":106.828284,"station_id":"JUA","transit":false,"time":2,"distance":1149},{"station_id":"GDD","distance":2015,"station_name":"Gondangdia","transit":false,"i_long":106.832183,"line":2,"is_transit":false,"time":4,"i_lat":-6.186295},{"is_transit":false,"i_long":106.840169,"station_name":"Cikini","time":3,"distance":1750,"station_id":"CKI","line":2,"i_lat":-6.198556,"transit":false},{"is_transit":true,"time":4,"station_name":"Manggarai","distance":1590,"station_id":"MRI","i_long":106.84912,"line":2,"transit":true,"i_lat":-6.209883},{"i_lat":-6.202263,"station_id":"SUD","station_name":"Sudirman","is_transit":false,"distance":3186,"i_long":106.822649,"transit":false,"time":4,"line":1},{"time":1,"distance":280,"i_lat":-6.201433,"i_long":106.819881,"station_id":"SUDB","line":1,"transit":false,"station_name":"Sudirman Baru","is_transit":false},{"station_name":"Karet","station_id":"KAT","i_lat":-6.20132,"time":1,"is_transit":false,"transit":false,"distance":471,"i_long":106.816351,"line":1},{"transit":false,"i_lat":-6.185545,"line":1,"is_transit":false,"station_name":"Tanah Abang","i_long":106.811091,"time":5,"station_id":"THB","distance":2029},{"station_id":"DU","i_long":106.800832,"distance":3632,"is_transit":true,"station_name":"Duri","time":8,"i_lat":-6.155215,"line":1,"transit":true},{"station_name":"Grogol","station_id":"GGL","transit":false,"is_transit":false,"i_long":106.788277,"line":5,"distance":1700,"time":3,"i_lat":-6.162021},{"i_lat":-6.161433,"line":5,"transit":false,"time":2,"is_transit":false,"distance":2036,"i_long":106.771379,"station_name":"Pesing","station_id":"PSG"},{"station_id":"TKO","line":5,"i_lat":-6.1587309999999995,"distance":1614,"transit":false,"is_transit":false,"time":2,"i_long":106.756522,"station_name":"Taman Kota"},{"distance":2334,"transit":false,"is_transit":false,"i_long":106.737035,"i_lat":-6.159876,"station_id":"BOI","line":5,"station_name":"Bojongindah","time":2},{"is_transit":false,"transit":false,"i_lat":-6.162758,"i_long":106.723064,"station_id":"RW","station_name":"Rawa Buaya","distance":1152,"time":4,"line":5}]]}