{"data":[[{"is_transit":false,"i_long":107.016735,"transit":false,"station_id":"BKST","line":1,"i_lat":-6.248029,"station_name":"Bekasi Timur","distance":0,"time":0},{"station_name":"Bekasi","line":1,"time":2,"transit":false,"is_transit":false,"station_id":"BKS","i_lat":-6.236616,"distance":2368,"i_long":106.997013},{"i_long":106.977657,"station_name":"Kranji","distance":2520,"transit":false,"is_transit":false,"station_id":"KRI","time":4,"i_lat":-6.224515,"line":1},{"station_name":"Cakung","station_id":"CUK","distance":3097,"time":3,"i_long":106.951283,"is_transit":false,"line":1,"i_lat":-6.219053,"transit":false},{"i_lat":-6.217455,"line":1,"i_long":106.939679,"station_id":"KLDB","is_transit":false,"station_name":"Klenderbaru","transit":false,"distance":1385,"time":8},{"line":1,"transit":false,"is_transit":false,"distance":1305,"time":1,"i_long":106.922662,"i_lat":-6.215568,"station_name":"Buaran","station_id":"BUA"},{"is_transit":false,"i_long":106.899548,"i_lat":-6.2135,"station_id":"KLD","time":2,"station_name":"Klender","distance":3100,"line":1,"transit":false},{"transit":false,"station_id":"JNG","distance":3395,"time":3,"i_long":106.86807400000001,"station_name":"Jatinegara","line":1,"i_lat":-6.215091,"is_transit":false},{"station_id":"MTR","distance":1377,"i_long":106.858896,"line":1,"transit":false,"is_transit":false,"i_lat":-6.212485,"station_name":"Matraman","time":2},{"is_transit":false,"distance":1275,"time":2,"line":2,"station_id":"MRI","transit":false,"station_name":"Manggarai","i_lat":-6.209883,"i_long":106.84912},{"is_transit":false,"i_lat":-6.202263,"transit":false,"time":4,"station_id":"SUD","i_long":106.822649,"station_name":"Sudirman","line":1,"distance":3186},{"i_long":106.819881,"transit":false,"is_transit":false,"distance":280,"time":1,"station_id":"SUDB","line":1,"station_name":"Sudirman Baru","i_lat":-6.201433},{"is_transit":false,"transit":false,"line":1,"time":1,"i_lat":-6.20132,"station_id":"KAT","station_name":"Karet","i_long":106.816351,"distance":471},{"i_lat":-6.185545,"is_transit":false,"line":1,"station_id":"THB","distance":2029,"time":5,"i_long":106.811091,"transit":false,"station_name":"Tanah Abang"},{"transit":true,"distance":3632,"is_transit":true,"i_lat":-6.155215,"i_long":106.800832,"line":1,"station_id":"DU","station_name":"Duri","time":8},{"is_transit":false,"distance":1700,"line":5,"i_long":106.788277,"station_id":"GGL","i_lat":-6.162021,"time":3,"station_name":"Grogol","transit":false},{"i_long":106.771379,"is_transit":false,"time":2,"line":5,"station_id":"PSG","distance":2036,"station_name":"Pesing","transit":false,"i_lat":-6.161433},{"station_name":"Taman Kota","i_lat":-6.1587309999999995,"transit":false,"line":5,"is_transit":false,"distance":1614,"station_id":"TKO","time":2,"i_long":106.756522},{"is_transit":false,"transit":false,"station_id":"BOI","i_long":106.737035,"i_lat":-6.159876,"line":5,"station_name":"Bojongindah","time":2,"distance":2334},{"i_long":106.723064,"is_transit":false,"distance":1152,"station_name":"Rawa Buaya","time":4,"i_lat":-6.162758,"transit":false,"line":5,"station_id":"RW"},{"station_name":"Kalideres","distance":2504,"i_long":106.701612,"station_id":"KDS","line":5,"transit":false,"is_transit":false,"i_lat":-6.166068,"time":3},{"transit":false,"line":5,"is_transit":false,"time":3,"station_name":"Poris","station_id":"PI","i_lat":-6.169933,"i_long":106.679458,"distance":2548},{"station_id":"BPR","i_lat":-6.171811,"is_transit":false,"line":5,"i_long":106.665036,"distance":1834,"station_name":"Batuceper","transit":false,"time":3},{"line":5,"i_lat":-6.17331,"distance":2028,"i_long":106.64657,"station_id":"TTI","station_name":"Tanah Tinggi","is_transit":false,"time":3,"transit":false}],[{"station_id":"BKST","i_long":107.016735,"i_lat":-6.248029,"distance":0,"is_transit":false,"line":1,"transit":false,"station_name":"Bekasi Timur","time":0},{"distance":2368,"i_lat":-6.236616,"i_long":106.997013,"station_id":"BKS","is_transit":false,"time":2,"station_name":"Bekasi","transit":false,"line":1},{"time":4,"is_transit":false,"distance":2520,"i_long":106.977657,"station_id":"KRI","line":1,"i_lat":-6.224515,"transit":false,"station_name":"Kranji"},{"station_name":"Cakung","is_transit":false,"i_lat":-6.219053,"i_long":106.951283,"line":1,"time":3,"station_id":"CUK","transit":false,"distance":3097},{"time":8,"i_lat":-6.217455,"line":1,"station_id":"KLDB","transit":false,"is_transit":false,"station_name":"Klenderbaru","i_long":106.939679,"distance":1385},{"time":1,"station_name":"Buaran","i_long":106.922662,"is_transit":false,"station_id":"BUA","distance":1305,"i_lat":-6.215568,"transit":false,"line":1},{"distance":3100,"i_lat":-6.2135,"transit":false,"station_id":"KLD","station_name":"Klender","is_transit":false,"time":2,"i_long":106.899548,"line":1},{"is_transit":true,"i_long":106.86807400000001,"transit":true,"line":1,"distance":3395,"station_name":"Jatinegara","i_lat":-6.215091,"station_id":"JNG","time":3},{"is_transit":false,"time":2,"line":11,"i_long":106.861737,"distance":1236,"transit":false,"station_name":"Pondok Jati","station_id":"POK","i_lat":-6.209188},{"is_transit":false,"station_name":"Kramat","distance":1829,"line":11,"time":2,"i_lat":-6.193792,"transit":false,"station_id":"KMT","i_long":106.855437},{"transit":false,"time":1,"i_long":106.850107,"line":11,"station_id":"GST","is_transit":false,"i_lat":-6.185975,"distance":973,"station_name":"Gang Sentiong"},{"station_name":"Pasar Senen","i_long":106.84368,"is_transit":false,"i_lat":-6.174784,"line":11,"transit":false,"station_id":"PSE","time":8,"distance":1567},{"time":4,"station_id":"KMO","station_name":"Kemayoran","distance":1436,"i_long":106.839204,"i_lat":-6.161728,"transit":false,"line":11,"is_transit":false},{"is_transit":false,"station_name":"Rajawali","i_long":106.836569,"distance":1901,"line":11,"time":5,"transit":false,"station_id":"RJW","i_lat":-6.14505},{"line":4,"i_long":106.826365,"transit":true,"station_name":"Kampung Bandan","is_transit":true,"distance":1444,"station_id":"KPB","i_lat":-6.132549,"time":3},{"station_name":"Angke","transit":false,"time":9,"i_long":106.79867,"station_id":"AK","i_lat":-6.144674,"line":1,"distance":4102,"is_transit":false},{"transit":true,"i_lat":-6.155215,"i_long":106.800832,"station_name":"Duri","line":1,"distance":1230,"time":4,"is_transit":true,"station_id":"DU"},{"station_id":"GGL","i_lat":-6.162021,"i_long":106.788277,"transit":false,"is_transit":false,"station_name":"Grogol","line":5,"time":3,"distance":1700},{"distance":2036,"station_id":"PSG","time":2,"is_transit":false,"i_lat":-6.161433,"i_long":106.771379,"transit":false,"line":5,"station_name":"Pesing"},{"line":5,"station_id":"TKO","i_long":106.756522,"station_name":"Taman Kota","i_lat":-6.1587309999999995,"transit":false,"is_transit":false,"time":2,"distance":1614},{"i_lat":-6.159876,"transit":false,"time":2,"station_id":"BOI","distance":2334,"i_long":106.737035,"line":5,"is_transit":false,"station_name":"Bojongindah"},{"time":4,"line":5,"i_lat":-6.162758,"station_id":"RW","transit":false,"station_name":"Rawa Buaya","distance":1152,"is_transit":false,"i_long":106.723064},{"transit":false,"is_transit":false,"time":3,"line":5,"i_long":106.701612,"station_id":"KDS","distance":2504,"i_lat":-6.166068,"station_name":"Kalideres"},{"line":5,"i_lat":-6.169933,"station_name":"Poris","station_id":"PI","transit":false,"time":3,"i_long":106.679458,"is_transit":false,"distance":2548},{"line":5,"station_id":"BPR","distance":1834,"i_lat":-6.171811,"is_transit":false,"i_long":106.665036,"transit":false,"station_name":"Batuceper","time":3},{"station_id":"TTI","is_transit":false,"i_lat":-6.17331,"distance":2028,"transit":false,"station_name":"Tanah Tinggi","time":3,"i_long":106.64657,"line":5}],[{"distance":0,"time":0,"i_long":107.016735,"line":1,"station_id":"BKST","i_lat":-6.248029,"is_transit":false,"transit":false,"station_name":"Bekasi Timur"},{"station_id":"BKS","i_lat":-6.236616,"distance":2368,"is_transit":false,"time":2,"i_long":106.997013,"transit":false,"station_name":"Bekasi","line":1},{"station_id":"KRI","station_name":"Kranji","transit":false,"is_transit":false,"i_lat":-6.224515,"line":1,"i_long":106.977657,"distance":2520,"time":4},{"i_lat":-6.219053,"distance":3097,"is_transit":false,"line":1,"station_id":"CUK","i_long":106.951283,"station_name":"Cakung","transit":false,"time":3},{"line":1,"time":8,"i_lat":-6.217455,"transit":false,"distance":1385,"i_long":106.939679,"is_transit":false,"station_name":"Klenderbaru","station_id":"KLDB"},{"time":1,"is_transit":false,"transit":false,"station_id":"BUA","i_long":106.922662,"distance":1305,"station_name":"Buaran","line":1,"i_lat":-6.215568},{"line":1,"i_long":106.899548,"transit":false,"station_id":"KLD","time":2,"is_transit":false,"i_lat":-6.2135,"distance":3100,"station_name":"Klender"},{"i_lat":-6.215091,"station_name":"Jatinegara","is_transit":false,"i_long":106.86807400000001,"line":1,"transit":false,"time":3,"station_id":"JNG","distance":3395},{"station_id":"MTR","i_lat":-6.212485,"transit":false,"distance":1377,"line":1,"is_transit":false,"station_name":"Matraman","time":2,"i_long":106.858896},{"line":2,"station_id":"MRI","distance":1275,"transit":true,"i_long":106.84912,"is_transit":true,"time":2,"i_lat":-6.209883,"station_name":"Manggarai"},{"time":4,"station_id":"CKI","line":2,"distance":1590,"i_lat":-6.198556,"station_name":"Cikini","is_transit":false,"i_long":106.840169,"transit":false},{"station_id":"GDD","station_name":"Gondangdia","i_lat":-6.186295,"line":2,"is_transit":false,"time":3,"transit":false,"i_long":106.832183,"distance":1750},{"i_lat":-6.166716,"i_long":106.828284,"line":2,"transit":false,"station_name":"Juanda","distance":2015,"time":4,"station_id":"JUA","is_transit":false},{"line":2,"time":2,"distance":1149,"i_long":106.827103,"i_lat":-6.160725,"is_transit":false,"station_name":"Sawah Besar","transit":false,"station_id":"SW"},{"line":2,"transit":false,"distance":906,"time":2,"is_transit":false,"station_name":"Manggabesar","i_long":106.82482,"station_id":"MGB","i_lat":-6.149769},{"transit":false,"station_name":"Jayakarta","station_id":"JAY","line":2,"is_transit":false,"distance":1080,"time":2,"i_lat":-6.141205,"i_long":106.820901},{"distance":1264,"time":4,"station_name":"Jakarta Kota","transit":true,"is_transit":true,"station_id":"JAKK","i_long":106.812439,"line":2,"i_lat":-6.137569},{"is_transit":true,"i_long":106.826365,"time":3,"transit":true,"station_id":"KPB","line":4,"station_name":"Kampung Bandan","distance":1364,"i_lat":-6.132549},{"line":1,"transit":false,"time":9,"is_transit":false,"i_long":106.79867,"station_id":"AK","i_lat":-6.144674,"distance":4102,"station_name":"Angke"},{"station_id":"DU","station_name":"Duri","i_long":106.800832,"line":1,"is_transit":true,"i_lat":-6.155215,"time":4,"transit":true,"distance":1230},{"time":3,"transit":false,"i_long":106.788277,"i_lat":-6.162021,"station_id":"GGL","distance":1700,"line":5,"is_transit":false,"station_name":"Grogol"},{"distance":2036,"transit":false,"station_id":"PSG","is_transit":false,"line":5,"i_lat":-6.161433,"i_long":106.771379,"station_name":"Pesing","time":2},{"distance":1614,"transit":false,"i_lat":-6.1587309999999995,"line":5,"is_transit":false,"station_id":"TKO","time":2,"station_name":"Taman Kota","i_long":106.756522},{"time":2,"station_name":"Bojongindah","distance":2334,"i_lat":-6.159876,"transit":false,"is_transit":false,"station_id":"BOI","line":5,"i_long":106.737035},{"transit":false,"is_transit":false,"i_long":106.723064,"i_lat":-6.162758,"time":4,"station_name":"Rawa Buaya","line":5,"station_id":"RW","distance":1152},{"station_name":"Kalideres","i_lat":-6.166068,"is_transit":false,"distance":2504,"station_id":"KDS","i_long":106.701612,"time":3,"line":5,"transit":false},{"i_long":106.679458,"is_transit":false,"station_id":"PI","i_lat":-6.169933,"line":5,"distance":2548,"station_name":"Poris","time":3,"transit":false},{"transit":false,"distance":1834,"line":5,"i_long":106.665036,"is_transit":false,"i_lat":-6.171811,"station_name":"Batuceper","station_id":"BPR","time":3},{"distance":2028,"transit":false,"time":3,"line":5,"station_id":"TTI","i_long":106.64657,"is_transit":false,"station_name":"Tanah Tinggi","i_lat":-6.17331}],[{"i_long":107.016735,"line":1,"is_transit":false,"station_id":"BKST","time":0,"i_lat":-6.248029,"transit":false,"station_name":"Bekasi Timur","distance":0},{"is_transit":false,"time":2,"distance":2368,"station_id":"BKS","transit":false,"station_name":"Bekasi","i_long":106.997013,"line":1,"i_lat":-6.236616},{"is_transit":false,"station_id":"KRI","i_lat":-6.224515,"transit":false,"time":4,"i_long":106.977657,"station_name":"Kranji","line":1,"distance":2520},{"transit":false,"time":3,"is_transit":false,"station_id":"CUK","distance":3097,"station_name":"Cakung","i_lat":-6.219053,"i_long":106.951283,"line":1},{"time":8,"i_lat":-6.217455,"station_id":"KLDB","i_long":106.939679,"station_name":"Klenderbaru","is_transit":false,"distance":1385,"line":1,"transit":false},{"i_lat":-6.215568,"time":1,"line":1,"station_id":"BUA","station_name":"Buaran","distance":1305,"is_transit":false,"i_long":106.922662,"transit":false},{"i_lat":-6.2135,"transit":false,"is_transit":false,"i_long":106.899548,"station_name":"Klender","time":2,"line":1,"station_id":"KLD","distance":3100},{"is_transit":true,"line":1,"station_name":"Jatinegara","station_id":"JNG","distance":3395,"time":3,"i_lat":-6.215091,"transit":true,"i_long":106.86807400000001},{"line":11,"station_name":"Pondok Jati","i_long":106.861737,"distance":1236,"is_transit":false,"station_id":"POK","i_lat":-6.209188,"time":2,"transit":false},{"distance":1829,"station_name":"Kramat","time":2,"i_long":106.855437,"is_transit":false,"station_id":"KMT","transit":false,"i_lat":-6.193792,"line":11},{"is_transit":false,"station_name":"Gang Sentiong","station_id":"GST","distance":973,"line":11,"i_long":106.850107,"i_lat":-6.185975,"time":1,"transit":false},{"station_name":"Pasar Senen","distance":1567,"line":11,"i_long":106.84368,"is_transit":false,"station_id":"PSE","time":8,"transit":false,"i_lat":-6.174784},{"line":11,"transit":false,"station_name":"Kemayoran","is_transit":false,"time":4,"distance":1436,"i_lat":-6.161728,"i_long":106.839204,"station_id":"KMO"},{"is_transit":false,"i_lat":-6.14505,"station_name":"Rajawali","transit":false,"line":11,"distance":1901,"time":5,"station_id":"RJW","i_long":106.836569},{"transit":true,"station_id":"KPB","station_name":"Kampung Bandan","line":4,"time":3,"i_lat":-6.132549,"distance":1444,"i_long":106.826365,"is_transit":true},{"time":3,"is_transit":true,"station_name":"Jakarta Kota","i_lat":-6.137569,"i_long":106.812439,"transit":true,"distance":1364,"station_id":"JAKK","line":2},{"station_id":"JAY","distance":1264,"i_lat":-6.141205,"time":4,"is_transit":false,"line":2,"transit":false,"station_name":"Jayakarta","i_long":106.820901},{"i_lat":-6.149769,"time":2,"distance":1080,"line":2,"i_long":106.82482,"transit":false,"is_transit":false,"station_id":"MGB","station_name":"Manggabesar"},{"time":2,"i_long":106.827103,"station_name":"Sawah Besar","i_lat":-6.160725,"transit":false,"is_transit":false,"station_id":"SW","distance":906,"line":2},{"i_long":106.828284,"station_name":"Juanda","station_id":"JUA","is_transit":false,"line":2,"transit":false,"i_lat":-6.166716,"distance":1149,"time":2},{"time":4,"i_lat":-6.186295,"distance":2015,"i_long":106.832183,"station_id":"GDD","line":2,"station_name":"Gondangdia","transit":false,"is_transit":false},{"is_transit":false,"transit":false,"station_id":"CKI","i_long":106.840169,"station_name":"Cikini","i_lat":-6.198556,"line":2,"time":3,"distance":1750},{"is_transit":true,"i_long":106.84912,"line":2,"station_name":"Manggarai","i_lat":-6.209883,"distance":1590,"time":4,"station_id":"MRI","transit":true},{"time":4,"station_id":"SUD","transit":false,"i_long":106.822649,"is_transit":false,"line":1,"distance":3186,"station_name":"Sudirman","i_lat":-6.202263},{"transit":false,"line":1,"i_long":106.819881,"i_lat":-6.201433,"is_transit":false,"station_id":"SUDB","time":1,"distance":280,"station_name":"Sudirman Baru"},{"time":1,"i_long":106.816351,"is_transit":false,"i_lat":-6.20132,"station_id":"KAT","station_name":"Karet","line":1,"distance":471,"transit":false},{"line":1,"station_name":"Tanah Abang","distance":2029,"is_transit":false,"station_id":"THB","i_long":106.811091,"transit":false,"time":5,"i_lat":-6.185545},{"station_name":"Duri","distance":3632,"time":8,"is_transit":true,"i_lat":-6.155215,"station_id":"DU","transit":true,"i_long":106.800832,"line":1},{"line":5,"is_transit":false,"i_long":106.788277,"distance":1700,"station_id":"GGL","i_lat":-6.162021,"station_name":"Grogol","time":3,"transit":false},{"time":2,"transit":false,"station_name":"Pesing","is_transit":false,"distance":2036,"i_lat":-6.161433,"station_id":"PSG","i_long":106.771379,"line":5},{"i_long":106.756522,"time":2,"distance":1614,"is_transit":false,"station_id":"TKO","line":5,"i_lat":-6.1587309999999995,"transit":false,"station_name":"Taman Kota"},{"station_id":"BOI","i_lat":-6.159876,"i_long":106.737035,"line":5,"time":2,"station_name":"Bojongindah","is_transit":false,"distance":2334,"transit":false},{"transit":false,"time":4,"line":5,"is_transit":false,"distance":1152,"station_id":"RW","i_lat":-6.162758,"i_long":106.723064,"station_name":"Rawa Buaya"},{"i_lat":-6.166068,"is_transit":false,"distance":2504,"station_name":"Kalideres","time":3,"line":5,"i_long":106.701612,"transit":false,"station_id":"KDS"},{"is_transit":false,"station_id":"PI","distance":2548,"station_name":"Poris","time":3,"i_lat":-6.169933,"i_long":106.679458,"line":5,"transit":false},{"transit":false,"distance":1834,"i_lat":-6.171811,"is_transit":false,"i_long":106.665036,"line":5,"station_name":"Batuceper","time":3,"station_id":"BPR"},{"i_lat":-6.17331,"time":3,"station_id":"TTI","distance":2028,"line":5,"i_long":106.64657,"station_name":"Tanah Tinggi","transit":false,"is_transit":false}]]}