{"data":[[{"station_id":"BKST","time":0,"line":1,"is_transit":false,"i_long":107.016735,"station_name":"Bekasi Timur","transit":false,"distance":0,"i_lat":-6.248029},{"station_name":"Bekasi","transit":false,"line":1,"is_transit":false,"i_lat":-6.236616,"time":2,"distance":2368,"station_id":"BKS","i_long":106.997013},{"is_transit":false,"time":4,"distance":2520,"station_id":"KRI","transit":false,"i_lat":-6.224515,"i_long":106.977657,"line":1,"station_name":"Kranji"},{"station_id":"CUK","distance":3097,"station_name":"Cakung","i_lat":-6.219053,"time":3,"line":1,"i_long":106.951283,"transit":false,"is_transit":false},{"time":8,"transit":false,"station_name":"Klenderbaru","distance":1385,"is_transit":false,"station_id":"KLDB","line":1,"i_long":106.939679,"i_lat":-6.217455},{"station_name":"Buaran","i_long":106.922662,"distance":1305,"transit":false,"is_transit":false,"station_id":"BUA","i_lat":-6.215568,"time":1,"line":1},{"transit":false,"station_name":"Klender","time":2,"station_id":"KLD","i_lat":-6.2135,"is_transit":false,"line":1,"i_long":106.899548,"distance":3100},{"transit":false,"station_id":"JNG","line":1,"distance":3395,"i_lat":-6.215091,"time":3,"i_long":106.86807400000001,"station_name":"Jatinegara","is_transit":false},{"i_long":106.858896,"transit":false,"station_id":"MTR","line":1,"i_lat":-6.212485,"time":2,"distance":1377,"station_name":"Matraman","is_transit":false},{"station_id":"MRI","station_name":"Manggarai","i_long":106.84912,"line":2,"distance":1275,"is_transit":false,"transit":false,"time":2,"i_lat":-6.209883},{"station_id":"SUD","distance":3186,"transit":false,"i_long":106.822649,"is_transit":false,"time":4,"line":1,"station_name":"Sudirman","i_lat":-6.202263},{"i_lat":-6.201433,"station_id":"SUDB","time":1,"is_transit":false,"line":1,"station_name":"Sudirman Baru","distance":280,"i_long":106.819881,"transit":false},{"station_id":"KAT","line":1,"distance":471,"i_long":106.816351,"is_transit":false,"station_name":"Karet","i_lat":-6.20132,"transit":false,"time":1},{"is_transit":true,"station_id":"THB","i_lat":-6.185545,"transit":true,"distance":2029,"time":5,"i_long":106.811091,"line":1,"station_name":"Tanah Abang"},{"transit":false,"line":6,"station_name":"Palmerah","i_lat":-6.207404,"is_transit":false,"i_long":106.79689,"distance":3191,"time":6,"station_id":"PLM"},{"transit":false,"distance":3737,"station_id":"KBY","i_lat":-6.237242,"station_name":"Kebayoran","time":7,"line":6,"is_transit":false,"i_long":106.780334},{"transit":false,"station_name":"Pondokranji","station_id":"PDJ","time":8,"distance":6218,"is_transit":false,"line":6,"i_long":106.74273,"i_lat":-6.276362},{"transit":false,"i_long":106.728916,"station_id":"JMU","time":3,"station_name":"Jurangmangu","line":6,"i_lat":-6.288927,"is_transit":false,"distance":2179},{"distance":1994,"i_lat":-6.296963,"station_id":"SDM","transit":false,"is_transit":false,"i_long":106.712277,"station_name":"Sudimara","line":6,"time":4},{"distance":4566,"station_name":"Rawa Buntu","station_id":"RU","is_transit":false,"i_lat":-6.314823,"i_long":106.675475,"transit":false,"time":6,"line":6},{"i_lat":-6.319871,"station_id":"SRP","transit":false,"time":4,"distance":2413,"station_name":"Serpong","i_long":106.66566,"line":6,"is_transit":false},{"is_transit":false,"i_long":106.640411,"distance":1784,"line":3,"station_id":"CSK","time":4,"station_name":"Cisauk","i_lat":-6.32484,"transit":false},{"distance":2519,"i_lat":-6.329547,"line":3,"time":4,"station_id":"CC","transit":false,"station_name":"Cicayur","is_transit":false,"i_long":106.617853},{"station_id":"PRP","time":8,"line":6,"i_long":106.568863,"station_name":"Parung Panjang","i_lat":-6.3441410000000005,"is_transit":false,"distance":5968,"transit":false},{"transit":false,"is_transit":false,"i_lat":-6.354349,"station_id":"CJT","time":9,"distance":7025,"station_name":"Cilejit","i_long":106.508482,"line":3},{"distance":2675,"i_lat":-6.338021,"i_long":106.491338,"station_id":"DAR","line":0,"is_transit":false,"transit":false,"time":6,"station_name":"Daru"},{"transit":false,"station_id":"TEJ","time":5,"station_name":"Tenjo","i_long":106.460812,"line":6,"is_transit":false,"distance":3902,"i_lat":-6.327251}],[{"is_transit":false,"station_name":"Bekasi Timur","transit":false,"time":0,"distance":0,"station_id":"BKST","line":1,"i_lat":-6.248029,"i_long":107.016735},{"transit":false,"is_transit":false,"station_id":"BKS","time":2,"station_name":"Bekasi","i_lat":-6.236616,"i_long":106.997013,"line":1,"distance":2368},{"transit":false,"distance":2520,"i_lat":-6.224515,"station_name":"Kranji","i_long":106.977657,"is_transit":false,"time":4,"line":1,"station_id":"KRI"},{"station_id":"CUK","line":1,"distance":3097,"transit":false,"is_transit":false,"time":3,"i_lat":-6.219053,"station_name":"Cakung","i_long":106.951283},{"line":1,"i_long":106.939679,"transit":false,"is_transit":false,"station_id":"KLDB","time":8,"distance":1385,"station_name":"Klenderbaru","i_lat":-6.217455},{"distance":1305,"transit":false,"line":1,"station_id":"BUA","time":1,"i_lat":-6.215568,"is_transit":false,"i_long":106.922662,"station_name":"Buaran"},{"transit":false,"station_id":"KLD","i_long":106.899548,"is_transit":false,"time":2,"station_name":"Klender","line":1,"i_lat":-6.2135,"distance":3100},{"distance":3395,"is_transit":true,"i_long":106.86807400000001,"line":1,"time":3,"station_name":"Jatinegara","transit":true,"station_id":"JNG","i_lat":-6.215091},{"distance":1236,"station_name":"Pondok Jati","transit":false,"time":2,"i_lat":-6.209188,"is_transit":false,"line":11,"station_id":"POK","i_long":106.861737},{"station_name":"Kramat","transit":false,"time":2,"i_long":106.855437,"is_transit":false,"station_id":"KMT","line":11,"i_lat":-6.193792,"distance":1829},{"time":1,"line":11,"station_name":"Gang Sentiong","transit":false,"distance":973,"i_long":106.850107,"is_transit":false,"station_id":"GST","i_lat":-6.185975},{"transit":false,"i_lat":-6.174784,"time":8,"station_name":"Pasar Senen","line":11,"is_transit":false,"i_long":106.84368,"station_id":"PSE","distance":1567},{"station_name":"Kemayoran","line":11,"station_id":"KMO","transit":false,"distance":1436,"i_long":106.839204,"is_transit":false,"i_lat":-6.161728,"time":4},{"is_transit":false,"station_id":"RJW","transit":false,"station_name":"Rajawali","i_lat":-6.14505,"distance":1901,"line":11,"i_long":106.836569,"time":5},{"distance":1444,"is_transit":true,"station_id":"KPB","i_long":106.826365,"line":4,"time":3,"station_name":"Kampung Bandan","i_lat":-6.132549,"transit":true},{"i_long":106.79867,"i_lat":-6.144674,"is_transit":false,"transit":false,"station_id":"AK","time":9,"distance":4102,"station_name":"Angke","line":1},{"time":4,"i_long":106.800832,"transit":false,"is_transit":false,"station_name":"Duri","distance":1230,"i_lat":-6.155215,"line":1,"station_id":"DU"},{"i_long":106.811091,"i_lat":-6.185545,"transit":true,"time":8,"station_id":"THB","distance":3632,"line":1,"is_transit":true,"station_name":"Tanah Abang"},{"is_transit":false,"transit":false,"i_lat":-6.207404,"time":6,"distance":3191,"station_id":"PLM","station_name":"Palmerah","line":6,"i_long":106.79689},{"station_name":"Kebayoran","i_long":106.780334,"time":7,"is_transit":false,"i_lat":-6.237242,"line":6,"station_id":"KBY","transit":false,"distance":3737},{"transit":false,"station_name":"Pondokranji","time":8,"is_transit":false,"line":6,"i_lat":-6.276362,"i_long":106.74273,"distance":6218,"station_id":"PDJ"},{"time":3,"i_long":106.728916,"station_id":"JMU","transit":false,"station_name":"Jurangmangu","line":6,"is_transit":false,"i_lat":-6.288927,"distance":2179},{"line":6,"station_name":"Sudimara","station_id":"SDM","is_transit":false,"time":4,"distance":1994,"i_long":106.712277,"transit":false,"i_lat":-6.296963},{"line":6,"station_id":"RU","is_transit":false,"distance":4566,"time":6,"i_lat":-6.314823,"transit":false,"station_name":"Rawa Buntu","i_long":106.675475},{"time":4,"station_id":"SRP","is_transit":false,"station_name":"Serpong","line":6,"i_long":106.66566,"transit":false,"distance":2413,"i_lat":-6.319871},{"distance":1784,"line":3,"is_transit":false,"time":4,"station_id":"CSK","transit":false,"i_long":106.640411,"i_lat":-6.32484,"station_name":"Cisauk"},{"transit":false,"distance":2519,"i_long":106.617853,"i_lat":-6.329547,"line":3,"station_id":"CC","time":4,"is_transit":false,"station_name":"Cicayur"},{"distance":5968,"station_id":"PRP","i_long":106.568863,"time":8,"transit":false,"station_name":"Parung Panjang","line":6,"i_lat":-6.3441410000000005,"is_transit":false},{"distance":7025,"time":9,"is_transit":false,"station_name":"Cilejit","i_lat":-6.354349,"i_long":106.508482,"station_id":"CJT","transit":false,"line":3},{"transit":false,"line":0,"is_transit":false,"station_id":"DAR","distance":2675,"time":6,"station_name":"Daru","i_lat":-6.338021,"i_long":106.491338},{"i_long":106.460812,"is_transit":false,"station_name":"Tenjo","transit":false,"station_id":"TEJ","distance":3902,"time":5,"line":6,"i_lat":-6.327251}],[{"station_id":"BKST","time":0,"station_name":"Bekasi Timur","i_lat":-6.248029,"i_long":107.016735,"distance":0,"line":1,"transit":false,"is_transit":false},{"i_long":106.997013,"is_transit":false,"station_id":"BKS","station_name":"Bekasi","transit":false,"i_lat":-6.236616,"line":1,"time":2,"distance":2368},{"i_long":106.977657,"line":1,"i_lat":-6.224515,"time":4,"is_transit":false,"distance":2520,"station_name":"Kranji","station_id":"KRI","transit":false},{"distance":3097,"transit":false,"station_id":"CUK","i_long":106.951283,"i_lat":-6.219053,"is_transit":false,"time":3,"line":1,"station_name":"Cakung"},{"transit":false,"distance":1385,"i_lat":-6.217455,"i_long":106.939679,"line":1,"time":8,"station_name":"Klenderbaru","is_transit":false,"station_id":"KLDB"},{"i_long":106.922662,"is_transit":false,"station_id":"BUA","time":1,"station_name":"Buaran","line":1,"i_lat":-6.215568,"transit":false,"distance":1305},{"line":1,"transit":false,"is_transit":false,"station_name":"Klender","distance":3100,"i_long":106.899548,"station_id":"KLD","time":2,"i_lat":-6.2135},{"time":3,"station_name":"Jatinegara","i_lat":-6.215091,"line":1,"transit":false,"is_transit":false,"station_id":"JNG","distance":3395,"i_long":106.86807400000001},{"transit":false,"station_name":"Matraman","i_lat":-6.212485,"line":1,"i_long":106.858896,"time":2,"station_id":"MTR","distance":1377,"is_transit":false},{"station_name":"Manggarai","i_long":106.84912,"line":2,"i_lat":-6.209883,"time":2,"transit":true,"station_id":"MRI","distance":1275,"is_transit":true},{"is_transit":false,"station_id":"CKI","time":4,"distance":1590,"station_name":"Cikini","i_lat":-6.198556,"transit":false,"i_long":106.840169,"line":2},{"is_transit":false,"distance":1750,"station_name":"Gondangdia","i_long":106.832183,"station_id":"GDD","time":3,"line":2,"transit":false,"i_lat":-6.186295},{"station_id":"JUA","distance":2015,"station_name":"Juanda","line":2,"i_lat":-6.166716,"transit":false,"time":4,"i_long":106.828284,"is_transit":false},{"i_long":106.827103,"time":2,"distance":1149,"station_name":"Sawah Besar","line":2,"transit":false,"i_lat":-6.160725,"is_transit":false,"station_id":"SW"},{"is_transit":false,"distance":906,"station_id":"MGB","transit":false,"i_lat":-6.149769,"i_long":106.82482,"time":2,"station_name":"Manggabesar","line":2},{"station_name":"Jayakarta","time":2,"distance":1080,"i_lat":-6.141205,"transit":false,"is_transit":false,"station_id":"JAY","i_long":106.820901,"line":2},{"i_lat":-6.137569,"is_transit":true,"transit":true,"distance":1264,"station_name":"Jakarta Kota","line":2,"i_long":106.812439,"station_id":"JAKK","time":4},{"distance":1364,"is_transit":true,"i_long":106.826365,"station_name":"Kampung Bandan","transit":true,"i_lat":-6.132549,"line":4,"station_id":"KPB","time":3},{"is_transit":false,"i_long":106.79867,"station_id":"AK","line":1,"time":9,"transit":false,"distance":4102,"station_name":"Angke","i_lat":-6.144674},{"i_lat":-6.155215,"time":4,"i_long":106.800832,"station_id":"DU","transit":false,"is_transit":false,"station_name":"Duri","line":1,"distance":1230},{"station_id":"THB","is_transit":true,"i_long":106.811091,"time":8,"line":1,"distance":3632,"transit":true,"station_name":"Tanah Abang","i_lat":-6.185545},{"i_long":106.79689,"station_name":"Palmerah","line":6,"is_transit":false,"distance":3191,"transit":false,"i_lat":-6.207404,"station_id":"PLM","time":6},{"time":7,"transit":false,"distance":3737,"is_transit":false,"station_id":"KBY","line":6,"i_lat":-6.237242,"i_long":106.780334,"station_name":"Kebayoran"},{"distance":6218,"transit":false,"time":8,"is_transit":false,"line":6,"i_long":106.74273,"station_name":"Pondokranji","station_id":"PDJ","i_lat":-6.276362},{"distance":2179,"is_transit":false,"transit":false,"time":3,"i_lat":-6.288927,"i_long":106.728916,"line":6,"station_id":"JMU","station_name":"Jurangmangu"},{"distance":1994,"i_long":106.712277,"line":6,"time":4,"station_name":"Sudimara","i_lat":-6.296963,"station_id":"SDM","transit":false,"is_transit":false},{"station_id":"RU","i_lat":-6.314823,"is_transit":false,"time":6,"distance":4566,"line":6,"i_long":106.675475,"transit":false,"station_name":"Rawa Buntu"},{"time":4,"station_id":"SRP","station_name":"Serpong","distance":2413,"i_long":106.66566,"is_transit":false,"transit":false,"i_lat":-6.319871,"line":6},{"is_transit":false,"station_name":"Cisauk","transit":false,"line":3,"station_id":"CSK","i_long":106.640411,"time":4,"i_lat":-6.32484,"distance":1784},{"is_transit":false,"line":3,"transit":false,"i_long":106.617853,"station_id":"CC","time":4,"distance":2519,"station_name":"Cicayur","i_lat":-6.329547},{"is_transit":false,"distance":5968,"i_lat":-6.3441410000000005,"time":8,"i_long":106.568863,"station_name":"Parung Panjang","station_id":"PRP","line":6,"transit":false},{"transit":false,"line":3,"i_lat":-6.354349,"time":9,"distance":7025,"is_transit":false,"station_name":"Cilejit","i_long":106.508482,"station_id":"CJT"},{"i_lat":-6.338021,"i_long":106.491338,"time":6,"station_name":"Daru","line":0,"transit":false,"is_transit":false,"station_id":"DAR","distance":2675},{"time":5,"transit":false,"station_name":"Tenjo","i_lat":-6.327251,"line":6,"distance":3902,"station_id":"TEJ","is_transit":false,"i_long":106.460812}],[{"i_lat":-6.248029,"station_name":"Bekasi Timur","transit":false,"i_long":107.016735,"station_id":"BKST","distance":0,"line":1,"time":0,"is_transit":false},{"line":1,"is_transit":false,"time":2,"transit":false,"station_name":"Bekasi","station_id":"BKS","distance":2368,"i_lat":-6.236616,"i_long":106.997013},{"i_long":106.977657,"station_id":"KRI","line":1,"i_lat":-6.224515,"time":4,"is_transit":false,"distance":2520,"station_name":"Kranji","transit":false},{"transit":false,"station_id":"CUK","line":1,"time":3,"i_long":106.951283,"station_name":"Cakung","is_transit":false,"distance":3097,"i_lat":-6.219053},{"line":1,"station_id":"KLDB","time":8,"station_name":"Klenderbaru","distance":1385,"i_long":106.939679,"i_lat":-6.217455,"transit":false,"is_transit":false},{"line":1,"transit":false,"distance":1305,"i_lat":-6.215568,"station_id":"BUA","time":1,"is_transit":false,"station_name":"Buaran","i_long":106.922662},{"i_lat":-6.2135,"i_long":106.899548,"station_id":"KLD","station_name":"Klender","line":1,"is_transit":false,"transit":false,"time":2,"distance":3100},{"i_long":106.86807400000001,"distance":3395,"is_transit":true,"station_id":"JNG","station_name":"Jatinegara","transit":true,"time":3,"i_lat":-6.215091,"line":1},{"is_transit":false,"i_long":106.861737,"line":11,"station_name":"Pondok Jati","i_lat":-6.209188,"station_id":"POK","time":2,"transit":false,"distance":1236},{"transit":false,"time":2,"distance":1829,"station_name":"Kramat","i_lat":-6.193792,"station_id":"KMT","is_transit":false,"i_long":106.855437,"line":11},{"station_id":"GST","i_lat":-6.185975,"line":11,"transit":false,"distance":973,"is_transit":false,"time":1,"station_name":"Gang Sentiong","i_long":106.850107},{"distance":1567,"i_lat":-6.174784,"i_long":106.84368,"transit":false,"time":8,"is_transit":false,"station_id":"PSE","station_name":"Pasar Senen","line":11},{"i_lat":-6.161728,"transit":false,"is_transit":false,"time":4,"i_long":106.839204,"line":11,"station_id":"KMO","distance":1436,"station_name":"Kemayoran"},{"distance":1901,"time":5,"i_lat":-6.14505,"is_transit":false,"line":11,"i_long":106.836569,"transit":false,"station_name":"Rajawali","station_id":"RJW"},{"station_name":"Kampung Bandan","i_lat":-6.132549,"i_long":106.826365,"station_id":"KPB","time":3,"line":4,"transit":true,"is_transit":true,"distance":1444},{"is_transit":true,"time":3,"i_long":106.812439,"line":2,"station_id":"JAKK","distance":1364,"station_name":"Jakarta Kota","i_lat":-6.137569,"transit":true},{"station_id":"JAY","time":4,"line":2,"is_transit":false,"station_name":"Jayakarta","transit":false,"i_lat":-6.141205,"distance":1264,"i_long":106.820901},{"time":2,"distance":1080,"transit":false,"station_id":"MGB","i_long":106.82482,"station_name":"Manggabesar","is_transit":false,"i_lat":-6.149769,"line":2},{"station_id":"SW","station_name":"Sawah Besar","time":2,"line":2,"i_long":106.827103,"transit":false,"is_transit":false,"i_lat":-6.160725,"distance":906},{"time":2,"station_name":"Juanda","is_transit":false,"station_id":"JUA","transit":false,"i_lat":-6.166716,"distance":1149,"i_long":106.828284,"line":2},{"station_id":"GDD","line":2,"transit":false,"time":4,"station_name":"Gondangdia","i_long":106.832183,"distance":2015,"i_lat":-6.186295,"is_transit":false},{"is_transit":false,"station_id":"CKI","time":3,"i_lat":-6.198556,"line":2,"transit":false,"station_name":"Cikini","i_long":106.840169,"distance":1750},{"i_lat":-6.209883,"is_transit":true,"station_name":"Manggarai","station_id":"MRI","line":2,"time":4,"i_long":106.84912,"transit":true,"distance":1590},{"station_id":"SUD","station_name":"Sudirman","i_long":106.822649,"distance":3186,"is_transit":false,"transit":false,"line":1,"time":4,"i_lat":-6.202263},{"i_long":106.819881,"line":1,"transit":false,"is_transit":false,"time":1,"station_name":"Sudirman Baru","i_lat":-6.201433,"distance":280,"station_id":"SUDB"},{"line":1,"i_lat":-6.20132,"station_name":"Karet","is_transit":false,"distance":471,"time":1,"transit":false,"station_id":"KAT","i_long":106.816351},{"i_long":106.811091,"line":1,"i_lat":-6.185545,"station_id":"THB","distance":2029,"station_name":"Tanah Abang","is_transit":true,"transit":true,"time":5},{"i_lat":-6.207404,"station_id":"PLM","line":6,"time":6,"transit":false,"station_name":"Palmerah","i_long":106.79689,"distance":3191,"is_transit":false},{"time":7,"distance":3737,"line":6,"i_long":106.780334,"station_id":"KBY","is_transit":false,"transit":false,"station_name":"Kebayoran","i_lat":-6.237242},{"line":6,"time":8,"i_long":106.74273,"transit":false,"station_id":"PDJ","distance":6218,"i_lat":-6.276362,"is_transit":false,"station_name":"Pondokranji"},{"transit":false,"i_lat":-6.288927,"station_id":"JMU","i_long":106.728916,"is_transit":false,"time":3,"distance":2179,"line":6,"station_name":"Jurangmangu"},{"i_long":106.712277,"is_transit":false,"line":6,"transit":false,"time":4,"i_lat":-6.296963,"distance":1994,"station_name":"Sudimara","station_id":"SDM"},{"i_lat":-6.314823,"station_id":"RU","time":6,"line":6,"i_long":106.675475,"station_name":"Rawa Buntu","is_transit":false,"transit":false,"distance":4566},{"time":4,"station_name":"Serpong","i_lat":-6.319871,"i_long":106.66566,"distance":2413,"transit":false,"station_id":"SRP","line":6,"is_transit":false},{"distance":1784,"transit":false,"is_transit":false,"i_long":106.640411,"station_id":"CSK","station_name":"Cisauk","i_lat":-6.32484,"line":3,"time":4},{"i_long":106.617853,"distance":2519,"line":3,"transit":false,"is_transit":false,"station_name":"Cicayur","i_lat":-6.329547,"time":4,"station_id":"CC"},{"i_long":106.568863,"station_name":"Parung Panjang","is_transit":false,"line":6,"station_id":"PRP","transit":false,"time":8,"i_lat":-6.3441410000000005,"distance":5968},{"distance":7025,"is_transit":false,"i_lat":-6.354349,"station_id":"CJT","i_long":106.508482,"line":3,"station_name":"Cilejit","time":9,"transit":false},{"i_lat":-6.338021,"i_long":106.491338,"distance":2675,"transit":false,"line":0,"station_id":"DAR","time":6,"station_name":"Daru","is_transit":false},{"time":5,"i_lat":-6.327251,"station_name":"Tenjo","station_id":"TEJ","transit":false,"distance":3902,"i_long":106.460812,"line":6,"is_transit":false}]]}