{"data":[[{"line":1,"i_lat":-6.248029,"time":0,"station_name":"Bekasi Timur","distance":0,"station_id":"BKST","is_transit":false,"transit":false,"i_long":107.016735},{"transit":false,"line":1,"i_lat":-6.236616,"is_transit":false,"i_long":106.997013,"distance":2368,"time":2,"station_id":"BKS","station_name":"Bekasi"},{"station_id":"KRI","transit":false,"time":4,"is_transit":false,"i_lat":-6.224515,"distance":2520,"station_name":"Kranji","i_long":106.977657,"line":1},{"station_id":"CUK","i_lat":-6.219053,"time":3,"is_transit":false,"distance":3097,"line":1,"station_name":"Cakung","transit":false,"i_long":106.951283},{"station_name":"Klenderbaru","line":1,"distance":1385,"is_transit":false,"time":8,"station_id":"KLDB","transit":false,"i_long":106.939679,"i_lat":-6.217455},{"station_name":"Buaran","transit":false,"distance":1305,"line":1,"time":1,"i_long":106.922662,"station_id":"BUA","is_transit":false,"i_lat":-6.215568},{"time":2,"is_transit":false,"distance":3100,"i_long":106.899548,"line":1,"transit":false,"i_lat":-6.2135,"station_id":"KLD","station_name":"Klender"},{"station_id":"JNG","i_lat":-6.215091,"is_transit":false,"time":3,"line":1,"i_long":106.86807400000001,"station_name":"Jatinegara","transit":false,"distance":3395},{"line":1,"distance":1377,"station_id":"MTR","i_lat":-6.212485,"is_transit":false,"transit":false,"time":2,"station_name":"Matraman","i_long":106.858896},{"is_transit":false,"transit":false,"station_id":"MRI","line":2,"i_long":106.84912,"i_lat":-6.209883,"time":2,"distance":1275,"station_name":"Manggarai"},{"transit":false,"time":4,"station_id":"SUD","is_transit":false,"line":1,"station_name":"Sudirman","i_lat":-6.202263,"i_long":106.822649,"distance":3186},{"line":1,"i_long":106.819881,"distance":280,"is_transit":false,"i_lat":-6.201433,"station_id":"SUDB","transit":false,"time":1,"station_name":"Sudirman Baru"},{"station_name":"Karet","distance":471,"i_lat":-6.20132,"station_id":"KAT","transit":false,"i_long":106.816351,"line":1,"is_transit":false,"time":1},{"station_id":"THB","time":5,"is_transit":false,"distance":2029,"transit":false,"station_name":"Tanah Abang","i_lat":-6.185545,"i_long":106.811091,"line":1},{"is_transit":false,"station_id":"DU","transit":false,"distance":3632,"line":1,"station_name":"Duri","time":8,"i_lat":-6.155215,"i_long":106.800832},{"time":4,"i_lat":-6.144674,"station_name":"Angke","i_long":106.79867,"station_id":"AK","is_transit":false,"line":1,"distance":1230,"transit":false}],[{"distance":0,"line":1,"time":0,"is_transit":false,"i_long":107.016735,"station_name":"Bekasi Timur","station_id":"BKST","i_lat":-6.248029,"transit":false},{"transit":false,"is_transit":false,"line":1,"i_long":106.997013,"distance":2368,"time":2,"station_id":"BKS","i_lat":-6.236616,"station_name":"Bekasi"},{"i_long":106.977657,"distance":2520,"is_transit":false,"transit":false,"station_name":"Kranji","line":1,"time":4,"i_lat":-6.224515,"station_id":"KRI"},{"station_id":"CUK","i_lat":-6.219053,"is_transit":false,"transit":false,"time":3,"station_name":"Cakung","distance":3097,"line":1,"i_long":106.951283},{"line":1,"station_name":"Klenderbaru","i_lat":-6.217455,"transit":false,"distance":1385,"time":8,"is_transit":false,"i_long":106.939679,"station_id":"KLDB"},{"i_lat":-6.215568,"transit":false,"is_transit":false,"station_name":"Buaran","i_long":106.922662,"time":1,"station_id":"BUA","distance":1305,"line":1},{"i_long":106.899548,"station_id":"KLD","transit":false,"distance":3100,"time":2,"is_transit":false,"i_lat":-6.2135,"line":1,"station_name":"Klender"},{"i_long":106.86807400000001,"station_id":"JNG","line":1,"i_lat":-6.215091,"time":3,"is_transit":true,"transit":true,"distance":3395,"station_name":"Jatinegara"},{"line":11,"distance":1236,"station_name":"Pondok Jati","is_transit":false,"station_id":"POK","transit":false,"time":2,"i_long":106.861737,"i_lat":-6.209188},{"distance":1829,"i_long":106.855437,"station_name":"Kramat","i_lat":-6.193792,"transit":false,"line":11,"time":2,"is_transit":false,"station_id":"KMT"},{"i_lat":-6.185975,"is_transit":false,"distance":973,"i_long":106.850107,"transit":false,"line":11,"station_id":"GST","station_name":"Gang Sentiong","time":1},{"is_transit":false,"i_lat":-6.174784,"time":8,"distance":1567,"station_name":"Pasar Senen","line":11,"transit":false,"station_id":"PSE","i_long":106.84368},{"i_lat":-6.161728,"i_long":106.839204,"line":11,"is_transit":false,"distance":1436,"station_name":"Kemayoran","time":4,"transit":false,"station_id":"KMO"},{"distance":1901,"station_name":"Rajawali","i_long":106.836569,"transit":false,"line":11,"is_transit":false,"station_id":"RJW","i_lat":-6.14505,"time":5},{"distance":1444,"time":3,"i_lat":-6.132549,"station_id":"KPB","station_name":"Kampung Bandan","transit":true,"i_long":106.826365,"line":4,"is_transit":true},{"i_lat":-6.144674,"station_name":"Angke","station_id":"AK","is_transit":false,"transit":false,"distance":4102,"line":1,"time":9,"i_long":106.79867}],[{"i_long":107.016735,"station_name":"Bekasi Timur","transit":false,"line":1,"time":0,"distance":0,"station_id":"BKST","is_transit":false,"i_lat":-6.248029},{"station_id":"BKS","time":2,"distance":2368,"is_transit":false,"transit":false,"i_long":106.997013,"station_name":"Bekasi","line":1,"i_lat":-6.236616},{"is_transit":false,"station_name":"Kranji","time":4,"i_long":106.977657,"station_id":"KRI","transit":false,"i_lat":-6.224515,"line":1,"distance":2520},{"time":3,"distance":3097,"station_name":"Cakung","transit":false,"line":1,"station_id":"CUK","i_long":106.951283,"i_lat":-6.219053,"is_transit":false},{"station_id":"KLDB","time":8,"transit":false,"is_transit":false,"distance":1385,"station_name":"Klenderbaru","i_lat":-6.217455,"i_long":106.939679,"line":1},{"i_long":106.922662,"line":1,"station_id":"BUA","transit":false,"time":1,"station_name":"Buaran","distance":1305,"is_transit":false,"i_lat":-6.215568},{"transit":false,"is_transit":false,"line":1,"time":2,"distance":3100,"i_lat":-6.2135,"i_long":106.899548,"station_id":"KLD","station_name":"Klender"},{"i_long":106.86807400000001,"transit":false,"distance":3395,"i_lat":-6.215091,"station_id":"JNG","is_transit":false,"line":1,"time":3,"station_name":"Jatinegara"},{"station_name":"Matraman","line":1,"station_id":"MTR","i_lat":-6.212485,"transit":false,"time":2,"distance":1377,"is_transit":false,"i_long":106.858896},{"transit":true,"station_id":"MRI","i_long":106.84912,"i_lat":-6.209883,"station_name":"Manggarai","line":2,"time":2,"is_transit":true,"distance":1275},{"station_name":"Cikini","is_transit":false,"transit":false,"i_lat":-6.198556,"i_long":106.840169,"line":2,"time":4,"station_id":"CKI","distance":1590},{"i_lat":-6.186295,"distance":1750,"is_transit":false,"line":2,"i_long":106.832183,"station_name":"Gondangdia","time":3,"station_id":"GDD","transit":false},{"is_transit":false,"distance":2015,"i_lat":-6.166716,"i_long":106.828284,"station_id":"JUA","line":2,"time":4,"transit":false,"station_name":"Juanda"},{"transit":false,"i_lat":-6.160725,"i_long":106.827103,"line":2,"station_id":"SW","is_transit":false,"time":2,"distance":1149,"station_name":"Sawah Besar"},{"station_id":"MGB","is_transit":false,"i_lat":-6.149769,"transit":false,"station_name":"Manggabesar","distance":906,"i_long":106.82482,"time":2,"line":2},{"station_id":"JAY","station_name":"Jayakarta","is_transit":false,"line":2,"distance":1080,"i_lat":-6.141205,"i_long":106.820901,"transit":false,"time":2},{"station_id":"JAKK","line":2,"distance":1264,"is_transit":true,"time":4,"transit":true,"i_lat":-6.137569,"station_name":"Jakarta Kota","i_long":106.812439},{"transit":true,"time":3,"i_lat":-6.132549,"i_long":106.826365,"station_id":"KPB","distance":1364,"line":4,"is_transit":true,"station_name":"Kampung Bandan"},{"transit":false,"i_lat":-6.144674,"is_transit":false,"station_name":"Angke","station_id":"AK","distance":4102,"i_long":106.79867,"time":9,"line":1}],[{"station_name":"Bekasi Timur","station_id":"BKST","distance":0,"is_transit":false,"i_long":107.016735,"i_lat":-6.248029,"time":0,"line":1,"transit":false},{"time":2,"i_lat":-6.236616,"i_long":106.997013,"transit":false,"line":1,"station_name":"Bekasi","distance":2368,"is_transit":false,"station_id":"BKS"},{"time":4,"transit":false,"station_name":"Kranji","line":1,"i_long":106.977657,"i_lat":-6.224515,"station_id":"KRI","distance":2520,"is_transit":false},{"is_transit":false,"line":1,"i_lat":-6.219053,"station_id":"CUK","station_name":"Cakung","time":3,"i_long":106.951283,"transit":false,"distance":3097},{"station_name":"Klenderbaru","time":8,"distance":1385,"station_id":"KLDB","line":1,"i_long":106.939679,"is_transit":false,"transit":false,"i_lat":-6.217455},{"time":1,"line":1,"is_transit":false,"station_id":"BUA","station_name":"Buaran","distance":1305,"i_long":106.922662,"i_lat":-6.215568,"transit":false},{"time":2,"station_name":"Klender","transit":false,"line":1,"station_id":"KLD","i_long":106.899548,"distance":3100,"is_transit":false,"i_lat":-6.2135},{"distance":3395,"is_transit":true,"transit":true,"station_name":"Jatinegara","i_long":106.86807400000001,"station_id":"JNG","time":3,"i_lat":-6.215091,"line":1},{"station_name":"Pondok Jati","transit":false,"time":2,"is_transit":false,"station_id":"POK","i_long":106.861737,"line":11,"i_lat":-6.209188,"distance":1236},{"distance":1829,"transit":false,"line":11,"i_lat":-6.193792,"i_long":106.855437,"is_transit":false,"station_id":"KMT","time":2,"station_name":"Kramat"},{"is_transit":false,"station_name":"Gang Sentiong","transit":false,"i_long":106.850107,"line":11,"station_id":"GST","distance":973,"i_lat":-6.185975,"time":1},{"distance":1567,"station_id":"PSE","time":8,"i_lat":-6.174784,"station_name":"Pasar Senen","is_transit":false,"line":11,"i_long":106.84368,"transit":false},{"station_name":"Kemayoran","transit":false,"time":4,"i_lat":-6.161728,"is_transit":false,"line":11,"station_id":"KMO","distance":1436,"i_long":106.839204},{"station_id":"RJW","distance":1901,"time":5,"line":11,"station_name":"Rajawali","transit":false,"is_transit":false,"i_lat":-6.14505,"i_long":106.836569},{"transit":true,"station_name":"Kampung Bandan","is_transit":true,"station_id":"KPB","time":3,"i_long":106.826365,"distance":1444,"line":4,"i_lat":-6.132549},{"i_lat":-6.137569,"station_name":"Jakarta Kota","transit":true,"is_transit":true,"time":3,"i_long":106.812439,"station_id":"JAKK","distance":1364,"line":2},{"transit":false,"i_lat":-6.141205,"time":4,"station_id":"JAY","line":2,"distance":1264,"is_transit":false,"station_name":"Jayakarta","i_long":106.820901},{"line":2,"distance":1080,"transit":false,"is_transit":false,"station_id":"MGB","station_name":"Manggabesar","time":2,"i_lat":-6.149769,"i_long":106.82482},{"i_lat":-6.160725,"i_long":106.827103,"station_id":"SW","transit":false,"is_transit":false,"station_name":"Sawah Besar","time":2,"distance":906,"line":2},{"time":2,"i_lat":-6.166716,"i_long":106.828284,"line":2,"station_id":"JUA","station_name":"Juanda","is_transit":false,"distance":1149,"transit":false},{"time":4,"transit":false,"station_id":"GDD","line":2,"station_name":"Gondangdia","is_transit":false,"i_lat":-6.186295,"distance":2015,"i_long":106.832183},{"time":3,"i_lat":-6.198556,"i_long":106.840169,"station_id":"CKI","line":2,"station_name":"Cikini","is_transit":false,"transit":false,"distance":1750},{"is_transit":true,"station_name":"Manggarai","time":4,"line":2,"i_lat":-6.209883,"i_long":106.84912,"distance":1590,"station_id":"MRI","transit":true},{"i_lat":-6.202263,"station_id":"SUD","station_name":"Sudirman","distance":3186,"time":4,"is_transit":false,"transit":false,"i_long":106.822649,"line":1},{"transit":false,"i_long":106.819881,"station_name":"Sudirman Baru","i_lat":-6.201433,"is_transit":false,"station_id":"SUDB","distance":280,"line":1,"time":1},{"time":1,"is_transit":false,"distance":471,"station_name":"Karet","station_id":"KAT","transit":false,"i_long":106.816351,"line":1,"i_lat":-6.20132},{"is_transit":false,"i_long":106.811091,"station_name":"Tanah Abang","i_lat":-6.185545,"distance":2029,"transit":false,"time":5,"line":1,"station_id":"THB"},{"time":8,"is_transit":false,"distance":3632,"line":1,"i_long":106.800832,"station_name":"Duri","station_id":"DU","i_lat":-6.155215,"transit":false},{"station_id":"AK","i_long":106.79867,"i_lat":-6.144674,"line":1,"time":4,"is_transit":false,"transit":false,"distance":1230,"station_name":"Angke"}]]}