{"data":[[{"line":0,"i_long":107.016735,"station_id":"BKST","time":0,"station_name":"Bekasi Timur","is_transit":false,"distance":0,"transit":false,"i_lat":-6.248029},{"line":0,"station_name":"Bekasi","is_transit":false,"time":2,"distance":2368,"station_id":"BKS","transit":false,"i_lat":-6.236616,"i_long":106.997013},{"i_lat":-6.224515,"time":4,"line":1,"station_id":"KRI","is_transit":false,"i_long":106.977657,"distance":2520,"transit":false,"station_name":"Kranji"},{"i_lat":-6.219053,"line":0,"station_name":"Cakung","transit":false,"time":3,"is_transit":false,"i_long":106.951283,"distance":3097,"station_id":"CUK"},{"distance":1385,"is_transit":false,"station_name":"Klenderbaru","time":8,"i_long":106.939679,"i_lat":-6.217455,"transit":false,"station_id":"KLDB","line":1},{"line":0,"station_name":"Buaran","distance":1305,"station_id":"BUA","i_long":106.922662,"is_transit":false,"time":1,"transit":false,"i_lat":-6.215568},{"time":2,"line":1,"distance":3100,"is_transit":false,"transit":false,"station_name":"Klender","station_id":"KLD","i_lat":-6.2135,"i_long":106.899548},{"is_transit":true,"i_lat":-6.215091,"time":3,"station_name":"Jatinegara","i_long":106.86807400000001,"line":0,"transit":false,"station_id":"JNG","distance":3395},{"is_transit":false,"i_lat":-6.212485,"station_name":"Matraman","time":2,"station_id":"MTR","distance":1377,"line":1,"i_long":106.858896,"transit":false},{"station_id":"MRI","distance":1275,"station_name":"Manggarai","i_lat":-6.209883,"is_transit":true,"time":2,"transit":false,"line":0,"i_long":106.84912},{"station_name":"Sudirman","i_long":106.822649,"is_transit":false,"station_id":"SUD","i_lat":-6.202263,"time":4,"distance":3186,"line":1,"transit":false},{"is_transit":false,"time":1,"i_lat":-6.201433,"station_name":"Sudirman Baru","transit":false,"distance":280,"i_long":106.819881,"line":1,"station_id":"SUDB"},{"i_lat":-6.20132,"is_transit":false,"station_id":"KAT","distance":471,"station_name":"Karet","transit":false,"time":1,"i_long":106.816351,"line":1},{"i_long":106.811091,"line":1,"distance":2029,"time":5,"is_transit":true,"station_name":"Tanah Abang","station_id":"THB","transit":false,"i_lat":-6.185545}],[{"i_long":107.016735,"time":0,"station_id":"BKST","station_name":"Bekasi Timur","transit":false,"distance":0,"i_lat":-6.248029,"line":0,"is_transit":false},{"distance":2368,"transit":false,"is_transit":false,"line":0,"i_long":106.997013,"i_lat":-6.236616,"station_id":"BKS","time":2,"station_name":"Bekasi"},{"transit":false,"is_transit":false,"time":4,"distance":2520,"station_name":"Kranji","line":1,"i_lat":-6.224515,"station_id":"KRI","i_long":106.977657},{"i_lat":-6.219053,"distance":3097,"station_id":"CUK","is_transit":false,"transit":false,"i_long":106.951283,"line":0,"station_name":"Cakung","time":3},{"distance":1385,"i_lat":-6.217455,"station_name":"Klenderbaru","line":1,"i_long":106.939679,"transit":false,"is_transit":false,"time":8,"station_id":"KLDB"},{"distance":1305,"station_id":"BUA","transit":false,"time":1,"i_lat":-6.215568,"line":0,"station_name":"Buaran","is_transit":false,"i_long":106.922662},{"is_transit":false,"station_id":"KLD","line":1,"distance":3100,"station_name":"Klender","transit":false,"i_lat":-6.2135,"time":2,"i_long":106.899548},{"i_lat":-6.215091,"station_id":"JNG","distance":3395,"i_long":106.86807400000001,"station_name":"Jatinegara","line":0,"is_transit":true,"time":3,"transit":true},{"time":2,"line":11,"i_lat":-6.209188,"is_transit":false,"distance":1236,"station_name":"Pondok Jati","station_id":"POK","transit":false,"i_long":106.861737},{"transit":false,"i_lat":-6.193792,"station_name":"Kramat","time":2,"distance":1829,"station_id":"KMT","is_transit":false,"i_long":106.855437,"line":11},{"transit":false,"line":11,"is_transit":false,"i_long":106.850107,"time":1,"distance":973,"station_name":"Gang Sentiong","station_id":"GST","i_lat":-6.185975},{"distance":1567,"i_long":106.84368,"i_lat":-6.174784,"station_id":"PSE","station_name":"Pasar Senen","transit":false,"line":11,"time":8,"is_transit":false},{"is_transit":false,"station_id":"KMO","transit":false,"i_lat":-6.161728,"distance":1436,"i_long":106.839204,"time":4,"station_name":"Kemayoran","line":11},{"station_id":"RJW","i_lat":-6.14505,"time":5,"transit":false,"station_name":"Rajawali","i_long":106.836569,"line":11,"is_transit":false,"distance":1901},{"i_lat":-6.132549,"is_transit":true,"distance":1444,"transit":true,"station_id":"KPB","time":3,"line":0,"station_name":"Kampung Bandan","i_long":106.826365},{"line":0,"transit":false,"time":9,"is_transit":false,"i_long":106.79867,"distance":4102,"i_lat":-6.144674,"station_id":"AK","station_name":"Angke"},{"is_transit":true,"time":4,"station_name":"Duri","i_long":106.800832,"distance":1230,"line":1,"station_id":"DU","transit":true,"i_lat":-6.155215},{"transit":false,"i_long":106.811091,"time":8,"station_id":"THB","distance":3632,"is_transit":true,"i_lat":-6.185545,"line":1,"station_name":"Tanah Abang"}],[{"transit":false,"i_lat":-6.248029,"station_id":"BKST","is_transit":false,"distance":0,"i_long":107.016735,"line":0,"time":0,"station_name":"Bekasi Timur"},{"i_long":106.997013,"transit":false,"line":0,"distance":2368,"i_lat":-6.236616,"is_transit":false,"time":2,"station_name":"Bekasi","station_id":"BKS"},{"time":4,"is_transit":false,"i_lat":-6.224515,"station_name":"Kranji","station_id":"KRI","distance":2520,"line":1,"transit":false,"i_long":106.977657},{"time":3,"distance":3097,"transit":false,"line":0,"is_transit":false,"i_lat":-6.219053,"station_id":"CUK","station_name":"Cakung","i_long":106.951283},{"transit":false,"station_id":"KLDB","is_transit":false,"time":8,"i_lat":-6.217455,"i_long":106.939679,"line":1,"distance":1385,"station_name":"Klenderbaru"},{"station_name":"Buaran","i_long":106.922662,"i_lat":-6.215568,"time":1,"line":0,"is_transit":false,"station_id":"BUA","distance":1305,"transit":false},{"time":2,"distance":3100,"station_name":"Klender","station_id":"KLD","transit":false,"i_lat":-6.2135,"is_transit":false,"i_long":106.899548,"line":1},{"i_long":106.86807400000001,"is_transit":true,"distance":3395,"line":0,"i_lat":-6.215091,"time":3,"transit":false,"station_id":"JNG","station_name":"Jatinegara"},{"i_long":106.858896,"time":2,"is_transit":false,"station_id":"MTR","station_name":"Matraman","line":1,"distance":1377,"transit":false,"i_lat":-6.212485},{"i_lat":-6.209883,"station_id":"MRI","time":2,"distance":1275,"transit":true,"line":0,"station_name":"Manggarai","i_long":106.84912,"is_transit":true},{"station_name":"Cikini","is_transit":false,"distance":1590,"i_lat":-6.198556,"time":4,"i_long":106.840169,"line":0,"station_id":"CKI","transit":false},{"distance":1750,"i_long":106.832183,"station_id":"GDD","station_name":"Gondangdia","line":2,"time":3,"is_transit":false,"i_lat":-6.186295,"transit":false},{"station_name":"Juanda","line":2,"is_transit":false,"station_id":"JUA","time":4,"i_lat":-6.166716,"i_long":106.828284,"distance":2015,"transit":false},{"station_id":"SW","is_transit":false,"time":2,"distance":1149,"i_long":106.827103,"transit":false,"station_name":"Sawah Besar","i_lat":-6.160725,"line":2},{"i_lat":-6.149769,"i_long":106.82482,"line":2,"distance":906,"station_id":"MGB","is_transit":false,"station_name":"Manggabesar","transit":false,"time":2},{"line":7,"time":2,"transit":false,"i_lat":-6.141205,"is_transit":false,"station_id":"JAY","distance":1080,"i_long":106.820901,"station_name":"Jayakarta"},{"i_long":106.812439,"station_name":"Jakarta Kota","line":0,"transit":true,"distance":1264,"i_lat":-6.137569,"is_transit":true,"station_id":"JAKK","time":4},{"station_id":"KPB","time":3,"transit":false,"distance":1364,"line":0,"i_long":106.826365,"i_lat":-6.132549,"is_transit":true,"station_name":"Kampung Bandan"},{"i_long":106.79867,"line":0,"distance":4102,"i_lat":-6.144674,"is_transit":false,"transit":false,"station_id":"AK","time":9,"station_name":"Angke"},{"i_lat":-6.155215,"station_name":"Duri","station_id":"DU","line":1,"is_transit":true,"time":4,"distance":1230,"transit":true,"i_long":106.800832},{"i_long":106.811091,"line":1,"station_id":"THB","transit":false,"station_name":"Tanah Abang","is_transit":true,"distance":3632,"i_lat":-6.185545,"time":8}],[{"distance":0,"time":0,"station_id":"BKST","transit":false,"is_transit":false,"i_long":107.016735,"line":0,"station_name":"Bekasi Timur","i_lat":-6.248029},{"station_id":"BKS","distance":2368,"time":2,"i_lat":-6.236616,"station_name":"Bekasi","line":0,"i_long":106.997013,"is_transit":false,"transit":false},{"is_transit":false,"station_name":"Kranji","time":4,"i_lat":-6.224515,"station_id":"KRI","transit":false,"distance":2520,"i_long":106.977657,"line":1},{"station_id":"CUK","transit":false,"i_lat":-6.219053,"time":3,"distance":3097,"station_name":"Cakung","i_long":106.951283,"line":0,"is_transit":false},{"i_long":106.939679,"i_lat":-6.217455,"is_transit":false,"station_id":"KLDB","time":8,"distance":1385,"station_name":"Klenderbaru","transit":false,"line":1},{"i_long":106.922662,"i_lat":-6.215568,"transit":false,"is_transit":false,"station_name":"Buaran","time":1,"line":0,"station_id":"BUA","distance":1305},{"i_lat":-6.2135,"is_transit":false,"station_id":"KLD","transit":false,"time":2,"i_long":106.899548,"line":1,"station_name":"Klender","distance":3100},{"i_lat":-6.215091,"time":3,"station_id":"JNG","station_name":"Jatinegara","i_long":106.86807400000001,"line":0,"is_transit":true,"distance":3395,"transit":true},{"i_long":106.861737,"station_id":"POK","transit":false,"time":2,"line":11,"distance":1236,"station_name":"Pondok Jati","is_transit":false,"i_lat":-6.209188},{"line":11,"i_lat":-6.193792,"distance":1829,"station_id":"KMT","time":2,"is_transit":false,"transit":false,"station_name":"Kramat","i_long":106.855437},{"station_id":"GST","i_long":106.850107,"line":11,"i_lat":-6.185975,"station_name":"Gang Sentiong","time":1,"distance":973,"transit":false,"is_transit":false},{"i_lat":-6.174784,"line":11,"station_id":"PSE","time":8,"station_name":"Pasar Senen","transit":false,"is_transit":false,"distance":1567,"i_long":106.84368},{"i_lat":-6.161728,"distance":1436,"station_name":"Kemayoran","station_id":"KMO","i_long":106.839204,"transit":false,"line":11,"is_transit":false,"time":4},{"i_long":106.836569,"distance":1901,"i_lat":-6.14505,"transit":false,"line":11,"is_transit":false,"station_name":"Rajawali","station_id":"RJW","time":5},{"time":3,"distance":1444,"station_name":"Kampung Bandan","transit":true,"station_id":"KPB","is_transit":true,"i_long":106.826365,"line":0,"i_lat":-6.132549},{"transit":true,"i_lat":-6.137569,"station_id":"JAKK","line":0,"i_long":106.812439,"time":3,"distance":1364,"station_name":"Jakarta Kota","is_transit":true},{"station_id":"JAY","distance":1264,"transit":false,"line":7,"station_name":"Jayakarta","i_lat":-6.141205,"is_transit":false,"time":4,"i_long":106.820901},{"i_lat":-6.149769,"line":2,"time":2,"is_transit":false,"distance":1080,"i_long":106.82482,"station_name":"Manggabesar","transit":false,"station_id":"MGB"},{"station_id":"SW","is_transit":false,"transit":false,"distance":906,"station_name":"Sawah Besar","i_lat":-6.160725,"time":2,"i_long":106.827103,"line":2},{"station_name":"Juanda","time":2,"i_lat":-6.166716,"transit":false,"line":2,"station_id":"JUA","i_long":106.828284,"is_transit":false,"distance":1149},{"distance":2015,"line":2,"station_name":"Gondangdia","station_id":"GDD","i_lat":-6.186295,"i_long":106.832183,"is_transit":false,"transit":false,"time":4},{"time":3,"station_name":"Cikini","is_transit":false,"i_lat":-6.198556,"i_long":106.840169,"transit":false,"line":0,"distance":1750,"station_id":"CKI"},{"time":4,"line":0,"station_name":"Manggarai","i_lat":-6.209883,"is_transit":true,"station_id":"MRI","transit":true,"i_long":106.84912,"distance":1590},{"i_long":106.822649,"distance":3186,"time":4,"transit":false,"line":1,"station_id":"SUD","is_transit":false,"i_lat":-6.202263,"station_name":"Sudirman"},{"station_id":"SUDB","station_name":"Sudirman Baru","transit":false,"line":1,"is_transit":false,"distance":280,"i_long":106.819881,"i_lat":-6.201433,"time":1},{"station_id":"KAT","line":1,"time":1,"station_name":"Karet","i_lat":-6.20132,"is_transit":false,"i_long":106.816351,"transit":false,"distance":471},{"station_id":"THB","i_long":106.811091,"station_name":"Tanah Abang","line":1,"time":5,"distance":2029,"is_transit":true,"i_lat":-6.185545,"transit":false}]]}