{"data":[[{"i_lat":-6.248029,"station_name":"Bekasi Timur","station_id":"BKST","time":0,"distance":0,"i_long":107.016735,"transit":false,"is_transit":false,"line":1},{"time":2,"line":1,"distance":2368,"transit":false,"station_name":"Bekasi","station_id":"BKS","is_transit":false,"i_long":106.997013,"i_lat":-6.236616},{"station_id":"KRI","distance":2520,"i_long":106.977657,"is_transit":false,"i_lat":-6.224515,"line":1,"transit":false,"station_name":"Kranji","time":4},{"transit":false,"time":3,"i_lat":-6.219053,"i_long":106.951283,"distance":3097,"line":1,"station_name":"Cakung","is_transit":false,"station_id":"CUK"},{"station_id":"KLDB","station_name":"Klenderbaru","line":1,"distance":1385,"i_lat":-6.217455,"is_transit":false,"transit":false,"i_long":106.939679,"time":8},{"transit":false,"i_long":106.922662,"is_transit":false,"distance":1305,"station_name":"Buaran","i_lat":-6.215568,"station_id":"BUA","time":1,"line":1},{"line":1,"station_id":"KLD","distance":3100,"i_long":106.899548,"is_transit":false,"transit":false,"station_name":"Klender","i_lat":-6.2135,"time":2},{"transit":false,"station_name":"Jatinegara","station_id":"JNG","is_transit":false,"line":1,"time":3,"distance":3395,"i_long":106.86807400000001,"i_lat":-6.215091},{"line":1,"distance":1377,"transit":false,"station_name":"Matraman","is_transit":false,"time":2,"i_long":106.858896,"station_id":"MTR","i_lat":-6.212485},{"distance":1275,"line":2,"i_long":106.84912,"i_lat":-6.209883,"is_transit":false,"transit":false,"time":2,"station_name":"Manggarai","station_id":"MRI"},{"station_id":"SUD","transit":false,"is_transit":false,"time":4,"i_lat":-6.202263,"distance":3186,"station_name":"Sudirman","i_long":106.822649,"line":1},{"distance":280,"station_name":"Sudirman Baru","is_transit":false,"line":1,"i_long":106.819881,"time":1,"i_lat":-6.201433,"transit":false,"station_id":"SUDB"},{"is_transit":false,"station_name":"Karet","transit":false,"station_id":"KAT","time":1,"distance":471,"i_long":106.816351,"line":1,"i_lat":-6.20132},{"transit":true,"time":5,"line":1,"is_transit":true,"distance":2029,"station_name":"Tanah Abang","i_long":106.811091,"station_id":"THB","i_lat":-6.185545},{"i_lat":-6.207404,"i_long":106.79689,"transit":false,"is_transit":false,"station_name":"Palmerah","time":6,"distance":3191,"station_id":"PLM","line":6},{"time":7,"transit":false,"station_name":"Kebayoran","i_lat":-6.237242,"line":6,"i_long":106.780334,"station_id":"KBY","is_transit":false,"distance":3737},{"distance":6218,"transit":false,"i_lat":-6.276362,"time":8,"station_name":"Pondokranji","i_long":106.74273,"line":6,"is_transit":false,"station_id":"PDJ"},{"station_name":"Jurangmangu","distance":2179,"time":3,"i_long":106.728916,"transit":false,"is_transit":false,"i_lat":-6.288927,"station_id":"JMU","line":6},{"i_lat":-6.296963,"i_long":106.712277,"station_name":"Sudimara","station_id":"SDM","is_transit":false,"line":6,"transit":false,"time":4,"distance":1994},{"is_transit":false,"distance":4566,"station_name":"Rawa Buntu","i_lat":-6.314823,"time":6,"i_long":106.675475,"station_id":"RU","line":6,"transit":false},{"transit":false,"station_id":"SRP","time":4,"station_name":"Serpong","line":6,"i_lat":-6.319871,"is_transit":false,"distance":2413,"i_long":106.66566},{"distance":1784,"line":3,"transit":false,"station_name":"Cisauk","is_transit":false,"station_id":"CSK","i_lat":-6.32484,"i_long":106.640411,"time":4},{"i_long":106.617853,"line":3,"distance":2519,"transit":false,"i_lat":-6.329547,"station_name":"Cicayur","station_id":"CC","is_transit":false,"time":4},{"transit":false,"station_name":"Parung Panjang","is_transit":false,"station_id":"PRP","line":6,"time":8,"distance":5968,"i_lat":-6.3441410000000005,"i_long":106.568863},{"i_long":106.508482,"time":9,"line":3,"station_name":"Cilejit","distance":7025,"i_lat":-6.354349,"station_id":"CJT","transit":false,"is_transit":false},{"distance":2675,"transit":false,"i_long":106.491338,"station_name":"Daru","station_id":"DAR","is_transit":false,"line":0,"time":6,"i_lat":-6.338021},{"distance":3902,"i_long":106.460812,"line":6,"is_transit":false,"transit":false,"station_name":"Tenjo","station_id":"TEJ","i_lat":-6.327251,"time":5}],[{"time":0,"station_id":"BKST","distance":0,"transit":false,"i_lat":-6.248029,"is_transit":false,"line":1,"station_name":"Bekasi Timur","i_long":107.016735},{"station_id":"BKS","station_name":"Bekasi","distance":2368,"is_transit":false,"time":2,"i_long":106.997013,"line":1,"transit":false,"i_lat":-6.236616},{"distance":2520,"i_lat":-6.224515,"station_id":"KRI","time":4,"is_transit":false,"station_name":"Kranji","transit":false,"line":1,"i_long":106.977657},{"station_id":"CUK","time":3,"is_transit":false,"i_lat":-6.219053,"line":1,"transit":false,"distance":3097,"i_long":106.951283,"station_name":"Cakung"},{"distance":1385,"i_lat":-6.217455,"time":8,"station_name":"Klenderbaru","station_id":"KLDB","is_transit":false,"transit":false,"i_long":106.939679,"line":1},{"time":1,"is_transit":false,"station_id":"BUA","line":1,"i_long":106.922662,"transit":false,"distance":1305,"station_name":"Buaran","i_lat":-6.215568},{"line":1,"time":2,"distance":3100,"i_long":106.899548,"station_id":"KLD","station_name":"Klender","is_transit":false,"i_lat":-6.2135,"transit":false},{"transit":true,"i_lat":-6.215091,"station_id":"JNG","station_name":"Jatinegara","is_transit":true,"time":3,"distance":3395,"i_long":106.86807400000001,"line":1},{"i_lat":-6.209188,"transit":false,"distance":1236,"station_name":"Pondok Jati","line":11,"station_id":"POK","is_transit":false,"time":2,"i_long":106.861737},{"i_long":106.855437,"line":11,"station_name":"Kramat","time":2,"i_lat":-6.193792,"is_transit":false,"station_id":"KMT","transit":false,"distance":1829},{"i_lat":-6.185975,"station_name":"Gang Sentiong","is_transit":false,"line":11,"time":1,"transit":false,"station_id":"GST","distance":973,"i_long":106.850107},{"station_id":"PSE","i_long":106.84368,"is_transit":false,"transit":false,"i_lat":-6.174784,"distance":1567,"time":8,"station_name":"Pasar Senen","line":11},{"transit":false,"station_id":"KMO","time":4,"distance":1436,"station_name":"Kemayoran","is_transit":false,"i_lat":-6.161728,"line":11,"i_long":106.839204},{"station_name":"Rajawali","is_transit":false,"transit":false,"distance":1901,"station_id":"RJW","i_long":106.836569,"i_lat":-6.14505,"time":5,"line":11},{"line":4,"transit":true,"distance":1444,"station_name":"Kampung Bandan","time":3,"station_id":"KPB","i_long":106.826365,"is_transit":true,"i_lat":-6.132549},{"station_name":"Angke","i_long":106.79867,"is_transit":false,"distance":4102,"line":1,"transit":false,"time":9,"station_id":"AK","i_lat":-6.144674},{"station_id":"DU","i_long":106.800832,"line":1,"distance":1230,"i_lat":-6.155215,"station_name":"Duri","time":4,"is_transit":false,"transit":false},{"station_name":"Tanah Abang","is_transit":true,"time":8,"station_id":"THB","distance":3632,"i_lat":-6.185545,"line":1,"i_long":106.811091,"transit":true},{"station_id":"PLM","time":6,"i_lat":-6.207404,"i_long":106.79689,"is_transit":false,"line":6,"transit":false,"distance":3191,"station_name":"Palmerah"},{"is_transit":false,"line":6,"transit":false,"i_lat":-6.237242,"station_name":"Kebayoran","station_id":"KBY","distance":3737,"time":7,"i_long":106.780334},{"i_lat":-6.276362,"distance":6218,"line":6,"station_id":"PDJ","transit":false,"is_transit":false,"station_name":"Pondokranji","i_long":106.74273,"time":8},{"station_name":"Jurangmangu","time":3,"is_transit":false,"i_long":106.728916,"transit":false,"station_id":"JMU","i_lat":-6.288927,"line":6,"distance":2179},{"station_id":"SDM","distance":1994,"time":4,"transit":false,"line":6,"station_name":"Sudimara","i_lat":-6.296963,"is_transit":false,"i_long":106.712277},{"i_long":106.675475,"station_name":"Rawa Buntu","is_transit":false,"i_lat":-6.314823,"distance":4566,"line":6,"station_id":"RU","transit":false,"time":6},{"station_id":"SRP","transit":false,"station_name":"Serpong","i_long":106.66566,"distance":2413,"i_lat":-6.319871,"time":4,"line":6,"is_transit":false},{"time":4,"station_id":"CSK","i_lat":-6.32484,"distance":1784,"station_name":"Cisauk","is_transit":false,"i_long":106.640411,"line":3,"transit":false},{"station_id":"CC","line":3,"transit":false,"station_name":"Cicayur","i_long":106.617853,"i_lat":-6.329547,"distance":2519,"is_transit":false,"time":4},{"distance":5968,"i_lat":-6.3441410000000005,"is_transit":false,"station_name":"Parung Panjang","line":6,"time":8,"transit":false,"station_id":"PRP","i_long":106.568863},{"distance":7025,"line":3,"i_long":106.508482,"station_id":"CJT","time":9,"transit":false,"station_name":"Cilejit","is_transit":false,"i_lat":-6.354349},{"distance":2675,"i_long":106.491338,"station_id":"DAR","is_transit":false,"time":6,"transit":false,"i_lat":-6.338021,"line":0,"station_name":"Daru"},{"line":6,"is_transit":false,"transit":false,"time":5,"distance":3902,"station_id":"TEJ","station_name":"Tenjo","i_long":106.460812,"i_lat":-6.327251}],[{"station_name":"Bekasi Timur","is_transit":false,"time":0,"distance":0,"line":1,"i_long":107.016735,"station_id":"BKST","transit":false,"i_lat":-6.248029},{"i_lat":-6.236616,"station_id":"BKS","transit":false,"time":2,"is_transit":false,"distance":2368,"line":1,"station_name":"Bekasi","i_long":106.997013},{"station_id":"KRI","i_lat":-6.224515,"line":1,"transit":false,"distance":2520,"station_name":"Kranji","i_long":106.977657,"time":4,"is_transit":false},{"station_name":"Cakung","distance":3097,"i_lat":-6.219053,"i_long":106.951283,"line":1,"transit":false,"time":3,"is_transit":false,"station_id":"CUK"},{"station_name":"Klenderbaru","i_lat":-6.217455,"is_transit":false,"distance":1385,"i_long":106.939679,"line":1,"station_id":"KLDB","transit":false,"time":8},{"is_transit":false,"station_name":"Buaran","distance":1305,"transit":false,"i_long":106.922662,"line":1,"station_id":"BUA","time":1,"i_lat":-6.215568},{"station_name":"Klender","time":2,"i_lat":-6.2135,"i_long":106.899548,"line":1,"station_id":"KLD","is_transit":false,"distance":3100,"transit":false},{"i_long":106.86807400000001,"transit":false,"time":3,"is_transit":false,"distance":3395,"i_lat":-6.215091,"station_name":"Jatinegara","line":1,"station_id":"JNG"},{"transit":false,"i_long":106.858896,"time":2,"is_transit":false,"i_lat":-6.212485,"line":1,"station_name":"Matraman","station_id":"MTR","distance":1377},{"time":2,"i_lat":-6.209883,"is_transit":true,"transit":true,"station_name":"Manggarai","line":2,"station_id":"MRI","distance":1275,"i_long":106.84912},{"is_transit":false,"i_lat":-6.198556,"line":2,"station_name":"Cikini","i_long":106.840169,"distance":1590,"transit":false,"station_id":"CKI","time":4},{"i_long":106.832183,"line":2,"time":3,"transit":false,"station_name":"Gondangdia","i_lat":-6.186295,"is_transit":false,"distance":1750,"station_id":"GDD"},{"time":4,"line":2,"station_name":"Juanda","transit":false,"station_id":"JUA","distance":2015,"i_lat":-6.166716,"i_long":106.828284,"is_transit":false},{"line":2,"time":2,"station_name":"Sawah Besar","distance":1149,"transit":false,"station_id":"SW","i_long":106.827103,"is_transit":false,"i_lat":-6.160725},{"i_lat":-6.149769,"transit":false,"time":2,"station_name":"Manggabesar","distance":906,"i_long":106.82482,"is_transit":false,"station_id":"MGB","line":2},{"i_long":106.820901,"station_name":"Jayakarta","line":2,"is_transit":false,"i_lat":-6.141205,"station_id":"JAY","time":2,"transit":false,"distance":1080},{"station_id":"JAKK","is_transit":true,"line":2,"distance":1264,"station_name":"Jakarta Kota","i_long":106.812439,"i_lat":-6.137569,"time":4,"transit":true},{"station_id":"KPB","time":3,"i_long":106.826365,"transit":true,"station_name":"Kampung Bandan","distance":1364,"i_lat":-6.132549,"is_transit":true,"line":4},{"station_id":"AK","is_transit":false,"station_name":"Angke","time":9,"i_lat":-6.144674,"distance":4102,"line":1,"i_long":106.79867,"transit":false},{"line":1,"time":4,"distance":1230,"i_lat":-6.155215,"station_id":"DU","station_name":"Duri","i_long":106.800832,"transit":false,"is_transit":false},{"transit":true,"station_id":"THB","line":1,"distance":3632,"time":8,"is_transit":true,"i_lat":-6.185545,"station_name":"Tanah Abang","i_long":106.811091},{"distance":3191,"transit":false,"i_long":106.79689,"time":6,"station_id":"PLM","i_lat":-6.207404,"line":6,"is_transit":false,"station_name":"Palmerah"},{"transit":false,"line":6,"time":7,"i_lat":-6.237242,"distance":3737,"station_name":"Kebayoran","station_id":"KBY","is_transit":false,"i_long":106.780334},{"transit":false,"is_transit":false,"station_id":"PDJ","station_name":"Pondokranji","i_lat":-6.276362,"i_long":106.74273,"time":8,"distance":6218,"line":6},{"station_id":"JMU","distance":2179,"i_long":106.728916,"time":3,"line":6,"i_lat":-6.288927,"is_transit":false,"station_name":"Jurangmangu","transit":false},{"station_id":"SDM","i_long":106.712277,"i_lat":-6.296963,"distance":1994,"transit":false,"time":4,"line":6,"station_name":"Sudimara","is_transit":false},{"i_lat":-6.314823,"station_id":"RU","is_transit":false,"station_name":"Rawa Buntu","transit":false,"i_long":106.675475,"time":6,"distance":4566,"line":6},{"station_id":"SRP","transit":false,"is_transit":false,"station_name":"Serpong","distance":2413,"i_lat":-6.319871,"i_long":106.66566,"line":6,"time":4},{"is_transit":false,"distance":1784,"station_name":"Cisauk","i_lat":-6.32484,"station_id":"CSK","time":4,"line":3,"transit":false,"i_long":106.640411},{"transit":false,"i_long":106.617853,"i_lat":-6.329547,"time":4,"distance":2519,"station_name":"Cicayur","line":3,"station_id":"CC","is_transit":false},{"station_id":"PRP","transit":false,"i_lat":-6.3441410000000005,"is_transit":false,"line":6,"i_long":106.568863,"station_name":"Parung Panjang","time":8,"distance":5968},{"station_name":"Cilejit","station_id":"CJT","transit":false,"distance":7025,"time":9,"i_lat":-6.354349,"i_long":106.508482,"line":3,"is_transit":false},{"transit":false,"i_lat":-6.338021,"line":0,"is_transit":false,"station_id":"DAR","i_long":106.491338,"station_name":"Daru","time":6,"distance":2675},{"distance":3902,"station_id":"TEJ","transit":false,"station_name":"Tenjo","time":5,"i_long":106.460812,"i_lat":-6.327251,"is_transit":false,"line":6}],[{"distance":0,"i_long":107.016735,"station_id":"BKST","station_name":"Bekasi Timur","i_lat":-6.248029,"line":1,"time":0,"is_transit":false,"transit":false},{"i_lat":-6.236616,"is_transit":false,"station_name":"Bekasi","station_id":"BKS","distance":2368,"line":1,"transit":false,"time":2,"i_long":106.997013},{"station_id":"KRI","distance":2520,"i_long":106.977657,"line":1,"station_name":"Kranji","i_lat":-6.224515,"time":4,"transit":false,"is_transit":false},{"station_name":"Cakung","line":1,"transit":false,"is_transit":false,"time":3,"distance":3097,"i_lat":-6.219053,"station_id":"CUK","i_long":106.951283},{"is_transit":false,"i_long":106.939679,"station_id":"KLDB","time":8,"transit":false,"station_name":"Klenderbaru","distance":1385,"i_lat":-6.217455,"line":1},{"station_name":"Buaran","transit":false,"distance":1305,"i_long":106.922662,"station_id":"BUA","time":1,"is_transit":false,"i_lat":-6.215568,"line":1},{"distance":3100,"station_id":"KLD","line":1,"i_lat":-6.2135,"transit":false,"is_transit":false,"time":2,"station_name":"Klender","i_long":106.899548},{"transit":true,"is_transit":true,"line":1,"station_name":"Jatinegara","station_id":"JNG","distance":3395,"i_lat":-6.215091,"i_long":106.86807400000001,"time":3},{"i_long":106.861737,"station_id":"POK","transit":false,"station_name":"Pondok Jati","time":2,"line":11,"is_transit":false,"i_lat":-6.209188,"distance":1236},{"time":2,"station_name":"Kramat","i_lat":-6.193792,"i_long":106.855437,"station_id":"KMT","distance":1829,"transit":false,"is_transit":false,"line":11},{"i_long":106.850107,"line":11,"i_lat":-6.185975,"transit":false,"distance":973,"is_transit":false,"time":1,"station_id":"GST","station_name":"Gang Sentiong"},{"is_transit":false,"time":8,"line":11,"transit":false,"station_name":"Pasar Senen","station_id":"PSE","i_lat":-6.174784,"distance":1567,"i_long":106.84368},{"i_lat":-6.161728,"i_long":106.839204,"station_id":"KMO","transit":false,"time":4,"station_name":"Kemayoran","distance":1436,"line":11,"is_transit":false},{"time":5,"distance":1901,"i_long":106.836569,"is_transit":false,"transit":false,"station_name":"Rajawali","line":11,"station_id":"RJW","i_lat":-6.14505},{"distance":1444,"station_name":"Kampung Bandan","time":3,"i_lat":-6.132549,"transit":true,"i_long":106.826365,"line":4,"station_id":"KPB","is_transit":true},{"i_lat":-6.137569,"station_name":"Jakarta Kota","transit":true,"line":2,"time":3,"is_transit":true,"i_long":106.812439,"distance":1364,"station_id":"JAKK"},{"transit":false,"station_name":"Jayakarta","i_long":106.820901,"is_transit":false,"station_id":"JAY","line":2,"i_lat":-6.141205,"distance":1264,"time":4},{"time":2,"i_long":106.82482,"is_transit":false,"station_id":"MGB","distance":1080,"station_name":"Manggabesar","i_lat":-6.149769,"line":2,"transit":false},{"station_id":"SW","is_transit":false,"distance":906,"transit":false,"i_lat":-6.160725,"station_name":"Sawah Besar","i_long":106.827103,"line":2,"time":2},{"is_transit":false,"station_name":"Juanda","distance":1149,"transit":false,"time":2,"i_lat":-6.166716,"i_long":106.828284,"line":2,"station_id":"JUA"},{"time":4,"is_transit":false,"transit":false,"i_long":106.832183,"station_id":"GDD","line":2,"i_lat":-6.186295,"station_name":"Gondangdia","distance":2015},{"time":3,"is_transit":false,"transit":false,"station_id":"CKI","station_name":"Cikini","i_long":106.840169,"distance":1750,"line":2,"i_lat":-6.198556},{"station_name":"Manggarai","i_lat":-6.209883,"is_transit":true,"i_long":106.84912,"line":2,"time":4,"station_id":"MRI","transit":true,"distance":1590},{"station_id":"SUD","line":1,"is_transit":false,"i_lat":-6.202263,"transit":false,"station_name":"Sudirman","distance":3186,"time":4,"i_long":106.822649},{"transit":false,"station_name":"Sudirman Baru","is_transit":false,"line":1,"station_id":"SUDB","distance":280,"i_lat":-6.201433,"i_long":106.819881,"time":1},{"line":1,"distance":471,"station_name":"Karet","time":1,"i_lat":-6.20132,"station_id":"KAT","i_long":106.816351,"is_transit":false,"transit":false},{"i_long":106.811091,"station_name":"Tanah Abang","station_id":"THB","distance":2029,"i_lat":-6.185545,"transit":true,"line":1,"is_transit":true,"time":5},{"station_name":"Palmerah","distance":3191,"is_transit":false,"transit":false,"time":6,"i_lat":-6.207404,"station_id":"PLM","line":6,"i_long":106.79689},{"i_lat":-6.237242,"line":6,"station_id":"KBY","station_name":"Kebayoran","i_long":106.780334,"is_transit":false,"distance":3737,"transit":false,"time":7},{"station_name":"Pondokranji","time":8,"i_lat":-6.276362,"transit":false,"is_transit":false,"i_long":106.74273,"distance":6218,"line":6,"station_id":"PDJ"},{"distance":2179,"is_transit":false,"transit":false,"time":3,"i_lat":-6.288927,"line":6,"station_id":"JMU","station_name":"Jurangmangu","i_long":106.728916},{"i_long":106.712277,"transit":false,"time":4,"distance":1994,"is_transit":false,"line":6,"station_name":"Sudimara","station_id":"SDM","i_lat":-6.296963},{"distance":4566,"transit":false,"is_transit":false,"time":6,"i_lat":-6.314823,"station_id":"RU","i_long":106.675475,"station_name":"Rawa Buntu","line":6},{"time":4,"station_name":"Serpong","i_lat":-6.319871,"is_transit":false,"i_long":106.66566,"station_id":"SRP","line":6,"transit":false,"distance":2413},{"station_id":"CSK","i_long":106.640411,"transit":false,"is_transit":false,"i_lat":-6.32484,"station_name":"Cisauk","line":3,"time":4,"distance":1784},{"station_name":"Cicayur","station_id":"CC","distance":2519,"line":3,"i_long":106.617853,"is_transit":false,"transit":false,"i_lat":-6.329547,"time":4},{"time":8,"distance":5968,"i_lat":-6.3441410000000005,"i_long":106.568863,"is_transit":false,"station_id":"PRP","line":6,"transit":false,"station_name":"Parung Panjang"},{"station_id":"CJT","is_transit":false,"time":9,"i_lat":-6.354349,"i_long":106.508482,"transit":false,"distance":7025,"station_name":"Cilejit","line":3},{"distance":2675,"transit":false,"i_lat":-6.338021,"is_transit":false,"line":0,"station_id":"DAR","station_name":"Daru","time":6,"i_long":106.491338},{"distance":3902,"i_long":106.460812,"is_transit":false,"time":5,"line":6,"transit":false,"station_id":"TEJ","i_lat":-6.327251,"station_name":"Tenjo"}]]}