{"data":[[{"transit":false,"line":1,"station_name":"Bekasi Timur","time":0,"i_lat":-6.248029,"station_id":"BKST","is_transit":false,"distance":0,"i_long":107.016735},{"i_long":106.997013,"station_id":"BKS","distance":2368,"is_transit":false,"i_lat":-6.236616,"station_name":"Bekasi","line":1,"time":2,"transit":false},{"i_long":106.977657,"i_lat":-6.224515,"station_id":"KRI","station_name":"Kranji","line":1,"distance":2520,"is_transit":false,"transit":false,"time":4},{"distance":3097,"station_name":"Cakung","time":3,"transit":false,"station_id":"CUK","is_transit":false,"i_lat":-6.219053,"line":1,"i_long":106.951283},{"transit":false,"station_id":"KLDB","i_lat":-6.217455,"station_name":"Klenderbaru","distance":1385,"time":8,"line":1,"is_transit":false,"i_long":106.939679},{"station_name":"Buaran","station_id":"BUA","transit":false,"i_lat":-6.215568,"line":1,"i_long":106.922662,"distance":1305,"time":1,"is_transit":false},{"is_transit":false,"i_long":106.899548,"station_name":"Klender","transit":false,"line":1,"distance":3100,"station_id":"KLD","i_lat":-6.2135,"time":2},{"time":3,"distance":3395,"i_lat":-6.215091,"line":1,"station_name":"Jatinegara","transit":false,"i_long":106.86807400000001,"station_id":"JNG","is_transit":false},{"i_lat":-6.212485,"i_long":106.858896,"line":1,"distance":1377,"time":2,"station_name":"Matraman","is_transit":false,"station_id":"MTR","transit":false},{"is_transit":true,"transit":true,"line":2,"time":2,"station_name":"Manggarai","distance":1275,"i_lat":-6.209883,"i_long":106.84912,"station_id":"MRI"},{"time":4,"station_name":"Tebet","transit":false,"i_lat":-6.226659,"station_id":"TEB","is_transit":false,"i_long":106.857948,"line":2,"distance":2610},{"is_transit":false,"distance":1230,"i_long":106.856607,"time":2,"i_lat":-6.242512,"station_name":"Cawang","station_id":"CW","transit":false,"line":2}],[{"line":1,"distance":0,"station_name":"Bekasi Timur","station_id":"BKST","i_lat":-6.248029,"i_long":107.016735,"time":0,"is_transit":false,"transit":false},{"station_name":"Bekasi","i_lat":-6.236616,"time":2,"station_id":"BKS","is_transit":false,"line":1,"i_long":106.997013,"transit":false,"distance":2368},{"i_long":106.977657,"distance":2520,"station_id":"KRI","transit":false,"line":1,"i_lat":-6.224515,"is_transit":false,"time":4,"station_name":"Kranji"},{"is_transit":false,"distance":3097,"i_long":106.951283,"time":3,"station_name":"Cakung","station_id":"CUK","transit":false,"i_lat":-6.219053,"line":1},{"distance":1385,"station_name":"Klenderbaru","is_transit":false,"transit":false,"line":1,"i_long":106.939679,"time":8,"i_lat":-6.217455,"station_id":"KLDB"},{"transit":false,"time":1,"station_name":"Buaran","is_transit":false,"distance":1305,"i_lat":-6.215568,"i_long":106.922662,"line":1,"station_id":"BUA"},{"transit":false,"time":2,"station_name":"Klender","i_long":106.899548,"is_transit":false,"distance":3100,"station_id":"KLD","line":1,"i_lat":-6.2135},{"i_lat":-6.215091,"station_id":"JNG","is_transit":true,"distance":3395,"line":1,"time":3,"transit":true,"i_long":106.86807400000001,"station_name":"Jatinegara"},{"i_lat":-6.209188,"is_transit":false,"i_long":106.861737,"station_id":"POK","time":2,"distance":1236,"line":11,"station_name":"Pondok Jati","transit":false},{"i_long":106.855437,"transit":false,"is_transit":false,"line":11,"distance":1829,"station_id":"KMT","station_name":"Kramat","i_lat":-6.193792,"time":2},{"is_transit":false,"line":11,"distance":973,"station_id":"GST","time":1,"i_long":106.850107,"station_name":"Gang Sentiong","transit":false,"i_lat":-6.185975},{"i_lat":-6.174784,"time":8,"line":11,"is_transit":false,"i_long":106.84368,"distance":1567,"station_id":"PSE","station_name":"Pasar Senen","transit":false},{"distance":1436,"line":11,"station_id":"KMO","time":4,"is_transit":false,"i_long":106.839204,"transit":false,"station_name":"Kemayoran","i_lat":-6.161728},{"distance":1901,"time":5,"transit":false,"i_lat":-6.14505,"station_id":"RJW","i_long":106.836569,"line":11,"station_name":"Rajawali","is_transit":false},{"station_id":"KPB","distance":1444,"i_long":106.826365,"station_name":"Kampung Bandan","i_lat":-6.132549,"line":4,"time":3,"is_transit":true,"transit":true},{"line":1,"i_long":106.79867,"i_lat":-6.144674,"time":9,"distance":4102,"station_id":"AK","station_name":"Angke","is_transit":false,"transit":false},{"distance":1230,"time":4,"i_long":106.800832,"i_lat":-6.155215,"transit":false,"station_id":"DU","line":1,"is_transit":false,"station_name":"Duri"},{"is_transit":false,"line":1,"i_lat":-6.185545,"station_id":"THB","station_name":"Tanah Abang","time":8,"i_long":106.811091,"transit":false,"distance":3632},{"station_name":"Karet","station_id":"KAT","i_lat":-6.20132,"i_long":106.816351,"time":5,"is_transit":false,"transit":false,"distance":2029,"line":1},{"station_id":"SUDB","time":1,"station_name":"Sudirman Baru","is_transit":false,"distance":471,"line":1,"i_long":106.819881,"i_lat":-6.201433,"transit":false},{"station_id":"SUD","distance":280,"i_lat":-6.202263,"i_long":106.822649,"line":1,"is_transit":false,"time":1,"transit":false,"station_name":"Sudirman"},{"station_id":"MRI","time":4,"i_long":106.84912,"line":2,"station_name":"Manggarai","transit":true,"i_lat":-6.209883,"is_transit":true,"distance":3186},{"station_id":"TEB","station_name":"Tebet","i_lat":-6.226659,"line":2,"transit":false,"distance":2610,"time":4,"is_transit":false,"i_long":106.857948},{"is_transit":false,"distance":1230,"line":2,"transit":false,"i_long":106.856607,"i_lat":-6.242512,"station_id":"CW","station_name":"Cawang","time":2}],[{"i_lat":-6.248029,"is_transit":false,"distance":0,"time":0,"transit":false,"i_long":107.016735,"station_id":"BKST","line":1,"station_name":"Bekasi Timur"},{"is_transit":false,"station_name":"Bekasi","time":2,"i_lat":-6.236616,"i_long":106.997013,"station_id":"BKS","transit":false,"line":1,"distance":2368},{"is_transit":false,"distance":2520,"station_name":"Kranji","station_id":"KRI","i_long":106.977657,"line":1,"i_lat":-6.224515,"transit":false,"time":4},{"line":1,"i_lat":-6.219053,"time":3,"is_transit":false,"transit":false,"distance":3097,"i_long":106.951283,"station_id":"CUK","station_name":"Cakung"},{"is_transit":false,"station_name":"Klenderbaru","station_id":"KLDB","i_long":106.939679,"line":1,"transit":false,"time":8,"i_lat":-6.217455,"distance":1385},{"station_id":"BUA","station_name":"Buaran","transit":false,"time":1,"line":1,"distance":1305,"is_transit":false,"i_lat":-6.215568,"i_long":106.922662},{"station_name":"Klender","is_transit":false,"station_id":"KLD","i_lat":-6.2135,"transit":false,"line":1,"time":2,"i_long":106.899548,"distance":3100},{"distance":3395,"i_lat":-6.215091,"station_name":"Jatinegara","i_long":106.86807400000001,"line":1,"station_id":"JNG","time":3,"transit":true,"is_transit":true},{"line":11,"i_long":106.861737,"time":2,"station_name":"Pondok Jati","is_transit":false,"transit":false,"distance":1236,"i_lat":-6.209188,"station_id":"POK"},{"station_name":"Kramat","i_long":106.855437,"distance":1829,"line":11,"time":2,"i_lat":-6.193792,"transit":false,"station_id":"KMT","is_transit":false},{"i_long":106.850107,"station_name":"Gang Sentiong","station_id":"GST","is_transit":false,"distance":973,"time":1,"i_lat":-6.185975,"line":11,"transit":false},{"line":11,"i_long":106.84368,"station_id":"PSE","station_name":"Pasar Senen","distance":1567,"time":8,"transit":false,"i_lat":-6.174784,"is_transit":false},{"station_id":"KMO","transit":false,"is_transit":false,"i_lat":-6.161728,"i_long":106.839204,"line":11,"station_name":"Kemayoran","distance":1436,"time":4},{"time":5,"transit":false,"line":11,"station_name":"Rajawali","is_transit":false,"i_long":106.836569,"distance":1901,"station_id":"RJW","i_lat":-6.14505},{"station_id":"KPB","transit":true,"line":4,"distance":1444,"i_long":106.826365,"time":3,"station_name":"Kampung Bandan","i_lat":-6.132549,"is_transit":true},{"is_transit":true,"transit":true,"distance":1364,"i_long":106.812439,"i_lat":-6.137569,"station_name":"Jakarta Kota","station_id":"JAKK","time":3,"line":2},{"station_id":"JAY","is_transit":false,"time":4,"transit":false,"line":2,"station_name":"Jayakarta","distance":1264,"i_lat":-6.141205,"i_long":106.820901},{"time":2,"transit":false,"i_lat":-6.149769,"is_transit":false,"i_long":106.82482,"station_name":"Manggabesar","line":2,"station_id":"MGB","distance":1080},{"time":2,"station_name":"Sawah Besar","i_long":106.827103,"line":2,"transit":false,"is_transit":false,"station_id":"SW","distance":906,"i_lat":-6.160725},{"station_id":"JUA","time":2,"is_transit":false,"distance":1149,"station_name":"Juanda","line":2,"i_lat":-6.166716,"i_long":106.828284,"transit":false},{"is_transit":false,"distance":2015,"line":2,"station_id":"GDD","i_lat":-6.186295,"transit":false,"time":4,"station_name":"Gondangdia","i_long":106.832183},{"distance":1750,"line":2,"i_lat":-6.198556,"station_id":"CKI","transit":false,"i_long":106.840169,"station_name":"Cikini","is_transit":false,"time":3},{"transit":false,"time":4,"line":2,"distance":1590,"i_lat":-6.209883,"i_long":106.84912,"is_transit":false,"station_id":"MRI","station_name":"Manggarai"},{"distance":2610,"line":2,"is_transit":false,"i_long":106.857948,"station_name":"Tebet","transit":false,"i_lat":-6.226659,"station_id":"TEB","time":4},{"station_id":"CW","time":2,"station_name":"Cawang","transit":false,"is_transit":false,"line":2,"distance":1230,"i_lat":-6.242512,"i_long":106.856607}]]}