{"data":[[{"is_transit":false,"i_lat":-6.248029,"distance":0,"transit":false,"line":1,"i_long":107.016735,"time":0,"station_name":"Bekasi Timur","station_id":"BKST"},{"station_name":"Bekasi","distance":2368,"is_transit":false,"transit":false,"i_lat":-6.236616,"i_long":106.997013,"line":1,"time":2,"station_id":"BKS"},{"station_id":"KRI","is_transit":false,"time":4,"transit":false,"distance":2520,"i_lat":-6.224515,"i_long":106.977657,"line":1,"station_name":"Kranji"},{"is_transit":false,"station_id":"CUK","i_lat":-6.219053,"station_name":"Cakung","distance":3097,"transit":false,"i_long":106.951283,"time":3,"line":1},{"i_long":106.939679,"distance":1385,"line":1,"station_id":"KLDB","is_transit":false,"transit":false,"station_name":"Klenderbaru","time":8,"i_lat":-6.217455},{"distance":1305,"station_id":"BUA","i_lat":-6.215568,"i_long":106.922662,"line":1,"is_transit":false,"time":1,"transit":false,"station_name":"Buaran"},{"i_long":106.899548,"station_name":"Klender","transit":false,"distance":3100,"i_lat":-6.2135,"is_transit":false,"line":1,"station_id":"KLD","time":2},{"line":1,"i_lat":-6.215091,"time":3,"is_transit":false,"station_name":"Jatinegara","distance":3395,"i_long":106.86807400000001,"station_id":"JNG","transit":false},{"is_transit":false,"line":1,"transit":false,"i_lat":-6.212485,"i_long":106.858896,"time":2,"station_id":"MTR","distance":1377,"station_name":"Matraman"},{"i_long":106.84912,"is_transit":true,"station_name":"Manggarai","time":2,"transit":true,"i_lat":-6.209883,"distance":1275,"line":2,"station_id":"MRI"},{"distance":2610,"i_lat":-6.226659,"time":4,"station_id":"TEB","transit":false,"is_transit":false,"i_long":106.857948,"line":2,"station_name":"Tebet"},{"station_name":"Cawang","station_id":"CW","time":2,"line":2,"is_transit":false,"distance":1230,"i_lat":-6.242512,"i_long":106.856607,"transit":false},{"station_name":"Duren Kalibata","is_transit":false,"transit":false,"time":3,"i_lat":-6.255332,"line":2,"i_long":106.85449,"station_id":"DRN","distance":1546},{"i_long":106.851577,"station_id":"PSMB","i_lat":-6.263214,"distance":824,"line":2,"time":2,"transit":false,"station_name":"Pasar Minggu Baru","is_transit":false},{"time":2,"i_long":106.843999,"station_name":"Pasar Minggu","transit":false,"line":2,"station_id":"PSM","is_transit":false,"i_lat":-6.2842400000000005,"distance":2380},{"line":2,"is_transit":false,"station_name":"Tanjung Barat","time":4,"transit":false,"i_lat":-6.3080680000000005,"station_id":"TNT","i_long":106.838896,"distance":2820},{"is_transit":false,"station_id":"LNA","station_name":"Lenteng Agung","i_lat":-6.330363,"i_long":106.832616,"line":2,"time":3,"distance":2671,"transit":false},{"station_id":"UP","is_transit":false,"i_lat":-6.339291,"distance":1029,"transit":false,"station_name":"Univ. Pancasila","i_long":106.834175,"time":2,"line":2},{"transit":false,"i_lat":-6.360749,"i_long":106.831474,"is_transit":false,"time":3,"line":2,"station_id":"UI","station_name":"Univ. Indonesia","distance":2264},{"i_lat":-6.369073,"i_long":106.831114,"station_name":"Pondok Cina","is_transit":false,"station_id":"POC","time":2,"distance":1109,"line":2,"transit":false},{"is_transit":false,"station_name":"Depokbaru","transit":false,"i_long":106.819451,"line":2,"time":4,"distance":2727,"station_id":"DPB","i_lat":-6.391065}],[{"station_name":"Bekasi Timur","line":1,"station_id":"BKST","distance":0,"transit":false,"is_transit":false,"i_lat":-6.248029,"time":0,"i_long":107.016735},{"station_name":"Bekasi","is_transit":false,"time":2,"transit":false,"i_lat":-6.236616,"station_id":"BKS","i_long":106.997013,"distance":2368,"line":1},{"line":1,"station_name":"Kranji","is_transit":false,"transit":false,"distance":2520,"i_lat":-6.224515,"station_id":"KRI","i_long":106.977657,"time":4},{"distance":3097,"transit":false,"i_lat":-6.219053,"station_id":"CUK","i_long":106.951283,"time":3,"line":1,"station_name":"Cakung","is_transit":false},{"i_lat":-6.217455,"station_name":"Klenderbaru","transit":false,"is_transit":false,"distance":1385,"i_long":106.939679,"time":8,"station_id":"KLDB","line":1},{"station_id":"BUA","i_lat":-6.215568,"station_name":"Buaran","transit":false,"i_long":106.922662,"line":1,"time":1,"is_transit":false,"distance":1305},{"station_name":"Klender","station_id":"KLD","time":2,"i_lat":-6.2135,"i_long":106.899548,"is_transit":false,"distance":3100,"transit":false,"line":1},{"time":3,"station_id":"JNG","i_long":106.86807400000001,"transit":true,"is_transit":true,"line":1,"i_lat":-6.215091,"station_name":"Jatinegara","distance":3395},{"station_id":"POK","distance":1236,"line":11,"time":2,"i_lat":-6.209188,"i_long":106.861737,"station_name":"Pondok Jati","is_transit":false,"transit":false},{"station_name":"Kramat","distance":1829,"i_long":106.855437,"time":2,"station_id":"KMT","transit":false,"is_transit":false,"line":11,"i_lat":-6.193792},{"i_lat":-6.185975,"transit":false,"time":1,"line":11,"is_transit":false,"distance":973,"i_long":106.850107,"station_id":"GST","station_name":"Gang Sentiong"},{"is_transit":false,"station_name":"Pasar Senen","transit":false,"i_lat":-6.174784,"line":11,"station_id":"PSE","distance":1567,"time":8,"i_long":106.84368},{"i_long":106.839204,"is_transit":false,"transit":false,"i_lat":-6.161728,"station_name":"Kemayoran","time":4,"station_id":"KMO","distance":1436,"line":11},{"i_long":106.836569,"line":11,"is_transit":false,"station_name":"Rajawali","station_id":"RJW","time":5,"distance":1901,"transit":false,"i_lat":-6.14505},{"distance":1444,"station_name":"Kampung Bandan","i_lat":-6.132549,"is_transit":true,"transit":true,"station_id":"KPB","line":4,"time":3,"i_long":106.826365},{"transit":false,"distance":4102,"station_name":"Angke","station_id":"AK","i_lat":-6.144674,"is_transit":false,"time":9,"i_long":106.79867,"line":1},{"i_lat":-6.155215,"line":1,"is_transit":false,"time":4,"transit":false,"station_id":"DU","station_name":"Duri","distance":1230,"i_long":106.800832},{"i_lat":-6.185545,"time":8,"line":1,"i_long":106.811091,"station_id":"THB","is_transit":false,"distance":3632,"transit":false,"station_name":"Tanah Abang"},{"station_name":"Karet","line":1,"i_lat":-6.20132,"time":5,"i_long":106.816351,"distance":2029,"transit":false,"station_id":"KAT","is_transit":false},{"time":1,"station_id":"SUDB","is_transit":false,"i_lat":-6.201433,"distance":471,"station_name":"Sudirman Baru","transit":false,"i_long":106.819881,"line":1},{"distance":280,"line":1,"i_lat":-6.202263,"time":1,"station_name":"Sudirman","is_transit":false,"i_long":106.822649,"station_id":"SUD","transit":false},{"transit":true,"station_id":"MRI","i_long":106.84912,"i_lat":-6.209883,"station_name":"Manggarai","time":4,"line":2,"distance":3186,"is_transit":true},{"station_name":"Tebet","i_long":106.857948,"transit":false,"line":2,"distance":2610,"station_id":"TEB","time":4,"is_transit":false,"i_lat":-6.226659},{"i_long":106.856607,"station_id":"CW","station_name":"Cawang","transit":false,"line":2,"time":2,"distance":1230,"is_transit":false,"i_lat":-6.242512},{"i_lat":-6.255332,"station_name":"Duren Kalibata","distance":1546,"transit":false,"line":2,"i_long":106.85449,"station_id":"DRN","is_transit":false,"time":3},{"i_long":106.851577,"is_transit":false,"station_name":"Pasar Minggu Baru","transit":false,"line":2,"time":2,"station_id":"PSMB","distance":824,"i_lat":-6.263214},{"line":2,"i_long":106.843999,"station_name":"Pasar Minggu","station_id":"PSM","transit":false,"distance":2380,"is_transit":false,"time":2,"i_lat":-6.2842400000000005},{"transit":false,"line":2,"station_id":"TNT","time":4,"distance":2820,"i_long":106.838896,"station_name":"Tanjung Barat","i_lat":-6.3080680000000005,"is_transit":false},{"distance":2671,"transit":false,"station_id":"LNA","time":3,"i_lat":-6.330363,"i_long":106.832616,"station_name":"Lenteng Agung","line":2,"is_transit":false},{"station_id":"UP","station_name":"Univ. Pancasila","time":2,"transit":false,"line":2,"i_lat":-6.339291,"i_long":106.834175,"distance":1029,"is_transit":false},{"station_id":"UI","i_lat":-6.360749,"i_long":106.831474,"time":3,"station_name":"Univ. Indonesia","is_transit":false,"transit":false,"distance":2264,"line":2},{"transit":false,"i_lat":-6.369073,"i_long":106.831114,"station_name":"Pondok Cina","station_id":"POC","is_transit":false,"line":2,"time":2,"distance":1109},{"transit":false,"station_id":"DPB","i_lat":-6.391065,"time":4,"station_name":"Depokbaru","is_transit":false,"distance":2727,"line":2,"i_long":106.819451}],[{"line":1,"is_transit":false,"transit":false,"station_id":"BKST","station_name":"Bekasi Timur","distance":0,"i_lat":-6.248029,"time":0,"i_long":107.016735},{"station_id":"BKS","is_transit":false,"station_name":"Bekasi","i_lat":-6.236616,"time":2,"line":1,"distance":2368,"i_long":106.997013,"transit":false},{"transit":false,"i_lat":-6.224515,"i_long":106.977657,"line":1,"station_id":"KRI","distance":2520,"is_transit":false,"station_name":"Kranji","time":4},{"i_long":106.951283,"station_id":"CUK","i_lat":-6.219053,"line":1,"distance":3097,"station_name":"Cakung","time":3,"transit":false,"is_transit":false},{"distance":1385,"transit":false,"station_name":"Klenderbaru","is_transit":false,"station_id":"KLDB","time":8,"line":1,"i_long":106.939679,"i_lat":-6.217455},{"distance":1305,"is_transit":false,"station_name":"Buaran","i_lat":-6.215568,"line":1,"station_id":"BUA","i_long":106.922662,"transit":false,"time":1},{"distance":3100,"station_id":"KLD","transit":false,"i_lat":-6.2135,"is_transit":false,"line":1,"station_name":"Klender","time":2,"i_long":106.899548},{"distance":3395,"i_long":106.86807400000001,"time":3,"line":1,"is_transit":true,"transit":true,"station_name":"Jatinegara","station_id":"JNG","i_lat":-6.215091},{"line":11,"station_name":"Pondok Jati","station_id":"POK","time":2,"i_long":106.861737,"transit":false,"i_lat":-6.209188,"distance":1236,"is_transit":false},{"time":2,"i_long":106.855437,"station_id":"KMT","transit":false,"i_lat":-6.193792,"station_name":"Kramat","distance":1829,"line":11,"is_transit":false},{"time":1,"is_transit":false,"i_long":106.850107,"station_name":"Gang Sentiong","distance":973,"transit":false,"station_id":"GST","i_lat":-6.185975,"line":11},{"line":11,"time":8,"distance":1567,"is_transit":false,"station_name":"Pasar Senen","station_id":"PSE","i_lat":-6.174784,"i_long":106.84368,"transit":false},{"station_id":"KMO","station_name":"Kemayoran","is_transit":false,"time":4,"i_lat":-6.161728,"i_long":106.839204,"distance":1436,"line":11,"transit":false},{"i_long":106.836569,"time":5,"transit":false,"distance":1901,"line":11,"station_id":"RJW","station_name":"Rajawali","is_transit":false,"i_lat":-6.14505},{"i_lat":-6.132549,"distance":1444,"transit":true,"i_long":106.826365,"station_id":"KPB","is_transit":true,"line":4,"station_name":"Kampung Bandan","time":3},{"line":2,"is_transit":true,"transit":true,"station_name":"Jakarta Kota","time":3,"station_id":"JAKK","i_long":106.812439,"distance":1364,"i_lat":-6.137569},{"i_long":106.820901,"line":2,"station_id":"JAY","station_name":"Jayakarta","time":4,"transit":false,"is_transit":false,"i_lat":-6.141205,"distance":1264},{"is_transit":false,"line":2,"i_long":106.82482,"transit":false,"station_id":"MGB","station_name":"Manggabesar","distance":1080,"time":2,"i_lat":-6.149769},{"station_name":"Sawah Besar","is_transit":false,"distance":906,"i_lat":-6.160725,"i_long":106.827103,"line":2,"transit":false,"station_id":"SW","time":2},{"time":2,"station_id":"JUA","transit":false,"i_long":106.828284,"distance":1149,"line":2,"station_name":"Juanda","i_lat":-6.166716,"is_transit":false},{"station_id":"GDD","transit":false,"distance":2015,"is_transit":false,"i_long":106.832183,"line":2,"time":4,"station_name":"Gondangdia","i_lat":-6.186295},{"station_id":"CKI","distance":1750,"i_long":106.840169,"line":2,"i_lat":-6.198556,"time":3,"station_name":"Cikini","is_transit":false,"transit":false},{"is_transit":false,"line":2,"transit":false,"i_long":106.84912,"station_id":"MRI","i_lat":-6.209883,"station_name":"Manggarai","time":4,"distance":1590},{"station_id":"TEB","transit":false,"is_transit":false,"i_long":106.857948,"i_lat":-6.226659,"distance":2610,"station_name":"Tebet","time":4,"line":2},{"transit":false,"time":2,"i_long":106.856607,"distance":1230,"is_transit":false,"station_name":"Cawang","i_lat":-6.242512,"station_id":"CW","line":2},{"is_transit":false,"station_name":"Duren Kalibata","time":3,"transit":false,"station_id":"DRN","distance":1546,"i_lat":-6.255332,"line":2,"i_long":106.85449},{"station_name":"Pasar Minggu Baru","transit":false,"i_long":106.851577,"distance":824,"line":2,"station_id":"PSMB","time":2,"is_transit":false,"i_lat":-6.263214},{"transit":false,"distance":2380,"time":2,"i_long":106.843999,"station_name":"Pasar Minggu","is_transit":false,"i_lat":-6.2842400000000005,"station_id":"PSM","line":2},{"i_lat":-6.3080680000000005,"station_name":"Tanjung Barat","is_transit":false,"time":4,"transit":false,"line":2,"distance":2820,"i_long":106.838896,"station_id":"TNT"},{"transit":false,"i_lat":-6.330363,"station_id":"LNA","station_name":"Lenteng Agung","line":2,"distance":2671,"time":3,"is_transit":false,"i_long":106.832616},{"station_name":"Univ. Pancasila","time":2,"transit":false,"i_lat":-6.339291,"line":2,"station_id":"UP","distance":1029,"is_transit":false,"i_long":106.834175},{"time":3,"is_transit":false,"transit":false,"station_id":"UI","station_name":"Univ. Indonesia","distance":2264,"i_long":106.831474,"line":2,"i_lat":-6.360749},{"line":2,"transit":false,"is_transit":false,"distance":1109,"time":2,"i_lat":-6.369073,"station_name":"Pondok Cina","station_id":"POC","i_long":106.831114},{"i_long":106.819451,"line":2,"station_name":"Depokbaru","transit":false,"is_transit":false,"station_id":"DPB","distance":2727,"time":4,"i_lat":-6.391065}]]}