{"data":[[{"station_name":"Bekasi Timur","station_id":"BKST","i_lat":-6.248029,"i_long":107.016735,"transit":false,"line":1,"is_transit":false,"time":0,"distance":0},{"i_lat":-6.236616,"line":1,"i_long":106.997013,"time":2,"transit":false,"station_name":"Bekasi","distance":2368,"is_transit":false,"station_id":"BKS"},{"i_long":106.977657,"distance":2520,"transit":false,"i_lat":-6.224515,"line":1,"station_id":"KRI","station_name":"Kranji","time":4,"is_transit":false},{"distance":3097,"is_transit":false,"i_lat":-6.219053,"time":3,"transit":false,"i_long":106.951283,"line":1,"station_name":"Cakung","station_id":"CUK"},{"station_id":"KLDB","is_transit":false,"station_name":"Klenderbaru","distance":1385,"time":8,"i_long":106.939679,"transit":false,"i_lat":-6.217455,"line":1},{"i_long":106.922662,"time":1,"station_name":"Buaran","is_transit":false,"transit":false,"distance":1305,"line":1,"station_id":"BUA","i_lat":-6.215568},{"station_name":"Klender","is_transit":false,"i_long":106.899548,"line":1,"station_id":"KLD","distance":3100,"time":2,"i_lat":-6.2135,"transit":false},{"line":1,"distance":3395,"i_long":106.86807400000001,"station_id":"JNG","time":3,"station_name":"Jatinegara","transit":false,"is_transit":false,"i_lat":-6.215091},{"is_transit":false,"station_name":"Matraman","time":2,"station_id":"MTR","transit":false,"distance":1377,"line":1,"i_long":106.858896,"i_lat":-6.212485},{"i_lat":-6.209883,"time":2,"is_transit":false,"i_long":106.84912,"transit":false,"line":2,"distance":1275,"station_name":"Manggarai","station_id":"MRI"},{"line":1,"station_name":"Sudirman","i_lat":-6.202263,"is_transit":false,"time":4,"distance":3186,"transit":false,"station_id":"SUD","i_long":106.822649},{"i_lat":-6.201433,"time":1,"station_id":"SUDB","distance":280,"station_name":"Sudirman Baru","i_long":106.819881,"line":1,"transit":false,"is_transit":false},{"time":1,"line":1,"is_transit":false,"distance":471,"station_id":"KAT","station_name":"Karet","transit":false,"i_lat":-6.20132,"i_long":106.816351},{"station_name":"Tanah Abang","distance":2029,"station_id":"THB","i_long":106.811091,"is_transit":true,"time":5,"transit":true,"i_lat":-6.185545,"line":1},{"line":6,"transit":false,"distance":3191,"time":6,"i_lat":-6.207404,"i_long":106.79689,"station_id":"PLM","is_transit":false,"station_name":"Palmerah"},{"station_name":"Kebayoran","time":7,"transit":false,"station_id":"KBY","distance":3737,"is_transit":false,"i_long":106.780334,"line":6,"i_lat":-6.237242},{"i_lat":-6.276362,"is_transit":false,"time":8,"station_name":"Pondokranji","line":6,"distance":6218,"station_id":"PDJ","transit":false,"i_long":106.74273},{"line":6,"i_long":106.728916,"station_name":"Jurangmangu","is_transit":false,"distance":2179,"transit":false,"station_id":"JMU","time":3,"i_lat":-6.288927},{"time":4,"distance":1994,"i_long":106.712277,"transit":false,"station_name":"Sudimara","is_transit":false,"station_id":"SDM","line":6,"i_lat":-6.296963},{"station_name":"Rawa Buntu","transit":false,"is_transit":false,"i_lat":-6.314823,"distance":4566,"line":6,"i_long":106.675475,"station_id":"RU","time":6}],[{"station_id":"BKST","i_lat":-6.248029,"station_name":"Bekasi Timur","transit":false,"line":1,"time":0,"distance":0,"is_transit":false,"i_long":107.016735},{"station_id":"BKS","distance":2368,"i_lat":-6.236616,"line":1,"station_name":"Bekasi","time":2,"transit":false,"i_long":106.997013,"is_transit":false},{"time":4,"is_transit":false,"station_name":"Kranji","transit":false,"distance":2520,"station_id":"KRI","i_lat":-6.224515,"i_long":106.977657,"line":1},{"distance":3097,"station_name":"Cakung","station_id":"CUK","i_lat":-6.219053,"is_transit":false,"time":3,"line":1,"i_long":106.951283,"transit":false},{"i_lat":-6.217455,"distance":1385,"is_transit":false,"transit":false,"time":8,"line":1,"station_id":"KLDB","station_name":"Klenderbaru","i_long":106.939679},{"distance":1305,"time":1,"station_name":"Buaran","station_id":"BUA","is_transit":false,"transit":false,"line":1,"i_long":106.922662,"i_lat":-6.215568},{"is_transit":false,"station_name":"Klender","time":2,"i_lat":-6.2135,"i_long":106.899548,"line":1,"transit":false,"distance":3100,"station_id":"KLD"},{"station_name":"Jatinegara","transit":true,"i_lat":-6.215091,"is_transit":true,"time":3,"i_long":106.86807400000001,"line":1,"distance":3395,"station_id":"JNG"},{"i_lat":-6.209188,"distance":1236,"is_transit":false,"time":2,"station_name":"Pondok Jati","station_id":"POK","line":11,"i_long":106.861737,"transit":false},{"station_id":"KMT","distance":1829,"station_name":"Kramat","transit":false,"time":2,"i_long":106.855437,"i_lat":-6.193792,"line":11,"is_transit":false},{"station_name":"Gang Sentiong","transit":false,"distance":973,"i_lat":-6.185975,"i_long":106.850107,"line":11,"station_id":"GST","time":1,"is_transit":false},{"line":11,"distance":1567,"station_name":"Pasar Senen","time":8,"is_transit":false,"station_id":"PSE","i_lat":-6.174784,"i_long":106.84368,"transit":false},{"distance":1436,"station_id":"KMO","transit":false,"i_long":106.839204,"i_lat":-6.161728,"station_name":"Kemayoran","is_transit":false,"line":11,"time":4},{"i_lat":-6.14505,"i_long":106.836569,"is_transit":false,"station_name":"Rajawali","transit":false,"line":11,"time":5,"distance":1901,"station_id":"RJW"},{"distance":1444,"i_lat":-6.132549,"line":4,"station_name":"Kampung Bandan","is_transit":true,"station_id":"KPB","transit":true,"i_long":106.826365,"time":3},{"station_name":"Angke","transit":false,"i_long":106.79867,"line":1,"i_lat":-6.144674,"time":9,"distance":4102,"is_transit":false,"station_id":"AK"},{"i_lat":-6.155215,"transit":false,"line":1,"is_transit":false,"distance":1230,"time":4,"station_id":"DU","i_long":106.800832,"station_name":"Duri"},{"time":8,"line":1,"station_id":"THB","transit":true,"distance":3632,"i_lat":-6.185545,"is_transit":true,"station_name":"Tanah Abang","i_long":106.811091},{"station_name":"Palmerah","time":6,"i_lat":-6.207404,"station_id":"PLM","distance":3191,"transit":false,"line":6,"i_long":106.79689,"is_transit":false},{"station_name":"Kebayoran","i_lat":-6.237242,"line":6,"i_long":106.780334,"station_id":"KBY","transit":false,"is_transit":false,"time":7,"distance":3737},{"is_transit":false,"station_name":"Pondokranji","transit":false,"distance":6218,"i_lat":-6.276362,"line":6,"station_id":"PDJ","time":8,"i_long":106.74273},{"transit":false,"i_long":106.728916,"i_lat":-6.288927,"distance":2179,"station_name":"Jurangmangu","station_id":"JMU","time":3,"is_transit":false,"line":6},{"station_name":"Sudimara","transit":false,"i_long":106.712277,"station_id":"SDM","i_lat":-6.296963,"time":4,"line":6,"distance":1994,"is_transit":false},{"time":6,"i_long":106.675475,"i_lat":-6.314823,"transit":false,"line":6,"station_name":"Rawa Buntu","distance":4566,"station_id":"RU","is_transit":false}],[{"distance":0,"station_id":"BKST","i_long":107.016735,"time":0,"is_transit":false,"station_name":"Bekasi Timur","i_lat":-6.248029,"line":1,"transit":false},{"time":2,"station_name":"Bekasi","i_lat":-6.236616,"is_transit":false,"station_id":"BKS","transit":false,"line":1,"i_long":106.997013,"distance":2368},{"line":1,"transit":false,"distance":2520,"i_long":106.977657,"station_name":"Kranji","station_id":"KRI","is_transit":false,"i_lat":-6.224515,"time":4},{"time":3,"station_name":"Cakung","i_lat":-6.219053,"distance":3097,"line":1,"transit":false,"station_id":"CUK","is_transit":false,"i_long":106.951283},{"time":8,"distance":1385,"station_id":"KLDB","transit":false,"i_lat":-6.217455,"is_transit":false,"station_name":"Klenderbaru","line":1,"i_long":106.939679},{"time":1,"station_name":"Buaran","line":1,"distance":1305,"is_transit":false,"station_id":"BUA","i_lat":-6.215568,"i_long":106.922662,"transit":false},{"time":2,"station_name":"Klender","transit":false,"is_transit":false,"distance":3100,"station_id":"KLD","i_long":106.899548,"line":1,"i_lat":-6.2135},{"transit":false,"i_lat":-6.215091,"time":3,"distance":3395,"station_name":"Jatinegara","i_long":106.86807400000001,"is_transit":false,"station_id":"JNG","line":1},{"transit":false,"station_name":"Matraman","time":2,"is_transit":false,"station_id":"MTR","i_lat":-6.212485,"i_long":106.858896,"distance":1377,"line":1},{"station_id":"MRI","i_long":106.84912,"line":2,"i_lat":-6.209883,"distance":1275,"station_name":"Manggarai","is_transit":true,"transit":true,"time":2},{"line":2,"transit":false,"i_long":106.840169,"distance":1590,"station_id":"CKI","time":4,"station_name":"Cikini","is_transit":false,"i_lat":-6.198556},{"time":3,"line":2,"i_long":106.832183,"is_transit":false,"station_name":"Gondangdia","station_id":"GDD","i_lat":-6.186295,"distance":1750,"transit":false},{"transit":false,"i_lat":-6.166716,"i_long":106.828284,"line":2,"time":4,"station_name":"Juanda","station_id":"JUA","distance":2015,"is_transit":false},{"line":2,"time":2,"i_lat":-6.160725,"is_transit":false,"transit":false,"i_long":106.827103,"distance":1149,"station_name":"Sawah Besar","station_id":"SW"},{"station_name":"Manggabesar","transit":false,"i_lat":-6.149769,"i_long":106.82482,"distance":906,"line":2,"is_transit":false,"station_id":"MGB","time":2},{"is_transit":false,"station_id":"JAY","transit":false,"i_lat":-6.141205,"line":2,"station_name":"Jayakarta","distance":1080,"time":2,"i_long":106.820901},{"station_name":"Jakarta Kota","time":4,"is_transit":true,"i_long":106.812439,"transit":true,"line":2,"distance":1264,"i_lat":-6.137569,"station_id":"JAKK"},{"time":3,"transit":true,"station_id":"KPB","i_long":106.826365,"distance":1364,"is_transit":true,"i_lat":-6.132549,"station_name":"Kampung Bandan","line":4},{"transit":false,"line":1,"i_lat":-6.144674,"station_name":"Angke","is_transit":false,"distance":4102,"time":9,"station_id":"AK","i_long":106.79867},{"station_id":"DU","transit":false,"i_lat":-6.155215,"time":4,"distance":1230,"i_long":106.800832,"line":1,"is_transit":false,"station_name":"Duri"},{"time":8,"is_transit":true,"station_id":"THB","line":1,"distance":3632,"station_name":"Tanah Abang","i_lat":-6.185545,"transit":true,"i_long":106.811091},{"station_id":"PLM","i_long":106.79689,"station_name":"Palmerah","transit":false,"line":6,"time":6,"i_lat":-6.207404,"distance":3191,"is_transit":false},{"time":7,"i_long":106.780334,"distance":3737,"station_name":"Kebayoran","station_id":"KBY","i_lat":-6.237242,"line":6,"is_transit":false,"transit":false},{"is_transit":false,"distance":6218,"time":8,"station_name":"Pondokranji","transit":false,"i_lat":-6.276362,"i_long":106.74273,"line":6,"station_id":"PDJ"},{"i_long":106.728916,"distance":2179,"i_lat":-6.288927,"station_id":"JMU","transit":false,"is_transit":false,"time":3,"station_name":"Jurangmangu","line":6},{"i_lat":-6.296963,"line":6,"station_id":"SDM","transit":false,"is_transit":false,"i_long":106.712277,"time":4,"distance":1994,"station_name":"Sudimara"},{"transit":false,"station_id":"RU","distance":4566,"is_transit":false,"i_long":106.675475,"i_lat":-6.314823,"time":6,"line":6,"station_name":"Rawa Buntu"}],[{"distance":0,"station_name":"Bekasi Timur","transit":false,"i_long":107.016735,"i_lat":-6.248029,"is_transit":false,"station_id":"BKST","line":1,"time":0},{"i_lat":-6.236616,"transit":false,"distance":2368,"station_name":"Bekasi","time":2,"i_long":106.997013,"station_id":"BKS","line":1,"is_transit":false},{"i_lat":-6.224515,"i_long":106.977657,"line":1,"station_name":"Kranji","is_transit":false,"time":4,"distance":2520,"transit":false,"station_id":"KRI"},{"station_id":"CUK","i_lat":-6.219053,"transit":false,"distance":3097,"station_name":"Cakung","line":1,"is_transit":false,"i_long":106.951283,"time":3},{"is_transit":false,"line":1,"i_lat":-6.217455,"station_id":"KLDB","station_name":"Klenderbaru","transit":false,"i_long":106.939679,"distance":1385,"time":8},{"line":1,"time":1,"station_id":"BUA","distance":1305,"station_name":"Buaran","is_transit":false,"i_lat":-6.215568,"i_long":106.922662,"transit":false},{"line":1,"distance":3100,"station_name":"Klender","station_id":"KLD","transit":false,"is_transit":false,"time":2,"i_long":106.899548,"i_lat":-6.2135},{"station_id":"JNG","time":3,"line":1,"transit":true,"i_lat":-6.215091,"i_long":106.86807400000001,"is_transit":true,"distance":3395,"station_name":"Jatinegara"},{"i_long":106.861737,"distance":1236,"is_transit":false,"i_lat":-6.209188,"transit":false,"time":2,"station_id":"POK","station_name":"Pondok Jati","line":11},{"i_long":106.855437,"distance":1829,"station_name":"Kramat","transit":false,"is_transit":false,"i_lat":-6.193792,"time":2,"station_id":"KMT","line":11},{"distance":973,"time":1,"station_id":"GST","i_long":106.850107,"transit":false,"is_transit":false,"station_name":"Gang Sentiong","i_lat":-6.185975,"line":11},{"distance":1567,"is_transit":false,"i_lat":-6.174784,"station_id":"PSE","i_long":106.84368,"transit":false,"time":8,"station_name":"Pasar Senen","line":11},{"is_transit":false,"i_long":106.839204,"i_lat":-6.161728,"time":4,"line":11,"station_id":"KMO","station_name":"Kemayoran","transit":false,"distance":1436},{"time":5,"is_transit":false,"distance":1901,"transit":false,"station_id":"RJW","i_lat":-6.14505,"i_long":106.836569,"station_name":"Rajawali","line":11},{"is_transit":true,"time":3,"station_name":"Kampung Bandan","station_id":"KPB","transit":true,"i_long":106.826365,"line":4,"distance":1444,"i_lat":-6.132549},{"station_name":"Jakarta Kota","station_id":"JAKK","time":3,"distance":1364,"i_long":106.812439,"line":2,"transit":true,"i_lat":-6.137569,"is_transit":true},{"station_id":"JAY","distance":1264,"i_long":106.820901,"station_name":"Jayakarta","is_transit":false,"i_lat":-6.141205,"time":4,"transit":false,"line":2},{"station_id":"MGB","i_lat":-6.149769,"i_long":106.82482,"is_transit":false,"time":2,"line":2,"station_name":"Manggabesar","distance":1080,"transit":false},{"i_long":106.827103,"time":2,"station_id":"SW","is_transit":false,"transit":false,"distance":906,"i_lat":-6.160725,"line":2,"station_name":"Sawah Besar"},{"station_name":"Juanda","time":2,"distance":1149,"line":2,"station_id":"JUA","i_long":106.828284,"i_lat":-6.166716,"is_transit":false,"transit":false},{"i_lat":-6.186295,"station_name":"Gondangdia","time":4,"i_long":106.832183,"line":2,"distance":2015,"transit":false,"station_id":"GDD","is_transit":false},{"transit":false,"i_long":106.840169,"distance":1750,"station_name":"Cikini","line":2,"i_lat":-6.198556,"time":3,"is_transit":false,"station_id":"CKI"},{"line":2,"time":4,"i_lat":-6.209883,"station_name":"Manggarai","transit":true,"i_long":106.84912,"station_id":"MRI","is_transit":true,"distance":1590},{"distance":3186,"i_long":106.822649,"transit":false,"i_lat":-6.202263,"time":4,"line":1,"station_name":"Sudirman","station_id":"SUD","is_transit":false},{"station_name":"Sudirman Baru","i_long":106.819881,"distance":280,"time":1,"i_lat":-6.201433,"line":1,"transit":false,"is_transit":false,"station_id":"SUDB"},{"time":1,"i_lat":-6.20132,"distance":471,"station_name":"Karet","line":1,"i_long":106.816351,"is_transit":false,"station_id":"KAT","transit":false},{"station_name":"Tanah Abang","time":5,"line":1,"is_transit":true,"transit":true,"station_id":"THB","i_lat":-6.185545,"distance":2029,"i_long":106.811091},{"station_id":"PLM","time":6,"transit":false,"i_long":106.79689,"i_lat":-6.207404,"distance":3191,"is_transit":false,"station_name":"Palmerah","line":6},{"is_transit":false,"distance":3737,"station_id":"KBY","i_long":106.780334,"transit":false,"line":6,"i_lat":-6.237242,"time":7,"station_name":"Kebayoran"},{"line":6,"i_lat":-6.276362,"time":8,"station_name":"Pondokranji","is_transit":false,"distance":6218,"station_id":"PDJ","i_long":106.74273,"transit":false},{"station_id":"JMU","i_lat":-6.288927,"time":3,"distance":2179,"station_name":"Jurangmangu","i_long":106.728916,"line":6,"is_transit":false,"transit":false},{"is_transit":false,"line":6,"distance":1994,"station_name":"Sudimara","time":4,"station_id":"SDM","transit":false,"i_lat":-6.296963,"i_long":106.712277},{"i_lat":-6.314823,"station_name":"Rawa Buntu","distance":4566,"station_id":"RU","time":6,"is_transit":false,"i_long":106.675475,"transit":false,"line":6}]]}