{"data":[[{"station_name":"Bekasi Timur","distance":0,"transit":false,"time":0,"is_transit":false,"i_lat":-6.248029,"i_long":107.016735,"line":1,"station_id":"BKST"},{"distance":2368,"station_id":"BKS","i_lat":-6.236616,"i_long":106.997013,"transit":false,"line":1,"station_name":"Bekasi","is_transit":false,"time":2},{"line":1,"i_lat":-6.224515,"i_long":106.977657,"station_id":"KRI","time":4,"station_name":"Kranji","is_transit":false,"transit":false,"distance":2520},{"station_name":"Cakung","is_transit":false,"i_lat":-6.219053,"distance":3097,"station_id":"CUK","time":3,"i_long":106.951283,"transit":false,"line":1},{"is_transit":false,"transit":false,"station_id":"KLDB","time":8,"line":1,"station_name":"Klenderbaru","distance":1385,"i_lat":-6.217455,"i_long":106.939679},{"transit":false,"distance":1305,"i_long":106.922662,"station_id":"BUA","is_transit":false,"line":1,"station_name":"Buaran","i_lat":-6.215568,"time":1},{"time":2,"distance":3100,"line":1,"is_transit":false,"station_name":"Klender","transit":false,"i_lat":-6.2135,"i_long":106.899548,"station_id":"KLD"},{"time":3,"distance":3395,"is_transit":false,"station_id":"JNG","line":1,"transit":false,"station_name":"Jatinegara","i_lat":-6.215091,"i_long":106.86807400000001},{"station_id":"MTR","station_name":"Matraman","is_transit":false,"transit":false,"line":1,"time":2,"i_long":106.858896,"i_lat":-6.212485,"distance":1377},{"station_id":"MRI","is_transit":false,"i_long":106.84912,"time":2,"transit":false,"line":2,"station_name":"Manggarai","i_lat":-6.209883,"distance":1275},{"time":4,"transit":false,"i_lat":-6.202263,"line":1,"is_transit":false,"distance":3186,"station_id":"SUD","i_long":106.822649,"station_name":"Sudirman"},{"time":1,"station_id":"SUDB","station_name":"Sudirman Baru","distance":280,"is_transit":false,"transit":false,"i_lat":-6.201433,"i_long":106.819881,"line":1},{"transit":false,"i_long":106.816351,"is_transit":false,"station_id":"KAT","time":1,"distance":471,"station_name":"Karet","line":1,"i_lat":-6.20132},{"time":5,"station_name":"Tanah Abang","i_long":106.811091,"is_transit":true,"distance":2029,"line":1,"transit":true,"station_id":"THB","i_lat":-6.185545},{"i_long":106.79689,"distance":3191,"time":6,"transit":false,"station_id":"PLM","station_name":"Palmerah","is_transit":false,"line":6,"i_lat":-6.207404},{"time":7,"station_name":"Kebayoran","is_transit":false,"station_id":"KBY","i_long":106.780334,"transit":false,"line":6,"i_lat":-6.237242,"distance":3737},{"station_id":"PDJ","i_lat":-6.276362,"i_long":106.74273,"line":6,"distance":6218,"station_name":"Pondokranji","time":8,"is_transit":false,"transit":false},{"distance":2179,"time":3,"i_long":106.728916,"is_transit":false,"station_id":"JMU","line":6,"transit":false,"station_name":"Jurangmangu","i_lat":-6.288927},{"station_id":"SDM","i_lat":-6.296963,"transit":false,"i_long":106.712277,"station_name":"Sudimara","is_transit":false,"line":6,"time":4,"distance":1994},{"transit":false,"i_lat":-6.314823,"is_transit":false,"distance":4566,"station_id":"RU","i_long":106.675475,"line":6,"time":6,"station_name":"Rawa Buntu"}],[{"i_long":107.016735,"i_lat":-6.248029,"is_transit":false,"transit":false,"line":1,"distance":0,"station_id":"BKST","station_name":"Bekasi Timur","time":0},{"time":2,"is_transit":false,"distance":2368,"line":1,"station_name":"Bekasi","i_long":106.997013,"i_lat":-6.236616,"transit":false,"station_id":"BKS"},{"is_transit":false,"transit":false,"i_lat":-6.224515,"time":4,"i_long":106.977657,"station_name":"Kranji","distance":2520,"line":1,"station_id":"KRI"},{"distance":3097,"station_name":"Cakung","time":3,"transit":false,"i_long":106.951283,"i_lat":-6.219053,"line":1,"station_id":"CUK","is_transit":false},{"station_name":"Klenderbaru","i_lat":-6.217455,"transit":false,"time":8,"i_long":106.939679,"station_id":"KLDB","distance":1385,"line":1,"is_transit":false},{"time":1,"i_long":106.922662,"line":1,"is_transit":false,"station_name":"Buaran","transit":false,"distance":1305,"i_lat":-6.215568,"station_id":"BUA"},{"i_lat":-6.2135,"time":2,"i_long":106.899548,"is_transit":false,"transit":false,"station_name":"Klender","station_id":"KLD","line":1,"distance":3100},{"i_lat":-6.215091,"distance":3395,"is_transit":true,"station_id":"JNG","station_name":"Jatinegara","i_long":106.86807400000001,"line":1,"time":3,"transit":true},{"time":2,"transit":false,"distance":1236,"station_id":"POK","station_name":"Pondok Jati","i_lat":-6.209188,"i_long":106.861737,"is_transit":false,"line":11},{"i_long":106.855437,"distance":1829,"station_name":"Kramat","is_transit":false,"station_id":"KMT","time":2,"i_lat":-6.193792,"transit":false,"line":11},{"station_name":"Gang Sentiong","time":1,"i_long":106.850107,"distance":973,"transit":false,"is_transit":false,"line":11,"i_lat":-6.185975,"station_id":"GST"},{"i_long":106.84368,"line":11,"time":8,"transit":false,"station_name":"Pasar Senen","distance":1567,"station_id":"PSE","is_transit":false,"i_lat":-6.174784},{"is_transit":false,"line":11,"i_long":106.839204,"station_name":"Kemayoran","transit":false,"distance":1436,"station_id":"KMO","time":4,"i_lat":-6.161728},{"station_name":"Rajawali","station_id":"RJW","transit":false,"i_lat":-6.14505,"i_long":106.836569,"line":11,"distance":1901,"time":5,"is_transit":false},{"distance":1444,"i_lat":-6.132549,"transit":true,"station_id":"KPB","is_transit":true,"station_name":"Kampung Bandan","line":4,"time":3,"i_long":106.826365},{"station_name":"Angke","transit":false,"i_lat":-6.144674,"i_long":106.79867,"distance":4102,"station_id":"AK","is_transit":false,"line":1,"time":9},{"time":4,"station_id":"DU","distance":1230,"is_transit":false,"transit":false,"line":1,"i_lat":-6.155215,"station_name":"Duri","i_long":106.800832},{"is_transit":true,"time":8,"station_id":"THB","i_long":106.811091,"distance":3632,"i_lat":-6.185545,"station_name":"Tanah Abang","line":1,"transit":true},{"time":6,"distance":3191,"is_transit":false,"line":6,"i_lat":-6.207404,"i_long":106.79689,"transit":false,"station_name":"Palmerah","station_id":"PLM"},{"time":7,"is_transit":false,"distance":3737,"station_name":"Kebayoran","i_lat":-6.237242,"line":6,"i_long":106.780334,"transit":false,"station_id":"KBY"},{"distance":6218,"station_id":"PDJ","i_lat":-6.276362,"line":6,"i_long":106.74273,"transit":false,"time":8,"is_transit":false,"station_name":"Pondokranji"},{"station_id":"JMU","is_transit":false,"station_name":"Jurangmangu","line":6,"i_long":106.728916,"distance":2179,"i_lat":-6.288927,"time":3,"transit":false},{"transit":false,"distance":1994,"line":6,"i_lat":-6.296963,"i_long":106.712277,"station_id":"SDM","is_transit":false,"station_name":"Sudimara","time":4},{"transit":false,"distance":4566,"i_lat":-6.314823,"is_transit":false,"station_name":"Rawa Buntu","i_long":106.675475,"time":6,"line":6,"station_id":"RU"}],[{"transit":false,"is_transit":false,"distance":0,"time":0,"i_lat":-6.248029,"station_name":"Bekasi Timur","station_id":"BKST","i_long":107.016735,"line":1},{"i_long":106.997013,"distance":2368,"is_transit":false,"transit":false,"time":2,"i_lat":-6.236616,"line":1,"station_id":"BKS","station_name":"Bekasi"},{"station_id":"KRI","i_lat":-6.224515,"distance":2520,"i_long":106.977657,"line":1,"time":4,"station_name":"Kranji","transit":false,"is_transit":false},{"transit":false,"time":3,"i_lat":-6.219053,"i_long":106.951283,"station_name":"Cakung","distance":3097,"line":1,"is_transit":false,"station_id":"CUK"},{"line":1,"is_transit":false,"distance":1385,"transit":false,"i_lat":-6.217455,"time":8,"station_name":"Klenderbaru","station_id":"KLDB","i_long":106.939679},{"i_long":106.922662,"time":1,"station_id":"BUA","line":1,"is_transit":false,"distance":1305,"transit":false,"i_lat":-6.215568,"station_name":"Buaran"},{"transit":false,"station_id":"KLD","time":2,"i_long":106.899548,"line":1,"station_name":"Klender","distance":3100,"is_transit":false,"i_lat":-6.2135},{"is_transit":false,"distance":3395,"i_lat":-6.215091,"station_id":"JNG","time":3,"station_name":"Jatinegara","i_long":106.86807400000001,"transit":false,"line":1},{"line":1,"i_long":106.858896,"station_name":"Matraman","distance":1377,"is_transit":false,"i_lat":-6.212485,"transit":false,"station_id":"MTR","time":2},{"i_long":106.84912,"station_id":"MRI","station_name":"Manggarai","line":2,"transit":true,"time":2,"i_lat":-6.209883,"distance":1275,"is_transit":true},{"i_lat":-6.198556,"transit":false,"station_name":"Cikini","time":4,"distance":1590,"station_id":"CKI","is_transit":false,"line":2,"i_long":106.840169},{"transit":false,"station_id":"GDD","i_long":106.832183,"is_transit":false,"distance":1750,"i_lat":-6.186295,"line":2,"time":3,"station_name":"Gondangdia"},{"transit":false,"is_transit":false,"i_long":106.828284,"line":2,"i_lat":-6.166716,"time":4,"station_id":"JUA","station_name":"Juanda","distance":2015},{"transit":false,"time":2,"distance":1149,"station_id":"SW","i_long":106.827103,"is_transit":false,"line":2,"station_name":"Sawah Besar","i_lat":-6.160725},{"distance":906,"time":2,"transit":false,"is_transit":false,"line":2,"station_name":"Manggabesar","i_lat":-6.149769,"i_long":106.82482,"station_id":"MGB"},{"line":2,"station_name":"Jayakarta","time":2,"i_lat":-6.141205,"transit":false,"i_long":106.820901,"is_transit":false,"distance":1080,"station_id":"JAY"},{"transit":true,"time":4,"i_lat":-6.137569,"i_long":106.812439,"line":2,"station_name":"Jakarta Kota","distance":1264,"is_transit":true,"station_id":"JAKK"},{"is_transit":true,"station_id":"KPB","line":4,"i_lat":-6.132549,"distance":1364,"i_long":106.826365,"transit":true,"time":3,"station_name":"Kampung Bandan"},{"i_long":106.79867,"time":9,"distance":4102,"transit":false,"station_id":"AK","is_transit":false,"line":1,"station_name":"Angke","i_lat":-6.144674},{"time":4,"i_long":106.800832,"i_lat":-6.155215,"distance":1230,"station_id":"DU","is_transit":false,"transit":false,"station_name":"Duri","line":1},{"station_name":"Tanah Abang","station_id":"THB","transit":true,"time":8,"distance":3632,"is_transit":true,"i_long":106.811091,"line":1,"i_lat":-6.185545},{"is_transit":false,"time":6,"station_id":"PLM","transit":false,"distance":3191,"station_name":"Palmerah","line":6,"i_long":106.79689,"i_lat":-6.207404},{"i_lat":-6.237242,"is_transit":false,"line":6,"transit":false,"time":7,"i_long":106.780334,"station_name":"Kebayoran","distance":3737,"station_id":"KBY"},{"distance":6218,"transit":false,"time":8,"station_name":"Pondokranji","station_id":"PDJ","i_lat":-6.276362,"i_long":106.74273,"is_transit":false,"line":6},{"station_name":"Jurangmangu","transit":false,"station_id":"JMU","i_lat":-6.288927,"line":6,"is_transit":false,"i_long":106.728916,"time":3,"distance":2179},{"station_name":"Sudimara","i_long":106.712277,"line":6,"time":4,"distance":1994,"i_lat":-6.296963,"transit":false,"station_id":"SDM","is_transit":false},{"distance":4566,"i_lat":-6.314823,"i_long":106.675475,"is_transit":false,"transit":false,"station_name":"Rawa Buntu","time":6,"line":6,"station_id":"RU"}],[{"is_transit":false,"distance":0,"transit":false,"i_lat":-6.248029,"time":0,"station_name":"Bekasi Timur","i_long":107.016735,"station_id":"BKST","line":1},{"transit":false,"distance":2368,"is_transit":false,"station_id":"BKS","time":2,"line":1,"i_long":106.997013,"station_name":"Bekasi","i_lat":-6.236616},{"station_name":"Kranji","i_long":106.977657,"line":1,"is_transit":false,"time":4,"transit":false,"i_lat":-6.224515,"station_id":"KRI","distance":2520},{"distance":3097,"time":3,"station_name":"Cakung","transit":false,"line":1,"i_lat":-6.219053,"is_transit":false,"i_long":106.951283,"station_id":"CUK"},{"transit":false,"is_transit":false,"station_name":"Klenderbaru","time":8,"station_id":"KLDB","distance":1385,"i_lat":-6.217455,"i_long":106.939679,"line":1},{"station_id":"BUA","i_long":106.922662,"line":1,"station_name":"Buaran","time":1,"i_lat":-6.215568,"transit":false,"distance":1305,"is_transit":false},{"time":2,"i_lat":-6.2135,"station_name":"Klender","station_id":"KLD","transit":false,"distance":3100,"i_long":106.899548,"line":1,"is_transit":false},{"time":3,"i_lat":-6.215091,"i_long":106.86807400000001,"distance":3395,"transit":true,"station_name":"Jatinegara","line":1,"is_transit":true,"station_id":"JNG"},{"line":11,"distance":1236,"i_lat":-6.209188,"transit":false,"station_id":"POK","time":2,"station_name":"Pondok Jati","i_long":106.861737,"is_transit":false},{"is_transit":false,"station_name":"Kramat","distance":1829,"transit":false,"station_id":"KMT","time":2,"i_lat":-6.193792,"i_long":106.855437,"line":11},{"station_name":"Gang Sentiong","time":1,"i_lat":-6.185975,"transit":false,"is_transit":false,"station_id":"GST","line":11,"i_long":106.850107,"distance":973},{"i_long":106.84368,"is_transit":false,"transit":false,"station_name":"Pasar Senen","distance":1567,"i_lat":-6.174784,"time":8,"line":11,"station_id":"PSE"},{"distance":1436,"i_long":106.839204,"time":4,"is_transit":false,"transit":false,"station_id":"KMO","station_name":"Kemayoran","i_lat":-6.161728,"line":11},{"i_lat":-6.14505,"is_transit":false,"transit":false,"station_id":"RJW","time":5,"line":11,"i_long":106.836569,"distance":1901,"station_name":"Rajawali"},{"station_id":"KPB","i_lat":-6.132549,"time":3,"line":4,"transit":true,"is_transit":true,"station_name":"Kampung Bandan","distance":1444,"i_long":106.826365},{"time":3,"station_name":"Jakarta Kota","distance":1364,"is_transit":true,"station_id":"JAKK","i_lat":-6.137569,"i_long":106.812439,"transit":true,"line":2},{"time":4,"line":2,"i_long":106.820901,"is_transit":false,"transit":false,"station_name":"Jayakarta","i_lat":-6.141205,"station_id":"JAY","distance":1264},{"i_long":106.82482,"line":2,"station_name":"Manggabesar","time":2,"is_transit":false,"distance":1080,"station_id":"MGB","i_lat":-6.149769,"transit":false},{"distance":906,"station_id":"SW","is_transit":false,"transit":false,"i_long":106.827103,"station_name":"Sawah Besar","i_lat":-6.160725,"time":2,"line":2},{"distance":1149,"line":2,"is_transit":false,"transit":false,"station_id":"JUA","i_lat":-6.166716,"station_name":"Juanda","i_long":106.828284,"time":2},{"is_transit":false,"station_id":"GDD","station_name":"Gondangdia","distance":2015,"time":4,"transit":false,"i_lat":-6.186295,"i_long":106.832183,"line":2},{"i_lat":-6.198556,"transit":false,"station_id":"CKI","is_transit":false,"station_name":"Cikini","i_long":106.840169,"distance":1750,"time":3,"line":2},{"i_lat":-6.209883,"station_id":"MRI","i_long":106.84912,"distance":1590,"is_transit":true,"line":2,"station_name":"Manggarai","time":4,"transit":true},{"transit":false,"station_id":"SUD","i_long":106.822649,"station_name":"Sudirman","distance":3186,"is_transit":false,"line":1,"i_lat":-6.202263,"time":4},{"station_id":"SUDB","transit":false,"time":1,"i_long":106.819881,"line":1,"is_transit":false,"station_name":"Sudirman Baru","i_lat":-6.201433,"distance":280},{"is_transit":false,"distance":471,"transit":false,"station_name":"Karet","i_lat":-6.20132,"station_id":"KAT","time":1,"line":1,"i_long":106.816351},{"station_id":"THB","transit":true,"distance":2029,"station_name":"Tanah Abang","is_transit":true,"line":1,"i_lat":-6.185545,"i_long":106.811091,"time":5},{"line":6,"time":6,"is_transit":false,"i_long":106.79689,"station_id":"PLM","station_name":"Palmerah","distance":3191,"transit":false,"i_lat":-6.207404},{"i_lat":-6.237242,"line":6,"time":7,"transit":false,"distance":3737,"i_long":106.780334,"is_transit":false,"station_name":"Kebayoran","station_id":"KBY"},{"is_transit":false,"station_id":"PDJ","transit":false,"i_long":106.74273,"time":8,"i_lat":-6.276362,"distance":6218,"station_name":"Pondokranji","line":6},{"i_long":106.728916,"transit":false,"time":3,"is_transit":false,"i_lat":-6.288927,"line":6,"distance":2179,"station_id":"JMU","station_name":"Jurangmangu"},{"station_id":"SDM","station_name":"Sudimara","time":4,"i_lat":-6.296963,"line":6,"i_long":106.712277,"is_transit":false,"distance":1994,"transit":false},{"distance":4566,"transit":false,"is_transit":false,"i_lat":-6.314823,"line":6,"time":6,"i_long":106.675475,"station_name":"Rawa Buntu","station_id":"RU"}]]}