{"data":[[{"is_transit":false,"station_name":"Bekasi Timur","i_long":107.016735,"line":1,"time":0,"station_id":"BKST","i_lat":-6.248029,"transit":false,"distance":0},{"i_lat":-6.236616,"station_id":"BKS","time":2,"transit":false,"i_long":106.997013,"is_transit":false,"distance":2368,"station_name":"Bekasi","line":1},{"distance":2520,"station_name":"Kranji","is_transit":false,"transit":false,"time":4,"station_id":"KRI","i_lat":-6.224515,"i_long":106.977657,"line":1},{"i_lat":-6.219053,"line":1,"station_name":"Cakung","i_long":106.951283,"is_transit":false,"distance":3097,"time":3,"transit":false,"station_id":"CUK"},{"is_transit":false,"distance":1385,"i_long":106.939679,"i_lat":-6.217455,"line":1,"transit":false,"station_name":"Klenderbaru","time":8,"station_id":"KLDB"},{"i_long":106.922662,"i_lat":-6.215568,"time":1,"is_transit":false,"station_id":"BUA","distance":1305,"station_name":"Buaran","line":1,"transit":false},{"station_name":"Klender","i_long":106.899548,"line":1,"time":2,"is_transit":false,"station_id":"KLD","transit":false,"i_lat":-6.2135,"distance":3100},{"line":1,"time":3,"distance":3395,"station_id":"JNG","transit":true,"is_transit":true,"station_name":"Jatinegara","i_lat":-6.215091,"i_long":106.86807400000001},{"station_name":"Pondok Jati","is_transit":false,"line":11,"time":2,"i_long":106.861737,"distance":1236,"i_lat":-6.209188,"transit":false,"station_id":"POK"},{"is_transit":false,"time":2,"distance":1829,"i_lat":-6.193792,"i_long":106.855437,"station_id":"KMT","station_name":"Kramat","line":11,"transit":false},{"distance":973,"station_id":"GST","line":11,"is_transit":false,"station_name":"Gang Sentiong","transit":false,"i_long":106.850107,"i_lat":-6.185975,"time":1}],[{"i_lat":-6.248029,"time":0,"station_name":"Bekasi Timur","line":1,"is_transit":false,"station_id":"BKST","transit":false,"distance":0,"i_long":107.016735},{"line":1,"station_id":"BKS","transit":false,"i_lat":-6.236616,"time":2,"is_transit":false,"i_long":106.997013,"distance":2368,"station_name":"Bekasi"},{"i_long":106.977657,"time":4,"station_name":"Kranji","is_transit":false,"station_id":"KRI","i_lat":-6.224515,"line":1,"distance":2520,"transit":false},{"line":1,"time":3,"i_long":106.951283,"station_id":"CUK","distance":3097,"is_transit":false,"station_name":"Cakung","transit":false,"i_lat":-6.219053},{"i_lat":-6.217455,"is_transit":false,"time":8,"station_name":"Klenderbaru","i_long":106.939679,"station_id":"KLDB","line":1,"distance":1385,"transit":false},{"station_id":"BUA","station_name":"Buaran","distance":1305,"transit":false,"i_lat":-6.215568,"line":1,"time":1,"is_transit":false,"i_long":106.922662},{"station_name":"Klender","transit":false,"is_transit":false,"station_id":"KLD","time":2,"i_lat":-6.2135,"distance":3100,"i_long":106.899548,"line":1},{"station_id":"JNG","station_name":"Jatinegara","is_transit":false,"time":3,"i_lat":-6.215091,"line":1,"transit":false,"i_long":106.86807400000001,"distance":3395},{"transit":false,"distance":1377,"time":2,"is_transit":false,"i_long":106.858896,"station_id":"MTR","line":1,"i_lat":-6.212485,"station_name":"Matraman"},{"distance":1275,"i_lat":-6.209883,"station_id":"MRI","transit":false,"time":2,"is_transit":false,"i_long":106.84912,"station_name":"Manggarai","line":2},{"line":1,"distance":3186,"time":4,"is_transit":false,"station_id":"SUD","transit":false,"i_lat":-6.202263,"station_name":"Sudirman","i_long":106.822649},{"station_name":"Sudirman Baru","transit":false,"i_long":106.819881,"distance":280,"station_id":"SUDB","is_transit":false,"i_lat":-6.201433,"line":1,"time":1},{"i_lat":-6.20132,"transit":false,"time":1,"is_transit":false,"station_id":"KAT","station_name":"Karet","i_long":106.816351,"distance":471,"line":1},{"station_id":"THB","line":1,"distance":2029,"station_name":"Tanah Abang","transit":false,"i_long":106.811091,"time":5,"is_transit":false,"i_lat":-6.185545},{"distance":3632,"line":1,"i_long":106.800832,"i_lat":-6.155215,"station_id":"DU","time":8,"station_name":"Duri","transit":false,"is_transit":false},{"station_name":"Angke","transit":false,"is_transit":false,"i_lat":-6.144674,"time":4,"distance":1230,"station_id":"AK","line":1,"i_long":106.79867},{"time":9,"station_name":"Kampung Bandan","is_transit":true,"station_id":"KPB","i_lat":-6.132549,"line":4,"i_long":106.826365,"transit":true,"distance":4102},{"i_lat":-6.14505,"time":3,"station_id":"RJW","i_long":106.836569,"station_name":"Rajawali","line":11,"distance":1444,"transit":false,"is_transit":false},{"line":11,"transit":false,"i_long":106.839204,"is_transit":false,"distance":1901,"time":5,"station_id":"KMO","i_lat":-6.161728,"station_name":"Kemayoran"},{"station_name":"Pasar Senen","i_long":106.84368,"transit":false,"line":11,"is_transit":false,"station_id":"PSE","distance":1436,"i_lat":-6.174784,"time":4},{"is_transit":false,"station_id":"GST","time":8,"i_long":106.850107,"station_name":"Gang Sentiong","transit":false,"distance":1567,"i_lat":-6.185975,"line":11}],[{"i_long":107.016735,"distance":0,"station_id":"BKST","transit":false,"i_lat":-6.248029,"line":1,"time":0,"station_name":"Bekasi Timur","is_transit":false},{"station_name":"Bekasi","distance":2368,"transit":false,"time":2,"i_long":106.997013,"is_transit":false,"station_id":"BKS","i_lat":-6.236616,"line":1},{"i_long":106.977657,"station_id":"KRI","time":4,"distance":2520,"station_name":"Kranji","i_lat":-6.224515,"line":1,"transit":false,"is_transit":false},{"station_name":"Cakung","distance":3097,"i_long":106.951283,"transit":false,"station_id":"CUK","is_transit":false,"i_lat":-6.219053,"line":1,"time":3},{"time":8,"line":1,"is_transit":false,"distance":1385,"station_id":"KLDB","i_lat":-6.217455,"station_name":"Klenderbaru","transit":false,"i_long":106.939679},{"is_transit":false,"station_id":"BUA","time":1,"station_name":"Buaran","distance":1305,"i_long":106.922662,"i_lat":-6.215568,"line":1,"transit":false},{"i_long":106.899548,"station_id":"KLD","line":1,"is_transit":false,"i_lat":-6.2135,"time":2,"distance":3100,"station_name":"Klender","transit":false},{"transit":false,"time":3,"distance":3395,"i_long":106.86807400000001,"i_lat":-6.215091,"station_name":"Jatinegara","station_id":"JNG","is_transit":false,"line":1},{"time":2,"is_transit":false,"distance":1377,"i_lat":-6.212485,"station_name":"Matraman","i_long":106.858896,"transit":false,"station_id":"MTR","line":1},{"is_transit":true,"distance":1275,"i_lat":-6.209883,"station_name":"Manggarai","transit":true,"i_long":106.84912,"time":2,"station_id":"MRI","line":2},{"station_name":"Cikini","i_lat":-6.198556,"line":2,"is_transit":false,"distance":1590,"transit":false,"time":4,"station_id":"CKI","i_long":106.840169},{"transit":false,"distance":1750,"i_lat":-6.186295,"line":2,"time":3,"i_long":106.832183,"is_transit":false,"station_name":"Gondangdia","station_id":"GDD"},{"transit":false,"station_name":"Juanda","distance":2015,"station_id":"JUA","i_long":106.828284,"line":2,"time":4,"is_transit":false,"i_lat":-6.166716},{"i_lat":-6.160725,"transit":false,"i_long":106.827103,"station_id":"SW","time":2,"station_name":"Sawah Besar","distance":1149,"line":2,"is_transit":false},{"i_long":106.82482,"is_transit":false,"line":2,"time":2,"distance":906,"station_name":"Manggabesar","station_id":"MGB","transit":false,"i_lat":-6.149769},{"station_name":"Jayakarta","is_transit":false,"distance":1080,"transit":false,"time":2,"i_lat":-6.141205,"line":2,"station_id":"JAY","i_long":106.820901},{"time":4,"i_lat":-6.137569,"line":2,"is_transit":true,"i_long":106.812439,"station_name":"Jakarta Kota","transit":true,"station_id":"JAKK","distance":1264},{"distance":1364,"time":3,"station_name":"Kampung Bandan","line":4,"i_lat":-6.132549,"i_long":106.826365,"transit":true,"is_transit":true,"station_id":"KPB"},{"transit":false,"station_id":"RJW","is_transit":false,"i_long":106.836569,"line":11,"i_lat":-6.14505,"distance":1444,"station_name":"Rajawali","time":3},{"is_transit":false,"i_long":106.839204,"station_name":"Kemayoran","transit":false,"i_lat":-6.161728,"time":5,"station_id":"KMO","distance":1901,"line":11},{"i_lat":-6.174784,"is_transit":false,"i_long":106.84368,"time":4,"line":11,"station_id":"PSE","distance":1436,"transit":false,"station_name":"Pasar Senen"},{"is_transit":false,"station_id":"GST","station_name":"Gang Sentiong","distance":1567,"transit":false,"i_lat":-6.185975,"time":8,"line":11,"i_long":106.850107}]]}