{"data":[[{"station_id":"BKST","i_lat":-6.248029,"time":0,"is_transit":false,"distance":0,"line":0,"transit":false,"station_name":"Bekasi Timur","i_long":107.016735},{"station_id":"BKS","time":2,"distance":2368,"is_transit":false,"i_lat":-6.236616,"i_long":106.997013,"line":0,"station_name":"Bekasi","transit":false},{"i_lat":-6.224515,"distance":2520,"line":1,"is_transit":false,"station_name":"Kranji","transit":false,"time":4,"i_long":106.977657,"station_id":"KRI"},{"line":0,"transit":false,"is_transit":false,"station_id":"CUK","i_long":106.951283,"time":3,"distance":3097,"i_lat":-6.219053,"station_name":"Cakung"},{"station_id":"KLDB","station_name":"Klenderbaru","is_transit":false,"distance":1385,"time":8,"i_lat":-6.217455,"i_long":106.939679,"line":1,"transit":false},{"distance":1305,"time":1,"line":0,"is_transit":false,"i_long":106.922662,"transit":false,"station_id":"BUA","station_name":"Buaran","i_lat":-6.215568},{"station_id":"KLD","distance":3100,"station_name":"Klender","transit":false,"is_transit":false,"i_lat":-6.2135,"i_long":106.899548,"line":1,"time":2},{"time":3,"station_name":"Jatinegara","distance":3395,"station_id":"JNG","is_transit":true,"i_lat":-6.215091,"transit":false,"i_long":106.86807400000001,"line":0},{"i_lat":-6.212485,"is_transit":false,"time":2,"distance":1377,"transit":false,"station_id":"MTR","i_long":106.858896,"line":1,"station_name":"Matraman"},{"station_name":"Manggarai","i_long":106.84912,"distance":1275,"is_transit":true,"transit":false,"station_id":"MRI","i_lat":-6.209883,"time":2,"line":0},{"time":4,"transit":false,"station_name":"Sudirman","line":1,"distance":3186,"is_transit":false,"station_id":"SUD","i_long":106.822649,"i_lat":-6.202263},{"distance":280,"is_transit":false,"i_lat":-6.201433,"transit":false,"station_name":"Sudirman Baru","station_id":"SUDB","i_long":106.819881,"line":1,"time":1},{"line":1,"transit":false,"i_long":106.816351,"distance":471,"station_name":"Karet","i_lat":-6.20132,"time":1,"station_id":"KAT","is_transit":false},{"time":5,"i_lat":-6.185545,"transit":false,"station_name":"Tanah Abang","distance":2029,"is_transit":true,"i_long":106.811091,"station_id":"THB","line":1},{"station_id":"DU","is_transit":true,"transit":true,"line":1,"distance":3632,"i_long":106.800832,"station_name":"Duri","time":8,"i_lat":-6.155215},{"i_lat":-6.162021,"station_name":"Grogol","is_transit":false,"line":5,"distance":1700,"i_long":106.788277,"transit":false,"station_id":"GGL","time":3},{"i_long":106.771379,"station_name":"Pesing","line":5,"is_transit":false,"i_lat":-6.161433,"distance":2036,"time":2,"transit":false,"station_id":"PSG"},{"i_lat":-6.1587309999999995,"time":2,"line":5,"distance":1614,"i_long":106.756522,"station_id":"TKO","is_transit":false,"transit":false,"station_name":"Taman Kota"},{"station_name":"Bojongindah","is_transit":false,"station_id":"BOI","i_long":106.737035,"transit":false,"i_lat":-6.159876,"time":2,"line":0,"distance":2334},{"transit":false,"station_id":"RW","distance":1152,"is_transit":false,"i_long":106.723064,"time":4,"line":5,"station_name":"Rawa Buaya","i_lat":-6.162758},{"distance":2504,"i_long":106.701612,"time":3,"station_name":"Kalideres","line":5,"station_id":"KDS","i_lat":-6.166068,"is_transit":false,"transit":false},{"station_name":"Poris","station_id":"PI","is_transit":false,"i_lat":-6.169933,"line":5,"i_long":106.679458,"transit":false,"distance":2548,"time":3},{"time":3,"distance":1834,"is_transit":false,"i_long":106.665036,"transit":false,"i_lat":-6.171811,"station_name":"Batuceper","station_id":"BPR","line":0},{"i_lat":-6.17331,"station_name":"Tanah Tinggi","transit":false,"i_long":106.64657,"time":3,"is_transit":false,"line":5,"distance":2028,"station_id":"TTI"}],[{"time":0,"transit":false,"i_lat":-6.248029,"distance":0,"station_name":"Bekasi Timur","i_long":107.016735,"is_transit":false,"line":0,"station_id":"BKST"},{"is_transit":false,"station_name":"Bekasi","transit":false,"time":2,"distance":2368,"station_id":"BKS","i_lat":-6.236616,"i_long":106.997013,"line":0},{"i_lat":-6.224515,"transit":false,"is_transit":false,"distance":2520,"i_long":106.977657,"station_name":"Kranji","station_id":"KRI","time":4,"line":1},{"line":0,"station_id":"CUK","transit":false,"i_lat":-6.219053,"station_name":"Cakung","is_transit":false,"i_long":106.951283,"distance":3097,"time":3},{"line":1,"distance":1385,"i_long":106.939679,"station_name":"Klenderbaru","i_lat":-6.217455,"transit":false,"station_id":"KLDB","time":8,"is_transit":false},{"transit":false,"i_lat":-6.215568,"station_name":"Buaran","station_id":"BUA","is_transit":false,"time":1,"i_long":106.922662,"distance":1305,"line":0},{"is_transit":false,"distance":3100,"transit":false,"station_name":"Klender","station_id":"KLD","i_long":106.899548,"i_lat":-6.2135,"time":2,"line":1},{"line":0,"i_lat":-6.215091,"station_id":"JNG","time":3,"i_long":106.86807400000001,"is_transit":true,"transit":true,"distance":3395,"station_name":"Jatinegara"},{"i_long":106.861737,"station_id":"POK","i_lat":-6.209188,"line":11,"time":2,"is_transit":false,"distance":1236,"transit":false,"station_name":"Pondok Jati"},{"line":11,"i_long":106.855437,"transit":false,"station_name":"Kramat","is_transit":false,"distance":1829,"time":2,"station_id":"KMT","i_lat":-6.193792},{"transit":false,"i_lat":-6.185975,"line":11,"station_name":"Gang Sentiong","i_long":106.850107,"is_transit":false,"station_id":"GST","distance":973,"time":1},{"station_id":"PSE","i_long":106.84368,"station_name":"Pasar Senen","time":8,"is_transit":false,"transit":false,"distance":1567,"i_lat":-6.174784,"line":11},{"time":4,"is_transit":false,"distance":1436,"station_name":"Kemayoran","i_lat":-6.161728,"line":11,"transit":false,"i_long":106.839204,"station_id":"KMO"},{"distance":1901,"transit":false,"station_id":"RJW","i_long":106.836569,"time":5,"i_lat":-6.14505,"is_transit":false,"station_name":"Rajawali","line":11},{"i_lat":-6.132549,"station_name":"Kampung Bandan","transit":true,"time":3,"i_long":106.826365,"is_transit":true,"station_id":"KPB","distance":1444,"line":0},{"i_lat":-6.144674,"is_transit":false,"station_name":"Angke","i_long":106.79867,"station_id":"AK","line":0,"distance":4102,"transit":false,"time":9},{"line":1,"time":4,"transit":true,"station_id":"DU","is_transit":true,"station_name":"Duri","i_lat":-6.155215,"distance":1230,"i_long":106.800832},{"i_long":106.788277,"line":5,"station_name":"Grogol","i_lat":-6.162021,"is_transit":false,"distance":1700,"time":3,"transit":false,"station_id":"GGL"},{"line":5,"i_lat":-6.161433,"station_name":"Pesing","station_id":"PSG","i_long":106.771379,"is_transit":false,"time":2,"distance":2036,"transit":false},{"station_id":"TKO","time":2,"transit":false,"i_long":106.756522,"i_lat":-6.1587309999999995,"is_transit":false,"line":5,"distance":1614,"station_name":"Taman Kota"},{"is_transit":false,"time":2,"distance":2334,"i_lat":-6.159876,"line":0,"i_long":106.737035,"transit":false,"station_name":"Bojongindah","station_id":"BOI"},{"time":4,"distance":1152,"station_id":"RW","is_transit":false,"station_name":"Rawa Buaya","transit":false,"i_lat":-6.162758,"line":5,"i_long":106.723064},{"i_long":106.701612,"time":3,"transit":false,"i_lat":-6.166068,"station_name":"Kalideres","station_id":"KDS","line":5,"distance":2504,"is_transit":false},{"station_id":"PI","time":3,"station_name":"Poris","is_transit":false,"i_long":106.679458,"transit":false,"i_lat":-6.169933,"line":5,"distance":2548},{"time":3,"distance":1834,"station_id":"BPR","i_lat":-6.171811,"station_name":"Batuceper","i_long":106.665036,"transit":false,"line":0,"is_transit":false},{"station_id":"TTI","time":3,"i_long":106.64657,"is_transit":false,"transit":false,"distance":2028,"station_name":"Tanah Tinggi","i_lat":-6.17331,"line":5}],[{"line":0,"time":0,"station_id":"BKST","i_long":107.016735,"transit":false,"distance":0,"station_name":"Bekasi Timur","i_lat":-6.248029,"is_transit":false},{"i_lat":-6.236616,"is_transit":false,"i_long":106.997013,"line":0,"station_id":"BKS","distance":2368,"station_name":"Bekasi","time":2,"transit":false},{"i_lat":-6.224515,"transit":false,"station_name":"Kranji","distance":2520,"is_transit":false,"i_long":106.977657,"line":1,"time":4,"station_id":"KRI"},{"line":0,"is_transit":false,"distance":3097,"time":3,"station_id":"CUK","station_name":"Cakung","i_lat":-6.219053,"transit":false,"i_long":106.951283},{"time":8,"station_id":"KLDB","is_transit":false,"i_lat":-6.217455,"transit":false,"station_name":"Klenderbaru","i_long":106.939679,"distance":1385,"line":1},{"distance":1305,"station_id":"BUA","is_transit":false,"i_lat":-6.215568,"line":0,"i_long":106.922662,"transit":false,"station_name":"Buaran","time":1},{"station_name":"Klender","transit":false,"i_lat":-6.2135,"distance":3100,"i_long":106.899548,"is_transit":false,"station_id":"KLD","time":2,"line":1},{"transit":false,"station_id":"JNG","i_lat":-6.215091,"is_transit":true,"station_name":"Jatinegara","i_long":106.86807400000001,"line":0,"time":3,"distance":3395},{"time":2,"i_lat":-6.212485,"i_long":106.858896,"station_name":"Matraman","distance":1377,"station_id":"MTR","line":1,"is_transit":false,"transit":false},{"time":2,"i_long":106.84912,"station_name":"Manggarai","distance":1275,"i_lat":-6.209883,"is_transit":true,"transit":true,"line":0,"station_id":"MRI"},{"is_transit":false,"distance":1590,"line":0,"transit":false,"station_name":"Cikini","i_long":106.840169,"i_lat":-6.198556,"station_id":"CKI","time":4},{"transit":false,"is_transit":false,"i_long":106.832183,"station_name":"Gondangdia","distance":1750,"i_lat":-6.186295,"time":3,"line":2,"station_id":"GDD"},{"station_id":"JUA","transit":false,"time":4,"station_name":"Juanda","i_lat":-6.166716,"line":2,"i_long":106.828284,"distance":2015,"is_transit":false},{"is_transit":false,"time":2,"transit":false,"i_long":106.827103,"station_name":"Sawah Besar","i_lat":-6.160725,"distance":1149,"station_id":"SW","line":2},{"is_transit":false,"transit":false,"distance":906,"station_name":"Manggabesar","station_id":"MGB","i_long":106.82482,"time":2,"line":2,"i_lat":-6.149769},{"time":2,"is_transit":false,"transit":false,"station_id":"JAY","i_long":106.820901,"distance":1080,"station_name":"Jayakarta","i_lat":-6.141205,"line":7},{"station_id":"JAKK","is_transit":true,"transit":true,"station_name":"Jakarta Kota","time":4,"i_lat":-6.137569,"distance":1264,"i_long":106.812439,"line":0},{"station_name":"Kampung Bandan","i_long":106.826365,"is_transit":true,"station_id":"KPB","i_lat":-6.132549,"line":0,"transit":false,"time":3,"distance":1364},{"transit":false,"distance":4102,"is_transit":false,"station_id":"AK","station_name":"Angke","line":0,"time":9,"i_lat":-6.144674,"i_long":106.79867},{"i_long":106.800832,"line":1,"i_lat":-6.155215,"station_name":"Duri","transit":true,"station_id":"DU","distance":1230,"is_transit":true,"time":4},{"transit":false,"is_transit":false,"station_id":"GGL","i_long":106.788277,"line":5,"i_lat":-6.162021,"distance":1700,"station_name":"Grogol","time":3},{"is_transit":false,"line":5,"i_lat":-6.161433,"distance":2036,"station_id":"PSG","time":2,"station_name":"Pesing","i_long":106.771379,"transit":false},{"time":2,"transit":false,"line":5,"is_transit":false,"i_long":106.756522,"distance":1614,"station_name":"Taman Kota","station_id":"TKO","i_lat":-6.1587309999999995},{"time":2,"distance":2334,"transit":false,"i_long":106.737035,"is_transit":false,"station_id":"BOI","station_name":"Bojongindah","i_lat":-6.159876,"line":0},{"time":4,"i_lat":-6.162758,"transit":false,"is_transit":false,"i_long":106.723064,"station_name":"Rawa Buaya","line":5,"distance":1152,"station_id":"RW"},{"station_name":"Kalideres","transit":false,"time":3,"is_transit":false,"station_id":"KDS","distance":2504,"i_long":106.701612,"i_lat":-6.166068,"line":5},{"i_lat":-6.169933,"line":5,"station_name":"Poris","i_long":106.679458,"station_id":"PI","time":3,"transit":false,"is_transit":false,"distance":2548},{"time":3,"line":0,"i_lat":-6.171811,"i_long":106.665036,"distance":1834,"is_transit":false,"station_id":"BPR","transit":false,"station_name":"Batuceper"},{"line":5,"distance":2028,"station_name":"Tanah Tinggi","station_id":"TTI","time":3,"transit":false,"i_lat":-6.17331,"is_transit":false,"i_long":106.64657}],[{"station_id":"BKST","line":0,"i_long":107.016735,"time":0,"transit":false,"distance":0,"station_name":"Bekasi Timur","is_transit":false,"i_lat":-6.248029},{"time":2,"line":0,"is_transit":false,"transit":false,"station_name":"Bekasi","distance":2368,"station_id":"BKS","i_lat":-6.236616,"i_long":106.997013},{"i_long":106.977657,"transit":false,"station_id":"KRI","line":1,"station_name":"Kranji","is_transit":false,"i_lat":-6.224515,"distance":2520,"time":4},{"is_transit":false,"transit":false,"distance":3097,"station_name":"Cakung","time":3,"line":0,"i_long":106.951283,"station_id":"CUK","i_lat":-6.219053},{"is_transit":false,"distance":1385,"transit":false,"i_lat":-6.217455,"time":8,"i_long":106.939679,"station_name":"Klenderbaru","line":1,"station_id":"KLDB"},{"station_id":"BUA","is_transit":false,"i_lat":-6.215568,"transit":false,"distance":1305,"station_name":"Buaran","line":0,"i_long":106.922662,"time":1},{"station_name":"Klender","time":2,"i_long":106.899548,"line":1,"i_lat":-6.2135,"distance":3100,"is_transit":false,"transit":false,"station_id":"KLD"},{"time":3,"transit":true,"station_id":"JNG","line":0,"i_lat":-6.215091,"i_long":106.86807400000001,"distance":3395,"is_transit":true,"station_name":"Jatinegara"},{"station_name":"Pondok Jati","is_transit":false,"transit":false,"i_lat":-6.209188,"station_id":"POK","time":2,"i_long":106.861737,"line":11,"distance":1236},{"transit":false,"i_lat":-6.193792,"distance":1829,"is_transit":false,"i_long":106.855437,"time":2,"station_id":"KMT","line":11,"station_name":"Kramat"},{"time":1,"station_name":"Gang Sentiong","is_transit":false,"distance":973,"station_id":"GST","i_long":106.850107,"transit":false,"i_lat":-6.185975,"line":11},{"station_name":"Pasar Senen","time":8,"is_transit":false,"i_lat":-6.174784,"distance":1567,"station_id":"PSE","transit":false,"i_long":106.84368,"line":11},{"i_long":106.839204,"station_id":"KMO","station_name":"Kemayoran","transit":false,"distance":1436,"i_lat":-6.161728,"is_transit":false,"time":4,"line":11},{"time":5,"station_id":"RJW","line":11,"distance":1901,"i_long":106.836569,"i_lat":-6.14505,"station_name":"Rajawali","transit":false,"is_transit":false},{"distance":1444,"transit":true,"is_transit":true,"i_lat":-6.132549,"i_long":106.826365,"station_name":"Kampung Bandan","time":3,"line":0,"station_id":"KPB"},{"i_lat":-6.137569,"i_long":106.812439,"distance":1364,"is_transit":true,"time":3,"transit":true,"station_id":"JAKK","line":0,"station_name":"Jakarta Kota"},{"station_id":"JAY","i_lat":-6.141205,"distance":1264,"i_long":106.820901,"transit":false,"time":4,"is_transit":false,"line":7,"station_name":"Jayakarta"},{"i_lat":-6.149769,"line":2,"station_name":"Manggabesar","station_id":"MGB","is_transit":false,"time":2,"transit":false,"i_long":106.82482,"distance":1080},{"i_lat":-6.160725,"transit":false,"distance":906,"line":2,"station_name":"Sawah Besar","station_id":"SW","time":2,"is_transit":false,"i_long":106.827103},{"transit":false,"line":2,"time":2,"station_id":"JUA","is_transit":false,"station_name":"Juanda","distance":1149,"i_lat":-6.166716,"i_long":106.828284},{"i_lat":-6.186295,"distance":2015,"station_id":"GDD","transit":false,"line":2,"time":4,"is_transit":false,"station_name":"Gondangdia","i_long":106.832183},{"is_transit":false,"line":0,"station_id":"CKI","distance":1750,"time":3,"transit":false,"station_name":"Cikini","i_lat":-6.198556,"i_long":106.840169},{"time":4,"transit":true,"i_lat":-6.209883,"i_long":106.84912,"station_id":"MRI","is_transit":true,"distance":1590,"station_name":"Manggarai","line":0},{"is_transit":false,"time":4,"station_name":"Sudirman","distance":3186,"station_id":"SUD","transit":false,"i_lat":-6.202263,"i_long":106.822649,"line":1},{"station_id":"SUDB","time":1,"station_name":"Sudirman Baru","line":1,"is_transit":false,"i_lat":-6.201433,"distance":280,"transit":false,"i_long":106.819881},{"station_name":"Karet","station_id":"KAT","i_long":106.816351,"line":1,"transit":false,"time":1,"i_lat":-6.20132,"distance":471,"is_transit":false},{"i_long":106.811091,"time":5,"line":1,"distance":2029,"station_name":"Tanah Abang","transit":false,"is_transit":true,"station_id":"THB","i_lat":-6.185545},{"i_lat":-6.155215,"time":8,"station_id":"DU","line":1,"transit":true,"distance":3632,"is_transit":true,"station_name":"Duri","i_long":106.800832},{"line":5,"is_transit":false,"distance":1700,"station_name":"Grogol","station_id":"GGL","time":3,"i_lat":-6.162021,"transit":false,"i_long":106.788277},{"i_lat":-6.161433,"station_name":"Pesing","i_long":106.771379,"is_transit":false,"distance":2036,"station_id":"PSG","time":2,"line":5,"transit":false},{"time":2,"station_id":"TKO","line":5,"is_transit":false,"i_long":106.756522,"distance":1614,"station_name":"Taman Kota","transit":false,"i_lat":-6.1587309999999995},{"station_name":"Bojongindah","i_long":106.737035,"time":2,"is_transit":false,"station_id":"BOI","i_lat":-6.159876,"distance":2334,"transit":false,"line":0},{"line":5,"time":4,"distance":1152,"station_name":"Rawa Buaya","station_id":"RW","is_transit":false,"i_lat":-6.162758,"i_long":106.723064,"transit":false},{"is_transit":false,"station_id":"KDS","station_name":"Kalideres","i_lat":-6.166068,"transit":false,"i_long":106.701612,"distance":2504,"time":3,"line":5},{"transit":false,"is_transit":false,"i_long":106.679458,"station_name":"Poris","i_lat":-6.169933,"distance":2548,"station_id":"PI","time":3,"line":5},{"station_name":"Batuceper","distance":1834,"station_id":"BPR","line":0,"time":3,"transit":false,"is_transit":false,"i_lat":-6.171811,"i_long":106.665036},{"time":3,"transit":false,"distance":2028,"i_long":106.64657,"i_lat":-6.17331,"line":5,"is_transit":false,"station_name":"Tanah Tinggi","station_id":"TTI"}]]}