{"data":[[{"is_transit":false,"line":1,"time":0,"transit":false,"i_long":107.016735,"station_name":"Bekasi Timur","station_id":"BKST","distance":0,"i_lat":-6.248029},{"transit":false,"is_transit":false,"station_name":"Bekasi","i_lat":-6.236616,"line":1,"distance":2368,"time":2,"i_long":106.997013,"station_id":"BKS"},{"line":1,"distance":2520,"station_id":"KRI","time":4,"i_lat":-6.224515,"i_long":106.977657,"is_transit":false,"station_name":"Kranji","transit":false},{"transit":false,"station_name":"Cakung","time":3,"distance":3097,"i_lat":-6.219053,"line":1,"is_transit":false,"station_id":"CUK","i_long":106.951283},{"i_lat":-6.217455,"line":1,"is_transit":false,"distance":1385,"time":8,"transit":false,"station_id":"KLDB","station_name":"Klenderbaru","i_long":106.939679},{"distance":1305,"i_lat":-6.215568,"line":1,"i_long":106.922662,"station_name":"Buaran","station_id":"BUA","time":1,"transit":false,"is_transit":false},{"station_name":"Klender","i_lat":-6.2135,"line":1,"station_id":"KLD","time":2,"transit":false,"i_long":106.899548,"is_transit":false,"distance":3100},{"station_id":"JNG","line":1,"i_lat":-6.215091,"transit":false,"distance":3395,"station_name":"Jatinegara","is_transit":false,"time":3,"i_long":106.86807400000001},{"station_name":"Matraman","distance":1377,"station_id":"MTR","transit":false,"i_long":106.858896,"line":1,"time":2,"i_lat":-6.212485,"is_transit":false},{"line":2,"station_name":"Manggarai","distance":1275,"i_long":106.84912,"i_lat":-6.209883,"time":2,"transit":false,"is_transit":false,"station_id":"MRI"},{"is_transit":false,"i_lat":-6.202263,"time":4,"transit":false,"line":1,"i_long":106.822649,"station_name":"Sudirman","station_id":"SUD","distance":3186},{"distance":280,"i_long":106.819881,"line":1,"i_lat":-6.201433,"station_name":"Sudirman Baru","transit":false,"station_id":"SUDB","time":1,"is_transit":false},{"station_name":"Karet","line":1,"distance":471,"is_transit":false,"station_id":"KAT","i_lat":-6.20132,"i_long":106.816351,"time":1,"transit":false},{"distance":2029,"station_id":"THB","transit":true,"is_transit":true,"i_lat":-6.185545,"time":5,"line":1,"station_name":"Tanah Abang","i_long":106.811091},{"i_lat":-6.207404,"i_long":106.79689,"distance":3191,"transit":false,"station_id":"PLM","is_transit":false,"station_name":"Palmerah","time":6,"line":6},{"station_id":"KBY","line":6,"transit":false,"is_transit":false,"time":7,"i_lat":-6.237242,"station_name":"Kebayoran","i_long":106.780334,"distance":3737},{"station_id":"PDJ","i_lat":-6.276362,"transit":false,"is_transit":false,"distance":6218,"line":6,"station_name":"Pondokranji","time":8,"i_long":106.74273},{"transit":false,"station_name":"Jurangmangu","distance":2179,"is_transit":false,"station_id":"JMU","time":3,"i_lat":-6.288927,"i_long":106.728916,"line":6},{"i_long":106.712277,"station_name":"Sudimara","transit":false,"is_transit":false,"i_lat":-6.296963,"time":4,"station_id":"SDM","distance":1994,"line":6}],[{"transit":false,"distance":0,"is_transit":false,"i_long":107.016735,"station_id":"BKST","i_lat":-6.248029,"line":1,"time":0,"station_name":"Bekasi Timur"},{"is_transit":false,"distance":2368,"line":1,"station_name":"Bekasi","i_lat":-6.236616,"i_long":106.997013,"transit":false,"station_id":"BKS","time":2},{"i_long":106.977657,"distance":2520,"is_transit":false,"station_name":"Kranji","line":1,"station_id":"KRI","transit":false,"i_lat":-6.224515,"time":4},{"station_name":"Cakung","is_transit":false,"station_id":"CUK","i_long":106.951283,"transit":false,"line":1,"i_lat":-6.219053,"time":3,"distance":3097},{"i_lat":-6.217455,"time":8,"transit":false,"i_long":106.939679,"distance":1385,"line":1,"station_id":"KLDB","is_transit":false,"station_name":"Klenderbaru"},{"station_id":"BUA","is_transit":false,"time":1,"i_lat":-6.215568,"station_name":"Buaran","i_long":106.922662,"distance":1305,"line":1,"transit":false},{"line":1,"i_lat":-6.2135,"station_name":"Klender","transit":false,"i_long":106.899548,"time":2,"station_id":"KLD","distance":3100,"is_transit":false},{"transit":true,"station_name":"Jatinegara","i_lat":-6.215091,"line":1,"station_id":"JNG","is_transit":true,"time":3,"distance":3395,"i_long":106.86807400000001},{"is_transit":false,"station_name":"Pondok Jati","station_id":"POK","i_long":106.861737,"time":2,"i_lat":-6.209188,"distance":1236,"line":11,"transit":false},{"line":11,"transit":false,"station_id":"KMT","station_name":"Kramat","time":2,"distance":1829,"i_lat":-6.193792,"is_transit":false,"i_long":106.855437},{"distance":973,"station_id":"GST","station_name":"Gang Sentiong","line":11,"transit":false,"time":1,"is_transit":false,"i_long":106.850107,"i_lat":-6.185975},{"distance":1567,"station_id":"PSE","station_name":"Pasar Senen","time":8,"i_lat":-6.174784,"is_transit":false,"transit":false,"i_long":106.84368,"line":11},{"time":4,"i_long":106.839204,"station_id":"KMO","transit":false,"line":11,"station_name":"Kemayoran","is_transit":false,"distance":1436,"i_lat":-6.161728},{"station_id":"RJW","i_long":106.836569,"is_transit":false,"transit":false,"i_lat":-6.14505,"distance":1901,"time":5,"line":11,"station_name":"Rajawali"},{"is_transit":true,"line":4,"distance":1444,"i_long":106.826365,"station_name":"Kampung Bandan","transit":true,"station_id":"KPB","time":3,"i_lat":-6.132549},{"i_lat":-6.144674,"distance":4102,"time":9,"is_transit":false,"i_long":106.79867,"station_id":"AK","line":1,"station_name":"Angke","transit":false},{"line":1,"time":4,"station_id":"DU","transit":false,"i_long":106.800832,"is_transit":false,"i_lat":-6.155215,"station_name":"Duri","distance":1230},{"station_name":"Tanah Abang","distance":3632,"i_long":106.811091,"transit":true,"is_transit":true,"i_lat":-6.185545,"time":8,"line":1,"station_id":"THB"},{"is_transit":false,"station_name":"Palmerah","time":6,"line":6,"i_lat":-6.207404,"distance":3191,"station_id":"PLM","transit":false,"i_long":106.79689},{"distance":3737,"time":7,"station_name":"Kebayoran","i_lat":-6.237242,"i_long":106.780334,"station_id":"KBY","line":6,"transit":false,"is_transit":false},{"line":6,"i_long":106.74273,"station_id":"PDJ","transit":false,"station_name":"Pondokranji","is_transit":false,"distance":6218,"time":8,"i_lat":-6.276362},{"distance":2179,"is_transit":false,"station_id":"JMU","line":6,"time":3,"station_name":"Jurangmangu","i_lat":-6.288927,"transit":false,"i_long":106.728916},{"is_transit":false,"station_id":"SDM","time":4,"i_lat":-6.296963,"i_long":106.712277,"line":6,"station_name":"Sudimara","transit":false,"distance":1994}],[{"line":1,"station_name":"Bekasi Timur","i_lat":-6.248029,"transit":false,"i_long":107.016735,"is_transit":false,"time":0,"distance":0,"station_id":"BKST"},{"transit":false,"time":2,"distance":2368,"station_name":"Bekasi","i_lat":-6.236616,"line":1,"station_id":"BKS","is_transit":false,"i_long":106.997013},{"distance":2520,"station_name":"Kranji","is_transit":false,"i_lat":-6.224515,"i_long":106.977657,"transit":false,"time":4,"station_id":"KRI","line":1},{"is_transit":false,"station_id":"CUK","i_lat":-6.219053,"transit":false,"station_name":"Cakung","line":1,"time":3,"i_long":106.951283,"distance":3097},{"i_long":106.939679,"time":8,"i_lat":-6.217455,"is_transit":false,"station_name":"Klenderbaru","line":1,"distance":1385,"transit":false,"station_id":"KLDB"},{"time":1,"is_transit":false,"i_lat":-6.215568,"station_name":"Buaran","i_long":106.922662,"line":1,"transit":false,"distance":1305,"station_id":"BUA"},{"i_lat":-6.2135,"time":2,"i_long":106.899548,"is_transit":false,"station_id":"KLD","distance":3100,"station_name":"Klender","transit":false,"line":1},{"is_transit":false,"line":1,"station_name":"Jatinegara","i_lat":-6.215091,"distance":3395,"station_id":"JNG","i_long":106.86807400000001,"time":3,"transit":false},{"station_id":"MTR","is_transit":false,"station_name":"Matraman","i_lat":-6.212485,"time":2,"i_long":106.858896,"distance":1377,"transit":false,"line":1},{"i_lat":-6.209883,"i_long":106.84912,"station_id":"MRI","transit":true,"time":2,"line":2,"station_name":"Manggarai","is_transit":true,"distance":1275},{"station_name":"Cikini","station_id":"CKI","time":4,"distance":1590,"transit":false,"is_transit":false,"line":2,"i_lat":-6.198556,"i_long":106.840169},{"station_name":"Gondangdia","line":2,"is_transit":false,"distance":1750,"station_id":"GDD","time":3,"transit":false,"i_long":106.832183,"i_lat":-6.186295},{"distance":2015,"line":2,"time":4,"i_lat":-6.166716,"transit":false,"i_long":106.828284,"station_id":"JUA","is_transit":false,"station_name":"Juanda"},{"time":2,"i_lat":-6.160725,"station_name":"Sawah Besar","is_transit":false,"i_long":106.827103,"distance":1149,"line":2,"transit":false,"station_id":"SW"},{"distance":906,"station_id":"MGB","station_name":"Manggabesar","i_long":106.82482,"is_transit":false,"time":2,"transit":false,"i_lat":-6.149769,"line":2},{"i_long":106.820901,"transit":false,"is_transit":false,"i_lat":-6.141205,"time":2,"line":2,"station_name":"Jayakarta","distance":1080,"station_id":"JAY"},{"station_name":"Jakarta Kota","station_id":"JAKK","distance":1264,"is_transit":true,"time":4,"i_lat":-6.137569,"i_long":106.812439,"line":2,"transit":true},{"line":4,"station_id":"KPB","time":3,"transit":true,"i_lat":-6.132549,"is_transit":true,"station_name":"Kampung Bandan","distance":1364,"i_long":106.826365},{"is_transit":false,"line":1,"i_lat":-6.144674,"station_id":"AK","transit":false,"time":9,"distance":4102,"station_name":"Angke","i_long":106.79867},{"line":1,"station_id":"DU","i_lat":-6.155215,"transit":false,"station_name":"Duri","time":4,"i_long":106.800832,"is_transit":false,"distance":1230},{"distance":3632,"line":1,"station_id":"THB","is_transit":true,"time":8,"station_name":"Tanah Abang","i_lat":-6.185545,"i_long":106.811091,"transit":true},{"is_transit":false,"i_lat":-6.207404,"line":6,"i_long":106.79689,"transit":false,"distance":3191,"time":6,"station_id":"PLM","station_name":"Palmerah"},{"is_transit":false,"station_name":"Kebayoran","station_id":"KBY","i_long":106.780334,"line":6,"distance":3737,"transit":false,"i_lat":-6.237242,"time":7},{"time":8,"distance":6218,"transit":false,"i_long":106.74273,"station_id":"PDJ","station_name":"Pondokranji","i_lat":-6.276362,"is_transit":false,"line":6},{"i_lat":-6.288927,"is_transit":false,"time":3,"i_long":106.728916,"station_id":"JMU","distance":2179,"line":6,"transit":false,"station_name":"Jurangmangu"},{"i_long":106.712277,"line":6,"distance":1994,"i_lat":-6.296963,"transit":false,"time":4,"station_name":"Sudimara","is_transit":false,"station_id":"SDM"}],[{"line":1,"is_transit":false,"time":0,"station_id":"BKST","station_name":"Bekasi Timur","distance":0,"transit":false,"i_long":107.016735,"i_lat":-6.248029},{"time":2,"distance":2368,"i_long":106.997013,"i_lat":-6.236616,"transit":false,"station_id":"BKS","station_name":"Bekasi","line":1,"is_transit":false},{"line":1,"distance":2520,"i_lat":-6.224515,"i_long":106.977657,"is_transit":false,"time":4,"transit":false,"station_name":"Kranji","station_id":"KRI"},{"distance":3097,"line":1,"time":3,"transit":false,"station_id":"CUK","is_transit":false,"i_lat":-6.219053,"station_name":"Cakung","i_long":106.951283},{"line":1,"i_long":106.939679,"station_id":"KLDB","transit":false,"time":8,"distance":1385,"station_name":"Klenderbaru","is_transit":false,"i_lat":-6.217455},{"time":1,"station_id":"BUA","distance":1305,"i_lat":-6.215568,"transit":false,"i_long":106.922662,"line":1,"is_transit":false,"station_name":"Buaran"},{"is_transit":false,"time":2,"distance":3100,"i_lat":-6.2135,"station_name":"Klender","i_long":106.899548,"line":1,"transit":false,"station_id":"KLD"},{"is_transit":true,"time":3,"distance":3395,"station_id":"JNG","i_lat":-6.215091,"i_long":106.86807400000001,"line":1,"transit":true,"station_name":"Jatinegara"},{"transit":false,"line":11,"station_name":"Pondok Jati","i_long":106.861737,"time":2,"is_transit":false,"i_lat":-6.209188,"station_id":"POK","distance":1236},{"line":11,"i_long":106.855437,"is_transit":false,"station_name":"Kramat","station_id":"KMT","i_lat":-6.193792,"distance":1829,"transit":false,"time":2},{"time":1,"station_name":"Gang Sentiong","station_id":"GST","line":11,"distance":973,"is_transit":false,"transit":false,"i_lat":-6.185975,"i_long":106.850107},{"i_long":106.84368,"is_transit":false,"i_lat":-6.174784,"station_name":"Pasar Senen","time":8,"distance":1567,"line":11,"station_id":"PSE","transit":false},{"station_name":"Kemayoran","i_long":106.839204,"i_lat":-6.161728,"line":11,"transit":false,"is_transit":false,"station_id":"KMO","distance":1436,"time":4},{"line":11,"time":5,"i_long":106.836569,"transit":false,"i_lat":-6.14505,"station_name":"Rajawali","is_transit":false,"station_id":"RJW","distance":1901},{"station_id":"KPB","time":3,"station_name":"Kampung Bandan","i_lat":-6.132549,"distance":1444,"transit":true,"is_transit":true,"i_long":106.826365,"line":4},{"station_id":"JAKK","is_transit":true,"station_name":"Jakarta Kota","i_lat":-6.137569,"time":3,"i_long":106.812439,"line":2,"transit":true,"distance":1364},{"i_long":106.820901,"is_transit":false,"distance":1264,"line":2,"station_id":"JAY","transit":false,"time":4,"i_lat":-6.141205,"station_name":"Jayakarta"},{"i_lat":-6.149769,"i_long":106.82482,"line":2,"distance":1080,"is_transit":false,"transit":false,"station_id":"MGB","station_name":"Manggabesar","time":2},{"station_name":"Sawah Besar","line":2,"i_lat":-6.160725,"transit":false,"station_id":"SW","i_long":106.827103,"time":2,"is_transit":false,"distance":906},{"station_id":"JUA","station_name":"Juanda","i_lat":-6.166716,"distance":1149,"time":2,"i_long":106.828284,"transit":false,"is_transit":false,"line":2},{"station_id":"GDD","line":2,"time":4,"station_name":"Gondangdia","distance":2015,"is_transit":false,"i_lat":-6.186295,"transit":false,"i_long":106.832183},{"distance":1750,"transit":false,"time":3,"i_lat":-6.198556,"station_id":"CKI","line":2,"station_name":"Cikini","is_transit":false,"i_long":106.840169},{"i_lat":-6.209883,"station_id":"MRI","line":2,"transit":true,"i_long":106.84912,"time":4,"distance":1590,"station_name":"Manggarai","is_transit":true},{"is_transit":false,"distance":3186,"transit":false,"station_id":"SUD","time":4,"i_lat":-6.202263,"i_long":106.822649,"line":1,"station_name":"Sudirman"},{"i_lat":-6.201433,"distance":280,"transit":false,"time":1,"is_transit":false,"i_long":106.819881,"station_id":"SUDB","station_name":"Sudirman Baru","line":1},{"station_name":"Karet","time":1,"transit":false,"is_transit":false,"station_id":"KAT","i_long":106.816351,"line":1,"i_lat":-6.20132,"distance":471},{"station_id":"THB","i_lat":-6.185545,"transit":true,"i_long":106.811091,"distance":2029,"station_name":"Tanah Abang","is_transit":true,"time":5,"line":1},{"is_transit":false,"time":6,"i_long":106.79689,"i_lat":-6.207404,"station_name":"Palmerah","line":6,"station_id":"PLM","transit":false,"distance":3191},{"transit":false,"i_lat":-6.237242,"station_id":"KBY","station_name":"Kebayoran","is_transit":false,"time":7,"distance":3737,"i_long":106.780334,"line":6},{"transit":false,"station_id":"PDJ","distance":6218,"i_long":106.74273,"time":8,"i_lat":-6.276362,"station_name":"Pondokranji","line":6,"is_transit":false},{"is_transit":false,"transit":false,"line":6,"time":3,"i_lat":-6.288927,"station_name":"Jurangmangu","distance":2179,"i_long":106.728916,"station_id":"JMU"},{"distance":1994,"transit":false,"is_transit":false,"station_id":"SDM","line":6,"i_lat":-6.296963,"time":4,"i_long":106.712277,"station_name":"Sudimara"}]]}