{"data":[[{"line":0,"time":0,"distance":0,"is_transit":false,"i_lat":-6.248029,"transit":false,"station_name":"Bekasi Timur","station_id":"BKST","i_long":107.016735},{"time":2,"i_long":106.997013,"i_lat":-6.236616,"is_transit":false,"transit":false,"distance":2368,"station_name":"Bekasi","line":0,"station_id":"BKS"},{"time":4,"station_id":"KRI","i_lat":-6.224515,"transit":false,"i_long":106.977657,"line":1,"is_transit":false,"distance":2520,"station_name":"Kranji"},{"distance":3097,"is_transit":false,"i_lat":-6.219053,"line":0,"time":3,"transit":false,"station_id":"CUK","station_name":"Cakung","i_long":106.951283},{"transit":false,"station_id":"KLDB","i_lat":-6.217455,"line":1,"time":8,"i_long":106.939679,"is_transit":false,"distance":1385,"station_name":"Klenderbaru"},{"i_long":106.922662,"i_lat":-6.215568,"line":0,"station_id":"BUA","distance":1305,"transit":false,"station_name":"Buaran","time":1,"is_transit":false},{"distance":3100,"is_transit":false,"transit":false,"time":2,"station_id":"KLD","i_long":106.899548,"i_lat":-6.2135,"line":1,"station_name":"Klender"},{"station_name":"Jatinegara","transit":false,"i_lat":-6.215091,"line":0,"time":3,"distance":3395,"is_transit":true,"station_id":"JNG","i_long":106.86807400000001},{"is_transit":false,"time":2,"line":1,"distance":1377,"transit":false,"i_lat":-6.212485,"i_long":106.858896,"station_id":"MTR","station_name":"Matraman"},{"distance":1275,"station_id":"MRI","time":2,"is_transit":true,"station_name":"Manggarai","i_lat":-6.209883,"transit":false,"line":0,"i_long":106.84912},{"transit":false,"is_transit":false,"time":4,"distance":3186,"i_long":106.822649,"station_name":"Sudirman","line":1,"station_id":"SUD","i_lat":-6.202263},{"transit":false,"is_transit":false,"station_id":"SUDB","i_long":106.819881,"i_lat":-6.201433,"line":1,"station_name":"Sudirman Baru","time":1,"distance":280},{"transit":false,"is_transit":false,"station_name":"Karet","station_id":"KAT","i_long":106.816351,"time":1,"i_lat":-6.20132,"distance":471,"line":1},{"i_long":106.811091,"station_id":"THB","is_transit":true,"i_lat":-6.185545,"time":5,"transit":true,"line":1,"distance":2029,"station_name":"Tanah Abang"},{"transit":false,"station_id":"PLM","line":6,"is_transit":false,"station_name":"Palmerah","time":6,"distance":3191,"i_lat":-6.207404,"i_long":106.79689},{"i_lat":-6.237242,"line":6,"station_name":"Kebayoran","station_id":"KBY","is_transit":false,"time":7,"transit":false,"i_long":106.780334,"distance":3737},{"i_lat":-6.276362,"transit":false,"distance":6218,"line":6,"station_name":"Pondokranji","station_id":"PDJ","time":8,"is_transit":false,"i_long":106.74273},{"distance":2179,"transit":false,"station_id":"JMU","line":6,"i_long":106.728916,"time":3,"i_lat":-6.288927,"is_transit":false,"station_name":"Jurangmangu"},{"transit":false,"distance":1994,"time":4,"i_lat":-6.296963,"is_transit":false,"line":6,"station_name":"Sudimara","station_id":"SDM","i_long":106.712277},{"is_transit":false,"station_name":"Rawa Buntu","line":6,"distance":4566,"time":6,"i_long":106.675475,"station_id":"RU","i_lat":-6.314823,"transit":false},{"station_name":"Serpong","line":6,"transit":false,"station_id":"SRP","time":4,"i_long":106.66566,"is_transit":false,"i_lat":-6.319871,"distance":2413},{"time":4,"i_long":106.640411,"distance":1784,"i_lat":-6.32484,"station_name":"Cisauk","is_transit":false,"station_id":"CSK","transit":false,"line":0},{"time":4,"transit":false,"i_long":106.617853,"station_id":"CC","distance":2519,"is_transit":false,"station_name":"Cicayur","line":0,"i_lat":-6.329547},{"is_transit":false,"distance":5968,"time":8,"station_id":"PRP","i_lat":-6.3441410000000005,"line":6,"i_long":106.568863,"transit":false,"station_name":"Parung Panjang"},{"transit":false,"station_id":"CJT","i_lat":-6.354349,"distance":7025,"time":9,"line":0,"is_transit":false,"i_long":106.508482,"station_name":"Cilejit"},{"station_id":"DAR","station_name":"Daru","time":6,"is_transit":false,"i_long":106.491338,"line":0,"distance":2675,"transit":false,"i_lat":-6.338021},{"i_lat":-6.327251,"is_transit":false,"i_long":106.460812,"transit":false,"station_id":"TEJ","distance":3902,"time":5,"line":6,"station_name":"Tenjo"}],[{"line":0,"transit":false,"station_name":"Bekasi Timur","i_long":107.016735,"is_transit":false,"distance":0,"i_lat":-6.248029,"time":0,"station_id":"BKST"},{"distance":2368,"is_transit":false,"i_long":106.997013,"line":0,"time":2,"i_lat":-6.236616,"station_name":"Bekasi","station_id":"BKS","transit":false},{"is_transit":false,"station_name":"Kranji","i_lat":-6.224515,"distance":2520,"line":1,"station_id":"KRI","time":4,"i_long":106.977657,"transit":false},{"i_lat":-6.219053,"is_transit":false,"station_name":"Cakung","i_long":106.951283,"time":3,"station_id":"CUK","line":0,"distance":3097,"transit":false},{"distance":1385,"is_transit":false,"time":8,"station_id":"KLDB","i_lat":-6.217455,"station_name":"Klenderbaru","transit":false,"i_long":106.939679,"line":1},{"is_transit":false,"station_name":"Buaran","station_id":"BUA","line":0,"i_long":106.922662,"transit":false,"time":1,"i_lat":-6.215568,"distance":1305},{"i_lat":-6.2135,"line":1,"transit":false,"station_name":"Klender","i_long":106.899548,"is_transit":false,"time":2,"distance":3100,"station_id":"KLD"},{"distance":3395,"transit":true,"i_lat":-6.215091,"station_id":"JNG","station_name":"Jatinegara","is_transit":true,"i_long":106.86807400000001,"line":0,"time":3},{"transit":false,"line":11,"time":2,"station_name":"Pondok Jati","i_lat":-6.209188,"station_id":"POK","distance":1236,"i_long":106.861737,"is_transit":false},{"time":2,"line":11,"is_transit":false,"transit":false,"station_id":"KMT","i_lat":-6.193792,"station_name":"Kramat","i_long":106.855437,"distance":1829},{"transit":false,"is_transit":false,"line":11,"time":1,"i_lat":-6.185975,"station_name":"Gang Sentiong","distance":973,"i_long":106.850107,"station_id":"GST"},{"i_long":106.84368,"i_lat":-6.174784,"station_id":"PSE","line":11,"time":8,"station_name":"Pasar Senen","transit":false,"distance":1567,"is_transit":false},{"distance":1436,"line":11,"time":4,"station_name":"Kemayoran","i_long":106.839204,"i_lat":-6.161728,"is_transit":false,"transit":false,"station_id":"KMO"},{"i_long":106.836569,"distance":1901,"station_id":"RJW","i_lat":-6.14505,"time":5,"transit":false,"is_transit":false,"station_name":"Rajawali","line":11},{"i_lat":-6.132549,"transit":true,"is_transit":true,"i_long":106.826365,"line":0,"station_name":"Kampung Bandan","time":3,"distance":1444,"station_id":"KPB"},{"station_name":"Angke","time":9,"i_long":106.79867,"line":0,"transit":false,"i_lat":-6.144674,"distance":4102,"is_transit":false,"station_id":"AK"},{"distance":1230,"is_transit":true,"line":1,"station_id":"DU","time":4,"transit":true,"i_lat":-6.155215,"i_long":106.800832,"station_name":"Duri"},{"distance":3632,"i_long":106.811091,"i_lat":-6.185545,"is_transit":true,"line":1,"station_id":"THB","transit":true,"station_name":"Tanah Abang","time":8},{"transit":false,"distance":3191,"time":6,"i_long":106.79689,"station_id":"PLM","i_lat":-6.207404,"is_transit":false,"line":6,"station_name":"Palmerah"},{"line":6,"distance":3737,"transit":false,"station_name":"Kebayoran","is_transit":false,"station_id":"KBY","i_long":106.780334,"time":7,"i_lat":-6.237242},{"line":6,"distance":6218,"station_name":"Pondokranji","transit":false,"is_transit":false,"time":8,"i_lat":-6.276362,"station_id":"PDJ","i_long":106.74273},{"distance":2179,"transit":false,"is_transit":false,"time":3,"i_long":106.728916,"i_lat":-6.288927,"station_id":"JMU","station_name":"Jurangmangu","line":6},{"transit":false,"is_transit":false,"station_name":"Sudimara","time":4,"station_id":"SDM","i_lat":-6.296963,"line":6,"i_long":106.712277,"distance":1994},{"line":6,"station_name":"Rawa Buntu","is_transit":false,"station_id":"RU","i_long":106.675475,"time":6,"distance":4566,"transit":false,"i_lat":-6.314823},{"is_transit":false,"i_lat":-6.319871,"i_long":106.66566,"time":4,"transit":false,"station_id":"SRP","line":6,"station_name":"Serpong","distance":2413},{"is_transit":false,"distance":1784,"time":4,"station_id":"CSK","i_long":106.640411,"station_name":"Cisauk","i_lat":-6.32484,"transit":false,"line":0},{"i_long":106.617853,"transit":false,"is_transit":false,"time":4,"distance":2519,"station_id":"CC","line":0,"i_lat":-6.329547,"station_name":"Cicayur"},{"transit":false,"is_transit":false,"i_lat":-6.3441410000000005,"station_name":"Parung Panjang","time":8,"i_long":106.568863,"distance":5968,"line":6,"station_id":"PRP"},{"time":9,"station_name":"Cilejit","i_lat":-6.354349,"transit":false,"distance":7025,"i_long":106.508482,"line":0,"is_transit":false,"station_id":"CJT"},{"station_id":"DAR","i_lat":-6.338021,"line":0,"time":6,"i_long":106.491338,"station_name":"Daru","distance":2675,"transit":false,"is_transit":false},{"transit":false,"line":6,"distance":3902,"is_transit":false,"i_lat":-6.327251,"station_name":"Tenjo","station_id":"TEJ","time":5,"i_long":106.460812}],[{"station_id":"BKST","distance":0,"is_transit":false,"station_name":"Bekasi Timur","i_lat":-6.248029,"line":0,"i_long":107.016735,"transit":false,"time":0},{"is_transit":false,"line":0,"i_lat":-6.236616,"distance":2368,"station_id":"BKS","time":2,"transit":false,"station_name":"Bekasi","i_long":106.997013},{"i_long":106.977657,"i_lat":-6.224515,"distance":2520,"is_transit":false,"station_name":"Kranji","station_id":"KRI","transit":false,"time":4,"line":1},{"line":0,"station_name":"Cakung","i_lat":-6.219053,"transit":false,"distance":3097,"station_id":"CUK","i_long":106.951283,"is_transit":false,"time":3},{"transit":false,"station_id":"KLDB","line":1,"station_name":"Klenderbaru","distance":1385,"i_lat":-6.217455,"i_long":106.939679,"time":8,"is_transit":false},{"is_transit":false,"i_long":106.922662,"i_lat":-6.215568,"station_id":"BUA","line":0,"distance":1305,"transit":false,"time":1,"station_name":"Buaran"},{"line":1,"transit":false,"is_transit":false,"distance":3100,"station_name":"Klender","station_id":"KLD","time":2,"i_lat":-6.2135,"i_long":106.899548},{"time":3,"transit":false,"is_transit":true,"i_lat":-6.215091,"i_long":106.86807400000001,"line":0,"station_id":"JNG","station_name":"Jatinegara","distance":3395},{"station_name":"Matraman","i_lat":-6.212485,"line":1,"distance":1377,"time":2,"station_id":"MTR","is_transit":false,"transit":false,"i_long":106.858896},{"station_name":"Manggarai","time":2,"is_transit":true,"distance":1275,"transit":true,"station_id":"MRI","i_long":106.84912,"i_lat":-6.209883,"line":0},{"is_transit":false,"i_long":106.840169,"i_lat":-6.198556,"distance":1590,"station_name":"Cikini","station_id":"CKI","time":4,"transit":false,"line":0},{"station_name":"Gondangdia","station_id":"GDD","is_transit":false,"time":3,"i_lat":-6.186295,"distance":1750,"i_long":106.832183,"line":2,"transit":false},{"i_lat":-6.166716,"i_long":106.828284,"transit":false,"line":2,"time":4,"station_id":"JUA","distance":2015,"is_transit":false,"station_name":"Juanda"},{"transit":false,"is_transit":false,"time":2,"i_long":106.827103,"i_lat":-6.160725,"line":2,"station_name":"Sawah Besar","station_id":"SW","distance":1149},{"transit":false,"i_long":106.82482,"line":2,"station_id":"MGB","station_name":"Manggabesar","i_lat":-6.149769,"distance":906,"time":2,"is_transit":false},{"distance":1080,"is_transit":false,"station_id":"JAY","i_long":106.820901,"station_name":"Jayakarta","time":2,"line":7,"transit":false,"i_lat":-6.141205},{"distance":1264,"is_transit":true,"i_lat":-6.137569,"i_long":106.812439,"line":0,"transit":true,"time":4,"station_name":"Jakarta Kota","station_id":"JAKK"},{"time":3,"i_long":106.826365,"line":0,"is_transit":true,"i_lat":-6.132549,"distance":1364,"transit":false,"station_name":"Kampung Bandan","station_id":"KPB"},{"station_id":"AK","time":9,"i_long":106.79867,"transit":false,"distance":4102,"i_lat":-6.144674,"is_transit":false,"station_name":"Angke","line":0},{"distance":1230,"transit":true,"is_transit":true,"station_name":"Duri","time":4,"i_lat":-6.155215,"i_long":106.800832,"line":1,"station_id":"DU"},{"is_transit":true,"station_name":"Tanah Abang","time":8,"i_long":106.811091,"station_id":"THB","i_lat":-6.185545,"line":1,"distance":3632,"transit":true},{"time":6,"i_long":106.79689,"distance":3191,"line":6,"station_id":"PLM","transit":false,"i_lat":-6.207404,"is_transit":false,"station_name":"Palmerah"},{"line":6,"station_name":"Kebayoran","is_transit":false,"i_long":106.780334,"distance":3737,"i_lat":-6.237242,"transit":false,"station_id":"KBY","time":7},{"time":8,"is_transit":false,"station_id":"PDJ","station_name":"Pondokranji","line":6,"distance":6218,"i_lat":-6.276362,"i_long":106.74273,"transit":false},{"line":6,"is_transit":false,"i_lat":-6.288927,"station_name":"Jurangmangu","distance":2179,"transit":false,"i_long":106.728916,"station_id":"JMU","time":3},{"time":4,"line":6,"transit":false,"station_name":"Sudimara","i_lat":-6.296963,"i_long":106.712277,"station_id":"SDM","is_transit":false,"distance":1994},{"distance":4566,"transit":false,"i_lat":-6.314823,"line":6,"i_long":106.675475,"time":6,"station_id":"RU","station_name":"Rawa Buntu","is_transit":false},{"station_name":"Serpong","time":4,"line":6,"station_id":"SRP","is_transit":false,"i_long":106.66566,"transit":false,"i_lat":-6.319871,"distance":2413},{"i_long":106.640411,"station_id":"CSK","line":0,"transit":false,"distance":1784,"station_name":"Cisauk","is_transit":false,"time":4,"i_lat":-6.32484},{"line":0,"i_lat":-6.329547,"transit":false,"station_name":"Cicayur","time":4,"distance":2519,"i_long":106.617853,"is_transit":false,"station_id":"CC"},{"distance":5968,"transit":false,"time":8,"station_id":"PRP","i_long":106.568863,"station_name":"Parung Panjang","i_lat":-6.3441410000000005,"is_transit":false,"line":6},{"distance":7025,"station_name":"Cilejit","station_id":"CJT","is_transit":false,"i_long":106.508482,"time":9,"i_lat":-6.354349,"line":0,"transit":false},{"i_lat":-6.338021,"i_long":106.491338,"line":0,"is_transit":false,"station_name":"Daru","distance":2675,"station_id":"DAR","transit":false,"time":6},{"line":6,"station_name":"Tenjo","station_id":"TEJ","transit":false,"time":5,"distance":3902,"i_lat":-6.327251,"is_transit":false,"i_long":106.460812}],[{"is_transit":false,"station_id":"BKST","transit":false,"i_lat":-6.248029,"time":0,"distance":0,"station_name":"Bekasi Timur","line":0,"i_long":107.016735},{"time":2,"distance":2368,"is_transit":false,"i_lat":-6.236616,"line":0,"i_long":106.997013,"transit":false,"station_name":"Bekasi","station_id":"BKS"},{"station_id":"KRI","i_long":106.977657,"line":1,"i_lat":-6.224515,"transit":false,"distance":2520,"is_transit":false,"station_name":"Kranji","time":4},{"is_transit":false,"station_name":"Cakung","time":3,"station_id":"CUK","i_lat":-6.219053,"distance":3097,"i_long":106.951283,"line":0,"transit":false},{"distance":1385,"time":8,"station_name":"Klenderbaru","is_transit":false,"station_id":"KLDB","i_lat":-6.217455,"i_long":106.939679,"line":1,"transit":false},{"line":0,"i_lat":-6.215568,"distance":1305,"i_long":106.922662,"is_transit":false,"station_name":"Buaran","transit":false,"station_id":"BUA","time":1},{"transit":false,"is_transit":false,"i_long":106.899548,"time":2,"line":1,"i_lat":-6.2135,"station_id":"KLD","station_name":"Klender","distance":3100},{"line":0,"is_transit":true,"station_id":"JNG","time":3,"i_lat":-6.215091,"station_name":"Jatinegara","i_long":106.86807400000001,"distance":3395,"transit":true},{"time":2,"i_lat":-6.209188,"is_transit":false,"transit":false,"distance":1236,"station_id":"POK","i_long":106.861737,"line":11,"station_name":"Pondok Jati"},{"i_lat":-6.193792,"distance":1829,"station_name":"Kramat","i_long":106.855437,"station_id":"KMT","time":2,"line":11,"transit":false,"is_transit":false},{"i_long":106.850107,"i_lat":-6.185975,"transit":false,"is_transit":false,"time":1,"line":11,"station_name":"Gang Sentiong","distance":973,"station_id":"GST"},{"time":8,"is_transit":false,"i_long":106.84368,"line":11,"transit":false,"station_name":"Pasar Senen","station_id":"PSE","distance":1567,"i_lat":-6.174784},{"transit":false,"station_id":"KMO","is_transit":false,"station_name":"Kemayoran","distance":1436,"i_lat":-6.161728,"i_long":106.839204,"time":4,"line":11},{"station_name":"Rajawali","i_lat":-6.14505,"line":11,"i_long":106.836569,"distance":1901,"station_id":"RJW","is_transit":false,"time":5,"transit":false},{"is_transit":true,"line":0,"transit":true,"i_lat":-6.132549,"distance":1444,"time":3,"station_id":"KPB","i_long":106.826365,"station_name":"Kampung Bandan"},{"transit":true,"station_name":"Jakarta Kota","is_transit":true,"station_id":"JAKK","time":3,"i_lat":-6.137569,"line":0,"i_long":106.812439,"distance":1364},{"i_long":106.820901,"line":7,"is_transit":false,"transit":false,"distance":1264,"station_name":"Jayakarta","station_id":"JAY","i_lat":-6.141205,"time":4},{"line":2,"distance":1080,"i_lat":-6.149769,"is_transit":false,"station_name":"Manggabesar","time":2,"station_id":"MGB","transit":false,"i_long":106.82482},{"distance":906,"is_transit":false,"station_id":"SW","i_lat":-6.160725,"station_name":"Sawah Besar","line":2,"time":2,"i_long":106.827103,"transit":false},{"line":2,"is_transit":false,"time":2,"i_lat":-6.166716,"station_name":"Juanda","distance":1149,"station_id":"JUA","transit":false,"i_long":106.828284},{"station_id":"GDD","i_long":106.832183,"i_lat":-6.186295,"distance":2015,"transit":false,"is_transit":false,"time":4,"station_name":"Gondangdia","line":2},{"line":0,"distance":1750,"is_transit":false,"station_id":"CKI","time":3,"transit":false,"station_name":"Cikini","i_lat":-6.198556,"i_long":106.840169},{"transit":true,"is_transit":true,"station_name":"Manggarai","station_id":"MRI","i_long":106.84912,"time":4,"line":0,"distance":1590,"i_lat":-6.209883},{"time":4,"transit":false,"station_name":"Sudirman","is_transit":false,"i_lat":-6.202263,"line":1,"distance":3186,"station_id":"SUD","i_long":106.822649},{"i_long":106.819881,"distance":280,"station_id":"SUDB","is_transit":false,"i_lat":-6.201433,"station_name":"Sudirman Baru","transit":false,"line":1,"time":1},{"time":1,"line":1,"distance":471,"is_transit":false,"station_name":"Karet","i_long":106.816351,"station_id":"KAT","i_lat":-6.20132,"transit":false},{"distance":2029,"line":1,"station_name":"Tanah Abang","i_lat":-6.185545,"is_transit":true,"station_id":"THB","transit":true,"time":5,"i_long":106.811091},{"time":6,"i_long":106.79689,"station_name":"Palmerah","station_id":"PLM","i_lat":-6.207404,"transit":false,"is_transit":false,"distance":3191,"line":6},{"line":6,"is_transit":false,"transit":false,"i_lat":-6.237242,"station_name":"Kebayoran","distance":3737,"station_id":"KBY","i_long":106.780334,"time":7},{"is_transit":false,"station_id":"PDJ","time":8,"i_long":106.74273,"line":6,"i_lat":-6.276362,"distance":6218,"station_name":"Pondokranji","transit":false},{"is_transit":false,"i_long":106.728916,"line":6,"transit":false,"station_id":"JMU","i_lat":-6.288927,"station_name":"Jurangmangu","time":3,"distance":2179},{"distance":1994,"station_id":"SDM","i_lat":-6.296963,"line":6,"time":4,"is_transit":false,"transit":false,"i_long":106.712277,"station_name":"Sudimara"},{"i_lat":-6.314823,"station_id":"RU","line":6,"time":6,"distance":4566,"station_name":"Rawa Buntu","transit":false,"is_transit":false,"i_long":106.675475},{"time":4,"line":6,"is_transit":false,"i_long":106.66566,"i_lat":-6.319871,"distance":2413,"transit":false,"station_name":"Serpong","station_id":"SRP"},{"line":0,"time":4,"is_transit":false,"i_lat":-6.32484,"i_long":106.640411,"station_id":"CSK","transit":false,"distance":1784,"station_name":"Cisauk"},{"time":4,"i_lat":-6.329547,"is_transit":false,"transit":false,"station_id":"CC","i_long":106.617853,"distance":2519,"station_name":"Cicayur","line":0},{"line":6,"time":8,"station_name":"Parung Panjang","i_long":106.568863,"is_transit":false,"transit":false,"station_id":"PRP","i_lat":-6.3441410000000005,"distance":5968},{"line":0,"is_transit":false,"time":9,"i_lat":-6.354349,"station_name":"Cilejit","distance":7025,"station_id":"CJT","i_long":106.508482,"transit":false},{"station_id":"DAR","is_transit":false,"station_name":"Daru","time":6,"i_lat":-6.338021,"i_long":106.491338,"line":0,"distance":2675,"transit":false},{"time":5,"i_long":106.460812,"transit":false,"distance":3902,"i_lat":-6.327251,"line":6,"is_transit":false,"station_name":"Tenjo","station_id":"TEJ"}]]}