{"data":[[{"i_long":107.016735,"distance":0,"transit":false,"time":0,"line":1,"station_id":"BKST","i_lat":-6.248029,"station_name":"Bekasi Timur"},{"i_long":106.997013,"distance":2368,"transit":false,"time":2,"line":1,"station_id":"BKS","i_lat":-6.236616,"station_name":"Bekasi"},{"i_long":106.977657,"distance":2520,"transit":false,"time":4,"line":1,"station_id":"KRI","i_lat":-6.224515,"station_name":"Kranji"},{"i_long":106.951283,"distance":3097,"transit":false,"time":3,"line":1,"station_id":"CUK","i_lat":-6.219053,"station_name":"Cakung"},{"i_long":106.939679,"distance":1385,"transit":false,"time":8,"line":1,"station_id":"KLDB","i_lat":-6.217455,"station_name":"Klenderbaru"}]]}