{"data":[[{"i_lat":-6.248029,"line":0,"distance":0,"time":0,"i_long":107.016735,"transit":false,"station_id":"BKST","station_name":"Bekasi Timur","is_transit":false},{"distance":2368,"is_transit":false,"transit":false,"line":0,"i_long":106.997013,"time":2,"station_name":"Bekasi","station_id":"BKS","i_lat":-6.236616},{"line":1,"time":4,"distance":2520,"is_transit":false,"i_lat":-6.224515,"station_name":"Kranji","transit":false,"station_id":"KRI","i_long":106.977657},{"station_id":"CUK","i_long":106.951283,"i_lat":-6.219053,"is_transit":false,"station_name":"Cakung","distance":3097,"transit":false,"line":0,"time":3},{"time":8,"station_id":"KLDB","i_lat":-6.217455,"transit":false,"i_long":106.939679,"line":1,"is_transit":false,"station_name":"Klenderbaru","distance":1385},{"distance":1305,"is_transit":false,"i_lat":-6.215568,"line":0,"time":1,"transit":false,"station_id":"BUA","station_name":"Buaran","i_long":106.922662},{"transit":false,"station_id":"KLD","i_lat":-6.2135,"line":1,"time":2,"i_long":106.899548,"is_transit":false,"distance":3100,"station_name":"Klender"},{"i_long":106.86807400000001,"i_lat":-6.215091,"line":0,"station_id":"JNG","distance":3395,"transit":false,"station_name":"Jatinegara","time":3,"is_transit":true},{"distance":1377,"is_transit":false,"transit":false,"time":2,"station_id":"MTR","i_long":106.858896,"i_lat":-6.212485,"line":1,"station_name":"Matraman"},{"station_name":"Manggarai","transit":false,"i_lat":-6.209883,"line":0,"time":2,"distance":1275,"station_id":"MRI","is_transit":true,"i_long":106.84912}],[{"is_transit":false,"line":0,"time":0,"station_id":"BKST","i_lat":-6.248029,"distance":0,"i_long":107.016735,"transit":false,"station_name":"Bekasi Timur"},{"is_transit":false,"i_lat":-6.236616,"station_id":"BKS","i_long":106.997013,"line":0,"station_name":"Bekasi","time":2,"distance":2368,"transit":false},{"line":1,"distance":2520,"transit":false,"station_name":"Kranji","station_id":"KRI","time":4,"is_transit":false,"i_long":106.977657,"i_lat":-6.224515},{"line":0,"i_long":106.951283,"station_name":"Cakung","transit":false,"i_lat":-6.219053,"distance":3097,"station_id":"CUK","is_transit":false,"time":3},{"transit":false,"line":1,"station_name":"Klenderbaru","distance":1385,"time":8,"is_transit":false,"i_lat":-6.217455,"i_long":106.939679,"station_id":"KLDB"},{"is_transit":false,"distance":1305,"station_id":"BUA","i_long":106.922662,"station_name":"Buaran","transit":false,"i_lat":-6.215568,"line":0,"time":1},{"transit":false,"station_id":"KLD","is_transit":false,"time":2,"i_lat":-6.2135,"distance":3100,"i_long":106.899548,"station_name":"Klender","line":1},{"line":0,"transit":true,"i_long":106.86807400000001,"station_name":"Jatinegara","distance":3395,"is_transit":true,"time":3,"station_id":"JNG","i_lat":-6.215091},{"i_long":106.861737,"station_id":"POK","station_name":"Pondok Jati","is_transit":false,"time":2,"transit":false,"i_lat":-6.209188,"line":11,"distance":1236},{"i_lat":-6.193792,"time":2,"station_name":"Kramat","station_id":"KMT","i_long":106.855437,"is_transit":false,"distance":1829,"transit":false,"line":11},{"station_id":"GST","time":1,"i_lat":-6.185975,"line":11,"station_name":"Gang Sentiong","is_transit":false,"distance":973,"transit":false,"i_long":106.850107},{"is_transit":false,"distance":1567,"station_id":"PSE","i_lat":-6.174784,"station_name":"Pasar Senen","line":11,"time":8,"i_long":106.84368,"transit":false},{"time":4,"i_lat":-6.161728,"station_id":"KMO","i_long":106.839204,"transit":false,"station_name":"Kemayoran","line":11,"is_transit":false,"distance":1436},{"distance":1901,"i_lat":-6.14505,"i_long":106.836569,"station_name":"Rajawali","station_id":"RJW","line":11,"is_transit":false,"transit":false,"time":5},{"i_lat":-6.132549,"is_transit":true,"transit":true,"i_long":106.826365,"station_id":"KPB","station_name":"Kampung Bandan","distance":1444,"line":0,"time":3},{"time":9,"transit":false,"station_name":"Angke","i_long":106.79867,"is_transit":false,"i_lat":-6.144674,"station_id":"AK","line":0,"distance":4102},{"is_transit":true,"station_id":"DU","transit":true,"i_lat":-6.155215,"distance":1230,"station_name":"Duri","line":1,"time":4,"i_long":106.800832},{"line":1,"i_long":106.811091,"transit":false,"distance":3632,"i_lat":-6.185545,"station_name":"Tanah Abang","time":8,"station_id":"THB","is_transit":true},{"is_transit":false,"distance":2029,"transit":false,"station_id":"KAT","line":1,"i_lat":-6.20132,"i_long":106.816351,"time":5,"station_name":"Karet"},{"time":1,"transit":false,"i_lat":-6.201433,"i_long":106.819881,"station_name":"Sudirman Baru","station_id":"SUDB","is_transit":false,"line":1,"distance":471},{"i_lat":-6.202263,"i_long":106.822649,"station_name":"Sudirman","transit":false,"time":1,"line":1,"station_id":"SUD","distance":280,"is_transit":false},{"station_name":"Manggarai","transit":false,"i_long":106.84912,"line":0,"time":4,"i_lat":-6.209883,"station_id":"MRI","is_transit":true,"distance":3186}],[{"line":0,"station_id":"BKST","time":0,"transit":false,"i_lat":-6.248029,"is_transit":false,"distance":0,"station_name":"Bekasi Timur","i_long":107.016735},{"station_id":"BKS","distance":2368,"i_lat":-6.236616,"is_transit":false,"time":2,"station_name":"Bekasi","transit":false,"i_long":106.997013,"line":0},{"station_name":"Kranji","i_lat":-6.224515,"transit":false,"is_transit":false,"distance":2520,"time":4,"i_long":106.977657,"station_id":"KRI","line":1},{"is_transit":false,"transit":false,"i_long":106.951283,"time":3,"station_id":"CUK","distance":3097,"line":0,"station_name":"Cakung","i_lat":-6.219053},{"station_id":"KLDB","time":8,"station_name":"Klenderbaru","i_lat":-6.217455,"is_transit":false,"distance":1385,"i_long":106.939679,"transit":false,"line":1},{"station_id":"BUA","line":0,"station_name":"Buaran","is_transit":false,"transit":false,"i_lat":-6.215568,"time":1,"distance":1305,"i_long":106.922662},{"line":1,"time":2,"station_name":"Klender","distance":3100,"i_lat":-6.2135,"station_id":"KLD","transit":false,"i_long":106.899548,"is_transit":false},{"i_lat":-6.215091,"i_long":106.86807400000001,"line":0,"time":3,"is_transit":true,"transit":true,"station_id":"JNG","station_name":"Jatinegara","distance":3395},{"station_id":"POK","is_transit":false,"station_name":"Pondok Jati","time":2,"line":11,"transit":false,"i_long":106.861737,"distance":1236,"i_lat":-6.209188},{"time":2,"i_lat":-6.193792,"transit":false,"distance":1829,"station_id":"KMT","station_name":"Kramat","i_long":106.855437,"line":11,"is_transit":false},{"is_transit":false,"station_id":"GST","time":1,"station_name":"Gang Sentiong","distance":973,"i_lat":-6.185975,"i_long":106.850107,"transit":false,"line":11},{"time":8,"is_transit":false,"station_id":"PSE","station_name":"Pasar Senen","i_lat":-6.174784,"transit":false,"line":11,"distance":1567,"i_long":106.84368},{"is_transit":false,"transit":false,"line":11,"station_name":"Kemayoran","distance":1436,"time":4,"i_lat":-6.161728,"i_long":106.839204,"station_id":"KMO"},{"station_name":"Rajawali","time":5,"i_long":106.836569,"is_transit":false,"i_lat":-6.14505,"distance":1901,"line":11,"transit":false,"station_id":"RJW"},{"is_transit":true,"i_lat":-6.132549,"time":3,"distance":1444,"station_id":"KPB","transit":true,"station_name":"Kampung Bandan","i_long":106.826365,"line":0},{"time":3,"i_lat":-6.137569,"i_long":106.812439,"station_id":"JAKK","is_transit":true,"distance":1364,"transit":true,"line":0,"station_name":"Jakarta Kota"},{"is_transit":false,"i_lat":-6.141205,"line":7,"station_name":"Jayakarta","station_id":"JAY","i_long":106.820901,"distance":1264,"time":4,"transit":false},{"station_name":"Manggabesar","transit":false,"i_lat":-6.149769,"i_long":106.82482,"is_transit":false,"station_id":"MGB","distance":1080,"line":2,"time":2},{"i_long":106.827103,"distance":906,"time":2,"line":2,"station_id":"SW","is_transit":false,"transit":false,"i_lat":-6.160725,"station_name":"Sawah Besar"},{"line":2,"station_name":"Juanda","station_id":"JUA","time":2,"i_long":106.828284,"is_transit":false,"i_lat":-6.166716,"distance":1149,"transit":false},{"i_lat":-6.186295,"station_name":"Gondangdia","distance":2015,"i_long":106.832183,"time":4,"line":2,"station_id":"GDD","transit":false,"is_transit":false},{"i_long":106.840169,"distance":1750,"station_id":"CKI","is_transit":false,"line":0,"transit":false,"station_name":"Cikini","time":3,"i_lat":-6.198556},{"time":4,"i_lat":-6.209883,"station_name":"Manggarai","i_long":106.84912,"line":0,"station_id":"MRI","is_transit":true,"distance":1590,"transit":false}]]}