{"data":[[{"station_name":"Bekasi Timur","is_transit":false,"transit":false,"station_id":"BKST","line":1,"distance":0,"time":0,"i_lat":-6.248029,"i_long":107.016735},{"distance":2368,"i_lat":-6.236616,"is_transit":false,"time":2,"i_long":106.997013,"station_name":"Bekasi","transit":false,"station_id":"BKS","line":1},{"time":4,"station_name":"Kranji","station_id":"KRI","transit":false,"i_long":106.977657,"line":1,"i_lat":-6.224515,"is_transit":false,"distance":2520},{"station_name":"Cakung","transit":false,"i_lat":-6.219053,"time":3,"i_long":106.951283,"station_id":"CUK","distance":3097,"is_transit":false,"line":1},{"i_long":106.939679,"i_lat":-6.217455,"time":8,"is_transit":false,"station_id":"KLDB","station_name":"Klenderbaru","distance":1385,"transit":false,"line":1},{"station_id":"BUA","transit":false,"station_name":"Buaran","i_lat":-6.215568,"distance":1305,"line":1,"is_transit":false,"i_long":106.922662,"time":1},{"i_lat":-6.2135,"line":1,"station_name":"Klender","time":2,"i_long":106.899548,"is_transit":false,"distance":3100,"station_id":"KLD","transit":false},{"distance":3395,"is_transit":false,"time":3,"i_long":106.86807400000001,"transit":false,"station_name":"Jatinegara","line":1,"station_id":"JNG","i_lat":-6.215091},{"time":2,"is_transit":false,"line":1,"transit":false,"station_id":"MTR","i_lat":-6.212485,"distance":1377,"station_name":"Matraman","i_long":106.858896},{"time":2,"i_lat":-6.209883,"station_id":"MRI","line":2,"station_name":"Manggarai","is_transit":false,"transit":false,"distance":1275,"i_long":106.84912},{"is_transit":false,"time":4,"line":1,"distance":3186,"i_lat":-6.202263,"transit":false,"i_long":106.822649,"station_id":"SUD","station_name":"Sudirman"},{"i_lat":-6.201433,"time":1,"distance":280,"station_name":"Sudirman Baru","station_id":"SUDB","i_long":106.819881,"line":1,"is_transit":false,"transit":false},{"i_lat":-6.20132,"station_id":"KAT","transit":false,"distance":471,"is_transit":false,"station_name":"Karet","time":1,"i_long":106.816351,"line":1},{"station_id":"THB","time":5,"distance":2029,"i_long":106.811091,"is_transit":false,"station_name":"Tanah Abang","line":1,"transit":false,"i_lat":-6.185545},{"i_long":106.800832,"distance":3632,"line":1,"i_lat":-6.155215,"station_name":"Duri","station_id":"DU","transit":false,"is_transit":false,"time":8},{"line":1,"distance":1230,"station_name":"Angke","time":4,"i_long":106.79867,"i_lat":-6.144674,"is_transit":false,"station_id":"AK","transit":false}],[{"i_lat":-6.248029,"time":0,"i_long":107.016735,"station_id":"BKST","station_name":"Bekasi Timur","distance":0,"is_transit":false,"transit":false,"line":1},{"transit":false,"line":1,"station_name":"Bekasi","i_lat":-6.236616,"i_long":106.997013,"distance":2368,"is_transit":false,"time":2,"station_id":"BKS"},{"distance":2520,"i_lat":-6.224515,"i_long":106.977657,"is_transit":false,"transit":false,"time":4,"station_id":"KRI","station_name":"Kranji","line":1},{"station_name":"Cakung","is_transit":false,"station_id":"CUK","time":3,"distance":3097,"transit":false,"i_long":106.951283,"line":1,"i_lat":-6.219053},{"distance":1385,"i_lat":-6.217455,"transit":false,"i_long":106.939679,"line":1,"station_name":"Klenderbaru","station_id":"KLDB","is_transit":false,"time":8},{"distance":1305,"time":1,"i_lat":-6.215568,"i_long":106.922662,"is_transit":false,"line":1,"station_name":"Buaran","station_id":"BUA","transit":false},{"time":2,"distance":3100,"is_transit":false,"station_id":"KLD","i_lat":-6.2135,"i_long":106.899548,"transit":false,"station_name":"Klender","line":1},{"distance":3395,"i_lat":-6.215091,"station_id":"JNG","transit":true,"i_long":106.86807400000001,"line":1,"station_name":"Jatinegara","time":3,"is_transit":true},{"i_long":106.861737,"distance":1236,"time":2,"line":11,"station_name":"Pondok Jati","transit":false,"station_id":"POK","i_lat":-6.209188,"is_transit":false},{"distance":1829,"is_transit":false,"line":11,"station_name":"Kramat","transit":false,"i_lat":-6.193792,"station_id":"KMT","time":2,"i_long":106.855437},{"station_id":"GST","is_transit":false,"line":11,"i_long":106.850107,"transit":false,"time":1,"i_lat":-6.185975,"distance":973,"station_name":"Gang Sentiong"},{"transit":false,"station_id":"PSE","distance":1567,"is_transit":false,"time":8,"i_lat":-6.174784,"station_name":"Pasar Senen","i_long":106.84368,"line":11},{"is_transit":false,"i_long":106.839204,"time":4,"station_id":"KMO","i_lat":-6.161728,"transit":false,"line":11,"station_name":"Kemayoran","distance":1436},{"is_transit":false,"i_long":106.836569,"time":5,"station_id":"RJW","distance":1901,"line":11,"station_name":"Rajawali","i_lat":-6.14505,"transit":false},{"station_id":"KPB","is_transit":true,"i_long":106.826365,"time":3,"station_name":"Kampung Bandan","i_lat":-6.132549,"line":4,"transit":true,"distance":1444},{"i_long":106.79867,"transit":false,"station_name":"Angke","time":9,"station_id":"AK","is_transit":false,"i_lat":-6.144674,"distance":4102,"line":1}],[{"station_name":"Bekasi Timur","is_transit":false,"transit":false,"station_id":"BKST","i_lat":-6.248029,"distance":0,"i_long":107.016735,"time":0,"line":1},{"time":2,"station_name":"Bekasi","i_lat":-6.236616,"distance":2368,"station_id":"BKS","is_transit":false,"i_long":106.997013,"line":1,"transit":false},{"distance":2520,"transit":false,"i_lat":-6.224515,"station_name":"Kranji","i_long":106.977657,"time":4,"line":1,"station_id":"KRI","is_transit":false},{"transit":false,"is_transit":false,"i_lat":-6.219053,"station_id":"CUK","line":1,"time":3,"distance":3097,"i_long":106.951283,"station_name":"Cakung"},{"line":1,"time":8,"i_lat":-6.217455,"i_long":106.939679,"station_name":"Klenderbaru","distance":1385,"is_transit":false,"station_id":"KLDB","transit":false},{"transit":false,"line":1,"distance":1305,"station_name":"Buaran","time":1,"station_id":"BUA","is_transit":false,"i_lat":-6.215568,"i_long":106.922662},{"distance":3100,"line":1,"is_transit":false,"transit":false,"i_lat":-6.2135,"station_id":"KLD","station_name":"Klender","i_long":106.899548,"time":2},{"time":3,"distance":3395,"line":1,"i_lat":-6.215091,"station_name":"Jatinegara","station_id":"JNG","transit":false,"is_transit":false,"i_long":106.86807400000001},{"is_transit":false,"station_id":"MTR","distance":1377,"station_name":"Matraman","time":2,"line":1,"transit":false,"i_lat":-6.212485,"i_long":106.858896},{"station_name":"Manggarai","station_id":"MRI","i_lat":-6.209883,"i_long":106.84912,"is_transit":true,"line":2,"transit":true,"distance":1275,"time":2},{"i_lat":-6.198556,"line":2,"i_long":106.840169,"distance":1590,"transit":false,"is_transit":false,"time":4,"station_id":"CKI","station_name":"Cikini"},{"distance":1750,"i_long":106.832183,"time":3,"transit":false,"i_lat":-6.186295,"station_name":"Gondangdia","line":2,"is_transit":false,"station_id":"GDD"},{"distance":2015,"is_transit":false,"station_id":"JUA","station_name":"Juanda","transit":false,"i_lat":-6.166716,"i_long":106.828284,"line":2,"time":4},{"station_name":"Sawah Besar","transit":false,"distance":1149,"station_id":"SW","i_long":106.827103,"is_transit":false,"line":2,"time":2,"i_lat":-6.160725},{"time":2,"line":2,"i_lat":-6.149769,"i_long":106.82482,"distance":906,"station_name":"Manggabesar","transit":false,"is_transit":false,"station_id":"MGB"},{"distance":1080,"is_transit":false,"station_name":"Jayakarta","station_id":"JAY","i_lat":-6.141205,"transit":false,"line":2,"i_long":106.820901,"time":2},{"is_transit":true,"time":4,"station_name":"Jakarta Kota","station_id":"JAKK","i_long":106.812439,"transit":true,"i_lat":-6.137569,"line":2,"distance":1264},{"time":3,"is_transit":true,"distance":1364,"transit":true,"i_lat":-6.132549,"line":4,"station_name":"Kampung Bandan","station_id":"KPB","i_long":106.826365},{"i_long":106.79867,"i_lat":-6.144674,"transit":false,"time":9,"station_id":"AK","distance":4102,"line":1,"station_name":"Angke","is_transit":false}],[{"is_transit":false,"transit":false,"i_lat":-6.248029,"time":0,"station_name":"Bekasi Timur","station_id":"BKST","distance":0,"line":1,"i_long":107.016735},{"station_name":"Bekasi","i_long":106.997013,"time":2,"is_transit":false,"i_lat":-6.236616,"line":1,"station_id":"BKS","transit":false,"distance":2368},{"transit":false,"station_name":"Kranji","time":4,"is_transit":false,"line":1,"i_lat":-6.224515,"i_long":106.977657,"distance":2520,"station_id":"KRI"},{"time":3,"i_long":106.951283,"station_id":"CUK","transit":false,"station_name":"Cakung","line":1,"is_transit":false,"i_lat":-6.219053,"distance":3097},{"line":1,"station_name":"Klenderbaru","station_id":"KLDB","time":8,"is_transit":false,"distance":1385,"i_long":106.939679,"transit":false,"i_lat":-6.217455},{"line":1,"station_id":"BUA","is_transit":false,"distance":1305,"time":1,"i_lat":-6.215568,"transit":false,"station_name":"Buaran","i_long":106.922662},{"time":2,"station_id":"KLD","station_name":"Klender","is_transit":false,"line":1,"i_long":106.899548,"transit":false,"distance":3100,"i_lat":-6.2135},{"distance":3395,"line":1,"is_transit":true,"time":3,"station_id":"JNG","transit":true,"i_long":106.86807400000001,"i_lat":-6.215091,"station_name":"Jatinegara"},{"transit":false,"distance":1236,"i_long":106.861737,"i_lat":-6.209188,"line":11,"time":2,"station_id":"POK","is_transit":false,"station_name":"Pondok Jati"},{"distance":1829,"station_id":"KMT","i_long":106.855437,"time":2,"transit":false,"station_name":"Kramat","line":11,"i_lat":-6.193792,"is_transit":false},{"distance":973,"time":1,"is_transit":false,"station_name":"Gang Sentiong","i_lat":-6.185975,"i_long":106.850107,"station_id":"GST","transit":false,"line":11},{"transit":false,"line":11,"station_id":"PSE","is_transit":false,"distance":1567,"time":8,"station_name":"Pasar Senen","i_lat":-6.174784,"i_long":106.84368},{"i_long":106.839204,"is_transit":false,"station_name":"Kemayoran","transit":false,"station_id":"KMO","distance":1436,"time":4,"line":11,"i_lat":-6.161728},{"station_id":"RJW","time":5,"station_name":"Rajawali","i_lat":-6.14505,"i_long":106.836569,"distance":1901,"line":11,"transit":false,"is_transit":false},{"i_long":106.826365,"is_transit":true,"station_id":"KPB","station_name":"Kampung Bandan","transit":true,"i_lat":-6.132549,"line":4,"time":3,"distance":1444},{"i_long":106.812439,"line":2,"i_lat":-6.137569,"time":3,"is_transit":true,"station_name":"Jakarta Kota","distance":1364,"station_id":"JAKK","transit":true},{"distance":1264,"transit":false,"station_id":"JAY","i_long":106.820901,"i_lat":-6.141205,"time":4,"is_transit":false,"line":2,"station_name":"Jayakarta"},{"is_transit":false,"station_name":"Manggabesar","time":2,"distance":1080,"line":2,"i_lat":-6.149769,"i_long":106.82482,"transit":false,"station_id":"MGB"},{"distance":906,"line":2,"station_id":"SW","i_long":106.827103,"time":2,"transit":false,"is_transit":false,"i_lat":-6.160725,"station_name":"Sawah Besar"},{"is_transit":false,"i_lat":-6.166716,"transit":false,"i_long":106.828284,"station_name":"Juanda","distance":1149,"time":2,"station_id":"JUA","line":2},{"time":4,"distance":2015,"station_id":"GDD","is_transit":false,"transit":false,"i_long":106.832183,"line":2,"i_lat":-6.186295,"station_name":"Gondangdia"},{"transit":false,"time":3,"i_long":106.840169,"is_transit":false,"i_lat":-6.198556,"distance":1750,"station_name":"Cikini","line":2,"station_id":"CKI"},{"station_id":"MRI","transit":true,"i_lat":-6.209883,"station_name":"Manggarai","line":2,"time":4,"is_transit":true,"distance":1590,"i_long":106.84912},{"time":4,"station_id":"SUD","distance":3186,"i_lat":-6.202263,"transit":false,"i_long":106.822649,"line":1,"station_name":"Sudirman","is_transit":false},{"i_lat":-6.201433,"line":1,"distance":280,"station_name":"Sudirman Baru","transit":false,"station_id":"SUDB","i_long":106.819881,"is_transit":false,"time":1},{"station_id":"KAT","line":1,"i_lat":-6.20132,"station_name":"Karet","distance":471,"time":1,"is_transit":false,"transit":false,"i_long":106.816351},{"distance":2029,"transit":false,"time":5,"line":1,"i_lat":-6.185545,"station_id":"THB","is_transit":false,"i_long":106.811091,"station_name":"Tanah Abang"},{"station_id":"DU","is_transit":false,"i_lat":-6.155215,"distance":3632,"i_long":106.800832,"transit":false,"station_name":"Duri","line":1,"time":8},{"station_id":"AK","transit":false,"is_transit":false,"i_lat":-6.144674,"time":4,"station_name":"Angke","distance":1230,"i_long":106.79867,"line":1}]]}