{"data":[[{"transit":false,"distance":0,"station_name":"Bekasi Timur","time":0,"is_transit":false,"i_long":107.016735,"station_id":"BKST","line":1,"i_lat":-6.248029},{"transit":false,"i_lat":-6.236616,"distance":2368,"station_name":"Bekasi","is_transit":false,"station_id":"BKS","time":2,"i_long":106.997013,"line":1},{"station_id":"KRI","distance":2520,"i_long":106.977657,"time":4,"station_name":"Kranji","line":1,"is_transit":false,"i_lat":-6.224515,"transit":false},{"i_lat":-6.219053,"station_name":"Cakung","line":1,"transit":false,"station_id":"CUK","i_long":106.951283,"is_transit":false,"time":3,"distance":3097},{"i_lat":-6.217455,"station_name":"Klenderbaru","is_transit":false,"i_long":106.939679,"line":1,"station_id":"KLDB","transit":false,"distance":1385,"time":8},{"station_id":"BUA","transit":false,"time":1,"is_transit":false,"line":1,"i_lat":-6.215568,"station_name":"Buaran","distance":1305,"i_long":106.922662},{"i_lat":-6.2135,"line":1,"is_transit":false,"distance":3100,"time":2,"station_name":"Klender","i_long":106.899548,"station_id":"KLD","transit":false},{"is_transit":false,"i_long":106.86807400000001,"time":3,"station_id":"JNG","i_lat":-6.215091,"line":1,"station_name":"Jatinegara","distance":3395,"transit":false},{"is_transit":false,"transit":false,"line":1,"i_lat":-6.212485,"time":2,"station_id":"MTR","station_name":"Matraman","i_long":106.858896,"distance":1377},{"distance":1275,"transit":false,"is_transit":false,"i_lat":-6.209883,"line":2,"time":2,"i_long":106.84912,"station_name":"Manggarai","station_id":"MRI"},{"distance":3186,"is_transit":false,"transit":false,"i_lat":-6.202263,"line":1,"time":4,"station_name":"Sudirman","station_id":"SUD","i_long":106.822649},{"distance":280,"i_lat":-6.201433,"i_long":106.819881,"line":1,"station_name":"Sudirman Baru","is_transit":false,"time":1,"transit":false,"station_id":"SUDB"},{"distance":471,"transit":false,"time":1,"station_id":"KAT","station_name":"Karet","is_transit":false,"i_lat":-6.20132,"i_long":106.816351,"line":1},{"station_name":"Tanah Abang","time":5,"i_long":106.811091,"is_transit":true,"station_id":"THB","distance":2029,"line":1,"i_lat":-6.185545,"transit":true},{"i_long":106.79689,"station_id":"PLM","transit":false,"station_name":"Palmerah","i_lat":-6.207404,"time":6,"distance":3191,"line":6,"is_transit":false},{"time":7,"i_long":106.780334,"station_name":"Kebayoran","i_lat":-6.237242,"distance":3737,"is_transit":false,"line":6,"transit":false,"station_id":"KBY"},{"i_lat":-6.276362,"station_name":"Pondokranji","station_id":"PDJ","time":8,"distance":6218,"is_transit":false,"transit":false,"i_long":106.74273,"line":6},{"line":6,"i_lat":-6.288927,"station_id":"JMU","i_long":106.728916,"is_transit":false,"station_name":"Jurangmangu","time":3,"transit":false,"distance":2179},{"is_transit":false,"station_id":"SDM","i_long":106.712277,"line":6,"time":4,"transit":false,"distance":1994,"station_name":"Sudimara","i_lat":-6.296963},{"line":6,"station_id":"RU","time":6,"i_long":106.675475,"transit":false,"distance":4566,"station_name":"Rawa Buntu","is_transit":false,"i_lat":-6.314823}],[{"time":0,"station_name":"Bekasi Timur","transit":false,"is_transit":false,"i_lat":-6.248029,"line":1,"station_id":"BKST","distance":0,"i_long":107.016735},{"is_transit":false,"i_lat":-6.236616,"distance":2368,"i_long":106.997013,"time":2,"station_id":"BKS","transit":false,"line":1,"station_name":"Bekasi"},{"transit":false,"station_name":"Kranji","is_transit":false,"i_lat":-6.224515,"i_long":106.977657,"time":4,"line":1,"station_id":"KRI","distance":2520},{"i_lat":-6.219053,"transit":false,"station_name":"Cakung","station_id":"CUK","i_long":106.951283,"time":3,"line":1,"distance":3097,"is_transit":false},{"is_transit":false,"i_long":106.939679,"line":1,"distance":1385,"i_lat":-6.217455,"station_id":"KLDB","time":8,"station_name":"Klenderbaru","transit":false},{"is_transit":false,"i_long":106.922662,"line":1,"station_name":"Buaran","station_id":"BUA","i_lat":-6.215568,"time":1,"distance":1305,"transit":false},{"is_transit":false,"i_lat":-6.2135,"line":1,"i_long":106.899548,"transit":false,"distance":3100,"time":2,"station_name":"Klender","station_id":"KLD"},{"i_long":106.86807400000001,"transit":true,"station_id":"JNG","is_transit":true,"i_lat":-6.215091,"line":1,"time":3,"distance":3395,"station_name":"Jatinegara"},{"distance":1236,"i_long":106.861737,"transit":false,"is_transit":false,"time":2,"i_lat":-6.209188,"station_id":"POK","line":11,"station_name":"Pondok Jati"},{"distance":1829,"station_id":"KMT","station_name":"Kramat","is_transit":false,"i_lat":-6.193792,"i_long":106.855437,"line":11,"time":2,"transit":false},{"station_name":"Gang Sentiong","is_transit":false,"station_id":"GST","i_long":106.850107,"transit":false,"time":1,"i_lat":-6.185975,"line":11,"distance":973},{"i_long":106.84368,"is_transit":false,"time":8,"station_id":"PSE","line":11,"i_lat":-6.174784,"station_name":"Pasar Senen","transit":false,"distance":1567},{"i_long":106.839204,"time":4,"distance":1436,"is_transit":false,"station_name":"Kemayoran","line":11,"transit":false,"i_lat":-6.161728,"station_id":"KMO"},{"is_transit":false,"station_name":"Rajawali","transit":false,"station_id":"RJW","distance":1901,"i_long":106.836569,"i_lat":-6.14505,"line":11,"time":5},{"time":3,"station_name":"Kampung Bandan","distance":1444,"transit":true,"i_long":106.826365,"station_id":"KPB","line":4,"is_transit":true,"i_lat":-6.132549},{"time":9,"is_transit":false,"i_long":106.79867,"distance":4102,"station_id":"AK","transit":false,"line":1,"station_name":"Angke","i_lat":-6.144674},{"station_id":"DU","line":1,"is_transit":false,"station_name":"Duri","time":4,"transit":false,"i_long":106.800832,"distance":1230,"i_lat":-6.155215},{"line":1,"i_lat":-6.185545,"i_long":106.811091,"distance":3632,"station_id":"THB","station_name":"Tanah Abang","transit":true,"time":8,"is_transit":true},{"transit":false,"is_transit":false,"time":6,"station_id":"PLM","i_lat":-6.207404,"i_long":106.79689,"line":6,"distance":3191,"station_name":"Palmerah"},{"i_long":106.780334,"time":7,"station_name":"Kebayoran","distance":3737,"i_lat":-6.237242,"line":6,"station_id":"KBY","transit":false,"is_transit":false},{"i_long":106.74273,"time":8,"line":6,"transit":false,"i_lat":-6.276362,"distance":6218,"station_name":"Pondokranji","is_transit":false,"station_id":"PDJ"},{"station_name":"Jurangmangu","time":3,"i_lat":-6.288927,"transit":false,"line":6,"distance":2179,"is_transit":false,"station_id":"JMU","i_long":106.728916},{"transit":false,"station_name":"Sudimara","i_long":106.712277,"distance":1994,"station_id":"SDM","is_transit":false,"time":4,"i_lat":-6.296963,"line":6},{"transit":false,"station_id":"RU","i_lat":-6.314823,"line":6,"distance":4566,"time":6,"station_name":"Rawa Buntu","i_long":106.675475,"is_transit":false}],[{"is_transit":false,"distance":0,"i_long":107.016735,"transit":false,"station_id":"BKST","i_lat":-6.248029,"time":0,"station_name":"Bekasi Timur","line":1},{"i_lat":-6.236616,"time":2,"transit":false,"station_id":"BKS","i_long":106.997013,"station_name":"Bekasi","line":1,"is_transit":false,"distance":2368},{"i_long":106.977657,"line":1,"station_name":"Kranji","station_id":"KRI","time":4,"distance":2520,"transit":false,"is_transit":false,"i_lat":-6.224515},{"time":3,"transit":false,"i_long":106.951283,"line":1,"distance":3097,"station_id":"CUK","is_transit":false,"i_lat":-6.219053,"station_name":"Cakung"},{"station_name":"Klenderbaru","line":1,"is_transit":false,"i_long":106.939679,"time":8,"station_id":"KLDB","distance":1385,"transit":false,"i_lat":-6.217455},{"i_long":106.922662,"distance":1305,"transit":false,"is_transit":false,"line":1,"station_id":"BUA","station_name":"Buaran","time":1,"i_lat":-6.215568},{"is_transit":false,"time":2,"station_name":"Klender","i_lat":-6.2135,"i_long":106.899548,"line":1,"distance":3100,"station_id":"KLD","transit":false},{"transit":false,"line":1,"distance":3395,"time":3,"is_transit":false,"i_lat":-6.215091,"station_name":"Jatinegara","i_long":106.86807400000001,"station_id":"JNG"},{"transit":false,"line":1,"is_transit":false,"station_name":"Matraman","distance":1377,"i_long":106.858896,"time":2,"i_lat":-6.212485,"station_id":"MTR"},{"distance":1275,"transit":true,"line":2,"time":2,"i_lat":-6.209883,"station_name":"Manggarai","i_long":106.84912,"station_id":"MRI","is_transit":true},{"distance":1590,"line":2,"station_id":"CKI","station_name":"Cikini","transit":false,"is_transit":false,"time":4,"i_long":106.840169,"i_lat":-6.198556},{"distance":1750,"i_long":106.832183,"time":3,"line":2,"station_name":"Gondangdia","transit":false,"is_transit":false,"i_lat":-6.186295,"station_id":"GDD"},{"line":2,"distance":2015,"is_transit":false,"time":4,"i_lat":-6.166716,"station_id":"JUA","station_name":"Juanda","transit":false,"i_long":106.828284},{"station_id":"SW","distance":1149,"station_name":"Sawah Besar","is_transit":false,"time":2,"transit":false,"i_lat":-6.160725,"i_long":106.827103,"line":2},{"station_name":"Manggabesar","time":2,"transit":false,"is_transit":false,"station_id":"MGB","i_lat":-6.149769,"distance":906,"line":2,"i_long":106.82482},{"i_lat":-6.141205,"i_long":106.820901,"station_name":"Jayakarta","transit":false,"line":2,"time":2,"station_id":"JAY","distance":1080,"is_transit":false},{"station_id":"JAKK","station_name":"Jakarta Kota","i_long":106.812439,"time":4,"distance":1264,"line":2,"transit":true,"is_transit":true,"i_lat":-6.137569},{"distance":1364,"station_name":"Kampung Bandan","station_id":"KPB","line":4,"is_transit":true,"transit":true,"time":3,"i_lat":-6.132549,"i_long":106.826365},{"line":1,"time":9,"distance":4102,"station_id":"AK","station_name":"Angke","i_long":106.79867,"transit":false,"is_transit":false,"i_lat":-6.144674},{"line":1,"station_name":"Duri","time":4,"i_lat":-6.155215,"station_id":"DU","distance":1230,"i_long":106.800832,"transit":false,"is_transit":false},{"time":8,"station_id":"THB","is_transit":true,"transit":true,"i_long":106.811091,"line":1,"station_name":"Tanah Abang","i_lat":-6.185545,"distance":3632},{"station_id":"PLM","station_name":"Palmerah","is_transit":false,"distance":3191,"transit":false,"i_lat":-6.207404,"line":6,"i_long":106.79689,"time":6},{"time":7,"station_id":"KBY","station_name":"Kebayoran","transit":false,"i_lat":-6.237242,"is_transit":false,"i_long":106.780334,"distance":3737,"line":6},{"distance":6218,"i_lat":-6.276362,"station_id":"PDJ","time":8,"is_transit":false,"i_long":106.74273,"station_name":"Pondokranji","transit":false,"line":6},{"time":3,"distance":2179,"is_transit":false,"station_id":"JMU","station_name":"Jurangmangu","line":6,"i_long":106.728916,"transit":false,"i_lat":-6.288927},{"time":4,"distance":1994,"i_lat":-6.296963,"line":6,"is_transit":false,"i_long":106.712277,"station_name":"Sudimara","transit":false,"station_id":"SDM"},{"transit":false,"station_id":"RU","distance":4566,"i_lat":-6.314823,"time":6,"i_long":106.675475,"is_transit":false,"station_name":"Rawa Buntu","line":6}],[{"station_id":"BKST","station_name":"Bekasi Timur","is_transit":false,"time":0,"distance":0,"i_lat":-6.248029,"line":1,"i_long":107.016735,"transit":false},{"is_transit":false,"i_long":106.997013,"i_lat":-6.236616,"line":1,"transit":false,"station_id":"BKS","station_name":"Bekasi","time":2,"distance":2368},{"transit":false,"i_lat":-6.224515,"distance":2520,"is_transit":false,"time":4,"station_name":"Kranji","i_long":106.977657,"line":1,"station_id":"KRI"},{"time":3,"distance":3097,"i_long":106.951283,"line":1,"is_transit":false,"station_id":"CUK","transit":false,"i_lat":-6.219053,"station_name":"Cakung"},{"distance":1385,"time":8,"station_id":"KLDB","line":1,"transit":false,"i_lat":-6.217455,"station_name":"Klenderbaru","is_transit":false,"i_long":106.939679},{"transit":false,"station_name":"Buaran","line":1,"is_transit":false,"time":1,"station_id":"BUA","distance":1305,"i_long":106.922662,"i_lat":-6.215568},{"distance":3100,"transit":false,"i_long":106.899548,"station_id":"KLD","is_transit":false,"line":1,"station_name":"Klender","time":2,"i_lat":-6.2135},{"i_long":106.86807400000001,"station_name":"Jatinegara","station_id":"JNG","distance":3395,"i_lat":-6.215091,"line":1,"transit":true,"is_transit":true,"time":3},{"i_lat":-6.209188,"is_transit":false,"station_id":"POK","transit":false,"time":2,"line":11,"i_long":106.861737,"distance":1236,"station_name":"Pondok Jati"},{"line":11,"distance":1829,"i_lat":-6.193792,"i_long":106.855437,"transit":false,"is_transit":false,"time":2,"station_id":"KMT","station_name":"Kramat"},{"time":1,"i_long":106.850107,"station_name":"Gang Sentiong","is_transit":false,"transit":false,"station_id":"GST","distance":973,"i_lat":-6.185975,"line":11},{"distance":1567,"i_long":106.84368,"time":8,"transit":false,"station_name":"Pasar Senen","station_id":"PSE","is_transit":false,"i_lat":-6.174784,"line":11},{"distance":1436,"transit":false,"i_long":106.839204,"station_id":"KMO","is_transit":false,"i_lat":-6.161728,"station_name":"Kemayoran","line":11,"time":4},{"i_lat":-6.14505,"transit":false,"distance":1901,"is_transit":false,"i_long":106.836569,"time":5,"line":11,"station_id":"RJW","station_name":"Rajawali"},{"i_long":106.826365,"transit":true,"time":3,"i_lat":-6.132549,"line":4,"is_transit":true,"station_id":"KPB","station_name":"Kampung Bandan","distance":1444},{"time":3,"transit":true,"distance":1364,"i_lat":-6.137569,"line":2,"is_transit":true,"station_id":"JAKK","station_name":"Jakarta Kota","i_long":106.812439},{"station_name":"Jayakarta","transit":false,"distance":1264,"i_long":106.820901,"line":2,"station_id":"JAY","is_transit":false,"time":4,"i_lat":-6.141205},{"distance":1080,"station_name":"Manggabesar","transit":false,"is_transit":false,"time":2,"i_lat":-6.149769,"i_long":106.82482,"line":2,"station_id":"MGB"},{"time":2,"distance":906,"transit":false,"is_transit":false,"station_name":"Sawah Besar","i_lat":-6.160725,"i_long":106.827103,"station_id":"SW","line":2},{"station_id":"JUA","i_long":106.828284,"station_name":"Juanda","line":2,"transit":false,"i_lat":-6.166716,"time":2,"is_transit":false,"distance":1149},{"is_transit":false,"i_long":106.832183,"distance":2015,"station_id":"GDD","i_lat":-6.186295,"line":2,"time":4,"station_name":"Gondangdia","transit":false},{"transit":false,"station_id":"CKI","i_lat":-6.198556,"is_transit":false,"time":3,"distance":1750,"station_name":"Cikini","i_long":106.840169,"line":2},{"station_id":"MRI","is_transit":true,"time":4,"line":2,"i_long":106.84912,"station_name":"Manggarai","transit":true,"i_lat":-6.209883,"distance":1590},{"station_name":"Sudirman","i_lat":-6.202263,"i_long":106.822649,"transit":false,"distance":3186,"time":4,"is_transit":false,"line":1,"station_id":"SUD"},{"is_transit":false,"station_name":"Sudirman Baru","transit":false,"station_id":"SUDB","time":1,"distance":280,"i_lat":-6.201433,"i_long":106.819881,"line":1},{"is_transit":false,"station_id":"KAT","i_lat":-6.20132,"time":1,"distance":471,"transit":false,"line":1,"i_long":106.816351,"station_name":"Karet"},{"station_name":"Tanah Abang","i_lat":-6.185545,"i_long":106.811091,"is_transit":true,"transit":true,"time":5,"station_id":"THB","line":1,"distance":2029},{"station_name":"Palmerah","transit":false,"i_long":106.79689,"distance":3191,"i_lat":-6.207404,"is_transit":false,"station_id":"PLM","line":6,"time":6},{"i_long":106.780334,"is_transit":false,"distance":3737,"time":7,"station_name":"Kebayoran","i_lat":-6.237242,"line":6,"station_id":"KBY","transit":false},{"is_transit":false,"station_name":"Pondokranji","time":8,"distance":6218,"i_lat":-6.276362,"transit":false,"i_long":106.74273,"line":6,"station_id":"PDJ"},{"i_long":106.728916,"is_transit":false,"line":6,"time":3,"distance":2179,"station_name":"Jurangmangu","transit":false,"station_id":"JMU","i_lat":-6.288927},{"station_name":"Sudimara","distance":1994,"time":4,"i_long":106.712277,"transit":false,"station_id":"SDM","line":6,"is_transit":false,"i_lat":-6.296963},{"distance":4566,"station_id":"RU","time":6,"station_name":"Rawa Buntu","transit":false,"line":6,"is_transit":false,"i_lat":-6.314823,"i_long":106.675475}]]}