{"data":[[{"transit":false,"i_long":107.016735,"station_name":"Bekasi Timur","i_lat":-6.248029,"is_transit":false,"time":0,"line":1,"station_id":"BKST","distance":0},{"station_id":"BKS","i_lat":-6.236616,"time":2,"i_long":106.997013,"is_transit":false,"line":1,"transit":false,"distance":2368,"station_name":"Bekasi"},{"i_long":106.977657,"is_transit":false,"distance":2520,"time":4,"line":1,"station_name":"Kranji","transit":false,"i_lat":-6.224515,"station_id":"KRI"},{"i_long":106.951283,"station_name":"Cakung","i_lat":-6.219053,"transit":false,"is_transit":false,"station_id":"CUK","distance":3097,"time":3,"line":1},{"station_name":"Klenderbaru","transit":false,"distance":1385,"time":8,"i_lat":-6.217455,"line":1,"i_long":106.939679,"station_id":"KLDB","is_transit":false},{"i_lat":-6.215568,"distance":1305,"time":1,"i_long":106.922662,"is_transit":false,"line":1,"transit":false,"station_name":"Buaran","station_id":"BUA"},{"station_id":"KLD","line":1,"i_lat":-6.2135,"time":2,"transit":false,"is_transit":false,"i_long":106.899548,"distance":3100,"station_name":"Klender"},{"distance":3395,"is_transit":true,"i_long":106.86807400000001,"i_lat":-6.215091,"time":3,"line":1,"station_id":"JNG","station_name":"Jatinegara","transit":true},{"line":11,"time":2,"is_transit":false,"transit":false,"i_lat":-6.209188,"station_id":"POK","i_long":106.861737,"distance":1236,"station_name":"Pondok Jati"},{"station_name":"Kramat","i_long":106.855437,"line":11,"transit":false,"is_transit":false,"station_id":"KMT","time":2,"i_lat":-6.193792,"distance":1829},{"transit":false,"i_long":106.850107,"line":11,"station_id":"GST","station_name":"Gang Sentiong","distance":973,"time":1,"i_lat":-6.185975,"is_transit":false}],[{"line":1,"transit":false,"distance":0,"is_transit":false,"station_name":"Bekasi Timur","i_lat":-6.248029,"time":0,"station_id":"BKST","i_long":107.016735},{"transit":false,"line":1,"time":2,"i_long":106.997013,"station_name":"Bekasi","distance":2368,"station_id":"BKS","is_transit":false,"i_lat":-6.236616},{"transit":false,"i_lat":-6.224515,"is_transit":false,"station_name":"Kranji","station_id":"KRI","time":4,"line":1,"i_long":106.977657,"distance":2520},{"station_id":"CUK","i_lat":-6.219053,"transit":false,"line":1,"station_name":"Cakung","distance":3097,"is_transit":false,"time":3,"i_long":106.951283},{"station_id":"KLDB","i_lat":-6.217455,"line":1,"time":8,"is_transit":false,"transit":false,"station_name":"Klenderbaru","distance":1385,"i_long":106.939679},{"station_id":"BUA","station_name":"Buaran","i_lat":-6.215568,"distance":1305,"transit":false,"is_transit":false,"i_long":106.922662,"time":1,"line":1},{"line":1,"distance":3100,"i_lat":-6.2135,"i_long":106.899548,"transit":false,"is_transit":false,"station_name":"Klender","station_id":"KLD","time":2},{"station_id":"JNG","i_lat":-6.215091,"transit":false,"i_long":106.86807400000001,"station_name":"Jatinegara","distance":3395,"is_transit":false,"time":3,"line":1},{"station_name":"Matraman","transit":false,"i_long":106.858896,"line":1,"distance":1377,"station_id":"MTR","is_transit":false,"i_lat":-6.212485,"time":2},{"station_id":"MRI","time":2,"i_lat":-6.209883,"transit":false,"is_transit":false,"station_name":"Manggarai","distance":1275,"i_long":106.84912,"line":2},{"distance":3186,"line":1,"transit":false,"i_lat":-6.202263,"is_transit":false,"i_long":106.822649,"station_name":"Sudirman","station_id":"SUD","time":4},{"transit":false,"i_long":106.819881,"i_lat":-6.201433,"time":1,"station_name":"Sudirman Baru","line":1,"distance":280,"station_id":"SUDB","is_transit":false},{"distance":471,"time":1,"i_lat":-6.20132,"line":1,"transit":false,"station_id":"KAT","is_transit":false,"station_name":"Karet","i_long":106.816351},{"station_id":"THB","time":5,"distance":2029,"is_transit":false,"transit":false,"i_lat":-6.185545,"station_name":"Tanah Abang","i_long":106.811091,"line":1},{"i_lat":-6.155215,"transit":false,"time":8,"station_name":"Duri","i_long":106.800832,"distance":3632,"station_id":"DU","is_transit":false,"line":1},{"time":4,"i_lat":-6.144674,"i_long":106.79867,"station_id":"AK","station_name":"Angke","transit":false,"distance":1230,"line":1,"is_transit":false},{"i_lat":-6.132549,"station_name":"Kampung Bandan","station_id":"KPB","is_transit":true,"transit":true,"i_long":106.826365,"time":9,"distance":4102,"line":4},{"is_transit":false,"station_id":"RJW","time":3,"i_long":106.836569,"line":11,"i_lat":-6.14505,"distance":1444,"transit":false,"station_name":"Rajawali"},{"transit":false,"is_transit":false,"line":11,"i_long":106.839204,"station_name":"Kemayoran","time":5,"station_id":"KMO","distance":1901,"i_lat":-6.161728},{"station_id":"PSE","station_name":"Pasar Senen","distance":1436,"line":11,"i_long":106.84368,"i_lat":-6.174784,"is_transit":false,"transit":false,"time":4},{"time":8,"station_id":"GST","line":11,"station_name":"Gang Sentiong","i_long":106.850107,"transit":false,"distance":1567,"is_transit":false,"i_lat":-6.185975}],[{"time":0,"station_id":"BKST","distance":0,"line":1,"i_lat":-6.248029,"is_transit":false,"station_name":"Bekasi Timur","i_long":107.016735,"transit":false},{"station_id":"BKS","i_long":106.997013,"transit":false,"is_transit":false,"time":2,"line":1,"distance":2368,"station_name":"Bekasi","i_lat":-6.236616},{"station_id":"KRI","i_long":106.977657,"line":1,"distance":2520,"time":4,"is_transit":false,"station_name":"Kranji","transit":false,"i_lat":-6.224515},{"distance":3097,"station_name":"Cakung","time":3,"i_long":106.951283,"is_transit":false,"transit":false,"i_lat":-6.219053,"station_id":"CUK","line":1},{"line":1,"distance":1385,"is_transit":false,"i_lat":-6.217455,"time":8,"transit":false,"station_id":"KLDB","i_long":106.939679,"station_name":"Klenderbaru"},{"i_lat":-6.215568,"distance":1305,"is_transit":false,"time":1,"station_name":"Buaran","transit":false,"i_long":106.922662,"station_id":"BUA","line":1},{"i_lat":-6.2135,"station_id":"KLD","transit":false,"line":1,"distance":3100,"i_long":106.899548,"time":2,"is_transit":false,"station_name":"Klender"},{"line":1,"i_long":106.86807400000001,"transit":false,"station_name":"Jatinegara","station_id":"JNG","i_lat":-6.215091,"is_transit":false,"distance":3395,"time":3},{"transit":false,"i_lat":-6.212485,"i_long":106.858896,"station_id":"MTR","distance":1377,"is_transit":false,"station_name":"Matraman","line":1,"time":2},{"distance":1275,"i_long":106.84912,"station_id":"MRI","station_name":"Manggarai","time":2,"i_lat":-6.209883,"transit":true,"line":2,"is_transit":true},{"transit":false,"i_lat":-6.198556,"station_name":"Cikini","time":4,"station_id":"CKI","i_long":106.840169,"is_transit":false,"distance":1590,"line":2},{"is_transit":false,"i_lat":-6.186295,"i_long":106.832183,"station_id":"GDD","station_name":"Gondangdia","transit":false,"distance":1750,"line":2,"time":3},{"transit":false,"line":2,"i_long":106.828284,"station_id":"JUA","is_transit":false,"i_lat":-6.166716,"station_name":"Juanda","distance":2015,"time":4},{"line":2,"station_name":"Sawah Besar","station_id":"SW","transit":false,"distance":1149,"is_transit":false,"i_lat":-6.160725,"time":2,"i_long":106.827103},{"time":2,"station_name":"Manggabesar","distance":906,"is_transit":false,"i_long":106.82482,"i_lat":-6.149769,"transit":false,"line":2,"station_id":"MGB"},{"station_name":"Jayakarta","is_transit":false,"station_id":"JAY","transit":false,"distance":1080,"time":2,"i_lat":-6.141205,"i_long":106.820901,"line":2},{"distance":1264,"time":4,"is_transit":true,"i_lat":-6.137569,"line":2,"i_long":106.812439,"transit":true,"station_name":"Jakarta Kota","station_id":"JAKK"},{"distance":1364,"station_id":"KPB","transit":true,"time":3,"station_name":"Kampung Bandan","i_lat":-6.132549,"is_transit":true,"i_long":106.826365,"line":4},{"i_lat":-6.14505,"i_long":106.836569,"time":3,"is_transit":false,"line":11,"station_id":"RJW","transit":false,"distance":1444,"station_name":"Rajawali"},{"i_long":106.839204,"line":11,"i_lat":-6.161728,"station_name":"Kemayoran","station_id":"KMO","distance":1901,"is_transit":false,"transit":false,"time":5},{"station_id":"PSE","distance":1436,"i_long":106.84368,"is_transit":false,"line":11,"station_name":"Pasar Senen","time":4,"i_lat":-6.174784,"transit":false},{"transit":false,"station_name":"Gang Sentiong","is_transit":false,"distance":1567,"i_lat":-6.185975,"line":11,"i_long":106.850107,"station_id":"GST","time":8}]]}