{"data":[[{"station_name":"Bekasi Timur","i_lat":-6.248029,"station_id":"BKST","i_long":107.016735,"distance":0,"is_transit":false,"line":1,"transit":false,"time":0},{"distance":2368,"i_long":106.997013,"station_name":"Bekasi","is_transit":false,"line":1,"station_id":"BKS","i_lat":-6.236616,"transit":false,"time":2},{"transit":false,"line":1,"distance":2520,"time":4,"i_long":106.977657,"i_lat":-6.224515,"station_name":"Kranji","is_transit":false,"station_id":"KRI"},{"distance":3097,"i_long":106.951283,"line":1,"i_lat":-6.219053,"time":3,"station_name":"Cakung","transit":false,"is_transit":false,"station_id":"CUK"},{"is_transit":false,"transit":false,"station_id":"KLDB","i_long":106.939679,"station_name":"Klenderbaru","line":1,"distance":1385,"time":8,"i_lat":-6.217455}]]}