{"data":[[{"time":0,"i_long":107.016735,"line":1,"transit":false,"station_name":"Bekasi Timur","distance":0,"station_id":"BKST","is_transit":false,"i_lat":-6.248029},{"line":1,"station_id":"BKS","i_lat":-6.236616,"distance":2368,"station_name":"Bekasi","time":2,"is_transit":false,"transit":false,"i_long":106.997013},{"distance":2520,"i_lat":-6.224515,"station_name":"Kranji","i_long":106.977657,"time":4,"is_transit":false,"transit":false,"station_id":"KRI","line":1},{"i_long":106.951283,"station_name":"Cakung","station_id":"CUK","time":3,"transit":false,"i_lat":-6.219053,"is_transit":false,"distance":3097,"line":1},{"transit":false,"line":1,"i_lat":-6.217455,"station_id":"KLDB","distance":1385,"i_long":106.939679,"station_name":"Klenderbaru","is_transit":false,"time":8},{"transit":false,"time":1,"station_name":"Buaran","is_transit":false,"line":1,"i_lat":-6.215568,"distance":1305,"station_id":"BUA","i_long":106.922662},{"is_transit":false,"transit":false,"i_long":106.899548,"time":2,"i_lat":-6.2135,"distance":3100,"line":1,"station_id":"KLD","station_name":"Klender"},{"distance":3395,"station_id":"JNG","line":1,"i_long":106.86807400000001,"i_lat":-6.215091,"transit":false,"time":3,"is_transit":false,"station_name":"Jatinegara"},{"i_long":106.858896,"transit":false,"distance":1377,"i_lat":-6.212485,"station_name":"Matraman","time":2,"is_transit":false,"line":1,"station_id":"MTR"},{"is_transit":false,"i_lat":-6.209883,"line":2,"station_name":"Manggarai","time":2,"i_long":106.84912,"station_id":"MRI","transit":false,"distance":1275},{"distance":3186,"line":1,"time":4,"station_id":"SUD","transit":false,"station_name":"Sudirman","is_transit":false,"i_lat":-6.202263,"i_long":106.822649},{"i_long":106.819881,"is_transit":false,"line":1,"station_id":"SUDB","distance":280,"station_name":"Sudirman Baru","time":1,"transit":false,"i_lat":-6.201433},{"station_id":"KAT","i_long":106.816351,"station_name":"Karet","i_lat":-6.20132,"line":1,"is_transit":false,"transit":false,"time":1,"distance":471},{"time":5,"i_long":106.811091,"i_lat":-6.185545,"station_id":"THB","distance":2029,"station_name":"Tanah Abang","transit":false,"is_transit":false,"line":1}],[{"i_long":107.016735,"is_transit":false,"transit":false,"line":1,"station_name":"Bekasi Timur","distance":0,"station_id":"BKST","i_lat":-6.248029,"time":0},{"i_lat":-6.236616,"time":2,"i_long":106.997013,"line":1,"station_id":"BKS","transit":false,"is_transit":false,"distance":2368,"station_name":"Bekasi"},{"station_id":"KRI","is_transit":false,"distance":2520,"i_lat":-6.224515,"line":1,"station_name":"Kranji","time":4,"i_long":106.977657,"transit":false},{"station_name":"Cakung","is_transit":false,"distance":3097,"station_id":"CUK","i_long":106.951283,"line":1,"time":3,"transit":false,"i_lat":-6.219053},{"time":8,"station_name":"Klenderbaru","line":1,"distance":1385,"station_id":"KLDB","is_transit":false,"transit":false,"i_long":106.939679,"i_lat":-6.217455},{"time":1,"distance":1305,"transit":false,"i_long":106.922662,"station_name":"Buaran","station_id":"BUA","is_transit":false,"i_lat":-6.215568,"line":1},{"station_name":"Klender","distance":3100,"i_lat":-6.2135,"is_transit":false,"transit":false,"station_id":"KLD","line":1,"i_long":106.899548,"time":2},{"transit":true,"distance":3395,"i_lat":-6.215091,"is_transit":true,"i_long":106.86807400000001,"line":1,"station_id":"JNG","time":3,"station_name":"Jatinegara"},{"transit":false,"time":2,"station_name":"Pondok Jati","is_transit":false,"i_lat":-6.209188,"distance":1236,"station_id":"POK","i_long":106.861737,"line":11},{"station_name":"Kramat","is_transit":false,"distance":1829,"i_long":106.855437,"transit":false,"line":11,"i_lat":-6.193792,"time":2,"station_id":"KMT"},{"time":1,"station_id":"GST","distance":973,"transit":false,"is_transit":false,"station_name":"Gang Sentiong","i_long":106.850107,"line":11,"i_lat":-6.185975},{"time":8,"station_name":"Pasar Senen","i_long":106.84368,"i_lat":-6.174784,"line":11,"station_id":"PSE","transit":false,"is_transit":false,"distance":1567},{"is_transit":false,"station_id":"KMO","station_name":"Kemayoran","i_long":106.839204,"line":11,"time":4,"transit":false,"i_lat":-6.161728,"distance":1436},{"time":5,"distance":1901,"transit":false,"i_lat":-6.14505,"is_transit":false,"line":11,"station_name":"Rajawali","station_id":"RJW","i_long":106.836569},{"station_id":"KPB","time":3,"station_name":"Kampung Bandan","is_transit":true,"transit":true,"distance":1444,"i_lat":-6.132549,"i_long":106.826365,"line":4},{"i_long":106.79867,"line":1,"station_name":"Angke","time":9,"i_lat":-6.144674,"station_id":"AK","is_transit":false,"distance":4102,"transit":false},{"station_name":"Duri","transit":false,"time":4,"i_lat":-6.155215,"line":1,"i_long":106.800832,"distance":1230,"station_id":"DU","is_transit":false},{"i_long":106.811091,"line":1,"time":8,"station_name":"Tanah Abang","distance":3632,"transit":false,"station_id":"THB","i_lat":-6.185545,"is_transit":false}],[{"station_name":"Bekasi Timur","line":1,"i_lat":-6.248029,"is_transit":false,"station_id":"BKST","distance":0,"transit":false,"i_long":107.016735,"time":0},{"transit":false,"i_long":106.997013,"distance":2368,"line":1,"station_id":"BKS","time":2,"i_lat":-6.236616,"station_name":"Bekasi","is_transit":false},{"station_name":"Kranji","transit":false,"line":1,"distance":2520,"time":4,"i_long":106.977657,"station_id":"KRI","is_transit":false,"i_lat":-6.224515},{"i_lat":-6.219053,"station_id":"CUK","is_transit":false,"station_name":"Cakung","time":3,"distance":3097,"transit":false,"line":1,"i_long":106.951283},{"i_long":106.939679,"station_id":"KLDB","distance":1385,"is_transit":false,"line":1,"station_name":"Klenderbaru","transit":false,"time":8,"i_lat":-6.217455},{"is_transit":false,"line":1,"i_long":106.922662,"time":1,"i_lat":-6.215568,"distance":1305,"station_id":"BUA","station_name":"Buaran","transit":false},{"line":1,"station_name":"Klender","transit":false,"i_long":106.899548,"station_id":"KLD","distance":3100,"is_transit":false,"i_lat":-6.2135,"time":2},{"distance":3395,"transit":false,"is_transit":false,"station_name":"Jatinegara","i_long":106.86807400000001,"station_id":"JNG","i_lat":-6.215091,"line":1,"time":3},{"time":2,"station_id":"MTR","i_lat":-6.212485,"station_name":"Matraman","is_transit":false,"transit":false,"i_long":106.858896,"line":1,"distance":1377},{"distance":1275,"i_long":106.84912,"line":2,"transit":true,"station_name":"Manggarai","station_id":"MRI","i_lat":-6.209883,"is_transit":true,"time":2},{"distance":1590,"line":2,"station_id":"CKI","is_transit":false,"transit":false,"time":4,"i_long":106.840169,"i_lat":-6.198556,"station_name":"Cikini"},{"transit":false,"i_lat":-6.186295,"i_long":106.832183,"station_name":"Gondangdia","station_id":"GDD","time":3,"distance":1750,"line":2,"is_transit":false},{"transit":false,"time":4,"i_lat":-6.166716,"line":2,"is_transit":false,"i_long":106.828284,"distance":2015,"station_id":"JUA","station_name":"Juanda"},{"is_transit":false,"i_lat":-6.160725,"time":2,"station_name":"Sawah Besar","transit":false,"distance":1149,"line":2,"i_long":106.827103,"station_id":"SW"},{"station_name":"Manggabesar","transit":false,"i_lat":-6.149769,"line":2,"is_transit":false,"i_long":106.82482,"distance":906,"station_id":"MGB","time":2},{"station_id":"JAY","i_lat":-6.141205,"line":2,"distance":1080,"transit":false,"time":2,"is_transit":false,"station_name":"Jayakarta","i_long":106.820901},{"transit":true,"i_long":106.812439,"station_name":"Jakarta Kota","time":4,"i_lat":-6.137569,"line":2,"is_transit":true,"station_id":"JAKK","distance":1264},{"distance":1364,"i_long":106.826365,"station_name":"Kampung Bandan","time":3,"is_transit":true,"line":4,"station_id":"KPB","i_lat":-6.132549,"transit":true},{"station_id":"AK","time":9,"line":1,"i_long":106.79867,"station_name":"Angke","i_lat":-6.144674,"transit":false,"is_transit":false,"distance":4102},{"transit":false,"line":1,"station_name":"Duri","time":4,"distance":1230,"is_transit":false,"i_lat":-6.155215,"i_long":106.800832,"station_id":"DU"},{"i_lat":-6.185545,"station_id":"THB","i_long":106.811091,"station_name":"Tanah Abang","distance":3632,"transit":false,"line":1,"is_transit":false,"time":8}],[{"transit":false,"i_lat":-6.248029,"i_long":107.016735,"station_id":"BKST","line":1,"is_transit":false,"time":0,"distance":0,"station_name":"Bekasi Timur"},{"is_transit":false,"station_name":"Bekasi","i_lat":-6.236616,"transit":false,"i_long":106.997013,"station_id":"BKS","distance":2368,"line":1,"time":2},{"i_lat":-6.224515,"transit":false,"i_long":106.977657,"station_id":"KRI","line":1,"station_name":"Kranji","time":4,"distance":2520,"is_transit":false},{"station_name":"Cakung","transit":false,"i_lat":-6.219053,"distance":3097,"time":3,"i_long":106.951283,"station_id":"CUK","line":1,"is_transit":false},{"station_name":"Klenderbaru","line":1,"transit":false,"i_lat":-6.217455,"time":8,"is_transit":false,"station_id":"KLDB","distance":1385,"i_long":106.939679},{"line":1,"transit":false,"i_lat":-6.215568,"distance":1305,"station_id":"BUA","time":1,"is_transit":false,"i_long":106.922662,"station_name":"Buaran"},{"distance":3100,"station_id":"KLD","station_name":"Klender","i_lat":-6.2135,"time":2,"transit":false,"line":1,"is_transit":false,"i_long":106.899548},{"distance":3395,"station_id":"JNG","i_long":106.86807400000001,"line":1,"station_name":"Jatinegara","transit":true,"is_transit":true,"i_lat":-6.215091,"time":3},{"i_lat":-6.209188,"is_transit":false,"transit":false,"i_long":106.861737,"time":2,"station_name":"Pondok Jati","line":11,"distance":1236,"station_id":"POK"},{"i_long":106.855437,"station_id":"KMT","is_transit":false,"time":2,"station_name":"Kramat","distance":1829,"line":11,"transit":false,"i_lat":-6.193792},{"transit":false,"station_id":"GST","i_long":106.850107,"is_transit":false,"distance":973,"time":1,"station_name":"Gang Sentiong","line":11,"i_lat":-6.185975},{"is_transit":false,"distance":1567,"transit":false,"station_id":"PSE","time":8,"line":11,"i_long":106.84368,"i_lat":-6.174784,"station_name":"Pasar Senen"},{"station_name":"Kemayoran","time":4,"i_long":106.839204,"is_transit":false,"line":11,"distance":1436,"station_id":"KMO","i_lat":-6.161728,"transit":false},{"station_id":"RJW","is_transit":false,"i_long":106.836569,"i_lat":-6.14505,"station_name":"Rajawali","transit":false,"line":11,"distance":1901,"time":5},{"distance":1444,"station_id":"KPB","transit":true,"time":3,"line":4,"i_lat":-6.132549,"i_long":106.826365,"station_name":"Kampung Bandan","is_transit":true},{"station_name":"Jakarta Kota","i_lat":-6.137569,"time":3,"station_id":"JAKK","line":2,"is_transit":true,"transit":true,"distance":1364,"i_long":106.812439},{"is_transit":false,"i_lat":-6.141205,"line":2,"station_name":"Jayakarta","transit":false,"i_long":106.820901,"distance":1264,"station_id":"JAY","time":4},{"i_long":106.82482,"is_transit":false,"station_id":"MGB","i_lat":-6.149769,"station_name":"Manggabesar","distance":1080,"transit":false,"time":2,"line":2},{"station_name":"Sawah Besar","i_lat":-6.160725,"is_transit":false,"transit":false,"station_id":"SW","i_long":106.827103,"distance":906,"time":2,"line":2},{"line":2,"distance":1149,"is_transit":false,"station_id":"JUA","transit":false,"time":2,"i_lat":-6.166716,"station_name":"Juanda","i_long":106.828284},{"i_long":106.832183,"station_name":"Gondangdia","transit":false,"time":4,"station_id":"GDD","i_lat":-6.186295,"distance":2015,"line":2,"is_transit":false},{"station_name":"Cikini","is_transit":false,"time":3,"transit":false,"station_id":"CKI","distance":1750,"i_lat":-6.198556,"i_long":106.840169,"line":2},{"station_name":"Manggarai","distance":1590,"station_id":"MRI","i_long":106.84912,"time":4,"line":2,"is_transit":true,"transit":true,"i_lat":-6.209883},{"i_lat":-6.202263,"i_long":106.822649,"line":1,"is_transit":false,"time":4,"station_id":"SUD","transit":false,"station_name":"Sudirman","distance":3186},{"is_transit":false,"time":1,"i_long":106.819881,"line":1,"i_lat":-6.201433,"distance":280,"station_id":"SUDB","station_name":"Sudirman Baru","transit":false},{"station_id":"KAT","i_lat":-6.20132,"station_name":"Karet","is_transit":false,"i_long":106.816351,"line":1,"transit":false,"time":1,"distance":471},{"is_transit":false,"time":5,"i_long":106.811091,"distance":2029,"line":1,"transit":false,"station_name":"Tanah Abang","station_id":"THB","i_lat":-6.185545}]]}