{"data":[[{"station_id":"BKST","distance":0,"is_transit":false,"station_name":"Bekasi Timur","line":0,"i_lat":-6.248029,"i_long":107.016735,"time":0,"transit":false},{"time":2,"station_name":"Bekasi","i_lat":-6.236616,"distance":2368,"transit":false,"station_id":"BKS","line":0,"is_transit":false,"i_long":106.997013},{"i_lat":-6.224515,"distance":2520,"transit":false,"line":1,"i_long":106.977657,"station_id":"KRI","is_transit":false,"time":4,"station_name":"Kranji"},{"station_id":"CUK","transit":false,"i_lat":-6.219053,"distance":3097,"station_name":"Cakung","i_long":106.951283,"line":0,"is_transit":false,"time":3},{"transit":false,"i_lat":-6.217455,"is_transit":false,"station_id":"KLDB","time":8,"distance":1385,"i_long":106.939679,"line":1,"station_name":"Klenderbaru"},{"time":1,"station_id":"BUA","is_transit":false,"distance":1305,"i_lat":-6.215568,"i_long":106.922662,"line":0,"transit":false,"station_name":"Buaran"},{"i_lat":-6.2135,"i_long":106.899548,"distance":3100,"station_name":"Klender","is_transit":false,"transit":false,"time":2,"line":1,"station_id":"KLD"},{"transit":false,"is_transit":true,"i_long":106.86807400000001,"distance":3395,"time":3,"i_lat":-6.215091,"station_id":"JNG","line":0,"station_name":"Jatinegara"},{"station_name":"Matraman","distance":1377,"i_lat":-6.212485,"is_transit":false,"line":1,"transit":false,"time":2,"i_long":106.858896,"station_id":"MTR"},{"station_name":"Manggarai","distance":1275,"time":2,"transit":true,"station_id":"MRI","i_long":106.84912,"i_lat":-6.209883,"line":0,"is_transit":true},{"station_id":"TEB","is_transit":false,"distance":2610,"time":4,"station_name":"Tebet","transit":false,"i_long":106.857948,"line":2,"i_lat":-6.226659},{"station_id":"CW","distance":1230,"transit":false,"line":0,"i_lat":-6.242512,"station_name":"Cawang","i_long":106.856607,"is_transit":false,"time":2},{"time":3,"distance":1546,"i_lat":-6.255332,"line":0,"station_name":"Duren Kalibata","transit":false,"is_transit":false,"station_id":"DRN","i_long":106.85449},{"i_lat":-6.263214,"i_long":106.851577,"time":2,"station_id":"PSMB","station_name":"Pasar Minggu Baru","line":2,"distance":824,"transit":false,"is_transit":false},{"i_lat":-6.2842400000000005,"distance":2380,"station_name":"Pasar Minggu","transit":false,"i_long":106.843999,"line":2,"station_id":"PSM","is_transit":false,"time":2},{"station_name":"Tanjung Barat","distance":2820,"station_id":"TNT","line":2,"transit":false,"is_transit":false,"i_long":106.838896,"time":4,"i_lat":-6.3080680000000005},{"line":2,"distance":2671,"transit":false,"time":3,"is_transit":false,"i_lat":-6.330363,"station_name":"Lenteng Agung","station_id":"LNA","i_long":106.832616},{"transit":false,"i_lat":-6.339291,"i_long":106.834175,"line":2,"is_transit":false,"time":2,"station_name":"Univ. Pancasila","station_id":"UP","distance":1029},{"station_name":"Univ. Indonesia","station_id":"UI","is_transit":false,"transit":false,"i_long":106.831474,"distance":2264,"line":2,"i_lat":-6.360749,"time":3},{"i_long":106.831114,"is_transit":false,"i_lat":-6.369073,"time":2,"distance":1109,"transit":false,"station_id":"POC","line":2,"station_name":"Pondok Cina"},{"station_id":"DPB","time":4,"is_transit":false,"i_lat":-6.391065,"i_long":106.819451,"distance":2727,"transit":false,"station_name":"Depokbaru","line":0}],[{"i_lat":-6.248029,"time":0,"station_id":"BKST","transit":false,"distance":0,"is_transit":false,"line":0,"i_long":107.016735,"station_name":"Bekasi Timur"},{"line":0,"i_long":106.997013,"i_lat":-6.236616,"station_name":"Bekasi","time":2,"is_transit":false,"station_id":"BKS","transit":false,"distance":2368},{"is_transit":false,"transit":false,"distance":2520,"i_long":106.977657,"line":1,"time":4,"i_lat":-6.224515,"station_id":"KRI","station_name":"Kranji"},{"i_long":106.951283,"is_transit":false,"time":3,"station_name":"Cakung","distance":3097,"transit":false,"station_id":"CUK","i_lat":-6.219053,"line":0},{"time":8,"is_transit":false,"transit":false,"station_id":"KLDB","i_lat":-6.217455,"i_long":106.939679,"distance":1385,"station_name":"Klenderbaru","line":1},{"i_lat":-6.215568,"time":1,"line":0,"i_long":106.922662,"distance":1305,"is_transit":false,"station_id":"BUA","station_name":"Buaran","transit":false},{"i_lat":-6.2135,"time":2,"station_name":"Klender","station_id":"KLD","line":1,"distance":3100,"i_long":106.899548,"is_transit":false,"transit":false},{"i_lat":-6.215091,"i_long":106.86807400000001,"time":3,"station_name":"Jatinegara","station_id":"JNG","is_transit":true,"line":0,"transit":true,"distance":3395},{"station_name":"Pondok Jati","transit":false,"i_lat":-6.209188,"station_id":"POK","is_transit":false,"i_long":106.861737,"line":11,"distance":1236,"time":2},{"line":11,"transit":false,"distance":1829,"station_name":"Kramat","station_id":"KMT","i_long":106.855437,"i_lat":-6.193792,"time":2,"is_transit":false},{"station_name":"Gang Sentiong","transit":false,"i_lat":-6.185975,"is_transit":false,"time":1,"i_long":106.850107,"station_id":"GST","line":11,"distance":973},{"line":11,"i_lat":-6.174784,"distance":1567,"is_transit":false,"station_id":"PSE","time":8,"station_name":"Pasar Senen","transit":false,"i_long":106.84368},{"is_transit":false,"station_name":"Kemayoran","distance":1436,"time":4,"transit":false,"station_id":"KMO","line":11,"i_long":106.839204,"i_lat":-6.161728},{"distance":1901,"i_long":106.836569,"time":5,"line":11,"station_id":"RJW","is_transit":false,"i_lat":-6.14505,"station_name":"Rajawali","transit":false},{"is_transit":true,"time":3,"distance":1444,"i_long":106.826365,"transit":true,"station_name":"Kampung Bandan","i_lat":-6.132549,"line":0,"station_id":"KPB"},{"is_transit":false,"distance":4102,"line":0,"station_name":"Angke","transit":false,"i_long":106.79867,"time":9,"i_lat":-6.144674,"station_id":"AK"},{"i_long":106.800832,"station_id":"DU","i_lat":-6.155215,"line":1,"is_transit":true,"distance":1230,"transit":true,"time":4,"station_name":"Duri"},{"station_name":"Tanah Abang","i_lat":-6.185545,"station_id":"THB","is_transit":true,"distance":3632,"time":8,"transit":false,"line":1,"i_long":106.811091},{"is_transit":false,"time":5,"distance":2029,"transit":false,"i_long":106.816351,"line":1,"station_id":"KAT","station_name":"Karet","i_lat":-6.20132},{"line":1,"time":1,"distance":471,"is_transit":false,"transit":false,"i_long":106.819881,"station_id":"SUDB","station_name":"Sudirman Baru","i_lat":-6.201433},{"is_transit":false,"transit":false,"time":1,"station_name":"Sudirman","i_lat":-6.202263,"i_long":106.822649,"distance":280,"station_id":"SUD","line":1},{"distance":3186,"station_name":"Manggarai","time":4,"i_lat":-6.209883,"transit":true,"i_long":106.84912,"line":0,"station_id":"MRI","is_transit":true},{"i_lat":-6.226659,"time":4,"station_name":"Tebet","station_id":"TEB","i_long":106.857948,"line":2,"is_transit":false,"distance":2610,"transit":false},{"i_lat":-6.242512,"i_long":106.856607,"line":0,"distance":1230,"station_name":"Cawang","is_transit":false,"time":2,"transit":false,"station_id":"CW"},{"time":3,"station_id":"DRN","transit":false,"i_lat":-6.255332,"station_name":"Duren Kalibata","distance":1546,"i_long":106.85449,"line":0,"is_transit":false},{"line":2,"time":2,"transit":false,"is_transit":false,"i_lat":-6.263214,"station_id":"PSMB","i_long":106.851577,"station_name":"Pasar Minggu Baru","distance":824},{"is_transit":false,"time":2,"i_lat":-6.2842400000000005,"line":2,"distance":2380,"station_name":"Pasar Minggu","station_id":"PSM","transit":false,"i_long":106.843999},{"station_name":"Tanjung Barat","i_lat":-6.3080680000000005,"i_long":106.838896,"line":2,"transit":false,"station_id":"TNT","time":4,"is_transit":false,"distance":2820},{"station_name":"Lenteng Agung","is_transit":false,"i_lat":-6.330363,"distance":2671,"i_long":106.832616,"line":2,"time":3,"station_id":"LNA","transit":false},{"station_name":"Univ. Pancasila","transit":false,"is_transit":false,"station_id":"UP","time":2,"i_lat":-6.339291,"i_long":106.834175,"distance":1029,"line":2},{"time":3,"station_id":"UI","i_lat":-6.360749,"line":2,"i_long":106.831474,"distance":2264,"transit":false,"is_transit":false,"station_name":"Univ. Indonesia"},{"line":2,"is_transit":false,"time":2,"distance":1109,"i_lat":-6.369073,"station_id":"POC","transit":false,"i_long":106.831114,"station_name":"Pondok Cina"},{"time":4,"transit":false,"is_transit":false,"i_lat":-6.391065,"station_id":"DPB","station_name":"Depokbaru","i_long":106.819451,"line":0,"distance":2727}],[{"is_transit":false,"time":0,"i_long":107.016735,"transit":false,"line":0,"station_id":"BKST","distance":0,"i_lat":-6.248029,"station_name":"Bekasi Timur"},{"station_name":"Bekasi","i_long":106.997013,"station_id":"BKS","is_transit":false,"transit":false,"time":2,"line":0,"distance":2368,"i_lat":-6.236616},{"transit":false,"line":1,"station_id":"KRI","is_transit":false,"i_long":106.977657,"distance":2520,"i_lat":-6.224515,"station_name":"Kranji","time":4},{"distance":3097,"i_lat":-6.219053,"is_transit":false,"transit":false,"line":0,"station_id":"CUK","station_name":"Cakung","i_long":106.951283,"time":3},{"distance":1385,"i_lat":-6.217455,"i_long":106.939679,"is_transit":false,"time":8,"line":1,"station_name":"Klenderbaru","transit":false,"station_id":"KLDB"},{"transit":false,"i_long":106.922662,"station_id":"BUA","distance":1305,"station_name":"Buaran","line":0,"time":1,"is_transit":false,"i_lat":-6.215568},{"i_lat":-6.2135,"transit":false,"distance":3100,"i_long":106.899548,"station_name":"Klender","is_transit":false,"line":1,"station_id":"KLD","time":2},{"i_lat":-6.215091,"i_long":106.86807400000001,"transit":true,"station_name":"Jatinegara","station_id":"JNG","line":0,"is_transit":true,"time":3,"distance":3395},{"station_name":"Pondok Jati","is_transit":false,"line":11,"i_lat":-6.209188,"distance":1236,"time":2,"station_id":"POK","transit":false,"i_long":106.861737},{"station_id":"KMT","i_lat":-6.193792,"line":11,"time":2,"distance":1829,"i_long":106.855437,"transit":false,"is_transit":false,"station_name":"Kramat"},{"is_transit":false,"time":1,"distance":973,"station_name":"Gang Sentiong","i_long":106.850107,"line":11,"i_lat":-6.185975,"station_id":"GST","transit":false},{"time":8,"line":11,"i_lat":-6.174784,"i_long":106.84368,"distance":1567,"station_id":"PSE","station_name":"Pasar Senen","transit":false,"is_transit":false},{"i_long":106.839204,"distance":1436,"time":4,"transit":false,"line":11,"is_transit":false,"station_name":"Kemayoran","station_id":"KMO","i_lat":-6.161728},{"i_long":106.836569,"is_transit":false,"station_name":"Rajawali","transit":false,"i_lat":-6.14505,"line":11,"distance":1901,"station_id":"RJW","time":5},{"i_lat":-6.132549,"line":0,"i_long":106.826365,"is_transit":true,"station_id":"KPB","station_name":"Kampung Bandan","time":3,"distance":1444,"transit":true},{"i_long":106.812439,"is_transit":true,"station_id":"JAKK","station_name":"Jakarta Kota","transit":true,"distance":1364,"line":0,"time":3,"i_lat":-6.137569},{"i_lat":-6.141205,"distance":1264,"is_transit":false,"transit":false,"station_name":"Jayakarta","i_long":106.820901,"station_id":"JAY","line":7,"time":4},{"time":2,"i_lat":-6.149769,"station_id":"MGB","is_transit":false,"station_name":"Manggabesar","i_long":106.82482,"line":2,"transit":false,"distance":1080},{"i_lat":-6.160725,"distance":906,"is_transit":false,"station_id":"SW","time":2,"transit":false,"line":2,"i_long":106.827103,"station_name":"Sawah Besar"},{"station_id":"JUA","i_lat":-6.166716,"time":2,"i_long":106.828284,"line":2,"distance":1149,"station_name":"Juanda","is_transit":false,"transit":false},{"time":4,"station_id":"GDD","transit":false,"station_name":"Gondangdia","i_lat":-6.186295,"i_long":106.832183,"line":2,"distance":2015,"is_transit":false},{"i_lat":-6.198556,"is_transit":false,"station_id":"CKI","station_name":"Cikini","transit":false,"line":0,"time":3,"distance":1750,"i_long":106.840169},{"station_name":"Manggarai","transit":true,"distance":1590,"line":0,"i_lat":-6.209883,"is_transit":true,"time":4,"i_long":106.84912,"station_id":"MRI"},{"is_transit":false,"line":2,"distance":2610,"i_long":106.857948,"station_id":"TEB","time":4,"station_name":"Tebet","i_lat":-6.226659,"transit":false},{"station_name":"Cawang","distance":1230,"i_long":106.856607,"i_lat":-6.242512,"station_id":"CW","time":2,"transit":false,"line":0,"is_transit":false},{"distance":1546,"time":3,"i_lat":-6.255332,"i_long":106.85449,"is_transit":false,"transit":false,"line":0,"station_id":"DRN","station_name":"Duren Kalibata"},{"line":2,"i_long":106.851577,"distance":824,"time":2,"station_id":"PSMB","i_lat":-6.263214,"is_transit":false,"station_name":"Pasar Minggu Baru","transit":false},{"transit":false,"i_lat":-6.2842400000000005,"station_name":"Pasar Minggu","distance":2380,"station_id":"PSM","is_transit":false,"line":2,"i_long":106.843999,"time":2},{"station_name":"Tanjung Barat","line":2,"is_transit":false,"i_long":106.838896,"station_id":"TNT","time":4,"distance":2820,"transit":false,"i_lat":-6.3080680000000005},{"i_long":106.832616,"is_transit":false,"line":2,"i_lat":-6.330363,"station_name":"Lenteng Agung","distance":2671,"time":3,"station_id":"LNA","transit":false},{"station_id":"UP","distance":1029,"transit":false,"i_lat":-6.339291,"is_transit":false,"station_name":"Univ. Pancasila","time":2,"line":2,"i_long":106.834175},{"distance":2264,"transit":false,"station_name":"Univ. Indonesia","line":2,"i_long":106.831474,"is_transit":false,"station_id":"UI","i_lat":-6.360749,"time":3},{"distance":1109,"transit":false,"time":2,"station_name":"Pondok Cina","i_long":106.831114,"station_id":"POC","i_lat":-6.369073,"is_transit":false,"line":2},{"transit":false,"i_long":106.819451,"line":0,"time":4,"is_transit":false,"station_name":"Depokbaru","i_lat":-6.391065,"station_id":"DPB","distance":2727}]]}