{"data":[[{"i_long":107.016735,"is_transit":false,"time":0,"i_lat":-6.248029,"transit":false,"line":1,"station_name":"Bekasi Timur","station_id":"BKST","distance":0},{"station_id":"BKS","time":2,"i_lat":-6.236616,"i_long":106.997013,"line":1,"transit":false,"is_transit":false,"station_name":"Bekasi","distance":2368},{"is_transit":false,"transit":false,"i_lat":-6.224515,"line":1,"i_long":106.977657,"time":4,"distance":2520,"station_name":"Kranji","station_id":"KRI"},{"i_lat":-6.219053,"transit":false,"time":3,"is_transit":false,"i_long":106.951283,"distance":3097,"station_name":"Cakung","station_id":"CUK","line":1},{"is_transit":false,"distance":1385,"station_name":"Klenderbaru","i_lat":-6.217455,"i_long":106.939679,"transit":false,"line":1,"station_id":"KLDB","time":8},{"i_lat":-6.215568,"i_long":106.922662,"station_name":"Buaran","station_id":"BUA","is_transit":false,"distance":1305,"transit":false,"line":1,"time":1},{"time":2,"line":1,"is_transit":false,"station_name":"Klender","transit":false,"i_lat":-6.2135,"distance":3100,"i_long":106.899548,"station_id":"KLD"},{"time":3,"i_long":106.86807400000001,"line":1,"distance":3395,"is_transit":false,"station_name":"Jatinegara","i_lat":-6.215091,"station_id":"JNG","transit":false},{"station_id":"MTR","i_long":106.858896,"is_transit":false,"transit":false,"station_name":"Matraman","i_lat":-6.212485,"time":2,"distance":1377,"line":1},{"transit":false,"i_lat":-6.209883,"is_transit":false,"i_long":106.84912,"station_id":"MRI","distance":1275,"line":2,"station_name":"Manggarai","time":2},{"transit":false,"is_transit":false,"time":4,"station_name":"Sudirman","distance":3186,"i_lat":-6.202263,"line":1,"station_id":"SUD","i_long":106.822649},{"time":1,"distance":280,"station_id":"SUDB","station_name":"Sudirman Baru","i_long":106.819881,"is_transit":false,"transit":false,"line":1,"i_lat":-6.201433},{"time":1,"station_id":"KAT","distance":471,"station_name":"Karet","i_long":106.816351,"line":1,"is_transit":false,"i_lat":-6.20132,"transit":false},{"is_transit":false,"time":5,"station_name":"Tanah Abang","i_lat":-6.185545,"station_id":"THB","i_long":106.811091,"transit":false,"distance":2029,"line":1}],[{"time":0,"station_name":"Bekasi Timur","i_long":107.016735,"is_transit":false,"transit":false,"line":1,"station_id":"BKST","distance":0,"i_lat":-6.248029},{"i_long":106.997013,"i_lat":-6.236616,"transit":false,"distance":2368,"station_id":"BKS","line":1,"is_transit":false,"time":2,"station_name":"Bekasi"},{"transit":false,"i_long":106.977657,"time":4,"i_lat":-6.224515,"station_id":"KRI","is_transit":false,"station_name":"Kranji","line":1,"distance":2520},{"is_transit":false,"i_long":106.951283,"distance":3097,"transit":false,"time":3,"line":1,"station_name":"Cakung","i_lat":-6.219053,"station_id":"CUK"},{"i_long":106.939679,"transit":false,"line":1,"i_lat":-6.217455,"time":8,"station_id":"KLDB","distance":1385,"station_name":"Klenderbaru","is_transit":false},{"distance":1305,"station_id":"BUA","transit":false,"i_lat":-6.215568,"time":1,"i_long":106.922662,"line":1,"station_name":"Buaran","is_transit":false},{"station_id":"KLD","line":1,"station_name":"Klender","distance":3100,"i_lat":-6.2135,"time":2,"i_long":106.899548,"transit":false,"is_transit":false},{"station_name":"Jatinegara","transit":true,"i_long":106.86807400000001,"station_id":"JNG","distance":3395,"is_transit":true,"line":1,"i_lat":-6.215091,"time":3},{"i_long":106.861737,"station_id":"POK","distance":1236,"station_name":"Pondok Jati","transit":false,"is_transit":false,"time":2,"line":11,"i_lat":-6.209188},{"station_name":"Kramat","i_lat":-6.193792,"transit":false,"line":11,"is_transit":false,"distance":1829,"time":2,"station_id":"KMT","i_long":106.855437},{"is_transit":false,"station_id":"GST","transit":false,"i_long":106.850107,"i_lat":-6.185975,"line":11,"time":1,"station_name":"Gang Sentiong","distance":973},{"i_long":106.84368,"is_transit":false,"time":8,"distance":1567,"station_name":"Pasar Senen","i_lat":-6.174784,"transit":false,"line":11,"station_id":"PSE"},{"station_name":"Kemayoran","distance":1436,"i_long":106.839204,"station_id":"KMO","line":11,"is_transit":false,"transit":false,"i_lat":-6.161728,"time":4},{"transit":false,"line":11,"is_transit":false,"time":5,"station_name":"Rajawali","station_id":"RJW","i_lat":-6.14505,"i_long":106.836569,"distance":1901},{"station_id":"KPB","i_lat":-6.132549,"is_transit":true,"line":4,"i_long":106.826365,"distance":1444,"station_name":"Kampung Bandan","time":3,"transit":true},{"line":1,"i_lat":-6.144674,"distance":4102,"i_long":106.79867,"station_id":"AK","station_name":"Angke","is_transit":false,"time":9,"transit":false},{"station_id":"DU","i_long":106.800832,"i_lat":-6.155215,"distance":1230,"is_transit":false,"line":1,"station_name":"Duri","time":4,"transit":false},{"time":8,"station_id":"THB","distance":3632,"line":1,"is_transit":false,"i_lat":-6.185545,"station_name":"Tanah Abang","transit":false,"i_long":106.811091}],[{"distance":0,"i_lat":-6.248029,"i_long":107.016735,"time":0,"is_transit":false,"line":1,"station_id":"BKST","station_name":"Bekasi Timur","transit":false},{"is_transit":false,"distance":2368,"station_name":"Bekasi","time":2,"station_id":"BKS","transit":false,"i_lat":-6.236616,"i_long":106.997013,"line":1},{"time":4,"i_lat":-6.224515,"is_transit":false,"line":1,"transit":false,"distance":2520,"station_name":"Kranji","i_long":106.977657,"station_id":"KRI"},{"i_lat":-6.219053,"line":1,"transit":false,"distance":3097,"time":3,"i_long":106.951283,"station_name":"Cakung","is_transit":false,"station_id":"CUK"},{"i_long":106.939679,"distance":1385,"time":8,"line":1,"is_transit":false,"station_name":"Klenderbaru","station_id":"KLDB","transit":false,"i_lat":-6.217455},{"transit":false,"station_id":"BUA","is_transit":false,"i_lat":-6.215568,"i_long":106.922662,"line":1,"time":1,"station_name":"Buaran","distance":1305},{"distance":3100,"i_lat":-6.2135,"station_id":"KLD","station_name":"Klender","time":2,"transit":false,"i_long":106.899548,"is_transit":false,"line":1},{"i_lat":-6.215091,"line":1,"i_long":106.86807400000001,"time":3,"station_id":"JNG","transit":false,"station_name":"Jatinegara","distance":3395,"is_transit":false},{"i_long":106.858896,"station_name":"Matraman","station_id":"MTR","distance":1377,"i_lat":-6.212485,"time":2,"transit":false,"line":1,"is_transit":false},{"i_lat":-6.209883,"line":2,"is_transit":true,"time":2,"distance":1275,"station_name":"Manggarai","transit":true,"station_id":"MRI","i_long":106.84912},{"distance":1590,"transit":false,"line":2,"station_name":"Cikini","i_lat":-6.198556,"is_transit":false,"i_long":106.840169,"time":4,"station_id":"CKI"},{"distance":1750,"is_transit":false,"station_name":"Gondangdia","i_lat":-6.186295,"transit":false,"station_id":"GDD","i_long":106.832183,"time":3,"line":2},{"line":2,"station_name":"Juanda","time":4,"is_transit":false,"station_id":"JUA","i_lat":-6.166716,"distance":2015,"transit":false,"i_long":106.828284},{"i_lat":-6.160725,"is_transit":false,"station_name":"Sawah Besar","station_id":"SW","i_long":106.827103,"line":2,"time":2,"distance":1149,"transit":false},{"time":2,"transit":false,"is_transit":false,"station_id":"MGB","i_lat":-6.149769,"i_long":106.82482,"line":2,"station_name":"Manggabesar","distance":906},{"station_id":"JAY","i_lat":-6.141205,"i_long":106.820901,"station_name":"Jayakarta","is_transit":false,"transit":false,"line":2,"time":2,"distance":1080},{"distance":1264,"station_id":"JAKK","time":4,"is_transit":true,"i_lat":-6.137569,"i_long":106.812439,"transit":true,"line":2,"station_name":"Jakarta Kota"},{"time":3,"distance":1364,"i_lat":-6.132549,"transit":true,"station_name":"Kampung Bandan","station_id":"KPB","i_long":106.826365,"line":4,"is_transit":true},{"time":9,"distance":4102,"transit":false,"station_name":"Angke","is_transit":false,"station_id":"AK","i_long":106.79867,"line":1,"i_lat":-6.144674},{"time":4,"i_lat":-6.155215,"distance":1230,"station_name":"Duri","transit":false,"station_id":"DU","is_transit":false,"i_long":106.800832,"line":1},{"i_lat":-6.185545,"i_long":106.811091,"transit":false,"station_name":"Tanah Abang","is_transit":false,"time":8,"station_id":"THB","distance":3632,"line":1}],[{"line":1,"distance":0,"time":0,"i_long":107.016735,"is_transit":false,"station_name":"Bekasi Timur","transit":false,"i_lat":-6.248029,"station_id":"BKST"},{"is_transit":false,"distance":2368,"time":2,"station_name":"Bekasi","i_lat":-6.236616,"i_long":106.997013,"station_id":"BKS","line":1,"transit":false},{"i_long":106.977657,"station_id":"KRI","time":4,"line":1,"is_transit":false,"distance":2520,"station_name":"Kranji","transit":false,"i_lat":-6.224515},{"is_transit":false,"station_name":"Cakung","time":3,"station_id":"CUK","i_lat":-6.219053,"i_long":106.951283,"transit":false,"line":1,"distance":3097},{"time":8,"transit":false,"i_long":106.939679,"line":1,"station_name":"Klenderbaru","i_lat":-6.217455,"distance":1385,"station_id":"KLDB","is_transit":false},{"i_lat":-6.215568,"i_long":106.922662,"distance":1305,"is_transit":false,"station_id":"BUA","time":1,"transit":false,"station_name":"Buaran","line":1},{"station_name":"Klender","is_transit":false,"line":1,"station_id":"KLD","time":2,"i_long":106.899548,"distance":3100,"transit":false,"i_lat":-6.2135},{"line":1,"i_long":106.86807400000001,"is_transit":true,"distance":3395,"time":3,"station_name":"Jatinegara","station_id":"JNG","transit":true,"i_lat":-6.215091},{"is_transit":false,"station_id":"POK","distance":1236,"transit":false,"station_name":"Pondok Jati","i_lat":-6.209188,"i_long":106.861737,"time":2,"line":11},{"i_lat":-6.193792,"time":2,"distance":1829,"is_transit":false,"station_name":"Kramat","station_id":"KMT","i_long":106.855437,"line":11,"transit":false},{"time":1,"station_id":"GST","distance":973,"i_long":106.850107,"line":11,"is_transit":false,"transit":false,"i_lat":-6.185975,"station_name":"Gang Sentiong"},{"station_id":"PSE","time":8,"distance":1567,"station_name":"Pasar Senen","is_transit":false,"transit":false,"i_long":106.84368,"line":11,"i_lat":-6.174784},{"distance":1436,"station_name":"Kemayoran","transit":false,"i_lat":-6.161728,"station_id":"KMO","is_transit":false,"line":11,"time":4,"i_long":106.839204},{"station_name":"Rajawali","station_id":"RJW","is_transit":false,"distance":1901,"time":5,"transit":false,"i_lat":-6.14505,"i_long":106.836569,"line":11},{"station_id":"KPB","is_transit":true,"time":3,"i_long":106.826365,"line":4,"station_name":"Kampung Bandan","i_lat":-6.132549,"distance":1444,"transit":true},{"time":3,"distance":1364,"station_id":"JAKK","i_lat":-6.137569,"transit":true,"i_long":106.812439,"line":2,"station_name":"Jakarta Kota","is_transit":true},{"i_lat":-6.141205,"station_id":"JAY","i_long":106.820901,"distance":1264,"station_name":"Jayakarta","time":4,"is_transit":false,"line":2,"transit":false},{"is_transit":false,"station_id":"MGB","distance":1080,"i_lat":-6.149769,"station_name":"Manggabesar","transit":false,"line":2,"time":2,"i_long":106.82482},{"i_lat":-6.160725,"station_id":"SW","distance":906,"is_transit":false,"time":2,"station_name":"Sawah Besar","transit":false,"i_long":106.827103,"line":2},{"distance":1149,"transit":false,"time":2,"is_transit":false,"station_name":"Juanda","i_long":106.828284,"line":2,"i_lat":-6.166716,"station_id":"JUA"},{"is_transit":false,"line":2,"station_name":"Gondangdia","i_lat":-6.186295,"distance":2015,"time":4,"transit":false,"i_long":106.832183,"station_id":"GDD"},{"line":2,"transit":false,"station_name":"Cikini","i_lat":-6.198556,"i_long":106.840169,"station_id":"CKI","distance":1750,"is_transit":false,"time":3},{"is_transit":true,"time":4,"station_id":"MRI","station_name":"Manggarai","distance":1590,"transit":true,"i_lat":-6.209883,"i_long":106.84912,"line":2},{"time":4,"i_long":106.822649,"is_transit":false,"station_name":"Sudirman","station_id":"SUD","distance":3186,"transit":false,"line":1,"i_lat":-6.202263},{"line":1,"station_id":"SUDB","station_name":"Sudirman Baru","distance":280,"time":1,"is_transit":false,"i_lat":-6.201433,"transit":false,"i_long":106.819881},{"line":1,"transit":false,"time":1,"distance":471,"station_name":"Karet","i_lat":-6.20132,"station_id":"KAT","is_transit":false,"i_long":106.816351},{"i_lat":-6.185545,"station_id":"THB","transit":false,"is_transit":false,"line":1,"station_name":"Tanah Abang","i_long":106.811091,"time":5,"distance":2029}]]}