{"data":[[{"transit":false,"station_id":"BKST","line":0,"i_lat":-6.248029,"is_transit":false,"i_long":107.016735,"distance":0,"time":0,"station_name":"Bekasi Timur"},{"time":2,"i_long":106.997013,"line":0,"station_id":"BKS","distance":2368,"i_lat":-6.236616,"station_name":"Bekasi","is_transit":false,"transit":false},{"distance":2520,"i_lat":-6.224515,"line":1,"station_id":"KRI","time":4,"station_name":"Kranji","transit":false,"i_long":106.977657,"is_transit":false},{"is_transit":false,"station_name":"Cakung","i_lat":-6.219053,"i_long":106.951283,"station_id":"CUK","time":3,"distance":3097,"transit":false,"line":0},{"station_name":"Klenderbaru","distance":1385,"time":8,"transit":false,"line":1,"is_transit":false,"station_id":"KLDB","i_long":106.939679,"i_lat":-6.217455},{"transit":false,"distance":1305,"i_long":106.922662,"i_lat":-6.215568,"station_name":"Buaran","line":0,"time":1,"is_transit":false,"station_id":"BUA"},{"is_transit":false,"line":1,"station_name":"Klender","transit":false,"i_lat":-6.2135,"time":2,"station_id":"KLD","distance":3100,"i_long":106.899548},{"time":3,"distance":3395,"station_name":"Jatinegara","i_lat":-6.215091,"i_long":106.86807400000001,"line":0,"station_id":"JNG","is_transit":true,"transit":false},{"time":2,"distance":1377,"station_name":"Matraman","transit":false,"i_lat":-6.212485,"station_id":"MTR","line":1,"is_transit":false,"i_long":106.858896},{"station_id":"MRI","i_long":106.84912,"line":0,"transit":true,"is_transit":true,"i_lat":-6.209883,"station_name":"Manggarai","time":2,"distance":1275},{"i_lat":-6.226659,"i_long":106.857948,"station_name":"Tebet","is_transit":false,"line":2,"station_id":"TEB","distance":2610,"transit":false,"time":4},{"distance":1230,"i_long":106.856607,"line":0,"is_transit":false,"time":2,"station_name":"Cawang","transit":false,"i_lat":-6.242512,"station_id":"CW"}],[{"is_transit":false,"i_long":107.016735,"distance":0,"line":0,"station_id":"BKST","time":0,"transit":false,"station_name":"Bekasi Timur","i_lat":-6.248029},{"i_lat":-6.236616,"time":2,"transit":false,"station_name":"Bekasi","station_id":"BKS","i_long":106.997013,"distance":2368,"line":0,"is_transit":false},{"line":1,"station_id":"KRI","time":4,"station_name":"Kranji","i_long":106.977657,"is_transit":false,"distance":2520,"transit":false,"i_lat":-6.224515},{"station_name":"Cakung","transit":false,"i_lat":-6.219053,"station_id":"CUK","is_transit":false,"time":3,"i_long":106.951283,"line":0,"distance":3097},{"station_id":"KLDB","is_transit":false,"time":8,"i_lat":-6.217455,"line":1,"station_name":"Klenderbaru","transit":false,"distance":1385,"i_long":106.939679},{"distance":1305,"station_name":"Buaran","station_id":"BUA","transit":false,"i_lat":-6.215568,"i_long":106.922662,"line":0,"time":1,"is_transit":false},{"distance":3100,"i_long":106.899548,"transit":false,"is_transit":false,"station_id":"KLD","time":2,"station_name":"Klender","i_lat":-6.2135,"line":1},{"distance":3395,"i_long":106.86807400000001,"time":3,"station_id":"JNG","is_transit":true,"transit":true,"station_name":"Jatinegara","line":0,"i_lat":-6.215091},{"station_id":"POK","i_long":106.861737,"distance":1236,"station_name":"Pondok Jati","line":11,"time":2,"is_transit":false,"transit":false,"i_lat":-6.209188},{"time":2,"distance":1829,"station_name":"Kramat","line":11,"i_lat":-6.193792,"transit":false,"station_id":"KMT","is_transit":false,"i_long":106.855437},{"i_long":106.850107,"line":11,"is_transit":false,"station_name":"Gang Sentiong","distance":973,"transit":false,"i_lat":-6.185975,"time":1,"station_id":"GST"},{"is_transit":false,"i_lat":-6.174784,"station_id":"PSE","transit":false,"line":11,"distance":1567,"station_name":"Pasar Senen","time":8,"i_long":106.84368},{"is_transit":false,"time":4,"i_lat":-6.161728,"transit":false,"i_long":106.839204,"station_name":"Kemayoran","distance":1436,"station_id":"KMO","line":11},{"i_lat":-6.14505,"line":11,"transit":false,"is_transit":false,"time":5,"station_name":"Rajawali","i_long":106.836569,"station_id":"RJW","distance":1901},{"i_lat":-6.132549,"time":3,"i_long":106.826365,"station_name":"Kampung Bandan","transit":true,"station_id":"KPB","is_transit":true,"distance":1444,"line":0},{"i_long":106.79867,"transit":false,"station_id":"AK","line":0,"station_name":"Angke","i_lat":-6.144674,"is_transit":false,"distance":4102,"time":9},{"is_transit":true,"i_lat":-6.155215,"time":4,"i_long":106.800832,"station_id":"DU","distance":1230,"station_name":"Duri","line":1,"transit":true},{"i_long":106.811091,"station_name":"Tanah Abang","line":1,"is_transit":true,"transit":false,"station_id":"THB","distance":3632,"i_lat":-6.185545,"time":8},{"station_id":"KAT","is_transit":false,"transit":false,"line":1,"time":5,"distance":2029,"station_name":"Karet","i_lat":-6.20132,"i_long":106.816351},{"i_long":106.819881,"station_id":"SUDB","station_name":"Sudirman Baru","i_lat":-6.201433,"time":1,"is_transit":false,"distance":471,"transit":false,"line":1},{"distance":280,"station_id":"SUD","time":1,"transit":false,"i_long":106.822649,"station_name":"Sudirman","line":1,"is_transit":false,"i_lat":-6.202263},{"station_id":"MRI","i_long":106.84912,"time":4,"line":0,"distance":3186,"i_lat":-6.209883,"is_transit":true,"station_name":"Manggarai","transit":true},{"distance":2610,"is_transit":false,"transit":false,"station_name":"Tebet","line":2,"i_long":106.857948,"time":4,"i_lat":-6.226659,"station_id":"TEB"},{"is_transit":false,"i_lat":-6.242512,"station_id":"CW","distance":1230,"i_long":106.856607,"station_name":"Cawang","transit":false,"time":2,"line":0}],[{"station_id":"BKST","i_long":107.016735,"is_transit":false,"distance":0,"i_lat":-6.248029,"transit":false,"station_name":"Bekasi Timur","time":0,"line":0},{"station_id":"BKS","distance":2368,"is_transit":false,"time":2,"i_long":106.997013,"transit":false,"station_name":"Bekasi","line":0,"i_lat":-6.236616},{"i_lat":-6.224515,"i_long":106.977657,"station_id":"KRI","station_name":"Kranji","transit":false,"line":1,"time":4,"distance":2520,"is_transit":false},{"transit":false,"station_name":"Cakung","i_long":106.951283,"i_lat":-6.219053,"time":3,"station_id":"CUK","line":0,"is_transit":false,"distance":3097},{"distance":1385,"station_name":"Klenderbaru","time":8,"line":1,"i_long":106.939679,"transit":false,"station_id":"KLDB","i_lat":-6.217455,"is_transit":false},{"station_id":"BUA","i_long":106.922662,"transit":false,"is_transit":false,"distance":1305,"station_name":"Buaran","time":1,"line":0,"i_lat":-6.215568},{"i_long":106.899548,"i_lat":-6.2135,"distance":3100,"station_name":"Klender","time":2,"transit":false,"is_transit":false,"line":1,"station_id":"KLD"},{"distance":3395,"time":3,"line":0,"transit":true,"i_long":106.86807400000001,"i_lat":-6.215091,"is_transit":true,"station_id":"JNG","station_name":"Jatinegara"},{"transit":false,"line":11,"i_long":106.861737,"i_lat":-6.209188,"station_id":"POK","distance":1236,"station_name":"Pondok Jati","is_transit":false,"time":2},{"transit":false,"time":2,"station_name":"Kramat","station_id":"KMT","is_transit":false,"i_lat":-6.193792,"line":11,"i_long":106.855437,"distance":1829},{"time":1,"i_long":106.850107,"station_name":"Gang Sentiong","line":11,"is_transit":false,"i_lat":-6.185975,"station_id":"GST","transit":false,"distance":973},{"station_id":"PSE","line":11,"i_long":106.84368,"i_lat":-6.174784,"is_transit":false,"time":8,"station_name":"Pasar Senen","distance":1567,"transit":false},{"i_lat":-6.161728,"transit":false,"station_id":"KMO","time":4,"i_long":106.839204,"station_name":"Kemayoran","line":11,"is_transit":false,"distance":1436},{"station_name":"Rajawali","transit":false,"time":5,"is_transit":false,"distance":1901,"i_lat":-6.14505,"i_long":106.836569,"line":11,"station_id":"RJW"},{"is_transit":true,"transit":true,"station_name":"Kampung Bandan","i_long":106.826365,"line":0,"time":3,"i_lat":-6.132549,"distance":1444,"station_id":"KPB"},{"station_name":"Jakarta Kota","transit":true,"i_long":106.812439,"i_lat":-6.137569,"line":0,"distance":1364,"time":3,"station_id":"JAKK","is_transit":true},{"is_transit":false,"i_long":106.820901,"distance":1264,"transit":false,"i_lat":-6.141205,"line":7,"station_id":"JAY","time":4,"station_name":"Jayakarta"},{"i_long":106.82482,"i_lat":-6.149769,"line":2,"distance":1080,"transit":false,"station_id":"MGB","time":2,"station_name":"Manggabesar","is_transit":false},{"distance":906,"station_id":"SW","i_lat":-6.160725,"line":2,"is_transit":false,"transit":false,"time":2,"station_name":"Sawah Besar","i_long":106.827103},{"time":2,"is_transit":false,"transit":false,"distance":1149,"i_lat":-6.166716,"station_id":"JUA","line":2,"station_name":"Juanda","i_long":106.828284},{"is_transit":false,"transit":false,"station_id":"GDD","line":2,"distance":2015,"i_lat":-6.186295,"i_long":106.832183,"station_name":"Gondangdia","time":4},{"i_long":106.840169,"distance":1750,"station_id":"CKI","transit":false,"line":0,"is_transit":false,"time":3,"station_name":"Cikini","i_lat":-6.198556},{"line":0,"i_long":106.84912,"i_lat":-6.209883,"is_transit":true,"time":4,"station_id":"MRI","distance":1590,"station_name":"Manggarai","transit":true},{"transit":false,"i_long":106.857948,"station_id":"TEB","line":2,"distance":2610,"station_name":"Tebet","i_lat":-6.226659,"is_transit":false,"time":4},{"line":0,"i_long":106.856607,"station_id":"CW","time":2,"transit":false,"i_lat":-6.242512,"is_transit":false,"station_name":"Cawang","distance":1230}]]}