{"data":[[{"station_id":"BKST","time":0,"i_long":107.016735,"station_name":"Bekasi Timur","transit":false,"i_lat":-6.248029,"line":0,"is_transit":false,"distance":0},{"time":2,"transit":false,"i_lat":-6.236616,"station_name":"Bekasi","is_transit":false,"distance":2368,"station_id":"BKS","i_long":106.997013,"line":0},{"is_transit":false,"station_name":"Kranji","time":4,"distance":2520,"transit":false,"i_lat":-6.224515,"i_long":106.977657,"station_id":"KRI","line":1},{"station_id":"CUK","distance":3097,"transit":false,"is_transit":false,"i_lat":-6.219053,"station_name":"Cakung","i_long":106.951283,"time":3,"line":0},{"distance":1385,"is_transit":false,"line":1,"i_lat":-6.217455,"station_id":"KLDB","time":8,"transit":false,"i_long":106.939679,"station_name":"Klenderbaru"},{"station_name":"Buaran","i_lat":-6.215568,"station_id":"BUA","is_transit":false,"i_long":106.922662,"line":0,"distance":1305,"transit":false,"time":1},{"time":2,"transit":false,"line":1,"i_lat":-6.2135,"station_id":"KLD","station_name":"Klender","i_long":106.899548,"is_transit":false,"distance":3100},{"i_long":106.86807400000001,"i_lat":-6.215091,"transit":true,"is_transit":true,"line":0,"distance":3395,"time":3,"station_id":"JNG","station_name":"Jatinegara"},{"time":2,"station_id":"POK","distance":1236,"line":11,"transit":false,"is_transit":false,"i_lat":-6.209188,"i_long":106.861737,"station_name":"Pondok Jati"},{"line":11,"station_name":"Kramat","transit":false,"time":2,"station_id":"KMT","distance":1829,"is_transit":false,"i_lat":-6.193792,"i_long":106.855437},{"is_transit":false,"distance":973,"transit":false,"i_lat":-6.185975,"time":1,"i_long":106.850107,"line":11,"station_id":"GST","station_name":"Gang Sentiong"},{"i_lat":-6.174784,"time":8,"station_id":"PSE","distance":1567,"i_long":106.84368,"transit":false,"station_name":"Pasar Senen","is_transit":false,"line":11},{"transit":false,"is_transit":false,"station_name":"Kemayoran","line":11,"i_long":106.839204,"distance":1436,"station_id":"KMO","i_lat":-6.161728,"time":4},{"station_name":"Rajawali","is_transit":false,"time":5,"distance":1901,"station_id":"RJW","transit":false,"i_long":106.836569,"line":11,"i_lat":-6.14505},{"is_transit":true,"time":3,"station_id":"KPB","station_name":"Kampung Bandan","i_long":106.826365,"line":0,"distance":1444,"transit":true,"i_lat":-6.132549},{"is_transit":false,"time":9,"transit":false,"station_id":"AK","i_long":106.79867,"distance":4102,"station_name":"Angke","i_lat":-6.144674,"line":0}],[{"distance":0,"transit":false,"station_id":"BKST","is_transit":false,"time":0,"i_lat":-6.248029,"line":0,"station_name":"Bekasi Timur","i_long":107.016735},{"station_name":"Bekasi","i_lat":-6.236616,"transit":false,"is_transit":false,"distance":2368,"time":2,"i_long":106.997013,"line":0,"station_id":"BKS"},{"transit":false,"time":4,"is_transit":false,"station_id":"KRI","i_lat":-6.224515,"i_long":106.977657,"station_name":"Kranji","distance":2520,"line":1},{"i_long":106.951283,"station_id":"CUK","i_lat":-6.219053,"distance":3097,"line":0,"is_transit":false,"station_name":"Cakung","time":3,"transit":false},{"time":8,"station_id":"KLDB","i_lat":-6.217455,"i_long":106.939679,"line":1,"is_transit":false,"distance":1385,"station_name":"Klenderbaru","transit":false},{"i_lat":-6.215568,"i_long":106.922662,"station_name":"Buaran","line":0,"time":1,"distance":1305,"is_transit":false,"station_id":"BUA","transit":false},{"time":2,"transit":false,"distance":3100,"is_transit":false,"station_name":"Klender","station_id":"KLD","i_lat":-6.2135,"i_long":106.899548,"line":1},{"distance":3395,"is_transit":true,"transit":false,"i_lat":-6.215091,"station_id":"JNG","i_long":106.86807400000001,"time":3,"line":0,"station_name":"Jatinegara"},{"i_long":106.858896,"distance":1377,"i_lat":-6.212485,"station_id":"MTR","is_transit":false,"line":1,"station_name":"Matraman","transit":false,"time":2},{"distance":1275,"is_transit":true,"time":2,"i_lat":-6.209883,"line":0,"transit":false,"station_name":"Manggarai","i_long":106.84912,"station_id":"MRI"},{"i_long":106.822649,"transit":false,"distance":3186,"time":4,"line":1,"is_transit":false,"station_id":"SUD","i_lat":-6.202263,"station_name":"Sudirman"},{"i_long":106.819881,"station_id":"SUDB","is_transit":false,"i_lat":-6.201433,"time":1,"line":1,"transit":false,"station_name":"Sudirman Baru","distance":280},{"i_lat":-6.20132,"i_long":106.816351,"line":1,"is_transit":false,"time":1,"distance":471,"station_id":"KAT","station_name":"Karet","transit":false},{"is_transit":true,"line":1,"i_long":106.811091,"i_lat":-6.185545,"station_name":"Tanah Abang","distance":2029,"time":5,"transit":false,"station_id":"THB"},{"station_id":"DU","distance":3632,"line":1,"station_name":"Duri","i_long":106.800832,"is_transit":true,"time":8,"transit":true,"i_lat":-6.155215},{"i_long":106.79867,"station_name":"Angke","line":0,"distance":1230,"is_transit":false,"station_id":"AK","transit":false,"i_lat":-6.144674,"time":4}],[{"time":0,"transit":false,"station_id":"BKST","station_name":"Bekasi Timur","distance":0,"i_long":107.016735,"line":0,"i_lat":-6.248029,"is_transit":false},{"station_id":"BKS","time":2,"i_long":106.997013,"distance":2368,"transit":false,"i_lat":-6.236616,"station_name":"Bekasi","is_transit":false,"line":0},{"transit":false,"i_lat":-6.224515,"line":1,"distance":2520,"is_transit":false,"station_name":"Kranji","time":4,"i_long":106.977657,"station_id":"KRI"},{"i_lat":-6.219053,"distance":3097,"i_long":106.951283,"line":0,"transit":false,"station_name":"Cakung","is_transit":false,"station_id":"CUK","time":3},{"station_name":"Klenderbaru","i_long":106.939679,"is_transit":false,"line":1,"transit":false,"i_lat":-6.217455,"distance":1385,"time":8,"station_id":"KLDB"},{"station_name":"Buaran","station_id":"BUA","transit":false,"distance":1305,"is_transit":false,"i_lat":-6.215568,"i_long":106.922662,"line":0,"time":1},{"i_long":106.899548,"time":2,"is_transit":false,"i_lat":-6.2135,"station_name":"Klender","line":1,"transit":false,"distance":3100,"station_id":"KLD"},{"transit":false,"line":0,"station_name":"Jatinegara","is_transit":true,"i_lat":-6.215091,"distance":3395,"station_id":"JNG","i_long":106.86807400000001,"time":3},{"station_name":"Matraman","i_lat":-6.212485,"is_transit":false,"i_long":106.858896,"distance":1377,"station_id":"MTR","time":2,"transit":false,"line":1},{"station_id":"MRI","station_name":"Manggarai","i_lat":-6.209883,"i_long":106.84912,"distance":1275,"is_transit":true,"transit":true,"line":0,"time":2},{"distance":1590,"i_lat":-6.198556,"station_id":"CKI","time":4,"station_name":"Cikini","transit":false,"i_long":106.840169,"is_transit":false,"line":0},{"distance":1750,"time":3,"transit":false,"station_name":"Gondangdia","line":2,"station_id":"GDD","i_lat":-6.186295,"is_transit":false,"i_long":106.832183},{"i_long":106.828284,"time":4,"distance":2015,"transit":false,"line":2,"station_name":"Juanda","is_transit":false,"station_id":"JUA","i_lat":-6.166716},{"line":2,"station_name":"Sawah Besar","time":2,"is_transit":false,"distance":1149,"station_id":"SW","transit":false,"i_lat":-6.160725,"i_long":106.827103},{"i_lat":-6.149769,"distance":906,"transit":false,"station_id":"MGB","i_long":106.82482,"is_transit":false,"line":2,"time":2,"station_name":"Manggabesar"},{"station_name":"Jayakarta","distance":1080,"is_transit":false,"transit":false,"station_id":"JAY","time":2,"i_lat":-6.141205,"i_long":106.820901,"line":7},{"station_name":"Jakarta Kota","is_transit":true,"time":4,"transit":true,"i_lat":-6.137569,"i_long":106.812439,"station_id":"JAKK","line":0,"distance":1264},{"distance":1364,"is_transit":true,"line":0,"station_id":"KPB","i_long":106.826365,"station_name":"Kampung Bandan","i_lat":-6.132549,"time":3,"transit":false},{"transit":false,"line":0,"i_lat":-6.144674,"distance":4102,"is_transit":false,"station_name":"Angke","station_id":"AK","time":9,"i_long":106.79867}],[{"i_long":107.016735,"is_transit":false,"station_name":"Bekasi Timur","distance":0,"line":0,"station_id":"BKST","transit":false,"i_lat":-6.248029,"time":0},{"time":2,"i_long":106.997013,"transit":false,"i_lat":-6.236616,"line":0,"distance":2368,"is_transit":false,"station_name":"Bekasi","station_id":"BKS"},{"distance":2520,"is_transit":false,"i_lat":-6.224515,"line":1,"station_id":"KRI","time":4,"station_name":"Kranji","transit":false,"i_long":106.977657},{"transit":false,"line":0,"station_id":"CUK","is_transit":false,"i_lat":-6.219053,"i_long":106.951283,"distance":3097,"time":3,"station_name":"Cakung"},{"station_id":"KLDB","line":1,"i_long":106.939679,"station_name":"Klenderbaru","is_transit":false,"distance":1385,"time":8,"transit":false,"i_lat":-6.217455},{"time":1,"station_id":"BUA","distance":1305,"transit":false,"station_name":"Buaran","is_transit":false,"i_long":106.922662,"i_lat":-6.215568,"line":0},{"distance":3100,"i_lat":-6.2135,"i_long":106.899548,"is_transit":false,"station_id":"KLD","time":2,"line":1,"transit":false,"station_name":"Klender"},{"line":0,"i_long":106.86807400000001,"is_transit":true,"station_name":"Jatinegara","i_lat":-6.215091,"time":3,"transit":true,"station_id":"JNG","distance":3395},{"is_transit":false,"line":11,"time":2,"i_lat":-6.209188,"station_id":"POK","station_name":"Pondok Jati","distance":1236,"transit":false,"i_long":106.861737},{"transit":false,"line":11,"is_transit":false,"distance":1829,"i_lat":-6.193792,"station_id":"KMT","station_name":"Kramat","time":2,"i_long":106.855437},{"station_id":"GST","is_transit":false,"time":1,"distance":973,"transit":false,"i_lat":-6.185975,"i_long":106.850107,"line":11,"station_name":"Gang Sentiong"},{"time":8,"transit":false,"station_id":"PSE","i_lat":-6.174784,"i_long":106.84368,"line":11,"is_transit":false,"station_name":"Pasar Senen","distance":1567},{"station_name":"Kemayoran","i_long":106.839204,"line":11,"is_transit":false,"station_id":"KMO","distance":1436,"time":4,"i_lat":-6.161728,"transit":false},{"i_long":106.836569,"transit":false,"station_id":"RJW","station_name":"Rajawali","distance":1901,"time":5,"is_transit":false,"i_lat":-6.14505,"line":11},{"distance":1444,"time":3,"station_name":"Kampung Bandan","i_lat":-6.132549,"is_transit":true,"line":0,"station_id":"KPB","transit":true,"i_long":106.826365},{"distance":1364,"station_name":"Jakarta Kota","i_lat":-6.137569,"time":3,"is_transit":true,"transit":true,"station_id":"JAKK","i_long":106.812439,"line":0},{"i_lat":-6.141205,"station_id":"JAY","transit":false,"i_long":106.820901,"line":7,"is_transit":false,"station_name":"Jayakarta","distance":1264,"time":4},{"i_lat":-6.149769,"is_transit":false,"line":2,"station_id":"MGB","distance":1080,"transit":false,"i_long":106.82482,"station_name":"Manggabesar","time":2},{"is_transit":false,"station_id":"SW","station_name":"Sawah Besar","distance":906,"transit":false,"i_lat":-6.160725,"time":2,"i_long":106.827103,"line":2},{"i_long":106.828284,"time":2,"i_lat":-6.166716,"station_id":"JUA","is_transit":false,"station_name":"Juanda","line":2,"distance":1149,"transit":false},{"transit":false,"line":2,"station_name":"Gondangdia","is_transit":false,"i_long":106.832183,"time":4,"distance":2015,"i_lat":-6.186295,"station_id":"GDD"},{"station_id":"CKI","line":0,"i_lat":-6.198556,"transit":false,"station_name":"Cikini","is_transit":false,"time":3,"distance":1750,"i_long":106.840169},{"station_name":"Manggarai","is_transit":true,"i_long":106.84912,"i_lat":-6.209883,"time":4,"distance":1590,"station_id":"MRI","line":0,"transit":true},{"i_lat":-6.202263,"distance":3186,"line":1,"station_id":"SUD","is_transit":false,"station_name":"Sudirman","time":4,"transit":false,"i_long":106.822649},{"time":1,"station_name":"Sudirman Baru","is_transit":false,"i_long":106.819881,"i_lat":-6.201433,"station_id":"SUDB","distance":280,"transit":false,"line":1},{"i_lat":-6.20132,"time":1,"station_id":"KAT","distance":471,"is_transit":false,"line":1,"i_long":106.816351,"transit":false,"station_name":"Karet"},{"line":1,"distance":2029,"i_long":106.811091,"time":5,"station_name":"Tanah Abang","is_transit":true,"transit":false,"station_id":"THB","i_lat":-6.185545},{"i_lat":-6.155215,"distance":3632,"station_name":"Duri","station_id":"DU","transit":true,"time":8,"line":1,"i_long":106.800832,"is_transit":true},{"transit":false,"distance":1230,"i_lat":-6.144674,"station_name":"Angke","time":4,"is_transit":false,"line":0,"i_long":106.79867,"station_id":"AK"}]]}