{"data":[[{"station_id":"BKST","distance":0,"i_long":107.016735,"line":1,"time":0,"station_name":"Bekasi Timur","transit":false,"is_transit":false,"i_lat":-6.248029},{"i_lat":-6.236616,"station_name":"Bekasi","distance":2368,"time":2,"is_transit":false,"i_long":106.997013,"transit":false,"line":1,"station_id":"BKS"},{"time":4,"station_id":"KRI","line":1,"i_long":106.977657,"is_transit":false,"i_lat":-6.224515,"distance":2520,"station_name":"Kranji","transit":false},{"i_long":106.951283,"time":3,"station_id":"CUK","station_name":"Cakung","line":1,"is_transit":false,"distance":3097,"transit":false,"i_lat":-6.219053},{"transit":false,"i_long":106.939679,"time":8,"station_name":"Klenderbaru","line":1,"i_lat":-6.217455,"distance":1385,"station_id":"KLDB","is_transit":false},{"time":1,"station_name":"Buaran","line":1,"transit":false,"i_lat":-6.215568,"station_id":"BUA","i_long":106.922662,"distance":1305,"is_transit":false},{"station_name":"Klender","line":1,"is_transit":false,"time":2,"station_id":"KLD","i_lat":-6.2135,"distance":3100,"i_long":106.899548,"transit":false},{"time":3,"i_lat":-6.215091,"line":1,"distance":3395,"station_id":"JNG","transit":false,"is_transit":false,"i_long":106.86807400000001,"station_name":"Jatinegara"},{"line":1,"is_transit":false,"station_id":"MTR","i_lat":-6.212485,"station_name":"Matraman","i_long":106.858896,"time":2,"distance":1377,"transit":false},{"transit":false,"station_id":"MRI","is_transit":false,"station_name":"Manggarai","time":2,"i_lat":-6.209883,"i_long":106.84912,"distance":1275,"line":2}],[{"time":0,"line":1,"station_id":"BKST","transit":false,"i_long":107.016735,"distance":0,"station_name":"Bekasi Timur","is_transit":false,"i_lat":-6.248029},{"i_lat":-6.236616,"time":2,"distance":2368,"transit":false,"station_id":"BKS","i_long":106.997013,"is_transit":false,"station_name":"Bekasi","line":1},{"station_id":"KRI","transit":false,"time":4,"station_name":"Kranji","is_transit":false,"i_long":106.977657,"line":1,"i_lat":-6.224515,"distance":2520},{"is_transit":false,"i_long":106.951283,"station_id":"CUK","distance":3097,"i_lat":-6.219053,"line":1,"time":3,"transit":false,"station_name":"Cakung"},{"i_lat":-6.217455,"station_id":"KLDB","line":1,"distance":1385,"station_name":"Klenderbaru","transit":false,"i_long":106.939679,"time":8,"is_transit":false},{"station_id":"BUA","i_lat":-6.215568,"i_long":106.922662,"time":1,"line":1,"is_transit":false,"station_name":"Buaran","transit":false,"distance":1305},{"station_id":"KLD","is_transit":false,"time":2,"transit":false,"line":1,"station_name":"Klender","i_lat":-6.2135,"distance":3100,"i_long":106.899548},{"time":3,"station_id":"JNG","distance":3395,"i_long":106.86807400000001,"is_transit":true,"station_name":"Jatinegara","transit":true,"i_lat":-6.215091,"line":1},{"is_transit":false,"i_long":106.861737,"time":2,"distance":1236,"line":11,"station_id":"POK","i_lat":-6.209188,"transit":false,"station_name":"Pondok Jati"},{"station_id":"KMT","i_lat":-6.193792,"station_name":"Kramat","time":2,"is_transit":false,"i_long":106.855437,"distance":1829,"transit":false,"line":11},{"line":11,"time":1,"i_lat":-6.185975,"station_name":"Gang Sentiong","is_transit":false,"i_long":106.850107,"station_id":"GST","distance":973,"transit":false},{"time":8,"line":11,"station_id":"PSE","i_lat":-6.174784,"distance":1567,"i_long":106.84368,"station_name":"Pasar Senen","transit":false,"is_transit":false},{"transit":false,"line":11,"time":4,"station_name":"Kemayoran","distance":1436,"is_transit":false,"i_lat":-6.161728,"station_id":"KMO","i_long":106.839204},{"station_id":"RJW","transit":false,"time":5,"distance":1901,"station_name":"Rajawali","line":11,"i_long":106.836569,"i_lat":-6.14505,"is_transit":false},{"is_transit":true,"i_lat":-6.132549,"time":3,"station_name":"Kampung Bandan","transit":true,"station_id":"KPB","line":4,"i_long":106.826365,"distance":1444},{"time":9,"i_lat":-6.144674,"i_long":106.79867,"line":1,"station_id":"AK","transit":false,"distance":4102,"is_transit":false,"station_name":"Angke"},{"is_transit":false,"time":4,"station_id":"DU","i_lat":-6.155215,"line":1,"distance":1230,"station_name":"Duri","transit":false,"i_long":106.800832},{"line":1,"i_lat":-6.185545,"time":8,"distance":3632,"station_id":"THB","transit":false,"station_name":"Tanah Abang","is_transit":false,"i_long":106.811091},{"station_name":"Karet","is_transit":false,"time":5,"distance":2029,"i_lat":-6.20132,"i_long":106.816351,"line":1,"transit":false,"station_id":"KAT"},{"i_lat":-6.201433,"time":1,"station_id":"SUDB","distance":471,"i_long":106.819881,"is_transit":false,"station_name":"Sudirman Baru","transit":false,"line":1},{"is_transit":false,"i_lat":-6.202263,"station_name":"Sudirman","line":1,"distance":280,"i_long":106.822649,"station_id":"SUD","transit":false,"time":1},{"line":2,"is_transit":false,"time":4,"i_long":106.84912,"transit":false,"station_name":"Manggarai","distance":3186,"station_id":"MRI","i_lat":-6.209883}],[{"is_transit":false,"i_long":107.016735,"line":1,"distance":0,"time":0,"station_name":"Bekasi Timur","i_lat":-6.248029,"transit":false,"station_id":"BKST"},{"transit":false,"station_id":"BKS","distance":2368,"station_name":"Bekasi","time":2,"is_transit":false,"i_lat":-6.236616,"i_long":106.997013,"line":1},{"line":1,"transit":false,"i_long":106.977657,"distance":2520,"station_name":"Kranji","time":4,"is_transit":false,"station_id":"KRI","i_lat":-6.224515},{"line":1,"distance":3097,"is_transit":false,"station_id":"CUK","station_name":"Cakung","i_lat":-6.219053,"transit":false,"time":3,"i_long":106.951283},{"station_name":"Klenderbaru","time":8,"i_lat":-6.217455,"i_long":106.939679,"station_id":"KLDB","is_transit":false,"distance":1385,"line":1,"transit":false},{"line":1,"i_lat":-6.215568,"transit":false,"is_transit":false,"station_id":"BUA","time":1,"station_name":"Buaran","distance":1305,"i_long":106.922662},{"distance":3100,"transit":false,"station_name":"Klender","line":1,"station_id":"KLD","i_lat":-6.2135,"i_long":106.899548,"is_transit":false,"time":2},{"i_lat":-6.215091,"transit":true,"station_id":"JNG","station_name":"Jatinegara","line":1,"distance":3395,"time":3,"i_long":106.86807400000001,"is_transit":true},{"line":11,"distance":1236,"i_lat":-6.209188,"station_name":"Pondok Jati","transit":false,"time":2,"i_long":106.861737,"station_id":"POK","is_transit":false},{"time":2,"station_id":"KMT","is_transit":false,"station_name":"Kramat","transit":false,"distance":1829,"i_lat":-6.193792,"i_long":106.855437,"line":11},{"is_transit":false,"line":11,"time":1,"i_lat":-6.185975,"transit":false,"station_id":"GST","distance":973,"i_long":106.850107,"station_name":"Gang Sentiong"},{"i_long":106.84368,"time":8,"station_name":"Pasar Senen","is_transit":false,"i_lat":-6.174784,"line":11,"station_id":"PSE","distance":1567,"transit":false},{"transit":false,"i_long":106.839204,"station_id":"KMO","distance":1436,"time":4,"line":11,"is_transit":false,"i_lat":-6.161728,"station_name":"Kemayoran"},{"distance":1901,"i_long":106.836569,"station_name":"Rajawali","line":11,"i_lat":-6.14505,"time":5,"transit":false,"station_id":"RJW","is_transit":false},{"line":4,"i_lat":-6.132549,"time":3,"distance":1444,"transit":true,"station_id":"KPB","i_long":106.826365,"station_name":"Kampung Bandan","is_transit":true},{"time":3,"station_id":"JAKK","station_name":"Jakarta Kota","i_long":106.812439,"line":2,"distance":1364,"i_lat":-6.137569,"is_transit":true,"transit":true},{"transit":false,"station_name":"Jayakarta","line":2,"station_id":"JAY","time":4,"distance":1264,"is_transit":false,"i_lat":-6.141205,"i_long":106.820901},{"transit":false,"i_long":106.82482,"station_id":"MGB","is_transit":false,"distance":1080,"i_lat":-6.149769,"station_name":"Manggabesar","time":2,"line":2},{"distance":906,"i_long":106.827103,"transit":false,"station_id":"SW","time":2,"station_name":"Sawah Besar","i_lat":-6.160725,"is_transit":false,"line":2},{"transit":false,"station_name":"Juanda","time":2,"distance":1149,"i_lat":-6.166716,"is_transit":false,"i_long":106.828284,"line":2,"station_id":"JUA"},{"station_id":"GDD","distance":2015,"transit":false,"station_name":"Gondangdia","line":2,"time":4,"i_lat":-6.186295,"i_long":106.832183,"is_transit":false},{"i_long":106.840169,"is_transit":false,"time":3,"distance":1750,"i_lat":-6.198556,"transit":false,"station_id":"CKI","station_name":"Cikini","line":2},{"transit":false,"time":4,"line":2,"station_name":"Manggarai","station_id":"MRI","i_lat":-6.209883,"is_transit":false,"distance":1590,"i_long":106.84912}]]}