{"data":[[{"station_name":"Bekasi Timur","i_long":107.016735,"distance":0,"transit":false,"time":0,"i_lat":-6.248029,"station_id":"BKST","line":1,"is_transit":false},{"line":1,"transit":false,"i_long":106.997013,"time":2,"distance":2368,"station_id":"BKS","station_name":"Bekasi","i_lat":-6.236616,"is_transit":false},{"time":4,"line":1,"station_id":"KRI","is_transit":false,"station_name":"Kranji","i_long":106.977657,"transit":false,"distance":2520,"i_lat":-6.224515},{"is_transit":false,"time":3,"i_lat":-6.219053,"distance":3097,"station_id":"CUK","i_long":106.951283,"transit":false,"station_name":"Cakung","line":1},{"transit":false,"distance":1385,"station_id":"KLDB","i_lat":-6.217455,"i_long":106.939679,"station_name":"Klenderbaru","is_transit":false,"line":1,"time":8},{"i_lat":-6.215568,"time":1,"is_transit":false,"line":1,"station_id":"BUA","station_name":"Buaran","i_long":106.922662,"distance":1305,"transit":false},{"transit":false,"station_id":"KLD","time":2,"i_long":106.899548,"is_transit":false,"station_name":"Klender","line":1,"distance":3100,"i_lat":-6.2135},{"i_lat":-6.215091,"transit":false,"line":1,"time":3,"i_long":106.86807400000001,"station_name":"Jatinegara","station_id":"JNG","is_transit":false,"distance":3395},{"distance":1377,"line":1,"i_long":106.858896,"station_id":"MTR","time":2,"station_name":"Matraman","is_transit":false,"transit":false,"i_lat":-6.212485},{"distance":1275,"i_long":106.84912,"i_lat":-6.209883,"transit":true,"is_transit":true,"station_id":"MRI","line":2,"time":2,"station_name":"Manggarai"},{"transit":false,"distance":2610,"station_name":"Tebet","is_transit":false,"i_long":106.857948,"station_id":"TEB","i_lat":-6.226659,"line":2,"time":4},{"line":2,"distance":1230,"station_id":"CW","transit":false,"station_name":"Cawang","i_lat":-6.242512,"time":2,"is_transit":false,"i_long":106.856607}],[{"time":0,"station_id":"BKST","distance":0,"i_long":107.016735,"i_lat":-6.248029,"line":1,"station_name":"Bekasi Timur","is_transit":false,"transit":false},{"line":1,"i_long":106.997013,"distance":2368,"station_name":"Bekasi","time":2,"station_id":"BKS","is_transit":false,"transit":false,"i_lat":-6.236616},{"station_id":"KRI","i_lat":-6.224515,"line":1,"i_long":106.977657,"time":4,"distance":2520,"is_transit":false,"transit":false,"station_name":"Kranji"},{"transit":false,"i_lat":-6.219053,"is_transit":false,"line":1,"time":3,"distance":3097,"station_id":"CUK","station_name":"Cakung","i_long":106.951283},{"is_transit":false,"transit":false,"station_id":"KLDB","distance":1385,"time":8,"i_lat":-6.217455,"line":1,"i_long":106.939679,"station_name":"Klenderbaru"},{"time":1,"line":1,"i_long":106.922662,"station_name":"Buaran","station_id":"BUA","is_transit":false,"distance":1305,"i_lat":-6.215568,"transit":false},{"line":1,"station_id":"KLD","distance":3100,"time":2,"transit":false,"i_lat":-6.2135,"i_long":106.899548,"is_transit":false,"station_name":"Klender"},{"transit":true,"time":3,"i_lat":-6.215091,"distance":3395,"is_transit":true,"i_long":106.86807400000001,"station_id":"JNG","line":1,"station_name":"Jatinegara"},{"distance":1236,"transit":false,"station_id":"POK","line":11,"station_name":"Pondok Jati","is_transit":false,"i_lat":-6.209188,"i_long":106.861737,"time":2},{"distance":1829,"i_lat":-6.193792,"is_transit":false,"station_id":"KMT","transit":false,"i_long":106.855437,"station_name":"Kramat","time":2,"line":11},{"distance":973,"station_name":"Gang Sentiong","i_lat":-6.185975,"is_transit":false,"line":11,"transit":false,"station_id":"GST","time":1,"i_long":106.850107},{"time":8,"i_lat":-6.174784,"is_transit":false,"transit":false,"station_id":"PSE","station_name":"Pasar Senen","i_long":106.84368,"line":11,"distance":1567},{"i_lat":-6.161728,"is_transit":false,"station_id":"KMO","transit":false,"time":4,"i_long":106.839204,"station_name":"Kemayoran","line":11,"distance":1436},{"time":5,"is_transit":false,"i_long":106.836569,"station_id":"RJW","transit":false,"station_name":"Rajawali","i_lat":-6.14505,"distance":1901,"line":11},{"time":3,"line":4,"distance":1444,"station_name":"Kampung Bandan","station_id":"KPB","transit":true,"i_long":106.826365,"i_lat":-6.132549,"is_transit":true},{"station_id":"AK","transit":false,"station_name":"Angke","i_lat":-6.144674,"i_long":106.79867,"distance":4102,"is_transit":false,"line":1,"time":9},{"time":4,"is_transit":false,"transit":false,"distance":1230,"line":1,"station_id":"DU","station_name":"Duri","i_lat":-6.155215,"i_long":106.800832},{"transit":false,"distance":3632,"time":8,"i_long":106.811091,"line":1,"is_transit":false,"station_name":"Tanah Abang","i_lat":-6.185545,"station_id":"THB"},{"time":5,"station_id":"KAT","is_transit":false,"i_long":106.816351,"line":1,"transit":false,"distance":2029,"i_lat":-6.20132,"station_name":"Karet"},{"station_id":"SUDB","distance":471,"i_lat":-6.201433,"station_name":"Sudirman Baru","time":1,"is_transit":false,"transit":false,"line":1,"i_long":106.819881},{"is_transit":false,"distance":280,"time":1,"station_id":"SUD","i_long":106.822649,"line":1,"i_lat":-6.202263,"transit":false,"station_name":"Sudirman"},{"i_long":106.84912,"station_id":"MRI","time":4,"line":2,"station_name":"Manggarai","i_lat":-6.209883,"distance":3186,"is_transit":true,"transit":true},{"station_id":"TEB","station_name":"Tebet","line":2,"i_long":106.857948,"is_transit":false,"transit":false,"i_lat":-6.226659,"distance":2610,"time":4},{"i_long":106.856607,"line":2,"is_transit":false,"station_name":"Cawang","distance":1230,"transit":false,"time":2,"i_lat":-6.242512,"station_id":"CW"}],[{"distance":0,"station_id":"BKST","i_lat":-6.248029,"i_long":107.016735,"is_transit":false,"transit":false,"time":0,"line":1,"station_name":"Bekasi Timur"},{"distance":2368,"i_long":106.997013,"station_name":"Bekasi","time":2,"is_transit":false,"transit":false,"i_lat":-6.236616,"line":1,"station_id":"BKS"},{"line":1,"transit":false,"time":4,"station_id":"KRI","i_long":106.977657,"i_lat":-6.224515,"distance":2520,"is_transit":false,"station_name":"Kranji"},{"time":3,"i_long":106.951283,"transit":false,"station_name":"Cakung","line":1,"is_transit":false,"i_lat":-6.219053,"distance":3097,"station_id":"CUK"},{"time":8,"station_id":"KLDB","line":1,"station_name":"Klenderbaru","transit":false,"distance":1385,"i_lat":-6.217455,"is_transit":false,"i_long":106.939679},{"distance":1305,"i_lat":-6.215568,"is_transit":false,"transit":false,"i_long":106.922662,"time":1,"station_name":"Buaran","line":1,"station_id":"BUA"},{"line":1,"transit":false,"distance":3100,"is_transit":false,"time":2,"station_id":"KLD","station_name":"Klender","i_lat":-6.2135,"i_long":106.899548},{"i_lat":-6.215091,"line":1,"i_long":106.86807400000001,"transit":true,"distance":3395,"station_id":"JNG","station_name":"Jatinegara","time":3,"is_transit":true},{"time":2,"transit":false,"station_name":"Pondok Jati","line":11,"i_long":106.861737,"is_transit":false,"i_lat":-6.209188,"distance":1236,"station_id":"POK"},{"time":2,"i_long":106.855437,"line":11,"transit":false,"distance":1829,"is_transit":false,"station_id":"KMT","station_name":"Kramat","i_lat":-6.193792},{"time":1,"distance":973,"transit":false,"station_name":"Gang Sentiong","i_lat":-6.185975,"i_long":106.850107,"station_id":"GST","line":11,"is_transit":false},{"time":8,"transit":false,"station_id":"PSE","i_long":106.84368,"station_name":"Pasar Senen","line":11,"is_transit":false,"distance":1567,"i_lat":-6.174784},{"time":4,"station_name":"Kemayoran","i_lat":-6.161728,"station_id":"KMO","is_transit":false,"distance":1436,"i_long":106.839204,"line":11,"transit":false},{"time":5,"transit":false,"station_id":"RJW","i_lat":-6.14505,"distance":1901,"is_transit":false,"line":11,"station_name":"Rajawali","i_long":106.836569},{"is_transit":true,"time":3,"distance":1444,"line":4,"i_long":106.826365,"station_id":"KPB","station_name":"Kampung Bandan","i_lat":-6.132549,"transit":true},{"i_long":106.812439,"transit":true,"station_name":"Jakarta Kota","distance":1364,"is_transit":true,"time":3,"station_id":"JAKK","i_lat":-6.137569,"line":2},{"line":2,"station_name":"Jayakarta","station_id":"JAY","i_lat":-6.141205,"is_transit":false,"time":4,"distance":1264,"i_long":106.820901,"transit":false},{"line":2,"time":2,"transit":false,"distance":1080,"station_id":"MGB","i_long":106.82482,"station_name":"Manggabesar","i_lat":-6.149769,"is_transit":false},{"is_transit":false,"transit":false,"distance":906,"station_name":"Sawah Besar","i_long":106.827103,"i_lat":-6.160725,"line":2,"time":2,"station_id":"SW"},{"i_long":106.828284,"time":2,"station_name":"Juanda","distance":1149,"is_transit":false,"transit":false,"i_lat":-6.166716,"station_id":"JUA","line":2},{"transit":false,"line":2,"station_id":"GDD","time":4,"i_lat":-6.186295,"distance":2015,"is_transit":false,"i_long":106.832183,"station_name":"Gondangdia"},{"distance":1750,"station_id":"CKI","i_long":106.840169,"station_name":"Cikini","is_transit":false,"line":2,"i_lat":-6.198556,"transit":false,"time":3},{"i_long":106.84912,"transit":false,"is_transit":false,"distance":1590,"line":2,"station_name":"Manggarai","time":4,"station_id":"MRI","i_lat":-6.209883},{"time":4,"line":2,"i_lat":-6.226659,"station_id":"TEB","distance":2610,"transit":false,"station_name":"Tebet","is_transit":false,"i_long":106.857948},{"line":2,"station_name":"Cawang","i_long":106.856607,"is_transit":false,"time":2,"station_id":"CW","transit":false,"distance":1230,"i_lat":-6.242512}]]}