{"data":[[{"station_id":"BOI","time":0,"station_name":"Bojongindah","i_lat":-6.159876,"transit":false,"line":5,"is_transit":false,"distance":0,"i_long":106.737035},{"station_id":"TKO","time":2,"i_lat":-6.1587309999999995,"is_transit":false,"transit":false,"i_long":106.756522,"distance":2334,"line":5,"station_name":"Taman Kota"},{"transit":false,"station_name":"Pesing","is_transit":false,"distance":1614,"time":2,"i_lat":-6.161433,"i_long":106.771379,"station_id":"PSG","line":5},{"station_id":"GGL","distance":2036,"i_long":106.788277,"station_name":"Grogol","i_lat":-6.162021,"is_transit":false,"time":2,"transit":false,"line":5},{"i_long":106.800832,"distance":1700,"is_transit":true,"time":3,"line":1,"station_name":"Duri","station_id":"DU","transit":true,"i_lat":-6.155215},{"distance":3632,"transit":false,"time":8,"i_lat":-6.185545,"is_transit":false,"line":1,"i_long":106.811091,"station_id":"THB","station_name":"Tanah Abang"},{"line":1,"is_transit":false,"i_long":106.816351,"i_lat":-6.20132,"time":5,"station_name":"Karet","transit":false,"distance":2029,"station_id":"KAT"},{"i_lat":-6.201433,"i_long":106.819881,"station_id":"SUDB","station_name":"Sudirman Baru","distance":471,"time":1,"is_transit":false,"transit":false,"line":1},{"transit":false,"is_transit":false,"station_id":"SUD","line":1,"i_lat":-6.202263,"i_long":106.822649,"station_name":"Sudirman","time":1,"distance":280},{"line":2,"distance":3186,"i_long":106.84912,"is_transit":false,"transit":false,"station_id":"MRI","station_name":"Manggarai","time":4,"i_lat":-6.209883},{"is_transit":false,"i_long":106.858896,"i_lat":-6.212485,"time":2,"transit":false,"station_name":"Matraman","distance":1275,"station_id":"MTR","line":1},{"is_transit":false,"station_id":"JNG","distance":1377,"i_long":106.86807400000001,"station_name":"Jatinegara","line":1,"i_lat":-6.215091,"transit":false,"time":8}],[{"transit":false,"station_id":"BOI","distance":0,"line":5,"is_transit":false,"station_name":"Bojongindah","time":0,"i_lat":-6.159876,"i_long":106.737035},{"i_long":106.756522,"line":5,"is_transit":false,"i_lat":-6.1587309999999995,"station_name":"Taman Kota","station_id":"TKO","transit":false,"time":2,"distance":2334},{"line":5,"station_name":"Pesing","is_transit":false,"time":2,"distance":1614,"transit":false,"station_id":"PSG","i_lat":-6.161433,"i_long":106.771379},{"transit":false,"distance":2036,"time":2,"station_id":"GGL","station_name":"Grogol","i_lat":-6.162021,"line":5,"i_long":106.788277,"is_transit":false},{"time":3,"station_id":"DU","i_lat":-6.155215,"line":1,"distance":1700,"station_name":"Duri","transit":true,"is_transit":true,"i_long":106.800832},{"i_lat":-6.144674,"transit":false,"is_transit":false,"station_name":"Angke","distance":1230,"station_id":"AK","time":4,"i_long":106.79867,"line":1},{"line":4,"station_name":"Kampung Bandan","transit":true,"station_id":"KPB","time":9,"i_lat":-6.132549,"distance":4102,"is_transit":true,"i_long":106.826365},{"line":11,"time":3,"is_transit":false,"distance":1444,"transit":false,"i_lat":-6.14505,"i_long":106.836569,"station_name":"Rajawali","station_id":"RJW"},{"line":11,"transit":false,"station_id":"KMO","station_name":"Kemayoran","is_transit":false,"i_lat":-6.161728,"time":5,"distance":1901,"i_long":106.839204},{"transit":false,"i_lat":-6.174784,"time":4,"distance":1436,"i_long":106.84368,"is_transit":false,"station_id":"PSE","station_name":"Pasar Senen","line":11},{"time":8,"station_id":"GST","distance":1567,"station_name":"Gang Sentiong","transit":false,"is_transit":false,"i_lat":-6.185975,"i_long":106.850107,"line":11},{"time":1,"distance":973,"i_long":106.855437,"is_transit":false,"station_id":"KMT","station_name":"Kramat","line":11,"transit":false,"i_lat":-6.193792},{"is_transit":false,"i_long":106.861737,"time":2,"station_name":"Pondok Jati","line":11,"distance":1829,"transit":false,"station_id":"POK","i_lat":-6.209188},{"i_lat":-6.215091,"station_name":"Jatinegara","time":9,"is_transit":false,"transit":false,"i_long":106.86807400000001,"line":1,"distance":1236,"station_id":"JNG"}],[{"time":0,"line":5,"station_name":"Bojongindah","i_lat":-6.159876,"is_transit":false,"i_long":106.737035,"distance":0,"station_id":"BOI","transit":false},{"is_transit":false,"transit":false,"station_name":"Taman Kota","i_long":106.756522,"line":5,"distance":2334,"i_lat":-6.1587309999999995,"time":2,"station_id":"TKO"},{"distance":1614,"time":2,"station_id":"PSG","transit":false,"is_transit":false,"i_lat":-6.161433,"station_name":"Pesing","i_long":106.771379,"line":5},{"time":2,"i_lat":-6.162021,"distance":2036,"station_id":"GGL","station_name":"Grogol","i_long":106.788277,"is_transit":false,"transit":false,"line":5},{"i_lat":-6.155215,"line":1,"distance":1700,"transit":true,"is_transit":true,"i_long":106.800832,"station_name":"Duri","station_id":"DU","time":3},{"time":4,"is_transit":false,"i_long":106.79867,"i_lat":-6.144674,"distance":1230,"station_id":"AK","transit":false,"line":1,"station_name":"Angke"},{"i_long":106.826365,"station_id":"KPB","station_name":"Kampung Bandan","is_transit":true,"line":4,"transit":true,"distance":4102,"time":9,"i_lat":-6.132549},{"station_name":"Jakarta Kota","distance":1364,"line":2,"station_id":"JAKK","transit":true,"time":3,"is_transit":true,"i_long":106.812439,"i_lat":-6.137569},{"distance":1264,"line":2,"is_transit":false,"i_lat":-6.141205,"station_name":"Jayakarta","time":4,"i_long":106.820901,"station_id":"JAY","transit":false},{"station_name":"Manggabesar","is_transit":false,"station_id":"MGB","time":2,"i_lat":-6.149769,"transit":false,"line":2,"distance":1080,"i_long":106.82482},{"distance":906,"station_id":"SW","station_name":"Sawah Besar","is_transit":false,"transit":false,"time":2,"i_lat":-6.160725,"line":2,"i_long":106.827103},{"line":2,"transit":false,"i_lat":-6.166716,"i_long":106.828284,"distance":1149,"station_name":"Juanda","station_id":"JUA","time":2,"is_transit":false},{"station_name":"Gondangdia","time":4,"transit":false,"i_lat":-6.186295,"distance":2015,"is_transit":false,"station_id":"GDD","line":2,"i_long":106.832183},{"is_transit":false,"time":3,"i_long":106.840169,"line":2,"station_id":"CKI","transit":false,"station_name":"Cikini","distance":1750,"i_lat":-6.198556},{"i_lat":-6.209883,"station_name":"Manggarai","time":4,"transit":true,"line":2,"station_id":"MRI","distance":1590,"i_long":106.84912,"is_transit":true},{"line":1,"station_id":"MTR","time":2,"distance":1275,"is_transit":false,"station_name":"Matraman","transit":false,"i_long":106.858896,"i_lat":-6.212485},{"distance":1377,"is_transit":false,"station_id":"JNG","line":1,"time":8,"i_lat":-6.215091,"station_name":"Jatinegara","i_long":106.86807400000001,"transit":false}],[{"i_long":106.737035,"station_id":"BOI","time":0,"line":5,"is_transit":false,"station_name":"Bojongindah","transit":false,"distance":0,"i_lat":-6.159876},{"time":2,"i_lat":-6.1587309999999995,"transit":false,"distance":2334,"i_long":106.756522,"is_transit":false,"station_name":"Taman Kota","line":5,"station_id":"TKO"},{"distance":1614,"is_transit":false,"i_lat":-6.161433,"transit":false,"line":5,"i_long":106.771379,"station_id":"PSG","station_name":"Pesing","time":2},{"i_lat":-6.162021,"transit":false,"time":2,"line":5,"station_name":"Grogol","distance":2036,"station_id":"GGL","is_transit":false,"i_long":106.788277},{"station_name":"Duri","time":3,"station_id":"DU","i_lat":-6.155215,"i_long":106.800832,"distance":1700,"line":1,"transit":true,"is_transit":true},{"line":1,"station_id":"THB","station_name":"Tanah Abang","i_long":106.811091,"distance":3632,"time":8,"is_transit":false,"i_lat":-6.185545,"transit":false},{"station_name":"Karet","time":5,"i_long":106.816351,"is_transit":false,"line":1,"distance":2029,"station_id":"KAT","transit":false,"i_lat":-6.20132},{"time":1,"station_name":"Sudirman Baru","distance":471,"i_long":106.819881,"station_id":"SUDB","is_transit":false,"line":1,"i_lat":-6.201433,"transit":false},{"distance":280,"time":1,"is_transit":false,"transit":false,"i_long":106.822649,"line":1,"station_name":"Sudirman","station_id":"SUD","i_lat":-6.202263},{"transit":true,"i_long":106.84912,"station_name":"Manggarai","i_lat":-6.209883,"line":2,"time":4,"distance":3186,"station_id":"MRI","is_transit":true},{"station_name":"Cikini","is_transit":false,"station_id":"CKI","time":4,"i_long":106.840169,"transit":false,"distance":1590,"line":2,"i_lat":-6.198556},{"station_name":"Gondangdia","i_lat":-6.186295,"i_long":106.832183,"distance":1750,"station_id":"GDD","time":3,"is_transit":false,"transit":false,"line":2},{"i_long":106.828284,"station_id":"JUA","transit":false,"is_transit":false,"i_lat":-6.166716,"station_name":"Juanda","distance":2015,"line":2,"time":4},{"is_transit":false,"time":2,"i_long":106.827103,"i_lat":-6.160725,"distance":1149,"transit":false,"station_id":"SW","line":2,"station_name":"Sawah Besar"},{"distance":906,"i_long":106.82482,"line":2,"time":2,"transit":false,"station_name":"Manggabesar","i_lat":-6.149769,"is_transit":false,"station_id":"MGB"},{"line":2,"is_transit":false,"distance":1080,"i_long":106.820901,"station_id":"JAY","station_name":"Jayakarta","transit":false,"i_lat":-6.141205,"time":2},{"time":4,"i_long":106.812439,"line":2,"transit":true,"is_transit":true,"station_name":"Jakarta Kota","station_id":"JAKK","distance":1264,"i_lat":-6.137569},{"transit":true,"i_long":106.826365,"line":4,"distance":1364,"is_transit":true,"station_id":"KPB","i_lat":-6.132549,"time":3,"station_name":"Kampung Bandan"},{"i_long":106.836569,"station_id":"RJW","time":3,"distance":1444,"i_lat":-6.14505,"is_transit":false,"station_name":"Rajawali","transit":false,"line":11},{"station_name":"Kemayoran","is_transit":false,"transit":false,"i_long":106.839204,"distance":1901,"station_id":"KMO","time":5,"i_lat":-6.161728,"line":11},{"station_id":"PSE","time":4,"i_lat":-6.174784,"station_name":"Pasar Senen","line":11,"transit":false,"distance":1436,"is_transit":false,"i_long":106.84368},{"distance":1567,"i_lat":-6.185975,"line":11,"time":8,"transit":false,"station_id":"GST","i_long":106.850107,"is_transit":false,"station_name":"Gang Sentiong"},{"station_name":"Kramat","time":1,"line":11,"station_id":"KMT","i_lat":-6.193792,"transit":false,"is_transit":false,"i_long":106.855437,"distance":973},{"distance":1829,"station_name":"Pondok Jati","time":2,"line":11,"i_lat":-6.209188,"station_id":"POK","is_transit":false,"i_long":106.861737,"transit":false},{"i_long":106.86807400000001,"station_name":"Jatinegara","time":9,"i_lat":-6.215091,"station_id":"JNG","is_transit":false,"transit":false,"line":1,"distance":1236}]]}