{"data":[[{"i_lat":-6.159876,"line":0,"station_name":"Bojongindah","transit":false,"i_long":106.737035,"distance":0,"is_transit":false,"time":0,"station_id":"BOI"},{"transit":false,"time":2,"is_transit":false,"distance":2334,"station_id":"TKO","line":5,"i_long":106.756522,"station_name":"Taman Kota","i_lat":-6.1587309999999995},{"transit":false,"distance":1614,"i_lat":-6.161433,"i_long":106.771379,"time":2,"station_name":"Pesing","station_id":"PSG","is_transit":false,"line":5},{"station_name":"Grogol","is_transit":false,"time":2,"distance":2036,"transit":false,"station_id":"GGL","i_lat":-6.162021,"line":5,"i_long":106.788277},{"station_id":"DU","i_lat":-6.155215,"i_long":106.800832,"transit":true,"is_transit":true,"distance":1700,"time":3,"station_name":"Duri","line":1},{"is_transit":false,"time":4,"i_long":106.79867,"station_id":"AK","transit":false,"i_lat":-6.144674,"line":0,"station_name":"Angke","distance":1230},{"station_id":"KPB","transit":false,"i_long":106.826365,"time":9,"distance":4102,"i_lat":-6.132549,"is_transit":true,"station_name":"Kampung Bandan","line":0},{"i_long":106.812439,"i_lat":-6.137569,"transit":true,"time":3,"station_name":"Jakarta Kota","station_id":"JAKK","is_transit":true,"distance":1364,"line":0},{"is_transit":false,"station_name":"Jayakarta","station_id":"JAY","distance":1264,"i_long":106.820901,"transit":false,"time":4,"line":7,"i_lat":-6.141205},{"station_name":"Manggabesar","line":2,"time":2,"i_lat":-6.149769,"distance":1080,"i_long":106.82482,"station_id":"MGB","transit":false,"is_transit":false},{"is_transit":false,"time":2,"i_long":106.827103,"transit":false,"line":2,"station_id":"SW","distance":906,"i_lat":-6.160725,"station_name":"Sawah Besar"}],[{"station_name":"Bojongindah","i_long":106.737035,"station_id":"BOI","is_transit":false,"transit":false,"time":0,"line":0,"distance":0,"i_lat":-6.159876},{"transit":false,"line":5,"station_id":"TKO","is_transit":false,"i_long":106.756522,"distance":2334,"i_lat":-6.1587309999999995,"station_name":"Taman Kota","time":2},{"distance":1614,"i_lat":-6.161433,"is_transit":false,"transit":false,"line":5,"station_id":"PSG","station_name":"Pesing","i_long":106.771379,"time":2},{"distance":2036,"i_lat":-6.162021,"i_long":106.788277,"is_transit":false,"time":2,"line":5,"station_name":"Grogol","transit":false,"station_id":"GGL"},{"transit":true,"i_long":106.800832,"station_id":"DU","distance":1700,"station_name":"Duri","line":1,"time":3,"is_transit":true,"i_lat":-6.155215},{"i_lat":-6.185545,"transit":false,"distance":3632,"i_long":106.811091,"station_name":"Tanah Abang","is_transit":true,"line":1,"station_id":"THB","time":8},{"i_lat":-6.20132,"i_long":106.816351,"transit":false,"station_name":"Karet","station_id":"KAT","line":1,"is_transit":false,"time":5,"distance":2029},{"station_name":"Sudirman Baru","is_transit":false,"line":1,"i_lat":-6.201433,"distance":471,"time":1,"station_id":"SUDB","transit":false,"i_long":106.819881},{"station_id":"SUD","i_lat":-6.202263,"line":1,"time":1,"distance":280,"i_long":106.822649,"transit":false,"is_transit":false,"station_name":"Sudirman"},{"is_transit":true,"time":4,"distance":3186,"station_name":"Manggarai","i_long":106.84912,"line":0,"i_lat":-6.209883,"station_id":"MRI","transit":true},{"time":4,"line":0,"i_lat":-6.198556,"i_long":106.840169,"distance":1590,"station_id":"CKI","station_name":"Cikini","transit":false,"is_transit":false},{"i_long":106.832183,"distance":1750,"time":3,"transit":false,"line":2,"is_transit":false,"station_name":"Gondangdia","station_id":"GDD","i_lat":-6.186295},{"i_long":106.828284,"is_transit":false,"station_name":"Juanda","transit":false,"i_lat":-6.166716,"line":2,"distance":2015,"station_id":"JUA","time":4},{"i_lat":-6.160725,"line":2,"i_long":106.827103,"is_transit":false,"station_id":"SW","station_name":"Sawah Besar","time":2,"distance":1149,"transit":false}],[{"i_long":106.737035,"is_transit":false,"station_id":"BOI","station_name":"Bojongindah","transit":false,"distance":0,"line":0,"time":0,"i_lat":-6.159876},{"i_lat":-6.1587309999999995,"distance":2334,"is_transit":false,"transit":false,"station_name":"Taman Kota","i_long":106.756522,"station_id":"TKO","line":5,"time":2},{"time":2,"i_lat":-6.161433,"station_id":"PSG","is_transit":false,"station_name":"Pesing","i_long":106.771379,"line":5,"transit":false,"distance":1614},{"i_lat":-6.162021,"distance":2036,"is_transit":false,"station_id":"GGL","time":2,"transit":false,"line":5,"i_long":106.788277,"station_name":"Grogol"},{"station_id":"DU","i_lat":-6.155215,"time":3,"i_long":106.800832,"line":1,"distance":1700,"station_name":"Duri","is_transit":true,"transit":true},{"time":4,"station_id":"AK","transit":false,"station_name":"Angke","i_lat":-6.144674,"i_long":106.79867,"line":0,"distance":1230,"is_transit":false},{"i_lat":-6.132549,"is_transit":true,"station_id":"KPB","station_name":"Kampung Bandan","transit":true,"line":0,"time":9,"distance":4102,"i_long":106.826365},{"station_name":"Rajawali","transit":false,"distance":1444,"line":11,"i_lat":-6.14505,"is_transit":false,"time":3,"i_long":106.836569,"station_id":"RJW"},{"is_transit":false,"line":11,"distance":1901,"i_long":106.839204,"station_id":"KMO","time":5,"station_name":"Kemayoran","i_lat":-6.161728,"transit":false},{"station_name":"Pasar Senen","distance":1436,"i_long":106.84368,"i_lat":-6.174784,"station_id":"PSE","time":4,"transit":false,"line":11,"is_transit":false},{"distance":1567,"time":8,"i_lat":-6.185975,"i_long":106.850107,"is_transit":false,"transit":false,"line":11,"station_id":"GST","station_name":"Gang Sentiong"},{"line":11,"i_long":106.855437,"distance":973,"time":1,"station_id":"KMT","i_lat":-6.193792,"is_transit":false,"station_name":"Kramat","transit":false},{"transit":false,"i_lat":-6.209188,"station_name":"Pondok Jati","distance":1829,"station_id":"POK","is_transit":false,"line":11,"i_long":106.861737,"time":2},{"station_name":"Jatinegara","line":0,"is_transit":true,"i_long":106.86807400000001,"station_id":"JNG","time":9,"distance":1236,"transit":true,"i_lat":-6.215091},{"i_long":106.858896,"is_transit":false,"line":1,"i_lat":-6.212485,"station_name":"Matraman","distance":1377,"time":2,"station_id":"MTR","transit":false},{"station_id":"MRI","distance":1275,"transit":true,"i_lat":-6.209883,"is_transit":true,"station_name":"Manggarai","time":2,"line":0,"i_long":106.84912},{"distance":1590,"transit":false,"station_name":"Cikini","line":0,"i_long":106.840169,"is_transit":false,"station_id":"CKI","i_lat":-6.198556,"time":4},{"line":2,"i_long":106.832183,"distance":1750,"transit":false,"station_id":"GDD","time":3,"is_transit":false,"i_lat":-6.186295,"station_name":"Gondangdia"},{"is_transit":false,"time":4,"i_long":106.828284,"line":2,"station_name":"Juanda","station_id":"JUA","transit":false,"distance":2015,"i_lat":-6.166716},{"i_long":106.827103,"distance":1149,"is_transit":false,"time":2,"transit":false,"line":2,"station_name":"Sawah Besar","i_lat":-6.160725,"station_id":"SW"}],[{"line":0,"transit":false,"is_transit":false,"distance":0,"i_lat":-6.159876,"i_long":106.737035,"time":0,"station_id":"BOI","station_name":"Bojongindah"},{"is_transit":false,"time":2,"distance":2334,"i_lat":-6.1587309999999995,"line":5,"i_long":106.756522,"station_id":"TKO","station_name":"Taman Kota","transit":false},{"line":5,"i_long":106.771379,"station_id":"PSG","is_transit":false,"time":2,"distance":1614,"transit":false,"station_name":"Pesing","i_lat":-6.161433},{"transit":false,"station_id":"GGL","distance":2036,"time":2,"i_lat":-6.162021,"is_transit":false,"station_name":"Grogol","i_long":106.788277,"line":5},{"line":1,"transit":true,"i_long":106.800832,"i_lat":-6.155215,"station_id":"DU","time":3,"distance":1700,"station_name":"Duri","is_transit":true},{"station_id":"THB","distance":3632,"time":8,"i_long":106.811091,"is_transit":true,"i_lat":-6.185545,"station_name":"Tanah Abang","line":1,"transit":false},{"i_long":106.816351,"transit":false,"distance":2029,"i_lat":-6.20132,"station_name":"Karet","line":1,"is_transit":false,"station_id":"KAT","time":5},{"time":1,"distance":471,"i_lat":-6.201433,"transit":false,"i_long":106.819881,"line":1,"station_id":"SUDB","is_transit":false,"station_name":"Sudirman Baru"},{"i_lat":-6.202263,"is_transit":false,"transit":false,"station_id":"SUD","time":1,"distance":280,"station_name":"Sudirman","i_long":106.822649,"line":1},{"is_transit":true,"transit":false,"time":4,"i_lat":-6.209883,"station_id":"MRI","distance":3186,"i_long":106.84912,"station_name":"Manggarai","line":0},{"station_name":"Matraman","line":1,"time":2,"transit":false,"distance":1275,"i_lat":-6.212485,"is_transit":false,"i_long":106.858896,"station_id":"MTR"},{"is_transit":true,"distance":1377,"i_long":106.86807400000001,"transit":true,"i_lat":-6.215091,"line":0,"station_id":"JNG","station_name":"Jatinegara","time":8},{"line":11,"station_id":"POK","station_name":"Pondok Jati","time":2,"i_long":106.861737,"transit":false,"i_lat":-6.209188,"is_transit":false,"distance":1236},{"time":2,"station_id":"KMT","i_long":106.855437,"station_name":"Kramat","i_lat":-6.193792,"line":11,"transit":false,"distance":1829,"is_transit":false},{"station_name":"Gang Sentiong","time":1,"distance":973,"is_transit":false,"i_lat":-6.185975,"i_long":106.850107,"line":11,"transit":false,"station_id":"GST"},{"is_transit":false,"time":8,"i_lat":-6.174784,"station_name":"Pasar Senen","distance":1567,"i_long":106.84368,"line":11,"transit":false,"station_id":"PSE"},{"i_lat":-6.161728,"i_long":106.839204,"station_id":"KMO","station_name":"Kemayoran","time":4,"line":11,"distance":1436,"transit":false,"is_transit":false},{"line":11,"distance":1901,"station_id":"RJW","is_transit":false,"station_name":"Rajawali","transit":false,"i_lat":-6.14505,"time":5,"i_long":106.836569},{"time":3,"station_name":"Kampung Bandan","is_transit":true,"transit":true,"i_long":106.826365,"distance":1444,"station_id":"KPB","i_lat":-6.132549,"line":0},{"transit":true,"line":0,"station_name":"Jakarta Kota","station_id":"JAKK","i_long":106.812439,"time":3,"distance":1364,"i_lat":-6.137569,"is_transit":true},{"distance":1264,"station_name":"Jayakarta","time":4,"transit":false,"station_id":"JAY","i_lat":-6.141205,"i_long":106.820901,"is_transit":false,"line":7},{"transit":false,"line":2,"station_id":"MGB","is_transit":false,"i_long":106.82482,"distance":1080,"i_lat":-6.149769,"time":2,"station_name":"Manggabesar"},{"time":2,"is_transit":false,"transit":false,"i_lat":-6.160725,"line":2,"station_name":"Sawah Besar","distance":906,"station_id":"SW","i_long":106.827103}]]}