{"data":[[{"is_transit":false,"time":0,"i_lat":-6.159876,"distance":0,"i_long":106.737035,"station_name":"Bojongindah","station_id":"BOI","transit":false,"line":5},{"distance":2334,"line":5,"i_lat":-6.1587309999999995,"station_name":"Taman Kota","station_id":"TKO","transit":false,"i_long":106.756522,"is_transit":false,"time":2},{"is_transit":false,"line":5,"distance":1614,"station_id":"PSG","station_name":"Pesing","transit":false,"i_long":106.771379,"time":2,"i_lat":-6.161433},{"i_long":106.788277,"station_name":"Grogol","is_transit":false,"i_lat":-6.162021,"line":5,"station_id":"GGL","time":2,"transit":false,"distance":2036},{"distance":1700,"is_transit":true,"time":3,"station_name":"Duri","i_long":106.800832,"transit":true,"i_lat":-6.155215,"line":1,"station_id":"DU"},{"i_lat":-6.185545,"i_long":106.811091,"time":8,"line":1,"station_name":"Tanah Abang","distance":3632,"station_id":"THB","transit":false,"is_transit":false},{"station_id":"KAT","is_transit":false,"transit":false,"line":1,"station_name":"Karet","i_lat":-6.20132,"distance":2029,"time":5,"i_long":106.816351},{"time":1,"station_name":"Sudirman Baru","is_transit":false,"distance":471,"i_long":106.819881,"transit":false,"line":1,"station_id":"SUDB","i_lat":-6.201433},{"station_id":"SUD","time":1,"i_lat":-6.202263,"i_long":106.822649,"distance":280,"line":1,"transit":false,"station_name":"Sudirman","is_transit":false},{"line":2,"station_name":"Manggarai","is_transit":false,"i_long":106.84912,"station_id":"MRI","transit":false,"distance":3186,"i_lat":-6.209883,"time":4},{"i_long":106.858896,"station_name":"Matraman","distance":1275,"is_transit":false,"time":2,"station_id":"MTR","i_lat":-6.212485,"transit":false,"line":1},{"station_name":"Jatinegara","time":8,"distance":1377,"line":1,"station_id":"JNG","i_long":106.86807400000001,"transit":false,"is_transit":false,"i_lat":-6.215091},{"transit":false,"time":3,"distance":3395,"i_lat":-6.2135,"line":1,"station_id":"KLD","station_name":"Klender","is_transit":false,"i_long":106.899548},{"station_name":"Buaran","is_transit":false,"distance":3100,"i_lat":-6.215568,"i_long":106.922662,"time":2,"station_id":"BUA","transit":false,"line":1},{"distance":1305,"i_lat":-6.217455,"station_name":"Klenderbaru","transit":false,"is_transit":false,"i_long":106.939679,"line":1,"time":1,"station_id":"KLDB"},{"station_id":"CUK","time":8,"i_long":106.951283,"transit":false,"is_transit":false,"i_lat":-6.219053,"line":1,"distance":1385,"station_name":"Cakung"},{"line":1,"station_id":"KRI","distance":3097,"i_lat":-6.224515,"i_long":106.977657,"is_transit":false,"transit":false,"time":3,"station_name":"Kranji"},{"i_long":106.997013,"time":4,"distance":2520,"station_name":"Bekasi","is_transit":false,"station_id":"BKS","i_lat":-6.236616,"transit":false,"line":1},{"time":2,"station_id":"BKST","station_name":"Bekasi Timur","distance":2368,"is_transit":false,"transit":false,"i_lat":-6.248029,"i_long":107.016735,"line":1},{"i_lat":-6.258864,"i_long":107.055722,"distance":4460,"station_id":"TB","station_name":"Tambun","is_transit":false,"time":7,"transit":false,"line":1},{"station_name":"Cibitung","station_id":"CIT","i_long":107.083084,"is_transit":false,"transit":false,"i_lat":-6.261877,"line":1,"time":3,"distance":3420},{"time":2,"station_id":"TLM","i_long":107.093313,"transit":false,"is_transit":false,"station_name":"Metland Telaga Murni","distance":2800,"i_lat":-6.262938,"line":1},{"is_transit":false,"station_id":"CKR","i_lat":-6.2553149999999995,"time":4,"station_name":"Cikarang","distance":3689,"transit":false,"i_long":107.144613,"line":1}],[{"time":0,"station_name":"Bojongindah","i_lat":-6.159876,"line":5,"distance":0,"i_long":106.737035,"station_id":"BOI","transit":false,"is_transit":false},{"time":2,"transit":false,"i_lat":-6.1587309999999995,"i_long":106.756522,"line":5,"is_transit":false,"distance":2334,"station_id":"TKO","station_name":"Taman Kota"},{"transit":false,"i_lat":-6.161433,"is_transit":false,"i_long":106.771379,"distance":1614,"station_id":"PSG","station_name":"Pesing","line":5,"time":2},{"station_name":"Grogol","i_lat":-6.162021,"distance":2036,"transit":false,"is_transit":false,"line":5,"i_long":106.788277,"station_id":"GGL","time":2},{"i_long":106.800832,"station_id":"DU","station_name":"Duri","distance":1700,"i_lat":-6.155215,"transit":true,"time":3,"is_transit":true,"line":1},{"station_name":"Angke","is_transit":false,"distance":1230,"i_long":106.79867,"line":1,"transit":false,"i_lat":-6.144674,"station_id":"AK","time":4},{"station_id":"KPB","time":9,"station_name":"Kampung Bandan","i_lat":-6.132549,"i_long":106.826365,"line":4,"is_transit":true,"distance":4102,"transit":true},{"time":3,"station_name":"Rajawali","i_long":106.836569,"line":11,"transit":false,"is_transit":false,"distance":1444,"station_id":"RJW","i_lat":-6.14505},{"line":11,"distance":1901,"is_transit":false,"station_id":"KMO","station_name":"Kemayoran","i_long":106.839204,"time":5,"transit":false,"i_lat":-6.161728},{"distance":1436,"station_id":"PSE","time":4,"i_lat":-6.174784,"i_long":106.84368,"station_name":"Pasar Senen","is_transit":false,"transit":false,"line":11},{"i_lat":-6.185975,"station_name":"Gang Sentiong","i_long":106.850107,"transit":false,"station_id":"GST","time":8,"line":11,"distance":1567,"is_transit":false},{"is_transit":false,"transit":false,"i_long":106.855437,"station_name":"Kramat","distance":973,"i_lat":-6.193792,"time":1,"line":11,"station_id":"KMT"},{"transit":false,"station_name":"Pondok Jati","station_id":"POK","line":11,"i_lat":-6.209188,"i_long":106.861737,"distance":1829,"is_transit":false,"time":2},{"time":9,"distance":1236,"i_long":106.86807400000001,"station_id":"JNG","transit":true,"i_lat":-6.215091,"line":1,"is_transit":true,"station_name":"Jatinegara"},{"station_id":"KLD","distance":3395,"station_name":"Klender","i_lat":-6.2135,"i_long":106.899548,"line":1,"transit":false,"is_transit":false,"time":3},{"is_transit":false,"station_name":"Buaran","i_long":106.922662,"distance":3100,"i_lat":-6.215568,"transit":false,"station_id":"BUA","time":2,"line":1},{"i_lat":-6.217455,"i_long":106.939679,"line":1,"station_name":"Klenderbaru","time":1,"distance":1305,"is_transit":false,"transit":false,"station_id":"KLDB"},{"time":8,"is_transit":false,"i_lat":-6.219053,"line":1,"station_id":"CUK","transit":false,"station_name":"Cakung","distance":1385,"i_long":106.951283},{"i_long":106.977657,"time":3,"is_transit":false,"i_lat":-6.224515,"transit":false,"line":1,"station_name":"Kranji","distance":3097,"station_id":"KRI"},{"i_lat":-6.236616,"is_transit":false,"station_name":"Bekasi","station_id":"BKS","transit":false,"distance":2520,"i_long":106.997013,"line":1,"time":4},{"i_lat":-6.248029,"is_transit":false,"distance":2368,"time":2,"line":1,"station_id":"BKST","i_long":107.016735,"transit":false,"station_name":"Bekasi Timur"},{"line":1,"time":7,"distance":4460,"station_name":"Tambun","is_transit":false,"transit":false,"i_lat":-6.258864,"station_id":"TB","i_long":107.055722},{"time":3,"transit":false,"distance":3420,"line":1,"is_transit":false,"i_lat":-6.261877,"i_long":107.083084,"station_id":"CIT","station_name":"Cibitung"},{"is_transit":false,"i_lat":-6.262938,"transit":false,"station_name":"Metland Telaga Murni","distance":2800,"time":2,"i_long":107.093313,"station_id":"TLM","line":1},{"station_name":"Cikarang","time":4,"i_long":107.144613,"line":1,"transit":false,"station_id":"CKR","is_transit":false,"distance":3689,"i_lat":-6.2553149999999995}],[{"station_name":"Bojongindah","time":0,"transit":false,"i_lat":-6.159876,"station_id":"BOI","distance":0,"line":5,"i_long":106.737035,"is_transit":false},{"transit":false,"distance":2334,"i_lat":-6.1587309999999995,"i_long":106.756522,"time":2,"station_id":"TKO","line":5,"station_name":"Taman Kota","is_transit":false},{"station_name":"Pesing","is_transit":false,"distance":1614,"transit":false,"i_long":106.771379,"line":5,"station_id":"PSG","i_lat":-6.161433,"time":2},{"station_name":"Grogol","station_id":"GGL","time":2,"distance":2036,"i_long":106.788277,"is_transit":false,"i_lat":-6.162021,"transit":false,"line":5},{"i_lat":-6.155215,"station_id":"DU","time":3,"i_long":106.800832,"is_transit":true,"station_name":"Duri","transit":true,"line":1,"distance":1700},{"station_name":"Angke","line":1,"station_id":"AK","i_lat":-6.144674,"transit":false,"i_long":106.79867,"time":4,"is_transit":false,"distance":1230},{"station_name":"Kampung Bandan","i_lat":-6.132549,"transit":true,"is_transit":true,"distance":4102,"time":9,"i_long":106.826365,"line":4,"station_id":"KPB"},{"station_name":"Jakarta Kota","transit":true,"distance":1364,"is_transit":true,"time":3,"line":2,"i_lat":-6.137569,"station_id":"JAKK","i_long":106.812439},{"is_transit":false,"i_long":106.820901,"line":2,"station_id":"JAY","distance":1264,"time":4,"transit":false,"i_lat":-6.141205,"station_name":"Jayakarta"},{"is_transit":false,"line":2,"i_lat":-6.149769,"distance":1080,"i_long":106.82482,"station_id":"MGB","station_name":"Manggabesar","time":2,"transit":false},{"station_id":"SW","is_transit":false,"distance":906,"i_long":106.827103,"time":2,"station_name":"Sawah Besar","transit":false,"line":2,"i_lat":-6.160725},{"station_name":"Juanda","i_long":106.828284,"line":2,"is_transit":false,"distance":1149,"transit":false,"station_id":"JUA","i_lat":-6.166716,"time":2},{"i_long":106.832183,"line":2,"station_id":"GDD","station_name":"Gondangdia","time":4,"i_lat":-6.186295,"is_transit":false,"transit":false,"distance":2015},{"distance":1750,"station_id":"CKI","station_name":"Cikini","time":3,"line":2,"is_transit":false,"i_lat":-6.198556,"transit":false,"i_long":106.840169},{"station_id":"MRI","time":4,"is_transit":true,"i_lat":-6.209883,"i_long":106.84912,"distance":1590,"transit":true,"station_name":"Manggarai","line":2},{"line":1,"is_transit":false,"distance":1275,"i_lat":-6.212485,"transit":false,"station_id":"MTR","station_name":"Matraman","time":2,"i_long":106.858896},{"station_name":"Jatinegara","station_id":"JNG","time":8,"i_lat":-6.215091,"transit":false,"i_long":106.86807400000001,"distance":1377,"line":1,"is_transit":false},{"i_lat":-6.2135,"is_transit":false,"transit":false,"time":3,"distance":3395,"station_name":"Klender","i_long":106.899548,"line":1,"station_id":"KLD"},{"i_lat":-6.215568,"station_name":"Buaran","distance":3100,"is_transit":false,"line":1,"i_long":106.922662,"station_id":"BUA","time":2,"transit":false},{"line":1,"station_id":"KLDB","time":1,"is_transit":false,"transit":false,"i_long":106.939679,"i_lat":-6.217455,"station_name":"Klenderbaru","distance":1305},{"line":1,"time":8,"distance":1385,"i_lat":-6.219053,"is_transit":false,"transit":false,"station_id":"CUK","i_long":106.951283,"station_name":"Cakung"},{"distance":3097,"station_id":"KRI","station_name":"Kranji","i_long":106.977657,"line":1,"time":3,"transit":false,"i_lat":-6.224515,"is_transit":false},{"transit":false,"station_id":"BKS","i_lat":-6.236616,"is_transit":false,"time":4,"station_name":"Bekasi","i_long":106.997013,"line":1,"distance":2520},{"i_long":107.016735,"station_name":"Bekasi Timur","line":1,"station_id":"BKST","is_transit":false,"distance":2368,"transit":false,"time":2,"i_lat":-6.248029},{"line":1,"distance":4460,"time":7,"i_long":107.055722,"is_transit":false,"station_id":"TB","station_name":"Tambun","transit":false,"i_lat":-6.258864},{"station_name":"Cibitung","time":3,"transit":false,"is_transit":false,"station_id":"CIT","distance":3420,"i_lat":-6.261877,"line":1,"i_long":107.083084},{"is_transit":false,"i_lat":-6.262938,"transit":false,"line":1,"station_id":"TLM","station_name":"Metland Telaga Murni","time":2,"i_long":107.093313,"distance":2800},{"line":1,"transit":false,"i_lat":-6.2553149999999995,"station_name":"Cikarang","is_transit":false,"time":4,"distance":3689,"i_long":107.144613,"station_id":"CKR"}],[{"station_id":"BOI","line":5,"is_transit":false,"transit":false,"time":0,"distance":0,"station_name":"Bojongindah","i_long":106.737035,"i_lat":-6.159876},{"i_long":106.756522,"i_lat":-6.1587309999999995,"is_transit":false,"time":2,"transit":false,"distance":2334,"line":5,"station_id":"TKO","station_name":"Taman Kota"},{"line":5,"transit":false,"i_lat":-6.161433,"time":2,"i_long":106.771379,"distance":1614,"station_name":"Pesing","station_id":"PSG","is_transit":false},{"station_name":"Grogol","line":5,"i_lat":-6.162021,"distance":2036,"i_long":106.788277,"is_transit":false,"time":2,"transit":false,"station_id":"GGL"},{"transit":true,"is_transit":true,"line":1,"station_id":"DU","i_lat":-6.155215,"i_long":106.800832,"distance":1700,"time":3,"station_name":"Duri"},{"i_long":106.811091,"transit":false,"time":8,"distance":3632,"station_name":"Tanah Abang","i_lat":-6.185545,"station_id":"THB","is_transit":false,"line":1},{"station_id":"KAT","time":5,"transit":false,"distance":2029,"i_lat":-6.20132,"station_name":"Karet","i_long":106.816351,"is_transit":false,"line":1},{"station_name":"Sudirman Baru","transit":false,"line":1,"station_id":"SUDB","time":1,"is_transit":false,"i_lat":-6.201433,"i_long":106.819881,"distance":471},{"distance":280,"line":1,"i_long":106.822649,"is_transit":false,"station_id":"SUD","time":1,"transit":false,"i_lat":-6.202263,"station_name":"Sudirman"},{"station_name":"Manggarai","i_lat":-6.209883,"station_id":"MRI","is_transit":true,"time":4,"i_long":106.84912,"line":2,"transit":true,"distance":3186},{"transit":false,"i_long":106.840169,"line":2,"station_name":"Cikini","distance":1590,"time":4,"station_id":"CKI","is_transit":false,"i_lat":-6.198556},{"transit":false,"distance":1750,"i_lat":-6.186295,"i_long":106.832183,"line":2,"time":3,"station_name":"Gondangdia","is_transit":false,"station_id":"GDD"},{"station_name":"Juanda","i_long":106.828284,"time":4,"transit":false,"station_id":"JUA","distance":2015,"i_lat":-6.166716,"is_transit":false,"line":2},{"line":2,"station_id":"SW","is_transit":false,"time":2,"station_name":"Sawah Besar","distance":1149,"transit":false,"i_lat":-6.160725,"i_long":106.827103},{"is_transit":false,"line":2,"time":2,"transit":false,"station_name":"Manggabesar","distance":906,"i_lat":-6.149769,"station_id":"MGB","i_long":106.82482},{"transit":false,"i_long":106.820901,"distance":1080,"i_lat":-6.141205,"line":2,"time":2,"station_id":"JAY","station_name":"Jayakarta","is_transit":false},{"station_name":"Jakarta Kota","is_transit":true,"i_lat":-6.137569,"transit":true,"i_long":106.812439,"station_id":"JAKK","distance":1264,"line":2,"time":4},{"distance":1364,"i_long":106.826365,"transit":true,"station_id":"KPB","station_name":"Kampung Bandan","i_lat":-6.132549,"line":4,"time":3,"is_transit":true},{"is_transit":false,"distance":1444,"transit":false,"line":11,"i_long":106.836569,"station_id":"RJW","i_lat":-6.14505,"station_name":"Rajawali","time":3},{"time":5,"distance":1901,"is_transit":false,"i_long":106.839204,"station_name":"Kemayoran","transit":false,"i_lat":-6.161728,"line":11,"station_id":"KMO"},{"time":4,"distance":1436,"line":11,"station_id":"PSE","i_long":106.84368,"station_name":"Pasar Senen","is_transit":false,"i_lat":-6.174784,"transit":false},{"time":8,"is_transit":false,"line":11,"station_name":"Gang Sentiong","distance":1567,"i_lat":-6.185975,"i_long":106.850107,"transit":false,"station_id":"GST"},{"i_long":106.855437,"station_id":"KMT","distance":973,"is_transit":false,"transit":false,"line":11,"station_name":"Kramat","i_lat":-6.193792,"time":1},{"is_transit":false,"i_lat":-6.209188,"station_id":"POK","station_name":"Pondok Jati","i_long":106.861737,"transit":false,"time":2,"distance":1829,"line":11},{"i_long":106.86807400000001,"transit":true,"station_name":"Jatinegara","distance":1236,"time":9,"station_id":"JNG","line":1,"is_transit":true,"i_lat":-6.215091},{"is_transit":false,"distance":3395,"i_lat":-6.2135,"station_id":"KLD","time":3,"line":1,"i_long":106.899548,"station_name":"Klender","transit":false},{"station_name":"Buaran","transit":false,"line":1,"station_id":"BUA","time":2,"i_lat":-6.215568,"distance":3100,"i_long":106.922662,"is_transit":false},{"i_lat":-6.217455,"line":1,"time":1,"station_id":"KLDB","station_name":"Klenderbaru","distance":1305,"transit":false,"i_long":106.939679,"is_transit":false},{"transit":false,"station_name":"Cakung","is_transit":false,"line":1,"station_id":"CUK","distance":1385,"i_long":106.951283,"i_lat":-6.219053,"time":8},{"transit":false,"i_lat":-6.224515,"i_long":106.977657,"line":1,"station_id":"KRI","distance":3097,"is_transit":false,"time":3,"station_name":"Kranji"},{"transit":false,"i_long":106.997013,"station_id":"BKS","is_transit":false,"line":1,"distance":2520,"station_name":"Bekasi","time":4,"i_lat":-6.236616},{"station_name":"Bekasi Timur","distance":2368,"time":2,"i_long":107.016735,"transit":false,"line":1,"is_transit":false,"i_lat":-6.248029,"station_id":"BKST"},{"is_transit":false,"i_long":107.055722,"distance":4460,"station_name":"Tambun","i_lat":-6.258864,"transit":false,"line":1,"station_id":"TB","time":7},{"station_name":"Cibitung","transit":false,"i_lat":-6.261877,"time":3,"i_long":107.083084,"distance":3420,"is_transit":false,"line":1,"station_id":"CIT"},{"station_id":"TLM","i_lat":-6.262938,"transit":false,"i_long":107.093313,"line":1,"station_name":"Metland Telaga Murni","distance":2800,"is_transit":false,"time":2},{"station_name":"Cikarang","is_transit":false,"time":4,"transit":false,"i_long":107.144613,"line":1,"i_lat":-6.2553149999999995,"station_id":"CKR","distance":3689}]]}