{"data":[[{"i_lat":-6.159876,"is_transit":false,"station_id":"BOI","time":0,"transit":false,"station_name":"Bojongindah","i_long":106.737035,"distance":0,"line":0},{"time":2,"distance":2334,"station_name":"Taman Kota","i_lat":-6.1587309999999995,"transit":false,"line":5,"station_id":"TKO","is_transit":false,"i_long":106.756522},{"i_lat":-6.161433,"is_transit":false,"distance":1614,"transit":false,"station_id":"PSG","station_name":"Pesing","i_long":106.771379,"time":2,"line":5},{"i_lat":-6.162021,"time":2,"station_id":"GGL","distance":2036,"transit":false,"i_long":106.788277,"station_name":"Grogol","line":5,"is_transit":false},{"time":3,"station_id":"DU","line":1,"is_transit":true,"i_long":106.800832,"station_name":"Duri","distance":1700,"transit":true,"i_lat":-6.155215},{"distance":3632,"station_name":"Tanah Abang","transit":true,"is_transit":true,"time":8,"i_lat":-6.185545,"line":1,"i_long":106.811091,"station_id":"THB"},{"station_id":"PLM","is_transit":false,"station_name":"Palmerah","i_long":106.79689,"transit":false,"distance":3191,"i_lat":-6.207404,"line":6,"time":6},{"station_id":"KBY","station_name":"Kebayoran","transit":false,"line":6,"i_long":106.780334,"i_lat":-6.237242,"is_transit":false,"time":7,"distance":3737},{"distance":6218,"time":8,"station_id":"PDJ","i_lat":-6.276362,"line":6,"is_transit":false,"transit":false,"i_long":106.74273,"station_name":"Pondokranji"},{"station_name":"Jurangmangu","transit":false,"i_lat":-6.288927,"station_id":"JMU","time":3,"line":6,"distance":2179,"is_transit":false,"i_long":106.728916},{"i_long":106.712277,"distance":1994,"line":6,"time":4,"i_lat":-6.296963,"station_id":"SDM","is_transit":false,"station_name":"Sudimara","transit":false},{"i_lat":-6.314823,"station_name":"Rawa Buntu","line":6,"is_transit":false,"station_id":"RU","i_long":106.675475,"distance":4566,"transit":false,"time":6},{"transit":false,"time":4,"i_long":106.66566,"is_transit":false,"line":6,"station_name":"Serpong","i_lat":-6.319871,"distance":2413,"station_id":"SRP"},{"transit":false,"time":4,"is_transit":false,"line":0,"station_name":"Cisauk","distance":1784,"i_long":106.640411,"station_id":"CSK","i_lat":-6.32484},{"line":0,"transit":false,"is_transit":false,"station_id":"CC","time":4,"i_lat":-6.329547,"i_long":106.617853,"station_name":"Cicayur","distance":2519}],[{"i_lat":-6.159876,"line":0,"i_long":106.737035,"distance":0,"transit":false,"station_name":"Bojongindah","station_id":"BOI","time":0,"is_transit":false},{"i_long":106.756522,"line":5,"station_name":"Taman Kota","station_id":"TKO","distance":2334,"transit":false,"is_transit":false,"i_lat":-6.1587309999999995,"time":2},{"transit":false,"station_name":"Pesing","line":5,"is_transit":false,"station_id":"PSG","time":2,"distance":1614,"i_lat":-6.161433,"i_long":106.771379},{"i_lat":-6.162021,"station_id":"GGL","station_name":"Grogol","i_long":106.788277,"is_transit":false,"time":2,"distance":2036,"line":5,"transit":false},{"is_transit":true,"distance":1700,"i_lat":-6.155215,"time":3,"transit":true,"station_id":"DU","i_long":106.800832,"station_name":"Duri","line":1},{"station_name":"Angke","line":0,"distance":1230,"station_id":"AK","transit":false,"is_transit":false,"time":4,"i_lat":-6.144674,"i_long":106.79867},{"i_lat":-6.132549,"line":0,"station_id":"KPB","time":9,"is_transit":true,"transit":false,"distance":4102,"i_long":106.826365,"station_name":"Kampung Bandan"},{"is_transit":true,"station_id":"JAKK","transit":true,"i_lat":-6.137569,"line":0,"i_long":106.812439,"time":3,"station_name":"Jakarta Kota","distance":1364},{"time":4,"station_id":"JAY","distance":1264,"i_lat":-6.141205,"station_name":"Jayakarta","transit":false,"i_long":106.820901,"is_transit":false,"line":7},{"station_id":"MGB","is_transit":false,"time":2,"distance":1080,"transit":false,"i_lat":-6.149769,"station_name":"Manggabesar","i_long":106.82482,"line":2},{"station_name":"Sawah Besar","line":2,"i_long":106.827103,"station_id":"SW","time":2,"is_transit":false,"distance":906,"i_lat":-6.160725,"transit":false},{"line":2,"transit":false,"i_lat":-6.166716,"station_name":"Juanda","is_transit":false,"i_long":106.828284,"time":2,"station_id":"JUA","distance":1149},{"station_name":"Gondangdia","transit":false,"time":4,"station_id":"GDD","i_lat":-6.186295,"is_transit":false,"distance":2015,"i_long":106.832183,"line":2},{"line":0,"station_id":"CKI","is_transit":false,"i_long":106.840169,"time":3,"distance":1750,"transit":false,"station_name":"Cikini","i_lat":-6.198556},{"line":0,"i_lat":-6.209883,"distance":1590,"i_long":106.84912,"station_name":"Manggarai","time":4,"station_id":"MRI","transit":true,"is_transit":true},{"transit":false,"station_id":"SUD","time":4,"i_lat":-6.202263,"distance":3186,"station_name":"Sudirman","is_transit":false,"i_long":106.822649,"line":1},{"transit":false,"is_transit":false,"i_long":106.819881,"distance":280,"station_name":"Sudirman Baru","time":1,"line":1,"station_id":"SUDB","i_lat":-6.201433},{"is_transit":false,"time":1,"distance":471,"i_long":106.816351,"line":1,"transit":false,"i_lat":-6.20132,"station_name":"Karet","station_id":"KAT"},{"line":1,"transit":true,"station_name":"Tanah Abang","station_id":"THB","is_transit":true,"distance":2029,"i_long":106.811091,"i_lat":-6.185545,"time":5},{"distance":3191,"station_id":"PLM","i_lat":-6.207404,"time":6,"i_long":106.79689,"station_name":"Palmerah","is_transit":false,"transit":false,"line":6},{"station_id":"KBY","time":7,"i_lat":-6.237242,"station_name":"Kebayoran","distance":3737,"transit":false,"is_transit":false,"i_long":106.780334,"line":6},{"is_transit":false,"i_lat":-6.276362,"i_long":106.74273,"transit":false,"station_id":"PDJ","station_name":"Pondokranji","time":8,"distance":6218,"line":6},{"is_transit":false,"transit":false,"i_lat":-6.288927,"distance":2179,"time":3,"station_id":"JMU","station_name":"Jurangmangu","i_long":106.728916,"line":6},{"station_id":"SDM","station_name":"Sudimara","line":6,"distance":1994,"is_transit":false,"i_lat":-6.296963,"i_long":106.712277,"transit":false,"time":4},{"is_transit":false,"station_id":"RU","station_name":"Rawa Buntu","distance":4566,"i_lat":-6.314823,"time":6,"i_long":106.675475,"transit":false,"line":6},{"is_transit":false,"i_long":106.66566,"transit":false,"station_id":"SRP","time":4,"distance":2413,"i_lat":-6.319871,"station_name":"Serpong","line":6},{"is_transit":false,"transit":false,"i_lat":-6.32484,"station_name":"Cisauk","i_long":106.640411,"station_id":"CSK","time":4,"line":0,"distance":1784},{"station_id":"CC","transit":false,"i_long":106.617853,"line":0,"distance":2519,"is_transit":false,"time":4,"i_lat":-6.329547,"station_name":"Cicayur"}],[{"i_long":106.737035,"station_name":"Bojongindah","is_transit":false,"distance":0,"i_lat":-6.159876,"line":0,"time":0,"station_id":"BOI","transit":false},{"station_name":"Taman Kota","is_transit":false,"i_long":106.756522,"station_id":"TKO","transit":false,"line":5,"time":2,"distance":2334,"i_lat":-6.1587309999999995},{"i_long":106.771379,"station_id":"PSG","time":2,"distance":1614,"transit":false,"line":5,"station_name":"Pesing","i_lat":-6.161433,"is_transit":false},{"line":5,"station_id":"GGL","time":2,"station_name":"Grogol","transit":false,"i_lat":-6.162021,"is_transit":false,"distance":2036,"i_long":106.788277},{"distance":1700,"station_name":"Duri","line":1,"is_transit":true,"i_lat":-6.155215,"i_long":106.800832,"time":3,"transit":true,"station_id":"DU"},{"i_long":106.79867,"distance":1230,"transit":false,"station_id":"AK","line":0,"time":4,"station_name":"Angke","i_lat":-6.144674,"is_transit":false},{"i_lat":-6.132549,"distance":4102,"line":0,"is_transit":true,"station_name":"Kampung Bandan","transit":true,"time":9,"station_id":"KPB","i_long":106.826365},{"is_transit":false,"distance":1444,"i_lat":-6.14505,"transit":false,"i_long":106.836569,"line":11,"station_name":"Rajawali","station_id":"RJW","time":3},{"station_name":"Kemayoran","line":11,"station_id":"KMO","time":5,"transit":false,"i_lat":-6.161728,"distance":1901,"i_long":106.839204,"is_transit":false},{"distance":1436,"is_transit":false,"i_lat":-6.174784,"time":4,"station_name":"Pasar Senen","transit":false,"i_long":106.84368,"station_id":"PSE","line":11},{"station_id":"GST","i_long":106.850107,"line":11,"time":8,"transit":false,"i_lat":-6.185975,"is_transit":false,"station_name":"Gang Sentiong","distance":1567},{"time":1,"station_id":"KMT","i_lat":-6.193792,"station_name":"Kramat","is_transit":false,"distance":973,"i_long":106.855437,"transit":false,"line":11},{"distance":1829,"station_id":"POK","i_lat":-6.209188,"station_name":"Pondok Jati","i_long":106.861737,"transit":false,"is_transit":false,"line":11,"time":2},{"time":9,"distance":1236,"i_long":106.86807400000001,"line":0,"station_id":"JNG","transit":true,"is_transit":true,"station_name":"Jatinegara","i_lat":-6.215091},{"i_long":106.858896,"time":2,"station_name":"Matraman","i_lat":-6.212485,"distance":1377,"is_transit":false,"station_id":"MTR","transit":false,"line":1},{"station_name":"Manggarai","i_lat":-6.209883,"line":0,"time":2,"i_long":106.84912,"is_transit":true,"distance":1275,"station_id":"MRI","transit":false},{"i_long":106.822649,"is_transit":false,"transit":false,"station_id":"SUD","i_lat":-6.202263,"line":1,"time":4,"distance":3186,"station_name":"Sudirman"},{"i_lat":-6.201433,"station_id":"SUDB","is_transit":false,"transit":false,"i_long":106.819881,"line":1,"station_name":"Sudirman Baru","distance":280,"time":1},{"i_long":106.816351,"distance":471,"line":1,"is_transit":false,"i_lat":-6.20132,"transit":false,"station_id":"KAT","station_name":"Karet","time":1},{"is_transit":true,"station_name":"Tanah Abang","time":5,"line":1,"i_lat":-6.185545,"distance":2029,"station_id":"THB","transit":true,"i_long":106.811091},{"i_lat":-6.207404,"station_name":"Palmerah","distance":3191,"line":6,"i_long":106.79689,"station_id":"PLM","is_transit":false,"transit":false,"time":6},{"station_name":"Kebayoran","i_long":106.780334,"distance":3737,"i_lat":-6.237242,"line":6,"transit":false,"is_transit":false,"station_id":"KBY","time":7},{"time":8,"station_id":"PDJ","line":6,"is_transit":false,"i_lat":-6.276362,"distance":6218,"transit":false,"i_long":106.74273,"station_name":"Pondokranji"},{"station_id":"JMU","i_lat":-6.288927,"i_long":106.728916,"transit":false,"station_name":"Jurangmangu","time":3,"is_transit":false,"distance":2179,"line":6},{"i_long":106.712277,"is_transit":false,"station_id":"SDM","line":6,"station_name":"Sudimara","distance":1994,"transit":false,"time":4,"i_lat":-6.296963},{"time":6,"is_transit":false,"distance":4566,"station_id":"RU","line":6,"station_name":"Rawa Buntu","i_lat":-6.314823,"transit":false,"i_long":106.675475},{"transit":false,"station_name":"Serpong","i_lat":-6.319871,"i_long":106.66566,"distance":2413,"is_transit":false,"station_id":"SRP","line":6,"time":4},{"station_id":"CSK","is_transit":false,"distance":1784,"transit":false,"line":0,"i_lat":-6.32484,"time":4,"station_name":"Cisauk","i_long":106.640411},{"is_transit":false,"station_name":"Cicayur","transit":false,"time":4,"distance":2519,"i_lat":-6.329547,"station_id":"CC","i_long":106.617853,"line":0}]]}