{"data":[[{"transit":false,"station_id":"BOI","i_lat":-6.159876,"distance":0,"i_long":106.737035,"station_name":"Bojongindah","line":5,"time":0,"is_transit":false},{"line":5,"transit":false,"i_lat":-6.1587309999999995,"station_name":"Taman Kota","is_transit":false,"i_long":106.756522,"station_id":"TKO","time":2,"distance":2334},{"line":5,"station_id":"PSG","distance":1614,"time":2,"station_name":"Pesing","transit":false,"i_lat":-6.161433,"i_long":106.771379,"is_transit":false},{"distance":2036,"i_lat":-6.162021,"station_name":"Grogol","is_transit":false,"station_id":"GRG","i_long":106.788277,"time":2,"line":5,"transit":false},{"distance":1700,"station_name":"Duri","transit":true,"line":1,"i_long":106.800832,"time":3,"is_transit":true,"station_id":"DU","i_lat":-6.155215},{"station_name":"Tanah Abang","line":1,"time":8,"is_transit":true,"transit":true,"i_lat":-6.185545,"station_id":"THB","distance":3632,"i_long":106.811091},{"transit":false,"is_transit":false,"i_lat":-6.207404,"distance":3191,"station_id":"PLM","station_name":"Palmerah","line":6,"i_long":106.79689,"time":6},{"station_name":"Kebayoran","transit":false,"i_lat":-6.237242,"i_long":106.780334,"line":6,"time":7,"is_transit":false,"distance":3737,"station_id":"KBY"},{"time":8,"station_id":"PDJ","i_long":106.74273,"i_lat":-6.276362,"station_name":"Pondokranji","transit":false,"is_transit":false,"line":6,"distance":6218},{"line":6,"distance":2179,"station_name":"Jurangmangu","time":3,"station_id":"JMU","transit":false,"i_lat":-6.288927,"is_transit":false,"i_long":106.728916},{"distance":1994,"station_name":"Sudimara","i_long":106.712277,"transit":false,"time":4,"i_lat":-6.296963,"line":6,"station_id":"SDM","is_transit":false},{"line":6,"distance":4566,"station_name":"Rawa Buntu","i_long":106.675475,"station_id":"RU","is_transit":false,"i_lat":-6.314823,"time":6,"transit":false},{"distance":2413,"i_lat":-6.319871,"line":6,"station_name":"Serpong","station_id":"SRP","time":4,"transit":false,"i_long":106.66566,"is_transit":false},{"is_transit":false,"i_long":106.640411,"time":4,"station_name":"Cisauk","i_lat":-6.32484,"line":3,"transit":false,"distance":1784,"station_id":"CSK"},{"distance":2519,"is_transit":false,"line":3,"transit":false,"i_long":106.617853,"station_name":"Cicayur","station_id":"CC","time":4,"i_lat":-6.329547},{"is_transit":false,"i_lat":-6.3441410000000005,"i_long":106.568863,"station_id":"PRP","time":8,"distance":5968,"station_name":"Parung Panjang","transit":false,"line":6}],[{"time":0,"is_transit":false,"distance":0,"transit":false,"i_long":106.737035,"line":5,"station_id":"BOI","station_name":"Bojongindah","i_lat":-6.159876},{"station_id":"TKO","is_transit":false,"i_lat":-6.1587309999999995,"station_name":"Taman Kota","time":2,"transit":false,"distance":2334,"line":5,"i_long":106.756522},{"time":2,"station_id":"PSG","distance":1614,"i_lat":-6.161433,"station_name":"Pesing","i_long":106.771379,"line":5,"is_transit":false,"transit":false},{"station_id":"GRG","transit":false,"is_transit":false,"time":2,"i_lat":-6.162021,"distance":2036,"station_name":"Grogol","line":5,"i_long":106.788277},{"is_transit":true,"station_id":"DU","i_long":106.800832,"time":3,"distance":1700,"transit":true,"line":1,"i_lat":-6.155215,"station_name":"Duri"},{"time":4,"line":1,"station_name":"Angke","transit":false,"station_id":"AK","distance":1230,"i_lat":-6.144674,"i_long":106.79867,"is_transit":false},{"is_transit":true,"station_id":"KPB","time":9,"i_long":106.826365,"i_lat":-6.132549,"transit":true,"line":4,"distance":4102,"station_name":"Kampung Bandan"},{"distance":1364,"is_transit":true,"time":3,"i_long":106.812439,"station_name":"Jakarta Kota","i_lat":-6.137569,"station_id":"JAKK","transit":true,"line":2},{"time":4,"distance":1264,"transit":false,"i_lat":-6.141205,"i_long":106.820901,"line":2,"station_name":"Jayakarta","station_id":"JAY","is_transit":false},{"distance":1080,"station_name":"Manggabesar","transit":false,"time":2,"is_transit":false,"i_lat":-6.149769,"i_long":106.82482,"line":2,"station_id":"MGB"},{"time":2,"line":2,"station_id":"SW","station_name":"Sawah Besar","distance":906,"is_transit":false,"i_lat":-6.160725,"i_long":106.827103,"transit":false},{"distance":1149,"i_lat":-6.166716,"station_id":"JUA","i_long":106.828284,"time":2,"transit":false,"line":2,"station_name":"Juanda","is_transit":false},{"time":4,"line":2,"station_id":"GDD","i_lat":-6.186295,"i_long":106.832183,"station_name":"Gondangdia","is_transit":false,"transit":false,"distance":2015},{"distance":1750,"station_name":"Cikini","is_transit":false,"i_lat":-6.198556,"time":3,"station_id":"CKI","i_long":106.840169,"line":2,"transit":false},{"line":2,"i_long":106.84912,"is_transit":true,"transit":true,"time":4,"i_lat":-6.209883,"distance":1590,"station_id":"MRI","station_name":"Manggarai"},{"is_transit":false,"distance":3186,"time":4,"station_id":"SUD","transit":false,"i_lat":-6.202263,"i_long":106.822649,"station_name":"Sudirman","line":1},{"i_long":106.819881,"i_lat":-6.201433,"is_transit":false,"time":1,"transit":false,"station_name":"Sudirman Baru","distance":280,"station_id":"SUDB","line":1},{"distance":471,"is_transit":false,"station_name":"Karet","time":1,"line":1,"station_id":"KAT","i_lat":-6.20132,"transit":false,"i_long":106.816351},{"line":1,"is_transit":true,"station_name":"Tanah Abang","distance":2029,"time":5,"transit":true,"i_lat":-6.185545,"station_id":"THB","i_long":106.811091},{"transit":false,"is_transit":false,"station_name":"Palmerah","station_id":"PLM","time":6,"distance":3191,"i_lat":-6.207404,"i_long":106.79689,"line":6},{"line":6,"station_name":"Kebayoran","transit":false,"is_transit":false,"i_lat":-6.237242,"distance":3737,"station_id":"KBY","time":7,"i_long":106.780334},{"transit":false,"station_name":"Pondokranji","i_long":106.74273,"line":6,"i_lat":-6.276362,"distance":6218,"is_transit":false,"station_id":"PDJ","time":8},{"distance":2179,"time":3,"i_lat":-6.288927,"is_transit":false,"station_id":"JMU","transit":false,"i_long":106.728916,"line":6,"station_name":"Jurangmangu"},{"i_lat":-6.296963,"time":4,"station_name":"Sudimara","is_transit":false,"station_id":"SDM","line":6,"transit":false,"distance":1994,"i_long":106.712277},{"is_transit":false,"line":6,"time":6,"i_long":106.675475,"distance":4566,"station_name":"Rawa Buntu","transit":false,"station_id":"RU","i_lat":-6.314823},{"is_transit":false,"time":4,"i_long":106.66566,"distance":2413,"station_name":"Serpong","station_id":"SRP","i_lat":-6.319871,"line":6,"transit":false},{"station_id":"CSK","time":4,"is_transit":false,"i_long":106.640411,"line":3,"station_name":"Cisauk","transit":false,"distance":1784,"i_lat":-6.32484},{"time":4,"i_long":106.617853,"station_id":"CC","transit":false,"is_transit":false,"distance":2519,"line":3,"i_lat":-6.329547,"station_name":"Cicayur"},{"i_long":106.568863,"line":6,"is_transit":false,"time":8,"station_name":"Parung Panjang","distance":5968,"station_id":"PRP","transit":false,"i_lat":-6.3441410000000005}],[{"transit":false,"station_name":"Bojongindah","distance":0,"time":0,"line":5,"is_transit":false,"station_id":"BOI","i_lat":-6.159876,"i_long":106.737035},{"distance":2334,"transit":false,"i_lat":-6.1587309999999995,"time":2,"station_name":"Taman Kota","i_long":106.756522,"line":5,"station_id":"TKO","is_transit":false},{"time":2,"station_name":"Pesing","i_long":106.771379,"is_transit":false,"line":5,"transit":false,"distance":1614,"station_id":"PSG","i_lat":-6.161433},{"time":2,"distance":2036,"transit":false,"station_name":"Grogol","i_long":106.788277,"is_transit":false,"station_id":"GRG","line":5,"i_lat":-6.162021},{"distance":1700,"station_id":"DU","line":1,"time":3,"station_name":"Duri","is_transit":true,"i_long":106.800832,"transit":true,"i_lat":-6.155215},{"station_name":"Angke","line":1,"is_transit":false,"time":4,"distance":1230,"transit":false,"i_lat":-6.144674,"i_long":106.79867,"station_id":"AK"},{"time":9,"distance":4102,"line":4,"is_transit":true,"transit":true,"i_lat":-6.132549,"station_id":"KPB","station_name":"Kampung Bandan","i_long":106.826365},{"i_long":106.836569,"line":11,"distance":1444,"time":3,"station_name":"Rajawali","i_lat":-6.14505,"is_transit":false,"station_id":"RJW","transit":false},{"i_long":106.839204,"time":5,"transit":false,"is_transit":false,"distance":1901,"i_lat":-6.161728,"station_id":"KMO","station_name":"Kemayoran","line":11},{"is_transit":false,"line":11,"i_long":106.84368,"time":4,"transit":false,"station_id":"PSE","station_name":"Pasar Senen","i_lat":-6.174784,"distance":1436},{"station_name":"Gang Sentiong","transit":false,"i_lat":-6.185975,"distance":1567,"time":8,"station_id":"GST","is_transit":false,"i_long":106.850107,"line":11},{"i_lat":-6.193792,"transit":false,"time":1,"i_long":106.855437,"distance":973,"station_name":"Kramat","station_id":"KMT","line":11,"is_transit":false},{"i_lat":-6.209188,"is_transit":false,"i_long":106.861737,"distance":1829,"line":11,"station_id":"POK","time":2,"station_name":"Pondok Jati","transit":false},{"is_transit":true,"i_long":106.86807400000001,"line":1,"distance":1236,"time":9,"station_name":"Jatinegara","i_lat":-6.215091,"transit":true,"station_id":"JNG"},{"i_lat":-6.212485,"line":1,"is_transit":false,"distance":1377,"station_id":"MTR","time":2,"transit":false,"i_long":106.858896,"station_name":"Matraman"},{"station_name":"Manggarai","i_lat":-6.209883,"station_id":"MRI","time":2,"is_transit":false,"i_long":106.84912,"transit":false,"distance":1275,"line":2},{"i_long":106.822649,"time":4,"transit":false,"station_name":"Sudirman","line":1,"i_lat":-6.202263,"is_transit":false,"station_id":"SUD","distance":3186},{"transit":false,"distance":280,"station_name":"Sudirman Baru","is_transit":false,"station_id":"SUDB","i_lat":-6.201433,"line":1,"i_long":106.819881,"time":1},{"time":1,"is_transit":false,"distance":471,"line":1,"station_id":"KAT","station_name":"Karet","i_long":106.816351,"i_lat":-6.20132,"transit":false},{"station_id":"THB","i_lat":-6.185545,"distance":2029,"i_long":106.811091,"line":1,"transit":true,"station_name":"Tanah Abang","time":5,"is_transit":true},{"station_id":"PLM","is_transit":false,"transit":false,"time":6,"i_long":106.79689,"station_name":"Palmerah","distance":3191,"i_lat":-6.207404,"line":6},{"station_id":"KBY","station_name":"Kebayoran","i_lat":-6.237242,"is_transit":false,"i_long":106.780334,"line":6,"transit":false,"distance":3737,"time":7},{"i_lat":-6.276362,"distance":6218,"i_long":106.74273,"time":8,"station_name":"Pondokranji","is_transit":false,"station_id":"PDJ","line":6,"transit":false},{"i_lat":-6.288927,"time":3,"line":6,"distance":2179,"i_long":106.728916,"transit":false,"is_transit":false,"station_name":"Jurangmangu","station_id":"JMU"},{"station_id":"SDM","is_transit":false,"station_name":"Sudimara","i_long":106.712277,"time":4,"distance":1994,"i_lat":-6.296963,"line":6,"transit":false},{"line":6,"distance":4566,"i_long":106.675475,"transit":false,"station_name":"Rawa Buntu","i_lat":-6.314823,"station_id":"RU","is_transit":false,"time":6},{"i_long":106.66566,"station_name":"Serpong","distance":2413,"is_transit":false,"transit":false,"station_id":"SRP","line":6,"time":4,"i_lat":-6.319871},{"station_name":"Cisauk","distance":1784,"transit":false,"i_lat":-6.32484,"i_long":106.640411,"line":3,"time":4,"station_id":"CSK","is_transit":false},{"station_name":"Cicayur","transit":false,"distance":2519,"station_id":"CC","i_long":106.617853,"line":3,"time":4,"is_transit":false,"i_lat":-6.329547},{"i_long":106.568863,"time":8,"transit":false,"is_transit":false,"station_id":"PRP","station_name":"Parung Panjang","distance":5968,"line":6,"i_lat":-6.3441410000000005}]]}