{"data":[[{"transit":false,"distance":0,"i_lat":-6.159876,"station_name":"Bojongindah","time":0,"is_transit":false,"i_long":106.737035,"line":5,"station_id":"BOI"},{"station_id":"TKO","is_transit":false,"time":2,"i_long":106.756522,"transit":false,"line":5,"distance":2334,"i_lat":-6.1587309999999995,"station_name":"Taman Kota"},{"is_transit":false,"time":2,"i_long":106.771379,"station_name":"Pesing","i_lat":-6.161433,"line":5,"distance":1614,"station_id":"PSG","transit":false},{"time":2,"line":5,"station_name":"Grogol","is_transit":false,"i_long":106.788277,"transit":false,"station_id":"GGL","distance":2036,"i_lat":-6.162021},{"distance":1700,"station_id":"DU","station_name":"Duri","is_transit":true,"line":1,"time":3,"i_long":106.800832,"i_lat":-6.155215,"transit":true},{"transit":false,"distance":3632,"i_lat":-6.185545,"line":1,"i_long":106.811091,"is_transit":false,"station_id":"THB","time":8,"station_name":"Tanah Abang"},{"i_lat":-6.20132,"station_id":"KAT","is_transit":false,"station_name":"Karet","time":5,"distance":2029,"transit":false,"i_long":106.816351,"line":1},{"i_lat":-6.201433,"i_long":106.819881,"station_id":"SUDB","is_transit":false,"distance":471,"time":1,"line":1,"transit":false,"station_name":"Sudirman Baru"},{"line":1,"station_name":"Sudirman","transit":false,"i_long":106.822649,"is_transit":false,"time":1,"station_id":"SUD","distance":280,"i_lat":-6.202263}],[{"station_id":"BOI","line":5,"time":0,"station_name":"Bojongindah","is_transit":false,"distance":0,"transit":false,"i_lat":-6.159876,"i_long":106.737035},{"i_long":106.756522,"transit":false,"station_id":"TKO","is_transit":false,"time":2,"line":5,"station_name":"Taman Kota","i_lat":-6.1587309999999995,"distance":2334},{"line":5,"i_long":106.771379,"transit":false,"distance":1614,"station_id":"PSG","is_transit":false,"i_lat":-6.161433,"time":2,"station_name":"Pesing"},{"i_lat":-6.162021,"station_id":"GGL","i_long":106.788277,"line":5,"is_transit":false,"distance":2036,"station_name":"Grogol","transit":false,"time":2},{"station_id":"DU","i_lat":-6.155215,"transit":true,"time":3,"is_transit":true,"distance":1700,"line":1,"i_long":106.800832,"station_name":"Duri"},{"line":1,"time":4,"station_name":"Angke","i_long":106.79867,"transit":false,"distance":1230,"station_id":"AK","is_transit":false,"i_lat":-6.144674},{"transit":true,"station_name":"Kampung Bandan","station_id":"KPB","is_transit":true,"time":9,"distance":4102,"i_long":106.826365,"line":4,"i_lat":-6.132549},{"time":3,"distance":1364,"station_name":"Jakarta Kota","line":2,"is_transit":true,"i_lat":-6.137569,"transit":true,"i_long":106.812439,"station_id":"JAKK"},{"is_transit":false,"distance":1264,"i_lat":-6.141205,"i_long":106.820901,"station_name":"Jayakarta","station_id":"JAY","time":4,"line":2,"transit":false},{"distance":1080,"station_id":"MGB","i_long":106.82482,"line":2,"station_name":"Manggabesar","transit":false,"i_lat":-6.149769,"is_transit":false,"time":2},{"line":2,"transit":false,"time":2,"is_transit":false,"station_name":"Sawah Besar","i_lat":-6.160725,"station_id":"SW","i_long":106.827103,"distance":906},{"transit":false,"i_lat":-6.166716,"i_long":106.828284,"line":2,"station_id":"JUA","distance":1149,"station_name":"Juanda","is_transit":false,"time":2},{"distance":2015,"station_id":"GDD","i_long":106.832183,"station_name":"Gondangdia","line":2,"i_lat":-6.186295,"transit":false,"time":4,"is_transit":false},{"i_long":106.840169,"station_name":"Cikini","time":3,"transit":false,"i_lat":-6.198556,"is_transit":false,"line":2,"station_id":"CKI","distance":1750},{"line":2,"distance":1590,"i_long":106.84912,"is_transit":true,"time":4,"station_name":"Manggarai","transit":true,"i_lat":-6.209883,"station_id":"MRI"},{"is_transit":false,"transit":false,"distance":3186,"i_lat":-6.202263,"i_long":106.822649,"time":4,"station_id":"SUD","station_name":"Sudirman","line":1}],[{"line":5,"transit":false,"station_id":"BOI","distance":0,"i_lat":-6.159876,"i_long":106.737035,"is_transit":false,"station_name":"Bojongindah","time":0},{"i_lat":-6.1587309999999995,"station_name":"Taman Kota","time":2,"i_long":106.756522,"is_transit":false,"line":5,"transit":false,"distance":2334,"station_id":"TKO"},{"i_long":106.771379,"line":5,"distance":1614,"i_lat":-6.161433,"is_transit":false,"station_name":"Pesing","transit":false,"station_id":"PSG","time":2},{"transit":false,"i_long":106.788277,"i_lat":-6.162021,"is_transit":false,"time":2,"station_name":"Grogol","station_id":"GGL","line":5,"distance":2036},{"transit":true,"is_transit":true,"station_id":"DU","distance":1700,"i_long":106.800832,"time":3,"line":1,"i_lat":-6.155215,"station_name":"Duri"},{"distance":1230,"i_lat":-6.144674,"line":1,"station_id":"AK","is_transit":false,"i_long":106.79867,"time":4,"transit":false,"station_name":"Angke"},{"station_name":"Kampung Bandan","i_lat":-6.132549,"i_long":106.826365,"line":4,"station_id":"KPB","is_transit":true,"transit":true,"distance":4102,"time":9},{"i_long":106.836569,"is_transit":false,"time":3,"station_id":"RJW","station_name":"Rajawali","line":11,"i_lat":-6.14505,"distance":1444,"transit":false},{"line":11,"station_name":"Kemayoran","transit":false,"i_long":106.839204,"station_id":"KMO","distance":1901,"i_lat":-6.161728,"is_transit":false,"time":5},{"line":11,"time":4,"station_name":"Pasar Senen","i_lat":-6.174784,"station_id":"PSE","distance":1436,"transit":false,"is_transit":false,"i_long":106.84368},{"i_long":106.850107,"line":11,"transit":false,"i_lat":-6.185975,"time":8,"station_id":"GST","is_transit":false,"distance":1567,"station_name":"Gang Sentiong"},{"station_id":"KMT","transit":false,"i_long":106.855437,"is_transit":false,"time":1,"station_name":"Kramat","distance":973,"line":11,"i_lat":-6.193792},{"transit":false,"distance":1829,"station_name":"Pondok Jati","station_id":"POK","is_transit":false,"i_lat":-6.209188,"i_long":106.861737,"line":11,"time":2},{"i_long":106.86807400000001,"station_name":"Jatinegara","station_id":"JNG","line":1,"distance":1236,"transit":true,"i_lat":-6.215091,"time":9,"is_transit":true},{"line":1,"station_id":"MTR","transit":false,"i_long":106.858896,"time":2,"station_name":"Matraman","i_lat":-6.212485,"distance":1377,"is_transit":false},{"line":2,"i_lat":-6.209883,"is_transit":false,"time":2,"i_long":106.84912,"transit":false,"station_id":"MRI","distance":1275,"station_name":"Manggarai"},{"station_id":"SUD","line":1,"time":4,"distance":3186,"i_lat":-6.202263,"station_name":"Sudirman","i_long":106.822649,"is_transit":false,"transit":false}]]}