{"data":[[{"transit":false,"i_lat":-6.159876,"i_long":106.737035,"station_name":"Bojongindah","distance":0,"time":0,"station_id":"BOI","is_transit":false,"line":5},{"is_transit":false,"time":2,"station_id":"TKO","distance":2334,"transit":false,"station_name":"Taman Kota","i_lat":-6.1587309999999995,"i_long":106.756522,"line":5},{"is_transit":false,"distance":1614,"time":2,"line":5,"station_id":"PSG","station_name":"Pesing","transit":false,"i_long":106.771379,"i_lat":-6.161433},{"i_long":106.788277,"time":2,"line":5,"station_name":"Grogol","i_lat":-6.162021,"distance":2036,"is_transit":false,"station_id":"GGL","transit":false},{"is_transit":true,"line":1,"i_lat":-6.155215,"i_long":106.800832,"station_name":"Duri","time":3,"station_id":"DU","distance":1700,"transit":true},{"time":4,"station_name":"Angke","i_lat":-6.144674,"distance":1230,"is_transit":false,"station_id":"AK","line":1,"transit":false,"i_long":106.79867},{"line":4,"time":9,"transit":true,"is_transit":true,"station_name":"Kampung Bandan","distance":4102,"i_lat":-6.132549,"station_id":"KPB","i_long":106.826365},{"distance":1364,"station_id":"JAKK","transit":true,"i_lat":-6.137569,"i_long":106.812439,"time":3,"is_transit":true,"line":2,"station_name":"Jakarta Kota"},{"i_lat":-6.141205,"distance":1264,"transit":false,"station_name":"Jayakarta","time":4,"station_id":"JAY","is_transit":false,"line":2,"i_long":106.820901},{"i_long":106.82482,"station_id":"MGB","line":2,"is_transit":false,"distance":1080,"station_name":"Manggabesar","transit":false,"i_lat":-6.149769,"time":2},{"time":2,"i_lat":-6.160725,"line":2,"distance":906,"i_long":106.827103,"station_name":"Sawah Besar","transit":false,"is_transit":false,"station_id":"SW"}],[{"station_id":"BOI","transit":false,"distance":0,"i_lat":-6.159876,"i_long":106.737035,"station_name":"Bojongindah","is_transit":false,"time":0,"line":5},{"i_long":106.756522,"line":5,"is_transit":false,"station_id":"TKO","i_lat":-6.1587309999999995,"time":2,"distance":2334,"station_name":"Taman Kota","transit":false},{"distance":1614,"station_name":"Pesing","line":5,"is_transit":false,"transit":false,"time":2,"i_long":106.771379,"station_id":"PSG","i_lat":-6.161433},{"line":5,"is_transit":false,"station_name":"Grogol","station_id":"GGL","i_lat":-6.162021,"time":2,"transit":false,"distance":2036,"i_long":106.788277},{"line":1,"i_long":106.800832,"transit":true,"distance":1700,"station_id":"DU","time":3,"is_transit":true,"i_lat":-6.155215,"station_name":"Duri"},{"is_transit":false,"line":1,"time":8,"station_id":"THB","station_name":"Tanah Abang","distance":3632,"i_long":106.811091,"i_lat":-6.185545,"transit":false},{"i_long":106.816351,"transit":false,"is_transit":false,"time":5,"station_name":"Karet","i_lat":-6.20132,"distance":2029,"station_id":"KAT","line":1},{"distance":471,"line":1,"station_name":"Sudirman Baru","is_transit":false,"transit":false,"i_lat":-6.201433,"i_long":106.819881,"station_id":"SUDB","time":1},{"station_id":"SUD","station_name":"Sudirman","time":1,"is_transit":false,"distance":280,"transit":false,"i_lat":-6.202263,"i_long":106.822649,"line":1},{"transit":true,"station_id":"MRI","i_lat":-6.209883,"i_long":106.84912,"distance":3186,"line":2,"station_name":"Manggarai","is_transit":true,"time":4},{"station_id":"CKI","line":2,"i_long":106.840169,"distance":1590,"time":4,"i_lat":-6.198556,"station_name":"Cikini","is_transit":false,"transit":false},{"distance":1750,"is_transit":false,"time":3,"station_id":"GDD","station_name":"Gondangdia","transit":false,"i_lat":-6.186295,"i_long":106.832183,"line":2},{"i_lat":-6.166716,"time":4,"transit":false,"line":2,"distance":2015,"i_long":106.828284,"is_transit":false,"station_name":"Juanda","station_id":"JUA"},{"time":2,"transit":false,"is_transit":false,"i_long":106.827103,"distance":1149,"station_name":"Sawah Besar","station_id":"SW","i_lat":-6.160725,"line":2}],[{"line":5,"transit":false,"time":0,"i_long":106.737035,"distance":0,"station_id":"BOI","i_lat":-6.159876,"station_name":"Bojongindah","is_transit":false},{"station_id":"TKO","station_name":"Taman Kota","i_long":106.756522,"time":2,"distance":2334,"is_transit":false,"i_lat":-6.1587309999999995,"transit":false,"line":5},{"transit":false,"i_long":106.771379,"distance":1614,"station_id":"PSG","station_name":"Pesing","i_lat":-6.161433,"line":5,"time":2,"is_transit":false},{"line":5,"station_name":"Grogol","i_lat":-6.162021,"distance":2036,"station_id":"GGL","transit":false,"i_long":106.788277,"is_transit":false,"time":2},{"station_id":"DU","station_name":"Duri","distance":1700,"i_lat":-6.155215,"is_transit":true,"time":3,"transit":true,"line":1,"i_long":106.800832},{"is_transit":false,"i_lat":-6.144674,"line":1,"station_id":"AK","distance":1230,"i_long":106.79867,"station_name":"Angke","transit":false,"time":4},{"is_transit":true,"time":9,"i_long":106.826365,"station_id":"KPB","distance":4102,"i_lat":-6.132549,"station_name":"Kampung Bandan","transit":true,"line":4},{"i_long":106.836569,"i_lat":-6.14505,"station_id":"RJW","line":11,"time":3,"is_transit":false,"transit":false,"station_name":"Rajawali","distance":1444},{"i_long":106.839204,"station_id":"KMO","line":11,"time":5,"transit":false,"is_transit":false,"distance":1901,"station_name":"Kemayoran","i_lat":-6.161728},{"i_long":106.84368,"distance":1436,"line":11,"station_id":"PSE","i_lat":-6.174784,"station_name":"Pasar Senen","is_transit":false,"transit":false,"time":4},{"station_id":"GST","is_transit":false,"i_long":106.850107,"station_name":"Gang Sentiong","line":11,"transit":false,"time":8,"i_lat":-6.185975,"distance":1567},{"transit":false,"station_name":"Kramat","is_transit":false,"station_id":"KMT","line":11,"i_lat":-6.193792,"distance":973,"time":1,"i_long":106.855437},{"distance":1829,"time":2,"station_id":"POK","i_long":106.861737,"i_lat":-6.209188,"line":11,"is_transit":false,"transit":false,"station_name":"Pondok Jati"},{"distance":1236,"time":9,"transit":true,"line":1,"station_id":"JNG","i_long":106.86807400000001,"is_transit":true,"i_lat":-6.215091,"station_name":"Jatinegara"},{"is_transit":false,"distance":1377,"station_name":"Matraman","time":2,"transit":false,"i_lat":-6.212485,"line":1,"i_long":106.858896,"station_id":"MTR"},{"time":2,"transit":true,"i_lat":-6.209883,"is_transit":true,"station_name":"Manggarai","station_id":"MRI","i_long":106.84912,"line":2,"distance":1275},{"transit":false,"is_transit":false,"distance":1590,"station_name":"Cikini","i_long":106.840169,"line":2,"i_lat":-6.198556,"station_id":"CKI","time":4},{"line":2,"distance":1750,"station_name":"Gondangdia","transit":false,"time":3,"station_id":"GDD","i_lat":-6.186295,"is_transit":false,"i_long":106.832183},{"time":4,"line":2,"transit":false,"i_lat":-6.166716,"i_long":106.828284,"station_name":"Juanda","distance":2015,"station_id":"JUA","is_transit":false},{"distance":1149,"transit":false,"i_lat":-6.160725,"time":2,"i_long":106.827103,"station_name":"Sawah Besar","is_transit":false,"station_id":"SW","line":2}],[{"i_lat":-6.159876,"is_transit":false,"station_id":"BOI","i_long":106.737035,"line":5,"transit":false,"time":0,"distance":0,"station_name":"Bojongindah"},{"time":2,"i_long":106.756522,"transit":false,"line":5,"is_transit":false,"station_id":"TKO","i_lat":-6.1587309999999995,"station_name":"Taman Kota","distance":2334},{"station_name":"Pesing","time":2,"transit":false,"i_long":106.771379,"line":5,"distance":1614,"is_transit":false,"station_id":"PSG","i_lat":-6.161433},{"station_name":"Grogol","transit":false,"i_lat":-6.162021,"time":2,"i_long":106.788277,"line":5,"is_transit":false,"distance":2036,"station_id":"GGL"},{"distance":1700,"transit":true,"is_transit":true,"i_lat":-6.155215,"station_id":"DU","i_long":106.800832,"line":1,"station_name":"Duri","time":3},{"station_name":"Tanah Abang","distance":3632,"i_lat":-6.185545,"i_long":106.811091,"time":8,"station_id":"THB","is_transit":false,"transit":false,"line":1},{"i_long":106.816351,"distance":2029,"transit":false,"line":1,"time":5,"is_transit":false,"station_name":"Karet","station_id":"KAT","i_lat":-6.20132},{"transit":false,"i_lat":-6.201433,"time":1,"station_name":"Sudirman Baru","i_long":106.819881,"is_transit":false,"station_id":"SUDB","line":1,"distance":471},{"distance":280,"is_transit":false,"transit":false,"i_long":106.822649,"i_lat":-6.202263,"station_name":"Sudirman","line":1,"time":1,"station_id":"SUD"},{"i_lat":-6.209883,"distance":3186,"time":4,"station_id":"MRI","i_long":106.84912,"station_name":"Manggarai","is_transit":false,"transit":false,"line":2},{"i_lat":-6.212485,"station_name":"Matraman","distance":1275,"transit":false,"time":2,"i_long":106.858896,"is_transit":false,"line":1,"station_id":"MTR"},{"transit":true,"time":8,"i_lat":-6.215091,"is_transit":true,"distance":1377,"i_long":106.86807400000001,"station_name":"Jatinegara","line":1,"station_id":"JNG"},{"i_lat":-6.209188,"i_long":106.861737,"line":11,"station_id":"POK","distance":1236,"is_transit":false,"time":2,"transit":false,"station_name":"Pondok Jati"},{"i_lat":-6.193792,"transit":false,"station_name":"Kramat","i_long":106.855437,"time":2,"distance":1829,"is_transit":false,"station_id":"KMT","line":11},{"time":1,"i_lat":-6.185975,"transit":false,"distance":973,"station_id":"GST","line":11,"station_name":"Gang Sentiong","is_transit":false,"i_long":106.850107},{"line":11,"i_lat":-6.174784,"time":8,"transit":false,"is_transit":false,"station_id":"PSE","distance":1567,"i_long":106.84368,"station_name":"Pasar Senen"},{"line":11,"distance":1436,"time":4,"is_transit":false,"transit":false,"i_lat":-6.161728,"i_long":106.839204,"station_name":"Kemayoran","station_id":"KMO"},{"time":5,"station_name":"Rajawali","is_transit":false,"i_long":106.836569,"line":11,"i_lat":-6.14505,"transit":false,"distance":1901,"station_id":"RJW"},{"transit":true,"station_id":"KPB","is_transit":true,"time":3,"i_long":106.826365,"i_lat":-6.132549,"line":4,"station_name":"Kampung Bandan","distance":1444},{"line":2,"station_name":"Jakarta Kota","is_transit":true,"i_long":106.812439,"station_id":"JAKK","transit":true,"distance":1364,"i_lat":-6.137569,"time":3},{"distance":1264,"is_transit":false,"line":2,"time":4,"station_name":"Jayakarta","station_id":"JAY","i_lat":-6.141205,"transit":false,"i_long":106.820901},{"transit":false,"is_transit":false,"time":2,"i_lat":-6.149769,"station_name":"Manggabesar","distance":1080,"i_long":106.82482,"line":2,"station_id":"MGB"},{"station_id":"SW","i_long":106.827103,"i_lat":-6.160725,"station_name":"Sawah Besar","time":2,"transit":false,"line":2,"distance":906,"is_transit":false}]]}