{"data":[[{"transit":false,"time":0,"station_name":"Bojongindah","distance":0,"i_lat":-6.159876,"line":0,"i_long":106.737035,"is_transit":false,"station_id":"BOI"},{"transit":false,"i_lat":-6.1587309999999995,"i_long":106.756522,"is_transit":false,"distance":2334,"time":2,"station_id":"TKO","line":5,"station_name":"Taman Kota"},{"i_long":106.771379,"station_name":"Pesing","transit":false,"line":5,"distance":1614,"is_transit":false,"i_lat":-6.161433,"time":2,"station_id":"PSG"},{"i_long":106.788277,"line":5,"is_transit":false,"distance":2036,"transit":false,"time":2,"i_lat":-6.162021,"station_name":"Grogol","station_id":"GGL"},{"station_id":"DU","station_name":"Duri","line":1,"transit":true,"i_long":106.800832,"time":3,"distance":1700,"i_lat":-6.155215,"is_transit":true},{"line":1,"station_id":"THB","is_transit":true,"distance":3632,"station_name":"Tanah Abang","i_long":106.811091,"i_lat":-6.185545,"time":8,"transit":false},{"station_id":"KAT","transit":false,"i_lat":-6.20132,"i_long":106.816351,"station_name":"Karet","time":5,"distance":2029,"is_transit":false,"line":1},{"i_lat":-6.201433,"line":1,"is_transit":false,"time":1,"transit":false,"i_long":106.819881,"distance":471,"station_name":"Sudirman Baru","station_id":"SUDB"},{"i_long":106.822649,"is_transit":false,"time":1,"i_lat":-6.202263,"distance":280,"station_id":"SUD","line":1,"station_name":"Sudirman","transit":false},{"is_transit":true,"station_name":"Manggarai","line":0,"station_id":"MRI","time":4,"transit":true,"distance":3186,"i_long":106.84912,"i_lat":-6.209883},{"i_lat":-6.226659,"i_long":106.857948,"is_transit":false,"station_id":"TEB","transit":false,"time":4,"station_name":"Tebet","distance":2610,"line":2}],[{"i_lat":-6.159876,"time":0,"station_name":"Bojongindah","transit":false,"station_id":"BOI","line":0,"is_transit":false,"distance":0,"i_long":106.737035},{"i_long":106.756522,"line":5,"transit":false,"time":2,"distance":2334,"is_transit":false,"station_name":"Taman Kota","i_lat":-6.1587309999999995,"station_id":"TKO"},{"line":5,"time":2,"station_id":"PSG","distance":1614,"i_lat":-6.161433,"i_long":106.771379,"station_name":"Pesing","is_transit":false,"transit":false},{"station_name":"Grogol","transit":false,"time":2,"i_lat":-6.162021,"i_long":106.788277,"station_id":"GGL","is_transit":false,"line":5,"distance":2036},{"i_long":106.800832,"station_name":"Duri","is_transit":true,"time":3,"transit":true,"i_lat":-6.155215,"station_id":"DU","distance":1700,"line":1},{"distance":1230,"i_lat":-6.144674,"station_id":"AK","is_transit":false,"time":4,"transit":false,"line":0,"station_name":"Angke","i_long":106.79867},{"station_name":"Kampung Bandan","distance":4102,"i_long":106.826365,"station_id":"KPB","transit":false,"line":0,"is_transit":true,"i_lat":-6.132549,"time":9},{"i_long":106.812439,"line":0,"transit":true,"station_name":"Jakarta Kota","is_transit":true,"time":3,"distance":1364,"i_lat":-6.137569,"station_id":"JAKK"},{"transit":false,"line":7,"i_long":106.820901,"station_id":"JAY","time":4,"distance":1264,"station_name":"Jayakarta","is_transit":false,"i_lat":-6.141205},{"time":2,"transit":false,"station_name":"Manggabesar","i_lat":-6.149769,"station_id":"MGB","distance":1080,"i_long":106.82482,"is_transit":false,"line":2},{"transit":false,"line":2,"distance":906,"station_name":"Sawah Besar","station_id":"SW","i_long":106.827103,"time":2,"is_transit":false,"i_lat":-6.160725},{"i_lat":-6.166716,"distance":1149,"transit":false,"line":2,"is_transit":false,"station_name":"Juanda","i_long":106.828284,"station_id":"JUA","time":2},{"station_id":"GDD","station_name":"Gondangdia","time":4,"is_transit":false,"transit":false,"i_long":106.832183,"line":2,"distance":2015,"i_lat":-6.186295},{"station_id":"CKI","time":3,"transit":false,"distance":1750,"line":0,"i_long":106.840169,"i_lat":-6.198556,"is_transit":false,"station_name":"Cikini"},{"i_long":106.84912,"line":0,"distance":1590,"i_lat":-6.209883,"is_transit":true,"transit":true,"station_id":"MRI","time":4,"station_name":"Manggarai"},{"i_lat":-6.226659,"station_name":"Tebet","station_id":"TEB","line":2,"is_transit":false,"time":4,"distance":2610,"transit":false,"i_long":106.857948}],[{"i_long":106.737035,"line":0,"station_id":"BOI","transit":false,"station_name":"Bojongindah","is_transit":false,"distance":0,"i_lat":-6.159876,"time":0},{"distance":2334,"time":2,"station_id":"TKO","transit":false,"is_transit":false,"i_long":106.756522,"line":5,"station_name":"Taman Kota","i_lat":-6.1587309999999995},{"station_id":"PSG","distance":1614,"time":2,"i_lat":-6.161433,"station_name":"Pesing","line":5,"i_long":106.771379,"is_transit":false,"transit":false},{"is_transit":false,"station_name":"Grogol","time":2,"i_lat":-6.162021,"station_id":"GGL","transit":false,"distance":2036,"i_long":106.788277,"line":5},{"station_id":"DU","transit":true,"i_lat":-6.155215,"time":3,"distance":1700,"station_name":"Duri","i_long":106.800832,"line":1,"is_transit":true},{"i_long":106.79867,"i_lat":-6.144674,"is_transit":false,"station_id":"AK","time":4,"distance":1230,"station_name":"Angke","transit":false,"line":0},{"i_long":106.826365,"i_lat":-6.132549,"transit":true,"is_transit":true,"station_name":"Kampung Bandan","time":9,"line":0,"station_id":"KPB","distance":4102},{"i_lat":-6.14505,"is_transit":false,"station_id":"RJW","transit":false,"time":3,"i_long":106.836569,"line":11,"station_name":"Rajawali","distance":1444},{"i_lat":-6.161728,"time":5,"station_id":"KMO","station_name":"Kemayoran","i_long":106.839204,"line":11,"is_transit":false,"distance":1901,"transit":false},{"i_long":106.84368,"station_id":"PSE","transit":false,"time":4,"line":11,"distance":1436,"station_name":"Pasar Senen","is_transit":false,"i_lat":-6.174784},{"line":11,"i_lat":-6.185975,"distance":1567,"station_id":"GST","time":8,"is_transit":false,"transit":false,"station_name":"Gang Sentiong","i_long":106.850107},{"station_id":"KMT","i_long":106.855437,"line":11,"i_lat":-6.193792,"station_name":"Kramat","time":1,"distance":973,"transit":false,"is_transit":false},{"i_lat":-6.209188,"line":11,"station_id":"POK","time":2,"station_name":"Pondok Jati","transit":false,"is_transit":false,"distance":1829,"i_long":106.861737},{"i_lat":-6.215091,"distance":1236,"station_name":"Jatinegara","station_id":"JNG","i_long":106.86807400000001,"transit":true,"line":0,"is_transit":true,"time":9},{"i_long":106.858896,"distance":1377,"i_lat":-6.212485,"transit":false,"line":1,"is_transit":false,"station_name":"Matraman","station_id":"MTR","time":2},{"time":2,"distance":1275,"station_name":"Manggarai","transit":true,"station_id":"MRI","is_transit":true,"i_long":106.84912,"line":0,"i_lat":-6.209883},{"transit":false,"i_lat":-6.226659,"station_id":"TEB","line":2,"i_long":106.857948,"time":4,"distance":2610,"station_name":"Tebet","is_transit":false}]]}