{"data":[[{"distance":0,"i_long":106.737035,"station_id":"BOI","is_transit":false,"line":0,"transit":false,"time":0,"station_name":"Bojongindah","i_lat":-6.159876},{"station_id":"TKO","i_lat":-6.1587309999999995,"station_name":"Taman Kota","i_long":106.756522,"distance":2334,"transit":false,"line":5,"time":2,"is_transit":false},{"is_transit":false,"time":2,"station_name":"Pesing","transit":false,"i_long":106.771379,"line":5,"station_id":"PSG","distance":1614,"i_lat":-6.161433},{"transit":false,"is_transit":false,"i_lat":-6.162021,"station_name":"Grogol","i_long":106.788277,"time":2,"line":5,"distance":2036,"station_id":"GGL"},{"i_lat":-6.155215,"station_id":"DU","is_transit":true,"transit":true,"i_long":106.800832,"station_name":"Duri","line":1,"distance":1700,"time":3},{"i_long":106.811091,"station_name":"Tanah Abang","i_lat":-6.185545,"is_transit":true,"distance":3632,"station_id":"THB","transit":false,"time":8,"line":1},{"is_transit":false,"time":5,"station_id":"KAT","transit":false,"i_lat":-6.20132,"distance":2029,"station_name":"Karet","i_long":106.816351,"line":1},{"distance":471,"time":1,"station_name":"Sudirman Baru","is_transit":false,"transit":false,"i_lat":-6.201433,"line":1,"i_long":106.819881,"station_id":"SUDB"},{"i_lat":-6.202263,"station_id":"SUD","is_transit":false,"station_name":"Sudirman","distance":280,"i_long":106.822649,"line":1,"time":1,"transit":false},{"i_lat":-6.209883,"station_name":"Manggarai","i_long":106.84912,"is_transit":true,"line":0,"station_id":"MRI","time":4,"transit":false,"distance":3186},{"station_id":"MTR","line":1,"transit":false,"station_name":"Matraman","is_transit":false,"distance":1275,"i_lat":-6.212485,"i_long":106.858896,"time":2},{"i_long":106.86807400000001,"distance":1377,"time":8,"is_transit":true,"station_id":"JNG","line":0,"station_name":"Jatinegara","transit":false,"i_lat":-6.215091},{"transit":false,"time":3,"station_name":"Klender","i_long":106.899548,"line":1,"distance":3395,"i_lat":-6.2135,"station_id":"KLD","is_transit":false}],[{"station_name":"Bojongindah","time":0,"i_long":106.737035,"is_transit":false,"distance":0,"i_lat":-6.159876,"station_id":"BOI","transit":false,"line":0},{"time":2,"i_long":106.756522,"station_id":"TKO","distance":2334,"line":5,"i_lat":-6.1587309999999995,"is_transit":false,"station_name":"Taman Kota","transit":false},{"i_lat":-6.161433,"time":2,"is_transit":false,"distance":1614,"transit":false,"station_id":"PSG","i_long":106.771379,"station_name":"Pesing","line":5},{"is_transit":false,"time":2,"i_lat":-6.162021,"station_id":"GGL","line":5,"transit":false,"station_name":"Grogol","i_long":106.788277,"distance":2036},{"distance":1700,"time":3,"is_transit":true,"station_name":"Duri","line":1,"i_lat":-6.155215,"i_long":106.800832,"transit":true,"station_id":"DU"},{"transit":false,"station_id":"AK","station_name":"Angke","is_transit":false,"time":4,"i_lat":-6.144674,"line":0,"distance":1230,"i_long":106.79867},{"i_long":106.826365,"time":9,"distance":4102,"i_lat":-6.132549,"line":0,"is_transit":true,"transit":true,"station_id":"KPB","station_name":"Kampung Bandan"},{"distance":1444,"transit":false,"line":11,"station_name":"Rajawali","station_id":"RJW","is_transit":false,"i_lat":-6.14505,"time":3,"i_long":106.836569},{"i_lat":-6.161728,"station_id":"KMO","transit":false,"is_transit":false,"line":11,"station_name":"Kemayoran","time":5,"distance":1901,"i_long":106.839204},{"transit":false,"i_long":106.84368,"station_id":"PSE","i_lat":-6.174784,"is_transit":false,"time":4,"line":11,"station_name":"Pasar Senen","distance":1436},{"line":11,"distance":1567,"i_long":106.850107,"station_name":"Gang Sentiong","time":8,"station_id":"GST","transit":false,"i_lat":-6.185975,"is_transit":false},{"transit":false,"station_name":"Kramat","time":1,"i_lat":-6.193792,"i_long":106.855437,"line":11,"is_transit":false,"distance":973,"station_id":"KMT"},{"i_lat":-6.209188,"station_id":"POK","distance":1829,"line":11,"is_transit":false,"station_name":"Pondok Jati","transit":false,"time":2,"i_long":106.861737},{"line":0,"time":9,"distance":1236,"transit":true,"is_transit":true,"i_lat":-6.215091,"station_name":"Jatinegara","i_long":106.86807400000001,"station_id":"JNG"},{"station_id":"KLD","time":3,"is_transit":false,"i_long":106.899548,"transit":false,"station_name":"Klender","line":1,"distance":3395,"i_lat":-6.2135}],[{"is_transit":false,"i_long":106.737035,"distance":0,"line":0,"station_name":"Bojongindah","station_id":"BOI","transit":false,"i_lat":-6.159876,"time":0},{"distance":2334,"is_transit":false,"i_lat":-6.1587309999999995,"i_long":106.756522,"transit":false,"time":2,"line":5,"station_id":"TKO","station_name":"Taman Kota"},{"station_id":"PSG","transit":false,"station_name":"Pesing","distance":1614,"time":2,"i_lat":-6.161433,"line":5,"i_long":106.771379,"is_transit":false},{"station_name":"Grogol","time":2,"transit":false,"station_id":"GGL","i_long":106.788277,"i_lat":-6.162021,"line":5,"is_transit":false,"distance":2036},{"time":3,"station_id":"DU","is_transit":true,"i_lat":-6.155215,"transit":true,"station_name":"Duri","line":1,"i_long":106.800832,"distance":1700},{"time":4,"i_lat":-6.144674,"i_long":106.79867,"line":0,"transit":false,"station_id":"AK","is_transit":false,"distance":1230,"station_name":"Angke"},{"distance":4102,"station_id":"KPB","time":9,"transit":false,"i_long":106.826365,"line":0,"is_transit":true,"station_name":"Kampung Bandan","i_lat":-6.132549},{"time":3,"line":0,"station_name":"Jakarta Kota","transit":true,"station_id":"JAKK","is_transit":true,"i_lat":-6.137569,"i_long":106.812439,"distance":1364},{"station_id":"JAY","is_transit":false,"time":4,"distance":1264,"line":7,"i_long":106.820901,"station_name":"Jayakarta","transit":false,"i_lat":-6.141205},{"distance":1080,"line":2,"i_lat":-6.149769,"transit":false,"i_long":106.82482,"is_transit":false,"station_id":"MGB","station_name":"Manggabesar","time":2},{"is_transit":false,"transit":false,"station_id":"SW","i_lat":-6.160725,"line":2,"time":2,"distance":906,"station_name":"Sawah Besar","i_long":106.827103},{"station_name":"Juanda","i_lat":-6.166716,"station_id":"JUA","line":2,"transit":false,"is_transit":false,"time":2,"i_long":106.828284,"distance":1149},{"i_long":106.832183,"line":2,"station_name":"Gondangdia","time":4,"is_transit":false,"distance":2015,"i_lat":-6.186295,"transit":false,"station_id":"GDD"},{"line":0,"i_lat":-6.198556,"station_name":"Cikini","distance":1750,"station_id":"CKI","transit":false,"is_transit":false,"i_long":106.840169,"time":3},{"station_id":"MRI","i_long":106.84912,"station_name":"Manggarai","is_transit":true,"time":4,"distance":1590,"i_lat":-6.209883,"transit":true,"line":0},{"line":1,"station_name":"Matraman","is_transit":false,"i_lat":-6.212485,"i_long":106.858896,"time":2,"transit":false,"station_id":"MTR","distance":1275},{"i_lat":-6.215091,"station_id":"JNG","i_long":106.86807400000001,"line":0,"station_name":"Jatinegara","time":8,"is_transit":true,"distance":1377,"transit":false},{"time":3,"line":1,"distance":3395,"is_transit":false,"station_id":"KLD","i_long":106.899548,"transit":false,"station_name":"Klender","i_lat":-6.2135}],[{"station_name":"Bojongindah","i_lat":-6.159876,"distance":0,"transit":false,"time":0,"is_transit":false,"station_id":"BOI","i_long":106.737035,"line":0},{"line":5,"i_long":106.756522,"time":2,"is_transit":false,"station_name":"Taman Kota","transit":false,"i_lat":-6.1587309999999995,"distance":2334,"station_id":"TKO"},{"transit":false,"station_id":"PSG","station_name":"Pesing","time":2,"is_transit":false,"distance":1614,"i_lat":-6.161433,"line":5,"i_long":106.771379},{"time":2,"line":5,"station_name":"Grogol","transit":false,"station_id":"GGL","is_transit":false,"distance":2036,"i_lat":-6.162021,"i_long":106.788277},{"time":3,"station_name":"Duri","line":1,"is_transit":true,"station_id":"DU","transit":true,"i_lat":-6.155215,"distance":1700,"i_long":106.800832},{"distance":3632,"line":1,"station_id":"THB","transit":false,"i_lat":-6.185545,"station_name":"Tanah Abang","i_long":106.811091,"is_transit":true,"time":8},{"i_long":106.816351,"is_transit":false,"transit":false,"i_lat":-6.20132,"time":5,"station_id":"KAT","line":1,"distance":2029,"station_name":"Karet"},{"is_transit":false,"transit":false,"i_long":106.819881,"i_lat":-6.201433,"distance":471,"station_name":"Sudirman Baru","line":1,"station_id":"SUDB","time":1},{"is_transit":false,"time":1,"distance":280,"line":1,"transit":false,"i_lat":-6.202263,"station_name":"Sudirman","station_id":"SUD","i_long":106.822649},{"transit":true,"is_transit":true,"distance":3186,"i_lat":-6.209883,"station_id":"MRI","line":0,"time":4,"i_long":106.84912,"station_name":"Manggarai"},{"station_name":"Cikini","is_transit":false,"i_lat":-6.198556,"distance":1590,"line":0,"transit":false,"time":4,"i_long":106.840169,"station_id":"CKI"},{"i_lat":-6.186295,"is_transit":false,"i_long":106.832183,"transit":false,"station_id":"GDD","time":3,"station_name":"Gondangdia","distance":1750,"line":2},{"station_name":"Juanda","line":2,"i_long":106.828284,"time":4,"station_id":"JUA","is_transit":false,"transit":false,"distance":2015,"i_lat":-6.166716},{"distance":1149,"station_id":"SW","time":2,"i_long":106.827103,"i_lat":-6.160725,"line":2,"transit":false,"station_name":"Sawah Besar","is_transit":false},{"transit":false,"station_name":"Manggabesar","i_long":106.82482,"line":2,"time":2,"i_lat":-6.149769,"is_transit":false,"distance":906,"station_id":"MGB"},{"station_name":"Jayakarta","station_id":"JAY","is_transit":false,"transit":false,"distance":1080,"i_lat":-6.141205,"line":7,"time":2,"i_long":106.820901},{"transit":true,"line":0,"distance":1264,"i_long":106.812439,"station_name":"Jakarta Kota","is_transit":true,"station_id":"JAKK","i_lat":-6.137569,"time":4},{"distance":1364,"i_long":106.826365,"is_transit":true,"station_id":"KPB","time":3,"transit":true,"i_lat":-6.132549,"station_name":"Kampung Bandan","line":0},{"line":11,"i_lat":-6.14505,"station_id":"RJW","i_long":106.836569,"time":3,"transit":false,"distance":1444,"station_name":"Rajawali","is_transit":false},{"distance":1901,"is_transit":false,"station_name":"Kemayoran","transit":false,"time":5,"line":11,"i_long":106.839204,"station_id":"KMO","i_lat":-6.161728},{"station_id":"PSE","line":11,"i_long":106.84368,"station_name":"Pasar Senen","is_transit":false,"transit":false,"time":4,"i_lat":-6.174784,"distance":1436},{"time":8,"is_transit":false,"station_id":"GST","distance":1567,"transit":false,"i_lat":-6.185975,"i_long":106.850107,"station_name":"Gang Sentiong","line":11},{"transit":false,"time":1,"line":11,"i_lat":-6.193792,"station_name":"Kramat","distance":973,"i_long":106.855437,"station_id":"KMT","is_transit":false},{"line":11,"station_name":"Pondok Jati","station_id":"POK","i_long":106.861737,"time":2,"distance":1829,"transit":false,"is_transit":false,"i_lat":-6.209188},{"distance":1236,"station_name":"Jatinegara","station_id":"JNG","is_transit":true,"time":9,"i_lat":-6.215091,"transit":true,"i_long":106.86807400000001,"line":0},{"time":3,"station_name":"Klender","transit":false,"i_long":106.899548,"line":1,"station_id":"KLD","is_transit":false,"distance":3395,"i_lat":-6.2135}]]}