{"data":[[{"transit":false,"i_long":106.737035,"time":0,"station_id":"BOI","distance":0,"is_transit":false,"i_lat":-6.159876,"line":0,"station_name":"Bojongindah"},{"transit":false,"i_lat":-6.1587309999999995,"station_id":"TKO","is_transit":false,"distance":2334,"i_long":106.756522,"line":5,"time":2,"station_name":"Taman Kota"},{"i_long":106.771379,"transit":false,"line":5,"distance":1614,"i_lat":-6.161433,"is_transit":false,"time":2,"station_name":"Pesing","station_id":"PSG"},{"time":2,"is_transit":false,"i_lat":-6.162021,"station_name":"Grogol","station_id":"GGL","distance":2036,"line":5,"transit":false,"i_long":106.788277},{"time":3,"distance":1700,"transit":true,"line":1,"is_transit":true,"i_lat":-6.155215,"station_id":"DU","station_name":"Duri","i_long":106.800832},{"transit":false,"station_id":"AK","is_transit":false,"time":4,"i_lat":-6.144674,"i_long":106.79867,"line":0,"distance":1230,"station_name":"Angke"},{"station_name":"Kampung Bandan","i_long":106.826365,"i_lat":-6.132549,"time":9,"line":0,"is_transit":true,"station_id":"KPB","distance":4102,"transit":false},{"time":4,"distance":2185,"station_name":"Ancol","station_id":"AC","transit":false,"i_lat":-6.128023,"is_transit":false,"i_long":106.84464,"line":0},{"i_long":106.880089,"is_transit":false,"distance":4566,"line":4,"i_lat":-6.1109480000000005,"time":9,"transit":false,"station_id":"TPK","station_name":"Tanjung Priuk"}],[{"i_long":106.737035,"time":0,"is_transit":false,"station_id":"BOI","station_name":"Bojongindah","line":0,"distance":0,"transit":false,"i_lat":-6.159876},{"i_lat":-6.1587309999999995,"station_id":"TKO","time":2,"distance":2334,"transit":false,"line":5,"station_name":"Taman Kota","i_long":106.756522,"is_transit":false},{"station_name":"Pesing","is_transit":false,"distance":1614,"i_lat":-6.161433,"time":2,"i_long":106.771379,"line":5,"station_id":"PSG","transit":false},{"distance":2036,"i_long":106.788277,"station_id":"GGL","station_name":"Grogol","line":5,"time":2,"is_transit":false,"i_lat":-6.162021,"transit":false},{"station_name":"Duri","line":1,"is_transit":true,"station_id":"DU","time":3,"i_lat":-6.155215,"i_long":106.800832,"distance":1700,"transit":true},{"station_id":"THB","is_transit":true,"time":8,"distance":3632,"i_long":106.811091,"transit":false,"station_name":"Tanah Abang","i_lat":-6.185545,"line":1},{"i_lat":-6.20132,"i_long":106.816351,"line":1,"distance":2029,"station_id":"KAT","is_transit":false,"station_name":"Karet","transit":false,"time":5},{"line":1,"time":1,"transit":false,"i_lat":-6.201433,"is_transit":false,"station_id":"SUDB","distance":471,"i_long":106.819881,"station_name":"Sudirman Baru"},{"i_long":106.822649,"station_name":"Sudirman","line":1,"transit":false,"distance":280,"i_lat":-6.202263,"is_transit":false,"station_id":"SUD","time":1},{"time":4,"distance":3186,"i_lat":-6.209883,"station_id":"MRI","transit":true,"line":0,"i_long":106.84912,"is_transit":true,"station_name":"Manggarai"},{"i_long":106.840169,"is_transit":false,"i_lat":-6.198556,"station_name":"Cikini","station_id":"CKI","transit":false,"distance":1590,"line":0,"time":4},{"station_id":"GDD","i_long":106.832183,"transit":false,"line":2,"time":3,"i_lat":-6.186295,"is_transit":false,"station_name":"Gondangdia","distance":1750},{"line":2,"station_id":"JUA","time":4,"i_lat":-6.166716,"transit":false,"distance":2015,"station_name":"Juanda","is_transit":false,"i_long":106.828284},{"distance":1149,"line":2,"station_name":"Sawah Besar","time":2,"i_lat":-6.160725,"is_transit":false,"i_long":106.827103,"station_id":"SW","transit":false},{"i_lat":-6.149769,"time":2,"i_long":106.82482,"line":2,"distance":906,"station_name":"Manggabesar","station_id":"MGB","transit":false,"is_transit":false},{"distance":1080,"time":2,"i_long":106.820901,"station_id":"JAY","transit":false,"station_name":"Jayakarta","i_lat":-6.141205,"line":7,"is_transit":false},{"i_long":106.812439,"station_id":"JAKK","is_transit":true,"line":0,"distance":1264,"time":4,"transit":true,"station_name":"Jakarta Kota","i_lat":-6.137569},{"i_long":106.826365,"i_lat":-6.132549,"is_transit":true,"station_id":"KPB","time":3,"distance":1364,"station_name":"Kampung Bandan","transit":false,"line":0},{"i_long":106.84464,"i_lat":-6.128023,"transit":false,"is_transit":false,"station_name":"Ancol","time":4,"line":0,"station_id":"AC","distance":2185},{"i_lat":-6.1109480000000005,"is_transit":false,"station_id":"TPK","transit":false,"time":9,"i_long":106.880089,"line":4,"station_name":"Tanjung Priuk","distance":4566}],[{"i_lat":-6.159876,"time":0,"station_id":"BOI","station_name":"Bojongindah","i_long":106.737035,"line":0,"is_transit":false,"distance":0,"transit":false},{"i_long":106.756522,"station_id":"TKO","transit":false,"time":2,"line":5,"distance":2334,"station_name":"Taman Kota","is_transit":false,"i_lat":-6.1587309999999995},{"line":5,"i_lat":-6.161433,"distance":1614,"station_id":"PSG","time":2,"is_transit":false,"transit":false,"station_name":"Pesing","i_long":106.771379},{"station_id":"GGL","i_long":106.788277,"line":5,"i_lat":-6.162021,"station_name":"Grogol","time":2,"distance":2036,"transit":false,"is_transit":false},{"i_lat":-6.155215,"line":1,"station_id":"DU","time":3,"station_name":"Duri","transit":true,"is_transit":true,"distance":1700,"i_long":106.800832},{"i_lat":-6.185545,"distance":3632,"station_name":"Tanah Abang","station_id":"THB","i_long":106.811091,"transit":false,"line":1,"is_transit":true,"time":8},{"i_long":106.816351,"distance":2029,"i_lat":-6.20132,"transit":false,"line":1,"is_transit":false,"station_name":"Karet","station_id":"KAT","time":5},{"time":1,"distance":471,"station_name":"Sudirman Baru","transit":false,"station_id":"SUDB","is_transit":false,"i_long":106.819881,"line":1,"i_lat":-6.201433},{"transit":false,"i_lat":-6.202263,"station_id":"SUD","line":1,"i_long":106.822649,"time":1,"distance":280,"station_name":"Sudirman","is_transit":false},{"station_id":"MRI","distance":3186,"transit":false,"line":0,"station_name":"Manggarai","i_lat":-6.209883,"is_transit":true,"time":4,"i_long":106.84912},{"i_long":106.858896,"i_lat":-6.212485,"station_id":"MTR","is_transit":false,"station_name":"Matraman","line":1,"transit":false,"time":2,"distance":1275},{"is_transit":true,"i_lat":-6.215091,"i_long":106.86807400000001,"transit":true,"distance":1377,"line":0,"station_id":"JNG","time":8,"station_name":"Jatinegara"},{"station_id":"POK","distance":1236,"i_lat":-6.209188,"i_long":106.861737,"is_transit":false,"transit":false,"time":2,"line":11,"station_name":"Pondok Jati"},{"is_transit":false,"distance":1829,"transit":false,"time":2,"i_lat":-6.193792,"station_id":"KMT","station_name":"Kramat","i_long":106.855437,"line":11},{"time":1,"is_transit":false,"distance":973,"line":11,"station_name":"Gang Sentiong","i_lat":-6.185975,"transit":false,"station_id":"GST","i_long":106.850107},{"is_transit":false,"distance":1567,"station_name":"Pasar Senen","transit":false,"station_id":"PSE","i_lat":-6.174784,"i_long":106.84368,"line":11,"time":8},{"distance":1436,"station_name":"Kemayoran","is_transit":false,"station_id":"KMO","i_lat":-6.161728,"i_long":106.839204,"time":4,"line":11,"transit":false},{"station_id":"RJW","station_name":"Rajawali","transit":false,"line":11,"is_transit":false,"distance":1901,"i_long":106.836569,"i_lat":-6.14505,"time":5},{"station_id":"KPB","line":0,"time":3,"station_name":"Kampung Bandan","i_lat":-6.132549,"is_transit":true,"i_long":106.826365,"transit":true,"distance":1444},{"station_id":"AC","i_long":106.84464,"station_name":"Ancol","line":0,"time":4,"distance":2185,"is_transit":false,"i_lat":-6.128023,"transit":false},{"station_id":"TPK","time":9,"i_lat":-6.1109480000000005,"distance":4566,"transit":false,"station_name":"Tanjung Priuk","line":4,"i_long":106.880089,"is_transit":false}]]}