{"data":[[{"i_long":106.737035,"station_name":"Bojongindah","transit":false,"is_transit":false,"i_lat":-6.159876,"time":0,"station_id":"BOI","distance":0,"line":5},{"station_id":"TKO","line":5,"station_name":"Taman Kota","i_lat":-6.1587309999999995,"transit":false,"i_long":106.756522,"is_transit":false,"time":2,"distance":2334},{"i_lat":-6.161433,"station_id":"PSG","transit":false,"line":5,"distance":1614,"i_long":106.771379,"station_name":"Pesing","is_transit":false,"time":2},{"station_name":"Grogol","station_id":"GGL","is_transit":false,"distance":2036,"transit":false,"i_lat":-6.162021,"i_long":106.788277,"line":5,"time":2},{"station_id":"DU","distance":1700,"line":1,"i_long":106.800832,"station_name":"Duri","time":3,"is_transit":true,"i_lat":-6.155215,"transit":true},{"line":1,"station_id":"THB","i_long":106.811091,"transit":false,"is_transit":false,"station_name":"Tanah Abang","time":8,"distance":3632,"i_lat":-6.185545},{"i_long":106.816351,"transit":false,"line":1,"i_lat":-6.20132,"station_id":"KAT","time":5,"station_name":"Karet","is_transit":false,"distance":2029},{"distance":471,"is_transit":false,"station_name":"Sudirman Baru","time":1,"station_id":"SUDB","i_lat":-6.201433,"line":1,"transit":false,"i_long":106.819881},{"i_lat":-6.202263,"station_id":"SUD","time":1,"transit":false,"line":1,"station_name":"Sudirman","is_transit":false,"i_long":106.822649,"distance":280},{"time":4,"station_id":"MRI","transit":false,"i_lat":-6.209883,"distance":3186,"line":2,"i_long":106.84912,"station_name":"Manggarai","is_transit":false},{"i_long":106.858896,"time":2,"i_lat":-6.212485,"station_name":"Matraman","station_id":"MTR","distance":1275,"transit":false,"line":1,"is_transit":false},{"time":8,"i_lat":-6.215091,"is_transit":false,"i_long":106.86807400000001,"distance":1377,"station_name":"Jatinegara","line":1,"transit":false,"station_id":"JNG"},{"i_lat":-6.2135,"distance":3395,"is_transit":false,"station_id":"KLD","i_long":106.899548,"station_name":"Klender","line":1,"time":3,"transit":false},{"time":2,"i_lat":-6.215568,"distance":3100,"is_transit":false,"station_id":"BUA","transit":false,"i_long":106.922662,"station_name":"Buaran","line":1},{"i_long":106.939679,"transit":false,"time":1,"is_transit":false,"station_name":"Klenderbaru","line":1,"station_id":"KLDB","distance":1305,"i_lat":-6.217455},{"transit":false,"station_name":"Cakung","line":1,"is_transit":false,"i_lat":-6.219053,"i_long":106.951283,"time":8,"station_id":"CUK","distance":1385},{"is_transit":false,"station_id":"KRI","distance":3097,"line":1,"time":3,"i_lat":-6.224515,"i_long":106.977657,"transit":false,"station_name":"Kranji"},{"time":4,"transit":false,"is_transit":false,"station_name":"Bekasi","i_lat":-6.236616,"line":1,"station_id":"BKS","distance":2520,"i_long":106.997013},{"station_name":"Bekasi Timur","time":2,"transit":false,"i_lat":-6.248029,"distance":2368,"is_transit":false,"station_id":"BKST","i_long":107.016735,"line":1},{"i_long":107.055722,"line":1,"station_name":"Tambun","station_id":"TB","i_lat":-6.258864,"transit":false,"time":7,"distance":4460,"is_transit":false},{"is_transit":false,"distance":3420,"i_long":107.083084,"station_name":"Cibitung","station_id":"CIT","line":1,"time":3,"transit":false,"i_lat":-6.261877},{"is_transit":false,"distance":2800,"transit":false,"station_name":"Metland Telaga Murni","i_lat":-6.262938,"i_long":107.093313,"station_id":"TLM","line":1,"time":2},{"i_lat":-6.2553149999999995,"line":1,"station_name":"Cikarang","time":4,"distance":3689,"is_transit":false,"station_id":"CKR","i_long":107.144613,"transit":false}],[{"i_lat":-6.159876,"distance":0,"time":0,"station_name":"Bojongindah","transit":false,"line":5,"i_long":106.737035,"station_id":"BOI","is_transit":false},{"time":2,"i_long":106.756522,"i_lat":-6.1587309999999995,"transit":false,"is_transit":false,"line":5,"station_id":"TKO","station_name":"Taman Kota","distance":2334},{"station_name":"Pesing","station_id":"PSG","is_transit":false,"i_lat":-6.161433,"time":2,"transit":false,"i_long":106.771379,"distance":1614,"line":5},{"time":2,"transit":false,"is_transit":false,"station_id":"GGL","i_lat":-6.162021,"i_long":106.788277,"station_name":"Grogol","line":5,"distance":2036},{"distance":1700,"station_id":"DU","i_long":106.800832,"i_lat":-6.155215,"is_transit":true,"line":1,"transit":true,"station_name":"Duri","time":3},{"i_lat":-6.144674,"i_long":106.79867,"distance":1230,"station_id":"AK","transit":false,"time":4,"station_name":"Angke","line":1,"is_transit":false},{"line":4,"i_lat":-6.132549,"transit":true,"distance":4102,"time":9,"station_name":"Kampung Bandan","is_transit":true,"station_id":"KPB","i_long":106.826365},{"is_transit":false,"time":3,"distance":1444,"i_lat":-6.14505,"station_name":"Rajawali","i_long":106.836569,"station_id":"RJW","transit":false,"line":11},{"time":5,"i_lat":-6.161728,"is_transit":false,"i_long":106.839204,"transit":false,"station_name":"Kemayoran","station_id":"KMO","line":11,"distance":1901},{"is_transit":false,"distance":1436,"transit":false,"i_long":106.84368,"line":11,"station_name":"Pasar Senen","time":4,"station_id":"PSE","i_lat":-6.174784},{"station_name":"Gang Sentiong","is_transit":false,"distance":1567,"line":11,"station_id":"GST","i_long":106.850107,"transit":false,"time":8,"i_lat":-6.185975},{"i_lat":-6.193792,"i_long":106.855437,"line":11,"is_transit":false,"distance":973,"station_name":"Kramat","time":1,"transit":false,"station_id":"KMT"},{"station_id":"POK","station_name":"Pondok Jati","i_lat":-6.209188,"distance":1829,"i_long":106.861737,"line":11,"transit":false,"is_transit":false,"time":2},{"transit":true,"time":9,"is_transit":true,"distance":1236,"station_id":"JNG","i_lat":-6.215091,"i_long":106.86807400000001,"line":1,"station_name":"Jatinegara"},{"distance":3395,"is_transit":false,"station_id":"KLD","i_long":106.899548,"time":3,"line":1,"station_name":"Klender","transit":false,"i_lat":-6.2135},{"station_id":"BUA","transit":false,"i_lat":-6.215568,"i_long":106.922662,"station_name":"Buaran","line":1,"distance":3100,"time":2,"is_transit":false},{"i_long":106.939679,"distance":1305,"transit":false,"time":1,"i_lat":-6.217455,"station_id":"KLDB","line":1,"station_name":"Klenderbaru","is_transit":false},{"i_long":106.951283,"is_transit":false,"time":8,"transit":false,"station_name":"Cakung","distance":1385,"line":1,"i_lat":-6.219053,"station_id":"CUK"},{"station_name":"Kranji","station_id":"KRI","distance":3097,"time":3,"is_transit":false,"i_long":106.977657,"line":1,"transit":false,"i_lat":-6.224515},{"station_name":"Bekasi","i_long":106.997013,"is_transit":false,"i_lat":-6.236616,"distance":2520,"time":4,"line":1,"transit":false,"station_id":"BKS"},{"transit":false,"i_lat":-6.248029,"is_transit":false,"time":2,"station_id":"BKST","line":1,"station_name":"Bekasi Timur","i_long":107.016735,"distance":2368},{"i_long":107.055722,"station_name":"Tambun","is_transit":false,"line":1,"i_lat":-6.258864,"station_id":"TB","time":7,"distance":4460,"transit":false},{"station_id":"CIT","distance":3420,"i_long":107.083084,"station_name":"Cibitung","time":3,"i_lat":-6.261877,"transit":false,"is_transit":false,"line":1},{"time":2,"distance":2800,"is_transit":false,"station_id":"TLM","line":1,"station_name":"Metland Telaga Murni","i_long":107.093313,"transit":false,"i_lat":-6.262938},{"distance":3689,"line":1,"is_transit":false,"station_id":"CKR","i_lat":-6.2553149999999995,"i_long":107.144613,"time":4,"station_name":"Cikarang","transit":false}],[{"transit":false,"station_name":"Bojongindah","is_transit":false,"distance":0,"time":0,"line":5,"i_lat":-6.159876,"i_long":106.737035,"station_id":"BOI"},{"i_lat":-6.1587309999999995,"transit":false,"station_name":"Taman Kota","is_transit":false,"station_id":"TKO","time":2,"distance":2334,"line":5,"i_long":106.756522},{"i_lat":-6.161433,"station_name":"Pesing","is_transit":false,"distance":1614,"time":2,"line":5,"station_id":"PSG","transit":false,"i_long":106.771379},{"station_id":"GGL","i_long":106.788277,"is_transit":false,"time":2,"transit":false,"station_name":"Grogol","distance":2036,"i_lat":-6.162021,"line":5},{"station_id":"DU","i_long":106.800832,"i_lat":-6.155215,"distance":1700,"line":1,"time":3,"is_transit":true,"station_name":"Duri","transit":true},{"i_long":106.79867,"distance":1230,"station_name":"Angke","transit":false,"station_id":"AK","is_transit":false,"time":4,"i_lat":-6.144674,"line":1},{"station_name":"Kampung Bandan","time":9,"station_id":"KPB","i_long":106.826365,"i_lat":-6.132549,"line":4,"distance":4102,"is_transit":true,"transit":true},{"i_lat":-6.137569,"station_name":"Jakarta Kota","i_long":106.812439,"is_transit":true,"time":3,"distance":1364,"station_id":"JAKK","transit":true,"line":2},{"distance":1264,"station_name":"Jayakarta","i_lat":-6.141205,"line":2,"station_id":"JAY","time":4,"transit":false,"i_long":106.820901,"is_transit":false},{"line":2,"transit":false,"station_id":"MGB","i_long":106.82482,"station_name":"Manggabesar","time":2,"i_lat":-6.149769,"is_transit":false,"distance":1080},{"transit":false,"i_long":106.827103,"i_lat":-6.160725,"station_id":"SW","station_name":"Sawah Besar","time":2,"line":2,"is_transit":false,"distance":906},{"line":2,"station_name":"Juanda","time":2,"station_id":"JUA","is_transit":false,"transit":false,"i_lat":-6.166716,"distance":1149,"i_long":106.828284},{"station_name":"Gondangdia","distance":2015,"i_long":106.832183,"line":2,"is_transit":false,"station_id":"GDD","time":4,"transit":false,"i_lat":-6.186295},{"distance":1750,"i_long":106.840169,"line":2,"time":3,"station_name":"Cikini","i_lat":-6.198556,"is_transit":false,"transit":false,"station_id":"CKI"},{"time":4,"i_long":106.84912,"is_transit":true,"station_name":"Manggarai","distance":1590,"station_id":"MRI","i_lat":-6.209883,"transit":true,"line":2},{"station_id":"MTR","time":2,"station_name":"Matraman","is_transit":false,"distance":1275,"transit":false,"i_lat":-6.212485,"i_long":106.858896,"line":1},{"i_long":106.86807400000001,"line":1,"distance":1377,"i_lat":-6.215091,"is_transit":false,"time":8,"station_name":"Jatinegara","station_id":"JNG","transit":false},{"line":1,"time":3,"i_lat":-6.2135,"station_name":"Klender","is_transit":false,"station_id":"KLD","transit":false,"distance":3395,"i_long":106.899548},{"i_lat":-6.215568,"i_long":106.922662,"line":1,"station_name":"Buaran","station_id":"BUA","time":2,"distance":3100,"is_transit":false,"transit":false},{"time":1,"line":1,"station_id":"KLDB","station_name":"Klenderbaru","transit":false,"i_long":106.939679,"distance":1305,"i_lat":-6.217455,"is_transit":false},{"time":8,"transit":false,"distance":1385,"i_lat":-6.219053,"is_transit":false,"i_long":106.951283,"line":1,"station_id":"CUK","station_name":"Cakung"},{"distance":3097,"transit":false,"line":1,"station_id":"KRI","station_name":"Kranji","is_transit":false,"time":3,"i_lat":-6.224515,"i_long":106.977657},{"i_lat":-6.236616,"is_transit":false,"distance":2520,"time":4,"transit":false,"line":1,"station_name":"Bekasi","i_long":106.997013,"station_id":"BKS"},{"station_name":"Bekasi Timur","station_id":"BKST","i_lat":-6.248029,"transit":false,"is_transit":false,"time":2,"distance":2368,"i_long":107.016735,"line":1},{"station_id":"TB","transit":false,"i_long":107.055722,"is_transit":false,"distance":4460,"time":7,"line":1,"i_lat":-6.258864,"station_name":"Tambun"},{"is_transit":false,"station_name":"Cibitung","transit":false,"line":1,"time":3,"station_id":"CIT","distance":3420,"i_lat":-6.261877,"i_long":107.083084},{"line":1,"time":2,"distance":2800,"i_long":107.093313,"station_name":"Metland Telaga Murni","transit":false,"station_id":"TLM","is_transit":false,"i_lat":-6.262938},{"station_id":"CKR","time":4,"distance":3689,"is_transit":false,"station_name":"Cikarang","i_lat":-6.2553149999999995,"transit":false,"i_long":107.144613,"line":1}],[{"i_long":106.737035,"time":0,"line":5,"station_id":"BOI","distance":0,"transit":false,"station_name":"Bojongindah","is_transit":false,"i_lat":-6.159876},{"i_lat":-6.1587309999999995,"distance":2334,"time":2,"station_name":"Taman Kota","i_long":106.756522,"station_id":"TKO","line":5,"is_transit":false,"transit":false},{"i_long":106.771379,"distance":1614,"time":2,"line":5,"station_id":"PSG","is_transit":false,"station_name":"Pesing","i_lat":-6.161433,"transit":false},{"time":2,"distance":2036,"station_name":"Grogol","station_id":"GGL","i_long":106.788277,"is_transit":false,"line":5,"i_lat":-6.162021,"transit":false},{"i_lat":-6.155215,"distance":1700,"station_name":"Duri","time":3,"is_transit":true,"i_long":106.800832,"line":1,"transit":true,"station_id":"DU"},{"i_lat":-6.185545,"station_name":"Tanah Abang","distance":3632,"line":1,"is_transit":false,"transit":false,"i_long":106.811091,"time":8,"station_id":"THB"},{"transit":false,"i_long":106.816351,"station_id":"KAT","distance":2029,"station_name":"Karet","time":5,"line":1,"is_transit":false,"i_lat":-6.20132},{"station_name":"Sudirman Baru","distance":471,"i_long":106.819881,"time":1,"is_transit":false,"transit":false,"i_lat":-6.201433,"line":1,"station_id":"SUDB"},{"line":1,"station_id":"SUD","transit":false,"i_long":106.822649,"station_name":"Sudirman","distance":280,"is_transit":false,"time":1,"i_lat":-6.202263},{"time":4,"station_id":"MRI","transit":true,"i_lat":-6.209883,"i_long":106.84912,"station_name":"Manggarai","distance":3186,"is_transit":true,"line":2},{"station_name":"Cikini","line":2,"transit":false,"i_long":106.840169,"is_transit":false,"time":4,"station_id":"CKI","distance":1590,"i_lat":-6.198556},{"i_long":106.832183,"station_name":"Gondangdia","is_transit":false,"time":3,"i_lat":-6.186295,"line":2,"distance":1750,"transit":false,"station_id":"GDD"},{"line":2,"station_name":"Juanda","is_transit":false,"transit":false,"i_lat":-6.166716,"time":4,"station_id":"JUA","i_long":106.828284,"distance":2015},{"is_transit":false,"station_name":"Sawah Besar","distance":1149,"time":2,"transit":false,"i_long":106.827103,"i_lat":-6.160725,"line":2,"station_id":"SW"},{"i_lat":-6.149769,"distance":906,"line":2,"i_long":106.82482,"transit":false,"time":2,"station_id":"MGB","is_transit":false,"station_name":"Manggabesar"},{"i_long":106.820901,"line":2,"is_transit":false,"station_id":"JAY","i_lat":-6.141205,"station_name":"Jayakarta","distance":1080,"time":2,"transit":false},{"station_name":"Jakarta Kota","transit":true,"i_lat":-6.137569,"i_long":106.812439,"distance":1264,"line":2,"is_transit":true,"time":4,"station_id":"JAKK"},{"i_lat":-6.132549,"i_long":106.826365,"time":3,"distance":1364,"is_transit":true,"station_name":"Kampung Bandan","station_id":"KPB","transit":true,"line":4},{"is_transit":false,"time":3,"i_lat":-6.14505,"station_id":"RJW","i_long":106.836569,"station_name":"Rajawali","line":11,"distance":1444,"transit":false},{"line":11,"i_lat":-6.161728,"distance":1901,"station_id":"KMO","i_long":106.839204,"is_transit":false,"transit":false,"station_name":"Kemayoran","time":5},{"distance":1436,"time":4,"line":11,"station_id":"PSE","i_lat":-6.174784,"i_long":106.84368,"station_name":"Pasar Senen","is_transit":false,"transit":false},{"i_long":106.850107,"line":11,"station_id":"GST","station_name":"Gang Sentiong","transit":false,"time":8,"distance":1567,"i_lat":-6.185975,"is_transit":false},{"station_name":"Kramat","transit":false,"i_long":106.855437,"line":11,"is_transit":false,"station_id":"KMT","time":1,"i_lat":-6.193792,"distance":973},{"station_id":"POK","i_long":106.861737,"is_transit":false,"line":11,"distance":1829,"station_name":"Pondok Jati","time":2,"i_lat":-6.209188,"transit":false},{"station_name":"Jatinegara","i_lat":-6.215091,"station_id":"JNG","is_transit":true,"distance":1236,"time":9,"i_long":106.86807400000001,"line":1,"transit":true},{"is_transit":false,"station_id":"KLD","i_lat":-6.2135,"time":3,"i_long":106.899548,"station_name":"Klender","distance":3395,"transit":false,"line":1},{"time":2,"distance":3100,"is_transit":false,"station_name":"Buaran","transit":false,"i_lat":-6.215568,"line":1,"station_id":"BUA","i_long":106.922662},{"is_transit":false,"i_lat":-6.217455,"i_long":106.939679,"time":1,"distance":1305,"transit":false,"station_name":"Klenderbaru","station_id":"KLDB","line":1},{"is_transit":false,"i_long":106.951283,"transit":false,"line":1,"i_lat":-6.219053,"distance":1385,"station_id":"CUK","time":8,"station_name":"Cakung"},{"station_id":"KRI","i_lat":-6.224515,"i_long":106.977657,"time":3,"distance":3097,"transit":false,"line":1,"station_name":"Kranji","is_transit":false},{"line":1,"transit":false,"station_id":"BKS","station_name":"Bekasi","is_transit":false,"time":4,"i_long":106.997013,"i_lat":-6.236616,"distance":2520},{"time":2,"distance":2368,"is_transit":false,"transit":false,"i_long":107.016735,"station_name":"Bekasi Timur","line":1,"i_lat":-6.248029,"station_id":"BKST"},{"i_long":107.055722,"i_lat":-6.258864,"line":1,"station_name":"Tambun","time":7,"is_transit":false,"station_id":"TB","distance":4460,"transit":false},{"i_long":107.083084,"station_id":"CIT","time":3,"i_lat":-6.261877,"is_transit":false,"line":1,"distance":3420,"transit":false,"station_name":"Cibitung"},{"station_id":"TLM","distance":2800,"line":1,"time":2,"i_lat":-6.262938,"i_long":107.093313,"transit":false,"is_transit":false,"station_name":"Metland Telaga Murni"},{"station_name":"Cikarang","line":1,"distance":3689,"i_lat":-6.2553149999999995,"station_id":"CKR","i_long":107.144613,"transit":false,"time":4,"is_transit":false}]]}