{"data":[[{"distance":0,"i_long":106.737035,"time":0,"i_lat":-6.159876,"station_name":"Bojongindah","station_id":"BOI","transit":false,"line":5,"is_transit":false},{"distance":2334,"i_long":106.756522,"i_lat":-6.1587309999999995,"line":5,"is_transit":false,"station_id":"TKO","transit":false,"time":2,"station_name":"Taman Kota"},{"station_name":"Pesing","i_long":106.771379,"is_transit":false,"time":2,"distance":1614,"transit":false,"station_id":"PSG","i_lat":-6.161433,"line":5},{"transit":false,"i_long":106.788277,"line":5,"is_transit":false,"distance":2036,"time":2,"i_lat":-6.162021,"station_id":"GGL","station_name":"Grogol"},{"station_id":"DU","line":1,"station_name":"Duri","distance":1700,"i_long":106.800832,"is_transit":true,"transit":true,"i_lat":-6.155215,"time":3},{"time":8,"station_name":"Tanah Abang","is_transit":false,"i_lat":-6.185545,"i_long":106.811091,"distance":3632,"transit":false,"station_id":"THB","line":1},{"transit":false,"i_lat":-6.20132,"station_name":"Karet","station_id":"KAT","is_transit":false,"i_long":106.816351,"line":1,"time":5,"distance":2029},{"is_transit":false,"i_lat":-6.201433,"i_long":106.819881,"distance":471,"time":1,"line":1,"transit":false,"station_id":"SUDB","station_name":"Sudirman Baru"},{"line":1,"distance":280,"time":1,"transit":false,"is_transit":false,"station_id":"SUD","i_long":106.822649,"station_name":"Sudirman","i_lat":-6.202263},{"time":4,"station_name":"Manggarai","transit":false,"line":2,"is_transit":false,"i_lat":-6.209883,"i_long":106.84912,"distance":3186,"station_id":"MRI"},{"is_transit":false,"i_lat":-6.212485,"line":1,"transit":false,"station_name":"Matraman","time":2,"station_id":"MTR","distance":1275,"i_long":106.858896},{"transit":false,"line":1,"time":8,"distance":1377,"station_id":"JNG","i_lat":-6.215091,"station_name":"Jatinegara","is_transit":false,"i_long":106.86807400000001}],[{"station_id":"BOI","transit":false,"i_lat":-6.159876,"line":5,"station_name":"Bojongindah","i_long":106.737035,"distance":0,"time":0,"is_transit":false},{"is_transit":false,"distance":2334,"time":2,"station_id":"TKO","station_name":"Taman Kota","i_lat":-6.1587309999999995,"transit":false,"i_long":106.756522,"line":5},{"i_long":106.771379,"line":5,"station_name":"Pesing","is_transit":false,"transit":false,"distance":1614,"i_lat":-6.161433,"time":2,"station_id":"PSG"},{"line":5,"distance":2036,"station_id":"GGL","i_long":106.788277,"i_lat":-6.162021,"time":2,"station_name":"Grogol","is_transit":false,"transit":false},{"is_transit":true,"i_long":106.800832,"line":1,"time":3,"distance":1700,"station_id":"DU","i_lat":-6.155215,"transit":true,"station_name":"Duri"},{"i_lat":-6.144674,"station_id":"AK","station_name":"Angke","time":4,"transit":false,"line":1,"distance":1230,"is_transit":false,"i_long":106.79867},{"transit":true,"line":4,"i_lat":-6.132549,"i_long":106.826365,"distance":4102,"station_name":"Kampung Bandan","is_transit":true,"time":9,"station_id":"KPB"},{"i_long":106.836569,"line":11,"station_name":"Rajawali","distance":1444,"transit":false,"is_transit":false,"time":3,"station_id":"RJW","i_lat":-6.14505},{"station_name":"Kemayoran","i_lat":-6.161728,"i_long":106.839204,"line":11,"transit":false,"time":5,"is_transit":false,"distance":1901,"station_id":"KMO"},{"distance":1436,"station_id":"PSE","is_transit":false,"line":11,"station_name":"Pasar Senen","i_lat":-6.174784,"i_long":106.84368,"time":4,"transit":false},{"station_name":"Gang Sentiong","transit":false,"i_lat":-6.185975,"is_transit":false,"line":11,"distance":1567,"i_long":106.850107,"station_id":"GST","time":8},{"transit":false,"is_transit":false,"i_long":106.855437,"distance":973,"i_lat":-6.193792,"station_id":"KMT","line":11,"time":1,"station_name":"Kramat"},{"transit":false,"i_lat":-6.209188,"time":2,"line":11,"is_transit":false,"distance":1829,"station_id":"POK","station_name":"Pondok Jati","i_long":106.861737},{"station_id":"JNG","distance":1236,"is_transit":false,"i_long":106.86807400000001,"transit":false,"i_lat":-6.215091,"line":1,"time":9,"station_name":"Jatinegara"}],[{"transit":false,"station_id":"BOI","distance":0,"is_transit":false,"line":5,"station_name":"Bojongindah","i_long":106.737035,"i_lat":-6.159876,"time":0},{"is_transit":false,"station_name":"Taman Kota","i_long":106.756522,"line":5,"time":2,"station_id":"TKO","distance":2334,"transit":false,"i_lat":-6.1587309999999995},{"transit":false,"i_long":106.771379,"station_name":"Pesing","is_transit":false,"i_lat":-6.161433,"station_id":"PSG","time":2,"line":5,"distance":1614},{"station_id":"GGL","line":5,"transit":false,"distance":2036,"station_name":"Grogol","is_transit":false,"time":2,"i_lat":-6.162021,"i_long":106.788277},{"line":1,"i_lat":-6.155215,"time":3,"station_id":"DU","is_transit":true,"i_long":106.800832,"distance":1700,"transit":true,"station_name":"Duri"},{"i_long":106.79867,"time":4,"line":1,"is_transit":false,"transit":false,"i_lat":-6.144674,"station_name":"Angke","distance":1230,"station_id":"AK"},{"line":4,"station_name":"Kampung Bandan","transit":true,"time":9,"i_lat":-6.132549,"station_id":"KPB","is_transit":true,"distance":4102,"i_long":106.826365},{"station_name":"Jakarta Kota","time":3,"line":2,"i_long":106.812439,"i_lat":-6.137569,"station_id":"JAKK","is_transit":true,"transit":true,"distance":1364},{"transit":false,"time":4,"station_id":"JAY","station_name":"Jayakarta","i_long":106.820901,"distance":1264,"i_lat":-6.141205,"line":2,"is_transit":false},{"time":2,"distance":1080,"station_name":"Manggabesar","transit":false,"i_long":106.82482,"is_transit":false,"station_id":"MGB","line":2,"i_lat":-6.149769},{"is_transit":false,"distance":906,"time":2,"station_name":"Sawah Besar","transit":false,"i_lat":-6.160725,"station_id":"SW","i_long":106.827103,"line":2},{"station_name":"Juanda","time":2,"distance":1149,"station_id":"JUA","is_transit":false,"transit":false,"i_lat":-6.166716,"i_long":106.828284,"line":2},{"time":4,"distance":2015,"transit":false,"station_name":"Gondangdia","station_id":"GDD","is_transit":false,"i_long":106.832183,"line":2,"i_lat":-6.186295},{"station_name":"Cikini","time":3,"i_lat":-6.198556,"line":2,"is_transit":false,"station_id":"CKI","i_long":106.840169,"transit":false,"distance":1750},{"transit":true,"station_name":"Manggarai","distance":1590,"i_long":106.84912,"is_transit":true,"i_lat":-6.209883,"line":2,"time":4,"station_id":"MRI"},{"is_transit":false,"station_name":"Matraman","line":1,"time":2,"distance":1275,"transit":false,"i_lat":-6.212485,"station_id":"MTR","i_long":106.858896},{"line":1,"i_lat":-6.215091,"is_transit":false,"station_id":"JNG","station_name":"Jatinegara","i_long":106.86807400000001,"transit":false,"time":8,"distance":1377}],[{"transit":false,"is_transit":false,"time":0,"distance":0,"station_id":"BOI","line":5,"i_long":106.737035,"i_lat":-6.159876,"station_name":"Bojongindah"},{"i_lat":-6.1587309999999995,"station_name":"Taman Kota","line":5,"transit":false,"station_id":"TKO","distance":2334,"time":2,"is_transit":false,"i_long":106.756522},{"time":2,"i_long":106.771379,"transit":false,"line":5,"i_lat":-6.161433,"distance":1614,"station_id":"PSG","is_transit":false,"station_name":"Pesing"},{"station_id":"GGL","is_transit":false,"distance":2036,"i_long":106.788277,"time":2,"i_lat":-6.162021,"transit":false,"line":5,"station_name":"Grogol"},{"transit":true,"i_long":106.800832,"is_transit":true,"distance":1700,"station_id":"DU","i_lat":-6.155215,"line":1,"station_name":"Duri","time":3},{"distance":3632,"line":1,"transit":false,"i_lat":-6.185545,"is_transit":false,"i_long":106.811091,"station_id":"THB","time":8,"station_name":"Tanah Abang"},{"time":5,"station_name":"Karet","distance":2029,"i_long":106.816351,"is_transit":false,"line":1,"i_lat":-6.20132,"transit":false,"station_id":"KAT"},{"station_name":"Sudirman Baru","i_lat":-6.201433,"distance":471,"i_long":106.819881,"station_id":"SUDB","is_transit":false,"line":1,"time":1,"transit":false},{"station_id":"SUD","distance":280,"station_name":"Sudirman","is_transit":false,"time":1,"transit":false,"i_lat":-6.202263,"i_long":106.822649,"line":1},{"station_id":"MRI","i_lat":-6.209883,"i_long":106.84912,"time":4,"line":2,"station_name":"Manggarai","distance":3186,"is_transit":true,"transit":true},{"station_id":"CKI","time":4,"is_transit":false,"i_long":106.840169,"distance":1590,"transit":false,"i_lat":-6.198556,"line":2,"station_name":"Cikini"},{"station_id":"GDD","station_name":"Gondangdia","is_transit":false,"time":3,"transit":false,"line":2,"i_long":106.832183,"i_lat":-6.186295,"distance":1750},{"transit":false,"i_long":106.828284,"is_transit":false,"station_name":"Juanda","distance":2015,"station_id":"JUA","time":4,"i_lat":-6.166716,"line":2},{"station_name":"Sawah Besar","distance":1149,"is_transit":false,"i_long":106.827103,"station_id":"SW","time":2,"line":2,"i_lat":-6.160725,"transit":false},{"i_long":106.82482,"distance":906,"time":2,"transit":false,"line":2,"station_name":"Manggabesar","is_transit":false,"i_lat":-6.149769,"station_id":"MGB"},{"is_transit":false,"i_long":106.820901,"i_lat":-6.141205,"line":2,"station_id":"JAY","station_name":"Jayakarta","time":2,"distance":1080,"transit":false},{"distance":1264,"line":2,"i_lat":-6.137569,"station_name":"Jakarta Kota","is_transit":true,"transit":true,"station_id":"JAKK","time":4,"i_long":106.812439},{"i_long":106.826365,"transit":true,"line":4,"is_transit":true,"i_lat":-6.132549,"distance":1364,"station_id":"KPB","station_name":"Kampung Bandan","time":3},{"station_id":"RJW","time":3,"line":11,"i_long":106.836569,"distance":1444,"station_name":"Rajawali","is_transit":false,"transit":false,"i_lat":-6.14505},{"line":11,"is_transit":false,"i_lat":-6.161728,"station_name":"Kemayoran","station_id":"KMO","distance":1901,"transit":false,"i_long":106.839204,"time":5},{"is_transit":false,"distance":1436,"i_long":106.84368,"time":4,"i_lat":-6.174784,"transit":false,"station_id":"PSE","line":11,"station_name":"Pasar Senen"},{"i_long":106.850107,"is_transit":false,"transit":false,"station_id":"GST","i_lat":-6.185975,"time":8,"line":11,"distance":1567,"station_name":"Gang Sentiong"},{"i_long":106.855437,"station_id":"KMT","line":11,"i_lat":-6.193792,"distance":973,"transit":false,"time":1,"station_name":"Kramat","is_transit":false},{"distance":1829,"is_transit":false,"transit":false,"i_lat":-6.209188,"station_name":"Pondok Jati","time":2,"station_id":"POK","i_long":106.861737,"line":11},{"i_lat":-6.215091,"i_long":106.86807400000001,"station_name":"Jatinegara","transit":false,"line":1,"time":9,"is_transit":false,"distance":1236,"station_id":"JNG"}]]}