{"data":[[{"station_id":"BOI","transit":false,"line":5,"i_lat":-6.159876,"time":0,"is_transit":false,"station_name":"Bojongindah","i_long":106.737035,"distance":0},{"is_transit":false,"station_id":"TKO","transit":false,"distance":2334,"i_long":106.756522,"station_name":"Taman Kota","time":2,"line":5,"i_lat":-6.1587309999999995},{"distance":1614,"time":2,"i_long":106.771379,"station_name":"Pesing","transit":false,"i_lat":-6.161433,"is_transit":false,"line":5,"station_id":"PSG"},{"transit":false,"distance":2036,"is_transit":false,"i_lat":-6.162021,"line":5,"i_long":106.788277,"station_name":"Grogol","station_id":"GGL","time":2},{"station_name":"Duri","station_id":"DU","is_transit":true,"i_long":106.800832,"distance":1700,"time":3,"line":1,"i_lat":-6.155215,"transit":true},{"station_name":"Tanah Abang","is_transit":false,"distance":3632,"i_lat":-6.185545,"line":1,"i_long":106.811091,"station_id":"THB","time":8,"transit":false},{"distance":2029,"time":5,"i_lat":-6.20132,"is_transit":false,"station_name":"Karet","station_id":"KAT","line":1,"transit":false,"i_long":106.816351},{"line":1,"transit":false,"is_transit":false,"i_lat":-6.201433,"i_long":106.819881,"time":1,"distance":471,"station_name":"Sudirman Baru","station_id":"SUDB"},{"distance":280,"i_lat":-6.202263,"station_id":"SUD","transit":false,"i_long":106.822649,"time":1,"is_transit":false,"station_name":"Sudirman","line":1},{"station_name":"Manggarai","i_lat":-6.209883,"distance":3186,"station_id":"MRI","is_transit":false,"time":4,"i_long":106.84912,"transit":false,"line":2},{"time":2,"is_transit":false,"i_long":106.858896,"distance":1275,"transit":false,"station_name":"Matraman","line":1,"station_id":"MTR","i_lat":-6.212485},{"station_name":"Jatinegara","time":8,"line":1,"station_id":"JNG","transit":false,"is_transit":false,"i_lat":-6.215091,"distance":1377,"i_long":106.86807400000001},{"i_long":106.899548,"is_transit":false,"transit":false,"distance":3395,"station_id":"KLD","time":3,"station_name":"Klender","line":1,"i_lat":-6.2135},{"is_transit":false,"distance":3100,"i_lat":-6.215568,"line":1,"station_name":"Buaran","i_long":106.922662,"time":2,"transit":false,"station_id":"BUA"},{"is_transit":false,"transit":false,"station_id":"KLDB","distance":1305,"line":1,"i_lat":-6.217455,"i_long":106.939679,"station_name":"Klenderbaru","time":1},{"distance":1385,"station_id":"CUK","station_name":"Cakung","line":1,"time":8,"transit":false,"i_lat":-6.219053,"is_transit":false,"i_long":106.951283}],[{"is_transit":false,"time":0,"station_id":"BOI","distance":0,"transit":false,"line":5,"i_lat":-6.159876,"station_name":"Bojongindah","i_long":106.737035},{"is_transit":false,"station_id":"TKO","station_name":"Taman Kota","transit":false,"distance":2334,"time":2,"line":5,"i_lat":-6.1587309999999995,"i_long":106.756522},{"i_lat":-6.161433,"time":2,"distance":1614,"station_id":"PSG","i_long":106.771379,"is_transit":false,"transit":false,"line":5,"station_name":"Pesing"},{"is_transit":false,"time":2,"transit":false,"line":5,"station_id":"GGL","i_long":106.788277,"distance":2036,"station_name":"Grogol","i_lat":-6.162021},{"transit":true,"i_lat":-6.155215,"time":3,"distance":1700,"i_long":106.800832,"line":1,"is_transit":true,"station_id":"DU","station_name":"Duri"},{"time":4,"station_id":"AK","is_transit":false,"i_lat":-6.144674,"i_long":106.79867,"line":1,"transit":false,"distance":1230,"station_name":"Angke"},{"is_transit":true,"transit":true,"station_name":"Kampung Bandan","i_lat":-6.132549,"distance":4102,"time":9,"line":4,"i_long":106.826365,"station_id":"KPB"},{"i_lat":-6.14505,"station_id":"RJW","distance":1444,"is_transit":false,"transit":false,"i_long":106.836569,"line":11,"station_name":"Rajawali","time":3},{"is_transit":false,"station_id":"KMO","station_name":"Kemayoran","time":5,"i_lat":-6.161728,"i_long":106.839204,"distance":1901,"transit":false,"line":11},{"station_name":"Pasar Senen","distance":1436,"i_long":106.84368,"is_transit":false,"i_lat":-6.174784,"line":11,"transit":false,"station_id":"PSE","time":4},{"time":8,"line":11,"station_id":"GST","i_lat":-6.185975,"is_transit":false,"distance":1567,"transit":false,"station_name":"Gang Sentiong","i_long":106.850107},{"transit":false,"station_name":"Kramat","i_long":106.855437,"line":11,"i_lat":-6.193792,"is_transit":false,"distance":973,"time":1,"station_id":"KMT"},{"is_transit":false,"line":11,"station_name":"Pondok Jati","distance":1829,"i_long":106.861737,"station_id":"POK","time":2,"transit":false,"i_lat":-6.209188},{"station_name":"Jatinegara","i_long":106.86807400000001,"transit":true,"is_transit":true,"time":9,"line":1,"i_lat":-6.215091,"distance":1236,"station_id":"JNG"},{"line":1,"i_lat":-6.2135,"transit":false,"station_id":"KLD","is_transit":false,"time":3,"distance":3395,"station_name":"Klender","i_long":106.899548},{"distance":3100,"line":1,"i_long":106.922662,"is_transit":false,"i_lat":-6.215568,"station_name":"Buaran","station_id":"BUA","time":2,"transit":false},{"time":1,"station_id":"KLDB","station_name":"Klenderbaru","distance":1305,"line":1,"i_lat":-6.217455,"is_transit":false,"transit":false,"i_long":106.939679},{"station_id":"CUK","time":8,"distance":1385,"transit":false,"station_name":"Cakung","line":1,"i_lat":-6.219053,"i_long":106.951283,"is_transit":false}],[{"i_lat":-6.159876,"is_transit":false,"station_id":"BOI","time":0,"i_long":106.737035,"line":5,"transit":false,"distance":0,"station_name":"Bojongindah"},{"line":5,"station_name":"Taman Kota","time":2,"transit":false,"i_long":106.756522,"i_lat":-6.1587309999999995,"station_id":"TKO","is_transit":false,"distance":2334},{"station_id":"PSG","is_transit":false,"distance":1614,"i_long":106.771379,"line":5,"transit":false,"i_lat":-6.161433,"station_name":"Pesing","time":2},{"station_id":"GGL","i_lat":-6.162021,"is_transit":false,"distance":2036,"time":2,"transit":false,"i_long":106.788277,"station_name":"Grogol","line":5},{"station_name":"Duri","distance":1700,"line":1,"transit":true,"is_transit":true,"time":3,"i_long":106.800832,"i_lat":-6.155215,"station_id":"DU"},{"station_name":"Angke","i_long":106.79867,"transit":false,"distance":1230,"is_transit":false,"line":1,"station_id":"AK","time":4,"i_lat":-6.144674},{"station_name":"Kampung Bandan","i_long":106.826365,"distance":4102,"time":9,"station_id":"KPB","i_lat":-6.132549,"is_transit":true,"line":4,"transit":true},{"is_transit":true,"station_id":"JAKK","station_name":"Jakarta Kota","time":3,"transit":true,"i_lat":-6.137569,"distance":1364,"line":2,"i_long":106.812439},{"distance":1264,"is_transit":false,"line":2,"station_id":"JAY","station_name":"Jayakarta","i_lat":-6.141205,"time":4,"transit":false,"i_long":106.820901},{"transit":false,"i_lat":-6.149769,"line":2,"time":2,"is_transit":false,"i_long":106.82482,"station_id":"MGB","station_name":"Manggabesar","distance":1080},{"station_id":"SW","station_name":"Sawah Besar","line":2,"is_transit":false,"distance":906,"time":2,"i_long":106.827103,"transit":false,"i_lat":-6.160725},{"line":2,"distance":1149,"is_transit":false,"station_id":"JUA","time":2,"station_name":"Juanda","i_lat":-6.166716,"i_long":106.828284,"transit":false},{"time":4,"is_transit":false,"i_lat":-6.186295,"station_name":"Gondangdia","distance":2015,"i_long":106.832183,"line":2,"station_id":"GDD","transit":false},{"i_long":106.840169,"time":3,"is_transit":false,"station_id":"CKI","station_name":"Cikini","line":2,"transit":false,"distance":1750,"i_lat":-6.198556},{"station_id":"MRI","time":4,"line":2,"station_name":"Manggarai","i_long":106.84912,"transit":true,"is_transit":true,"distance":1590,"i_lat":-6.209883},{"transit":false,"line":1,"station_id":"MTR","i_long":106.858896,"i_lat":-6.212485,"is_transit":false,"distance":1275,"time":2,"station_name":"Matraman"},{"transit":false,"distance":1377,"i_lat":-6.215091,"is_transit":false,"station_name":"Jatinegara","time":8,"i_long":106.86807400000001,"station_id":"JNG","line":1},{"time":3,"transit":false,"is_transit":false,"i_long":106.899548,"distance":3395,"station_id":"KLD","station_name":"Klender","i_lat":-6.2135,"line":1},{"line":1,"transit":false,"time":2,"i_long":106.922662,"distance":3100,"station_id":"BUA","i_lat":-6.215568,"station_name":"Buaran","is_transit":false},{"station_id":"KLDB","station_name":"Klenderbaru","i_long":106.939679,"time":1,"is_transit":false,"distance":1305,"i_lat":-6.217455,"transit":false,"line":1},{"transit":false,"i_long":106.951283,"distance":1385,"station_id":"CUK","station_name":"Cakung","i_lat":-6.219053,"line":1,"time":8,"is_transit":false}],[{"line":5,"station_name":"Bojongindah","i_lat":-6.159876,"distance":0,"station_id":"BOI","transit":false,"i_long":106.737035,"is_transit":false,"time":0},{"station_id":"TKO","distance":2334,"station_name":"Taman Kota","i_lat":-6.1587309999999995,"is_transit":false,"time":2,"transit":false,"line":5,"i_long":106.756522},{"is_transit":false,"i_lat":-6.161433,"line":5,"station_id":"PSG","distance":1614,"i_long":106.771379,"station_name":"Pesing","transit":false,"time":2},{"is_transit":false,"time":2,"i_long":106.788277,"station_id":"GGL","distance":2036,"i_lat":-6.162021,"transit":false,"station_name":"Grogol","line":5},{"i_long":106.800832,"i_lat":-6.155215,"station_id":"DU","line":1,"time":3,"is_transit":true,"transit":true,"distance":1700,"station_name":"Duri"},{"i_long":106.811091,"station_id":"THB","line":1,"time":8,"transit":false,"is_transit":false,"distance":3632,"station_name":"Tanah Abang","i_lat":-6.185545},{"i_long":106.816351,"distance":2029,"line":1,"station_id":"KAT","i_lat":-6.20132,"station_name":"Karet","is_transit":false,"transit":false,"time":5},{"station_id":"SUDB","is_transit":false,"i_long":106.819881,"station_name":"Sudirman Baru","line":1,"transit":false,"time":1,"i_lat":-6.201433,"distance":471},{"transit":false,"station_name":"Sudirman","is_transit":false,"station_id":"SUD","line":1,"i_lat":-6.202263,"distance":280,"time":1,"i_long":106.822649},{"station_id":"MRI","time":4,"station_name":"Manggarai","i_long":106.84912,"i_lat":-6.209883,"line":2,"is_transit":true,"transit":true,"distance":3186},{"distance":1590,"time":4,"transit":false,"line":2,"station_id":"CKI","i_long":106.840169,"is_transit":false,"i_lat":-6.198556,"station_name":"Cikini"},{"is_transit":false,"distance":1750,"time":3,"transit":false,"station_name":"Gondangdia","i_lat":-6.186295,"line":2,"i_long":106.832183,"station_id":"GDD"},{"time":4,"transit":false,"i_lat":-6.166716,"is_transit":false,"station_id":"JUA","station_name":"Juanda","i_long":106.828284,"line":2,"distance":2015},{"transit":false,"is_transit":false,"distance":1149,"station_name":"Sawah Besar","i_long":106.827103,"line":2,"i_lat":-6.160725,"station_id":"SW","time":2},{"distance":906,"time":2,"is_transit":false,"station_name":"Manggabesar","i_lat":-6.149769,"i_long":106.82482,"line":2,"station_id":"MGB","transit":false},{"i_lat":-6.141205,"transit":false,"time":2,"i_long":106.820901,"is_transit":false,"line":2,"station_id":"JAY","distance":1080,"station_name":"Jayakarta"},{"transit":true,"station_id":"JAKK","is_transit":true,"i_lat":-6.137569,"line":2,"distance":1264,"time":4,"station_name":"Jakarta Kota","i_long":106.812439},{"i_lat":-6.132549,"is_transit":true,"station_id":"KPB","i_long":106.826365,"line":4,"transit":true,"time":3,"distance":1364,"station_name":"Kampung Bandan"},{"time":3,"i_long":106.836569,"transit":false,"line":11,"is_transit":false,"station_id":"RJW","i_lat":-6.14505,"station_name":"Rajawali","distance":1444},{"station_name":"Kemayoran","time":5,"transit":false,"i_long":106.839204,"line":11,"distance":1901,"is_transit":false,"station_id":"KMO","i_lat":-6.161728},{"transit":false,"station_name":"Pasar Senen","i_lat":-6.174784,"time":4,"i_long":106.84368,"line":11,"is_transit":false,"distance":1436,"station_id":"PSE"},{"distance":1567,"transit":false,"is_transit":false,"i_lat":-6.185975,"station_id":"GST","i_long":106.850107,"line":11,"station_name":"Gang Sentiong","time":8},{"distance":973,"station_name":"Kramat","i_lat":-6.193792,"i_long":106.855437,"time":1,"station_id":"KMT","is_transit":false,"transit":false,"line":11},{"i_long":106.861737,"distance":1829,"transit":false,"line":11,"time":2,"is_transit":false,"station_id":"POK","station_name":"Pondok Jati","i_lat":-6.209188},{"transit":true,"i_lat":-6.215091,"time":9,"station_name":"Jatinegara","i_long":106.86807400000001,"is_transit":true,"station_id":"JNG","line":1,"distance":1236},{"is_transit":false,"distance":3395,"transit":false,"i_long":106.899548,"i_lat":-6.2135,"station_name":"Klender","line":1,"station_id":"KLD","time":3},{"i_lat":-6.215568,"distance":3100,"station_id":"BUA","time":2,"i_long":106.922662,"station_name":"Buaran","is_transit":false,"transit":false,"line":1},{"i_lat":-6.217455,"distance":1305,"transit":false,"station_name":"Klenderbaru","time":1,"i_long":106.939679,"is_transit":false,"line":1,"station_id":"KLDB"},{"transit":false,"time":8,"i_lat":-6.219053,"is_transit":false,"distance":1385,"i_long":106.951283,"station_name":"Cakung","line":1,"station_id":"CUK"}]]}