{"data":[[{"i_lat":-6.159876,"distance":0,"station_id":"BOI","is_transit":false,"i_long":106.737035,"transit":false,"station_name":"Bojongindah","line":5,"time":0},{"distance":2334,"is_transit":false,"transit":false,"line":5,"time":2,"i_lat":-6.1587309999999995,"i_long":106.756522,"station_id":"TKO","station_name":"Taman Kota"},{"transit":false,"line":5,"distance":1614,"station_name":"Pesing","i_long":106.771379,"time":2,"station_id":"PSG","i_lat":-6.161433,"is_transit":false},{"station_id":"GGL","distance":2036,"line":5,"transit":false,"i_lat":-6.162021,"station_name":"Grogol","time":2,"is_transit":false,"i_long":106.788277},{"is_transit":true,"distance":1700,"time":3,"station_name":"Duri","transit":true,"station_id":"DU","i_long":106.800832,"line":1,"i_lat":-6.155215},{"station_name":"Tanah Abang","is_transit":false,"i_lat":-6.185545,"station_id":"THB","i_long":106.811091,"line":1,"distance":3632,"transit":false,"time":8},{"distance":2029,"station_id":"KAT","i_long":106.816351,"is_transit":false,"transit":false,"i_lat":-6.20132,"line":1,"station_name":"Karet","time":5},{"i_lat":-6.201433,"transit":false,"is_transit":false,"line":1,"distance":471,"station_id":"SUDB","time":1,"station_name":"Sudirman Baru","i_long":106.819881},{"station_name":"Sudirman","time":1,"is_transit":false,"distance":280,"i_lat":-6.202263,"i_long":106.822649,"line":1,"station_id":"SUD","transit":false},{"time":4,"distance":3186,"i_lat":-6.209883,"station_id":"MRI","station_name":"Manggarai","transit":false,"i_long":106.84912,"is_transit":false,"line":2},{"i_lat":-6.212485,"station_name":"Matraman","time":2,"is_transit":false,"line":1,"i_long":106.858896,"station_id":"MTR","distance":1275,"transit":false},{"time":8,"i_lat":-6.215091,"station_id":"JNG","is_transit":false,"line":1,"distance":1377,"station_name":"Jatinegara","transit":false,"i_long":106.86807400000001},{"line":1,"i_lat":-6.2135,"i_long":106.899548,"time":3,"is_transit":false,"distance":3395,"transit":false,"station_id":"KLD","station_name":"Klender"},{"time":2,"i_long":106.922662,"line":1,"distance":3100,"i_lat":-6.215568,"transit":false,"is_transit":false,"station_name":"Buaran","station_id":"BUA"},{"line":1,"time":1,"transit":false,"i_long":106.939679,"distance":1305,"station_id":"KLDB","station_name":"Klenderbaru","is_transit":false,"i_lat":-6.217455},{"i_lat":-6.219053,"i_long":106.951283,"distance":1385,"station_id":"CUK","line":1,"station_name":"Cakung","is_transit":false,"transit":false,"time":8}],[{"distance":0,"i_lat":-6.159876,"line":5,"time":0,"station_id":"BOI","station_name":"Bojongindah","transit":false,"i_long":106.737035,"is_transit":false},{"distance":2334,"station_id":"TKO","time":2,"is_transit":false,"transit":false,"i_long":106.756522,"i_lat":-6.1587309999999995,"line":5,"station_name":"Taman Kota"},{"i_long":106.771379,"distance":1614,"is_transit":false,"line":5,"station_id":"PSG","station_name":"Pesing","i_lat":-6.161433,"transit":false,"time":2},{"i_long":106.788277,"time":2,"station_name":"Grogol","station_id":"GGL","i_lat":-6.162021,"distance":2036,"is_transit":false,"line":5,"transit":false},{"transit":true,"station_id":"DU","i_long":106.800832,"is_transit":true,"time":3,"line":1,"i_lat":-6.155215,"distance":1700,"station_name":"Duri"},{"time":4,"line":1,"i_lat":-6.144674,"station_id":"AK","transit":false,"distance":1230,"is_transit":false,"i_long":106.79867,"station_name":"Angke"},{"station_name":"Kampung Bandan","i_lat":-6.132549,"line":4,"distance":4102,"time":9,"is_transit":true,"transit":true,"i_long":106.826365,"station_id":"KPB"},{"is_transit":false,"line":11,"station_id":"RJW","time":3,"distance":1444,"transit":false,"i_long":106.836569,"i_lat":-6.14505,"station_name":"Rajawali"},{"is_transit":false,"station_id":"KMO","i_lat":-6.161728,"i_long":106.839204,"time":5,"line":11,"distance":1901,"station_name":"Kemayoran","transit":false},{"station_name":"Pasar Senen","transit":false,"distance":1436,"i_lat":-6.174784,"station_id":"PSE","line":11,"i_long":106.84368,"time":4,"is_transit":false},{"station_id":"GST","distance":1567,"transit":false,"i_long":106.850107,"i_lat":-6.185975,"time":8,"line":11,"is_transit":false,"station_name":"Gang Sentiong"},{"station_name":"Kramat","i_long":106.855437,"transit":false,"line":11,"station_id":"KMT","time":1,"is_transit":false,"i_lat":-6.193792,"distance":973},{"line":11,"i_lat":-6.209188,"is_transit":false,"distance":1829,"station_name":"Pondok Jati","i_long":106.861737,"station_id":"POK","time":2,"transit":false},{"station_name":"Jatinegara","distance":1236,"is_transit":true,"time":9,"i_long":106.86807400000001,"station_id":"JNG","i_lat":-6.215091,"line":1,"transit":true},{"time":3,"station_id":"KLD","i_lat":-6.2135,"line":1,"is_transit":false,"transit":false,"station_name":"Klender","i_long":106.899548,"distance":3395},{"station_id":"BUA","distance":3100,"station_name":"Buaran","i_long":106.922662,"is_transit":false,"time":2,"line":1,"transit":false,"i_lat":-6.215568},{"is_transit":false,"transit":false,"line":1,"station_name":"Klenderbaru","time":1,"i_lat":-6.217455,"distance":1305,"station_id":"KLDB","i_long":106.939679},{"transit":false,"station_name":"Cakung","station_id":"CUK","distance":1385,"i_lat":-6.219053,"time":8,"i_long":106.951283,"line":1,"is_transit":false}],[{"station_id":"BOI","line":5,"distance":0,"transit":false,"i_long":106.737035,"station_name":"Bojongindah","is_transit":false,"i_lat":-6.159876,"time":0},{"station_name":"Taman Kota","transit":false,"station_id":"TKO","i_long":106.756522,"i_lat":-6.1587309999999995,"line":5,"time":2,"distance":2334,"is_transit":false},{"transit":false,"station_id":"PSG","time":2,"station_name":"Pesing","i_lat":-6.161433,"is_transit":false,"distance":1614,"line":5,"i_long":106.771379},{"distance":2036,"station_name":"Grogol","i_long":106.788277,"i_lat":-6.162021,"time":2,"is_transit":false,"line":5,"transit":false,"station_id":"GGL"},{"time":3,"station_name":"Duri","is_transit":true,"station_id":"DU","i_long":106.800832,"transit":true,"i_lat":-6.155215,"line":1,"distance":1700},{"station_id":"AK","distance":1230,"station_name":"Angke","i_lat":-6.144674,"is_transit":false,"time":4,"transit":false,"i_long":106.79867,"line":1},{"transit":true,"distance":4102,"station_name":"Kampung Bandan","i_lat":-6.132549,"time":9,"is_transit":true,"i_long":106.826365,"line":4,"station_id":"KPB"},{"i_lat":-6.137569,"line":2,"distance":1364,"transit":true,"i_long":106.812439,"time":3,"is_transit":true,"station_name":"Jakarta Kota","station_id":"JAKK"},{"distance":1264,"line":2,"is_transit":false,"transit":false,"time":4,"station_id":"JAY","i_lat":-6.141205,"i_long":106.820901,"station_name":"Jayakarta"},{"distance":1080,"time":2,"line":2,"is_transit":false,"transit":false,"station_id":"MGB","i_long":106.82482,"i_lat":-6.149769,"station_name":"Manggabesar"},{"line":2,"distance":906,"station_name":"Sawah Besar","time":2,"transit":false,"is_transit":false,"station_id":"SW","i_long":106.827103,"i_lat":-6.160725},{"i_long":106.828284,"time":2,"transit":false,"i_lat":-6.166716,"line":2,"station_id":"JUA","station_name":"Juanda","is_transit":false,"distance":1149},{"line":2,"distance":2015,"transit":false,"is_transit":false,"i_long":106.832183,"station_name":"Gondangdia","station_id":"GDD","i_lat":-6.186295,"time":4},{"is_transit":false,"line":2,"station_name":"Cikini","station_id":"CKI","i_long":106.840169,"transit":false,"time":3,"distance":1750,"i_lat":-6.198556},{"time":4,"i_long":106.84912,"transit":true,"distance":1590,"line":2,"i_lat":-6.209883,"station_name":"Manggarai","station_id":"MRI","is_transit":true},{"distance":1275,"is_transit":false,"time":2,"i_long":106.858896,"i_lat":-6.212485,"line":1,"station_name":"Matraman","transit":false,"station_id":"MTR"},{"time":8,"i_lat":-6.215091,"i_long":106.86807400000001,"line":1,"transit":false,"distance":1377,"station_name":"Jatinegara","is_transit":false,"station_id":"JNG"},{"time":3,"station_name":"Klender","station_id":"KLD","i_lat":-6.2135,"line":1,"i_long":106.899548,"distance":3395,"is_transit":false,"transit":false},{"is_transit":false,"line":1,"i_long":106.922662,"i_lat":-6.215568,"station_id":"BUA","station_name":"Buaran","transit":false,"time":2,"distance":3100},{"is_transit":false,"station_name":"Klenderbaru","line":1,"i_lat":-6.217455,"station_id":"KLDB","time":1,"i_long":106.939679,"transit":false,"distance":1305},{"i_lat":-6.219053,"distance":1385,"station_name":"Cakung","is_transit":false,"station_id":"CUK","transit":false,"i_long":106.951283,"line":1,"time":8}],[{"station_name":"Bojongindah","line":5,"i_lat":-6.159876,"distance":0,"station_id":"BOI","transit":false,"time":0,"i_long":106.737035,"is_transit":false},{"distance":2334,"station_name":"Taman Kota","line":5,"is_transit":false,"transit":false,"station_id":"TKO","i_lat":-6.1587309999999995,"i_long":106.756522,"time":2},{"is_transit":false,"transit":false,"distance":1614,"i_lat":-6.161433,"station_id":"PSG","line":5,"i_long":106.771379,"time":2,"station_name":"Pesing"},{"transit":false,"i_lat":-6.162021,"distance":2036,"station_name":"Grogol","is_transit":false,"time":2,"i_long":106.788277,"line":5,"station_id":"GGL"},{"transit":true,"time":3,"line":1,"station_name":"Duri","i_lat":-6.155215,"is_transit":true,"i_long":106.800832,"distance":1700,"station_id":"DU"},{"i_lat":-6.185545,"line":1,"transit":false,"i_long":106.811091,"station_id":"THB","distance":3632,"is_transit":false,"time":8,"station_name":"Tanah Abang"},{"distance":2029,"transit":false,"i_lat":-6.20132,"station_name":"Karet","station_id":"KAT","is_transit":false,"line":1,"time":5,"i_long":106.816351},{"is_transit":false,"transit":false,"i_long":106.819881,"line":1,"distance":471,"time":1,"i_lat":-6.201433,"station_id":"SUDB","station_name":"Sudirman Baru"},{"i_lat":-6.202263,"line":1,"station_name":"Sudirman","i_long":106.822649,"time":1,"transit":false,"is_transit":false,"station_id":"SUD","distance":280},{"station_id":"MRI","station_name":"Manggarai","is_transit":true,"i_lat":-6.209883,"time":4,"transit":true,"i_long":106.84912,"line":2,"distance":3186},{"distance":1590,"transit":false,"time":4,"i_long":106.840169,"line":2,"is_transit":false,"i_lat":-6.198556,"station_name":"Cikini","station_id":"CKI"},{"line":2,"station_name":"Gondangdia","is_transit":false,"transit":false,"i_long":106.832183,"time":3,"station_id":"GDD","i_lat":-6.186295,"distance":1750},{"i_long":106.828284,"i_lat":-6.166716,"station_name":"Juanda","distance":2015,"station_id":"JUA","line":2,"time":4,"is_transit":false,"transit":false},{"distance":1149,"line":2,"time":2,"i_long":106.827103,"station_id":"SW","station_name":"Sawah Besar","is_transit":false,"transit":false,"i_lat":-6.160725},{"distance":906,"station_name":"Manggabesar","transit":false,"is_transit":false,"i_long":106.82482,"line":2,"station_id":"MGB","i_lat":-6.149769,"time":2},{"line":2,"station_name":"Jayakarta","transit":false,"station_id":"JAY","time":2,"i_long":106.820901,"is_transit":false,"distance":1080,"i_lat":-6.141205},{"distance":1264,"station_id":"JAKK","time":4,"is_transit":true,"transit":true,"i_lat":-6.137569,"i_long":106.812439,"station_name":"Jakarta Kota","line":2},{"station_id":"KPB","time":3,"i_lat":-6.132549,"line":4,"is_transit":true,"distance":1364,"i_long":106.826365,"station_name":"Kampung Bandan","transit":true},{"distance":1444,"station_name":"Rajawali","is_transit":false,"transit":false,"time":3,"i_long":106.836569,"line":11,"i_lat":-6.14505,"station_id":"RJW"},{"line":11,"station_id":"KMO","time":5,"i_lat":-6.161728,"station_name":"Kemayoran","distance":1901,"is_transit":false,"i_long":106.839204,"transit":false},{"time":4,"transit":false,"line":11,"is_transit":false,"distance":1436,"station_id":"PSE","station_name":"Pasar Senen","i_lat":-6.174784,"i_long":106.84368},{"station_id":"GST","time":8,"line":11,"is_transit":false,"station_name":"Gang Sentiong","distance":1567,"transit":false,"i_lat":-6.185975,"i_long":106.850107},{"i_long":106.855437,"station_id":"KMT","transit":false,"is_transit":false,"line":11,"distance":973,"time":1,"station_name":"Kramat","i_lat":-6.193792},{"i_lat":-6.209188,"i_long":106.861737,"time":2,"transit":false,"is_transit":false,"line":11,"distance":1829,"station_id":"POK","station_name":"Pondok Jati"},{"station_id":"JNG","i_long":106.86807400000001,"time":9,"station_name":"Jatinegara","is_transit":true,"transit":true,"distance":1236,"i_lat":-6.215091,"line":1},{"transit":false,"distance":3395,"line":1,"station_id":"KLD","station_name":"Klender","time":3,"is_transit":false,"i_lat":-6.2135,"i_long":106.899548},{"i_lat":-6.215568,"is_transit":false,"i_long":106.922662,"transit":false,"distance":3100,"time":2,"station_name":"Buaran","station_id":"BUA","line":1},{"transit":false,"station_id":"KLDB","i_lat":-6.217455,"is_transit":false,"i_long":106.939679,"station_name":"Klenderbaru","time":1,"line":1,"distance":1305},{"i_long":106.951283,"line":1,"station_name":"Cakung","time":8,"distance":1385,"is_transit":false,"transit":false,"station_id":"CUK","i_lat":-6.219053}]]}