{"data":[[{"station_name":"Bojongindah","station_id":"BOI","time":0,"i_lat":-6.159876,"distance":0,"i_long":106.737035,"transit":false,"is_transit":false,"line":5},{"station_name":"Taman Kota","distance":2334,"i_long":106.756522,"line":5,"station_id":"TKO","is_transit":false,"transit":false,"i_lat":-6.1587309999999995,"time":2},{"station_id":"PSG","line":5,"distance":1614,"is_transit":false,"time":2,"station_name":"Pesing","transit":false,"i_lat":-6.161433,"i_long":106.771379},{"station_name":"Grogol","distance":2036,"is_transit":false,"i_lat":-6.162021,"station_id":"GGL","time":2,"i_long":106.788277,"line":5,"transit":false},{"station_name":"Duri","is_transit":true,"distance":1700,"i_long":106.800832,"i_lat":-6.155215,"transit":true,"time":3,"line":1,"station_id":"DU"},{"transit":true,"i_lat":-6.185545,"is_transit":true,"time":8,"line":1,"distance":3632,"i_long":106.811091,"station_id":"THB","station_name":"Tanah Abang"},{"i_long":106.79689,"i_lat":-6.207404,"station_name":"Palmerah","station_id":"PLM","time":6,"transit":false,"line":6,"is_transit":false,"distance":3191},{"distance":3737,"i_long":106.780334,"station_id":"KBY","i_lat":-6.237242,"line":6,"is_transit":false,"time":7,"transit":false,"station_name":"Kebayoran"},{"i_long":106.74273,"station_id":"PDJ","line":6,"transit":false,"station_name":"Pondokranji","is_transit":false,"time":8,"distance":6218,"i_lat":-6.276362},{"distance":2179,"transit":false,"line":6,"station_id":"JMU","is_transit":false,"i_long":106.728916,"i_lat":-6.288927,"station_name":"Jurangmangu","time":3},{"distance":1994,"station_id":"SDM","transit":false,"i_long":106.712277,"station_name":"Sudimara","time":4,"line":6,"i_lat":-6.296963,"is_transit":false},{"i_lat":-6.314823,"is_transit":false,"station_id":"RU","i_long":106.675475,"time":6,"transit":false,"station_name":"Rawa Buntu","line":6,"distance":4566},{"transit":false,"distance":2413,"station_id":"SRP","is_transit":false,"time":4,"i_long":106.66566,"line":6,"station_name":"Serpong","i_lat":-6.319871},{"i_lat":-6.32484,"station_name":"Cisauk","is_transit":false,"transit":false,"station_id":"CSK","distance":1784,"time":4,"i_long":106.640411,"line":3},{"station_name":"Cicayur","distance":2519,"i_lat":-6.329547,"i_long":106.617853,"time":4,"line":3,"transit":false,"station_id":"CC","is_transit":false}],[{"time":0,"line":5,"transit":false,"distance":0,"is_transit":false,"i_lat":-6.159876,"i_long":106.737035,"station_name":"Bojongindah","station_id":"BOI"},{"station_id":"TKO","is_transit":false,"time":2,"line":5,"i_lat":-6.1587309999999995,"transit":false,"station_name":"Taman Kota","i_long":106.756522,"distance":2334},{"i_lat":-6.161433,"time":2,"distance":1614,"station_name":"Pesing","transit":false,"line":5,"is_transit":false,"i_long":106.771379,"station_id":"PSG"},{"i_long":106.788277,"station_id":"GGL","line":5,"time":2,"station_name":"Grogol","distance":2036,"i_lat":-6.162021,"transit":false,"is_transit":false},{"distance":1700,"i_long":106.800832,"station_name":"Duri","station_id":"DU","transit":true,"line":1,"i_lat":-6.155215,"is_transit":true,"time":3},{"line":1,"station_name":"Angke","transit":false,"station_id":"AK","time":4,"is_transit":false,"i_lat":-6.144674,"distance":1230,"i_long":106.79867},{"station_id":"KPB","is_transit":true,"distance":4102,"i_lat":-6.132549,"i_long":106.826365,"time":9,"line":4,"station_name":"Kampung Bandan","transit":true},{"line":2,"station_name":"Jakarta Kota","i_long":106.812439,"is_transit":true,"distance":1364,"time":3,"station_id":"JAKK","transit":true,"i_lat":-6.137569},{"station_id":"JAY","i_long":106.820901,"i_lat":-6.141205,"line":2,"is_transit":false,"time":4,"transit":false,"distance":1264,"station_name":"Jayakarta"},{"station_id":"MGB","distance":1080,"i_lat":-6.149769,"i_long":106.82482,"line":2,"time":2,"is_transit":false,"transit":false,"station_name":"Manggabesar"},{"is_transit":false,"station_name":"Sawah Besar","station_id":"SW","time":2,"distance":906,"i_lat":-6.160725,"transit":false,"i_long":106.827103,"line":2},{"station_name":"Juanda","station_id":"JUA","distance":1149,"i_long":106.828284,"is_transit":false,"line":2,"time":2,"transit":false,"i_lat":-6.166716},{"is_transit":false,"time":4,"distance":2015,"station_id":"GDD","transit":false,"station_name":"Gondangdia","i_long":106.832183,"line":2,"i_lat":-6.186295},{"station_id":"CKI","is_transit":false,"transit":false,"time":3,"i_lat":-6.198556,"i_long":106.840169,"line":2,"station_name":"Cikini","distance":1750},{"time":4,"i_long":106.84912,"station_name":"Manggarai","line":2,"transit":true,"station_id":"MRI","i_lat":-6.209883,"is_transit":true,"distance":1590},{"station_name":"Sudirman","is_transit":false,"distance":3186,"transit":false,"station_id":"SUD","time":4,"i_lat":-6.202263,"line":1,"i_long":106.822649},{"time":1,"distance":280,"line":1,"station_id":"SUDB","i_lat":-6.201433,"transit":false,"station_name":"Sudirman Baru","is_transit":false,"i_long":106.819881},{"transit":false,"time":1,"station_id":"KAT","station_name":"Karet","distance":471,"line":1,"is_transit":false,"i_long":106.816351,"i_lat":-6.20132},{"distance":2029,"i_long":106.811091,"is_transit":true,"station_name":"Tanah Abang","time":5,"i_lat":-6.185545,"line":1,"transit":true,"station_id":"THB"},{"time":6,"station_id":"PLM","i_lat":-6.207404,"station_name":"Palmerah","transit":false,"distance":3191,"line":6,"i_long":106.79689,"is_transit":false},{"time":7,"transit":false,"station_name":"Kebayoran","i_lat":-6.237242,"line":6,"distance":3737,"is_transit":false,"station_id":"KBY","i_long":106.780334},{"i_long":106.74273,"station_id":"PDJ","is_transit":false,"transit":false,"station_name":"Pondokranji","time":8,"distance":6218,"i_lat":-6.276362,"line":6},{"is_transit":false,"time":3,"i_lat":-6.288927,"station_id":"JMU","transit":false,"station_name":"Jurangmangu","i_long":106.728916,"distance":2179,"line":6},{"station_name":"Sudimara","line":6,"i_long":106.712277,"transit":false,"time":4,"i_lat":-6.296963,"station_id":"SDM","is_transit":false,"distance":1994},{"station_name":"Rawa Buntu","line":6,"is_transit":false,"time":6,"i_long":106.675475,"distance":4566,"transit":false,"station_id":"RU","i_lat":-6.314823},{"station_name":"Serpong","transit":false,"i_lat":-6.319871,"i_long":106.66566,"distance":2413,"line":6,"is_transit":false,"time":4,"station_id":"SRP"},{"line":3,"transit":false,"station_name":"Cisauk","is_transit":false,"station_id":"CSK","distance":1784,"i_lat":-6.32484,"i_long":106.640411,"time":4},{"i_lat":-6.329547,"is_transit":false,"transit":false,"distance":2519,"i_long":106.617853,"line":3,"time":4,"station_name":"Cicayur","station_id":"CC"}],[{"transit":false,"station_id":"BOI","is_transit":false,"i_lat":-6.159876,"distance":0,"line":5,"station_name":"Bojongindah","time":0,"i_long":106.737035},{"time":2,"station_name":"Taman Kota","i_lat":-6.1587309999999995,"line":5,"i_long":106.756522,"distance":2334,"station_id":"TKO","is_transit":false,"transit":false},{"station_id":"PSG","is_transit":false,"time":2,"i_long":106.771379,"distance":1614,"i_lat":-6.161433,"station_name":"Pesing","line":5,"transit":false},{"i_lat":-6.162021,"line":5,"distance":2036,"transit":false,"station_name":"Grogol","is_transit":false,"station_id":"GGL","time":2,"i_long":106.788277},{"i_lat":-6.155215,"i_long":106.800832,"station_id":"DU","distance":1700,"line":1,"time":3,"transit":true,"station_name":"Duri","is_transit":true},{"station_id":"AK","time":4,"transit":false,"is_transit":false,"i_long":106.79867,"line":1,"station_name":"Angke","distance":1230,"i_lat":-6.144674},{"transit":true,"time":9,"station_name":"Kampung Bandan","distance":4102,"i_lat":-6.132549,"is_transit":true,"station_id":"KPB","i_long":106.826365,"line":4},{"station_id":"RJW","i_lat":-6.14505,"is_transit":false,"line":11,"station_name":"Rajawali","transit":false,"i_long":106.836569,"distance":1444,"time":3},{"line":11,"i_long":106.839204,"station_name":"Kemayoran","is_transit":false,"time":5,"transit":false,"distance":1901,"i_lat":-6.161728,"station_id":"KMO"},{"station_name":"Pasar Senen","time":4,"station_id":"PSE","distance":1436,"line":11,"i_long":106.84368,"transit":false,"is_transit":false,"i_lat":-6.174784},{"is_transit":false,"time":8,"i_lat":-6.185975,"i_long":106.850107,"station_id":"GST","distance":1567,"transit":false,"line":11,"station_name":"Gang Sentiong"},{"transit":false,"distance":973,"is_transit":false,"station_name":"Kramat","i_long":106.855437,"time":1,"i_lat":-6.193792,"station_id":"KMT","line":11},{"distance":1829,"line":11,"is_transit":false,"time":2,"station_name":"Pondok Jati","station_id":"POK","transit":false,"i_lat":-6.209188,"i_long":106.861737},{"line":1,"i_lat":-6.215091,"i_long":106.86807400000001,"transit":true,"time":9,"distance":1236,"station_id":"JNG","station_name":"Jatinegara","is_transit":true},{"i_lat":-6.212485,"station_id":"MTR","distance":1377,"i_long":106.858896,"transit":false,"line":1,"time":2,"is_transit":false,"station_name":"Matraman"},{"distance":1275,"transit":false,"i_long":106.84912,"line":2,"station_id":"MRI","i_lat":-6.209883,"station_name":"Manggarai","time":2,"is_transit":false},{"line":1,"station_id":"SUD","i_lat":-6.202263,"distance":3186,"is_transit":false,"i_long":106.822649,"transit":false,"time":4,"station_name":"Sudirman"},{"i_lat":-6.201433,"i_long":106.819881,"is_transit":false,"line":1,"transit":false,"station_name":"Sudirman Baru","station_id":"SUDB","distance":280,"time":1},{"line":1,"is_transit":false,"distance":471,"i_long":106.816351,"transit":false,"station_id":"KAT","station_name":"Karet","time":1,"i_lat":-6.20132},{"i_long":106.811091,"is_transit":true,"time":5,"i_lat":-6.185545,"station_name":"Tanah Abang","transit":true,"line":1,"distance":2029,"station_id":"THB"},{"transit":false,"distance":3191,"i_long":106.79689,"time":6,"line":6,"station_name":"Palmerah","i_lat":-6.207404,"station_id":"PLM","is_transit":false},{"transit":false,"station_id":"KBY","i_lat":-6.237242,"i_long":106.780334,"line":6,"time":7,"is_transit":false,"distance":3737,"station_name":"Kebayoran"},{"transit":false,"is_transit":false,"station_name":"Pondokranji","station_id":"PDJ","i_long":106.74273,"time":8,"i_lat":-6.276362,"distance":6218,"line":6},{"station_name":"Jurangmangu","i_lat":-6.288927,"i_long":106.728916,"station_id":"JMU","time":3,"is_transit":false,"distance":2179,"transit":false,"line":6},{"station_name":"Sudimara","station_id":"SDM","transit":false,"i_lat":-6.296963,"distance":1994,"is_transit":false,"time":4,"i_long":106.712277,"line":6},{"station_id":"RU","i_lat":-6.314823,"is_transit":false,"line":6,"time":6,"transit":false,"i_long":106.675475,"distance":4566,"station_name":"Rawa Buntu"},{"time":4,"i_lat":-6.319871,"is_transit":false,"distance":2413,"station_id":"SRP","line":6,"i_long":106.66566,"station_name":"Serpong","transit":false},{"time":4,"station_name":"Cisauk","distance":1784,"station_id":"CSK","is_transit":false,"transit":false,"i_lat":-6.32484,"i_long":106.640411,"line":3},{"time":4,"distance":2519,"i_long":106.617853,"transit":false,"station_id":"CC","line":3,"station_name":"Cicayur","is_transit":false,"i_lat":-6.329547}]]}