{"data":[[{"station_id":"BOI","station_name":"Bojongindah","line":5,"distance":0,"i_long":106.737035,"is_transit":false,"i_lat":-6.159876,"time":0,"transit":false},{"is_transit":false,"transit":false,"distance":2334,"station_id":"TKO","time":2,"station_name":"Taman Kota","i_lat":-6.1587309999999995,"i_long":106.756522,"line":5},{"line":5,"distance":1614,"transit":false,"station_name":"Pesing","i_long":106.771379,"time":2,"is_transit":false,"station_id":"PSG","i_lat":-6.161433},{"time":2,"station_name":"Grogol","is_transit":false,"transit":false,"line":5,"i_long":106.788277,"i_lat":-6.162021,"distance":2036,"station_id":"GGL"},{"is_transit":true,"line":1,"time":3,"station_name":"Duri","i_lat":-6.155215,"distance":1700,"transit":true,"station_id":"DU","i_long":106.800832},{"i_long":106.811091,"line":1,"is_transit":false,"time":8,"distance":3632,"transit":false,"station_name":"Tanah Abang","station_id":"THB","i_lat":-6.185545},{"time":5,"is_transit":false,"i_lat":-6.20132,"i_long":106.816351,"station_id":"KAT","transit":false,"line":1,"station_name":"Karet","distance":2029},{"station_name":"Sudirman Baru","distance":471,"time":1,"transit":false,"station_id":"SUDB","is_transit":false,"i_long":106.819881,"line":1,"i_lat":-6.201433},{"i_lat":-6.202263,"time":1,"transit":false,"station_id":"SUD","is_transit":false,"station_name":"Sudirman","line":1,"distance":280,"i_long":106.822649},{"station_id":"MRI","transit":true,"i_long":106.84912,"time":4,"line":2,"is_transit":true,"station_name":"Manggarai","distance":3186,"i_lat":-6.209883},{"is_transit":false,"i_long":106.857948,"transit":false,"station_id":"TEB","i_lat":-6.226659,"time":4,"distance":2610,"station_name":"Tebet","line":2},{"time":2,"station_id":"CW","transit":false,"is_transit":false,"i_lat":-6.242512,"line":2,"distance":1230,"i_long":106.856607,"station_name":"Cawang"},{"transit":false,"line":2,"is_transit":false,"station_id":"DRN","i_long":106.85449,"i_lat":-6.255332,"time":3,"station_name":"Duren Kalibata","distance":1546},{"time":2,"distance":824,"is_transit":false,"transit":false,"i_lat":-6.263214,"station_name":"Pasar Minggu Baru","line":2,"station_id":"PSMB","i_long":106.851577},{"is_transit":false,"distance":2380,"i_lat":-6.2842400000000005,"transit":false,"station_id":"PSM","time":2,"line":2,"station_name":"Pasar Minggu","i_long":106.843999},{"station_name":"Tanjung Barat","station_id":"TNT","time":4,"i_lat":-6.3080680000000005,"line":2,"distance":2820,"i_long":106.838896,"is_transit":false,"transit":false},{"line":2,"station_id":"LNA","transit":false,"time":3,"distance":2671,"i_long":106.832616,"is_transit":false,"i_lat":-6.330363,"station_name":"Lenteng Agung"},{"i_lat":-6.339291,"distance":1029,"time":2,"station_name":"Univ. Pancasila","transit":false,"i_long":106.834175,"line":2,"station_id":"UP","is_transit":false},{"transit":false,"time":3,"distance":2264,"i_lat":-6.360749,"i_long":106.831474,"station_name":"Univ. Indonesia","line":2,"is_transit":false,"station_id":"UI"},{"line":2,"time":2,"is_transit":false,"station_id":"POC","station_name":"Pondok Cina","i_lat":-6.369073,"i_long":106.831114,"transit":false,"distance":1109},{"time":4,"transit":false,"is_transit":false,"station_name":"Depokbaru","i_lat":-6.391065,"distance":2727,"i_long":106.819451,"station_id":"DPB","line":2},{"distance":1584,"transit":false,"station_id":"DP","i_lat":-6.405256,"is_transit":false,"line":2,"station_name":"Depok","i_long":106.816926,"time":3},{"station_id":"CTA","i_long":106.800298,"line":2,"transit":true,"time":6,"is_transit":true,"station_name":"Citayam","distance":5084,"i_lat":-6.448811},{"i_lat":-6.460735,"is_transit":false,"station_id":"PDRG","transit":false,"i_long":106.824374,"station_name":"Pondok Rajeg","distance":0,"line":21,"time":0}],[{"i_lat":-6.159876,"line":5,"i_long":106.737035,"distance":0,"station_id":"BOI","time":0,"station_name":"Bojongindah","is_transit":false,"transit":false},{"i_long":106.756522,"station_id":"TKO","is_transit":false,"station_name":"Taman Kota","time":2,"transit":false,"i_lat":-6.1587309999999995,"line":5,"distance":2334},{"station_id":"PSG","time":2,"station_name":"Pesing","transit":false,"is_transit":false,"distance":1614,"line":5,"i_lat":-6.161433,"i_long":106.771379},{"station_id":"GGL","distance":2036,"time":2,"i_long":106.788277,"station_name":"Grogol","is_transit":false,"line":5,"transit":false,"i_lat":-6.162021},{"time":3,"distance":1700,"transit":true,"i_long":106.800832,"is_transit":true,"line":1,"station_id":"DU","station_name":"Duri","i_lat":-6.155215},{"i_long":106.79867,"transit":false,"station_id":"AK","is_transit":false,"time":4,"station_name":"Angke","i_lat":-6.144674,"distance":1230,"line":1},{"distance":4102,"time":9,"is_transit":true,"station_id":"KPB","i_long":106.826365,"line":4,"station_name":"Kampung Bandan","i_lat":-6.132549,"transit":true},{"station_id":"JAKK","distance":1364,"is_transit":true,"i_lat":-6.137569,"line":2,"time":3,"station_name":"Jakarta Kota","transit":true,"i_long":106.812439},{"transit":false,"time":4,"i_long":106.820901,"line":2,"i_lat":-6.141205,"station_name":"Jayakarta","is_transit":false,"station_id":"JAY","distance":1264},{"line":2,"station_id":"MGB","time":2,"distance":1080,"transit":false,"station_name":"Manggabesar","is_transit":false,"i_lat":-6.149769,"i_long":106.82482},{"i_long":106.827103,"is_transit":false,"transit":false,"line":2,"i_lat":-6.160725,"time":2,"distance":906,"station_name":"Sawah Besar","station_id":"SW"},{"distance":1149,"i_lat":-6.166716,"station_id":"JUA","is_transit":false,"station_name":"Juanda","transit":false,"time":2,"i_long":106.828284,"line":2},{"is_transit":false,"time":4,"distance":2015,"station_id":"GDD","line":2,"transit":false,"station_name":"Gondangdia","i_long":106.832183,"i_lat":-6.186295},{"i_lat":-6.198556,"is_transit":false,"station_name":"Cikini","distance":1750,"transit":false,"i_long":106.840169,"time":3,"line":2,"station_id":"CKI"},{"line":2,"i_lat":-6.209883,"i_long":106.84912,"time":4,"is_transit":false,"distance":1590,"transit":false,"station_id":"MRI","station_name":"Manggarai"},{"station_name":"Tebet","is_transit":false,"time":4,"station_id":"TEB","i_long":106.857948,"distance":2610,"line":2,"transit":false,"i_lat":-6.226659},{"time":2,"i_lat":-6.242512,"station_name":"Cawang","transit":false,"station_id":"CW","distance":1230,"is_transit":false,"i_long":106.856607,"line":2},{"station_id":"DRN","line":2,"is_transit":false,"station_name":"Duren Kalibata","i_long":106.85449,"i_lat":-6.255332,"transit":false,"distance":1546,"time":3},{"station_name":"Pasar Minggu Baru","line":2,"transit":false,"distance":824,"station_id":"PSMB","i_long":106.851577,"is_transit":false,"time":2,"i_lat":-6.263214},{"is_transit":false,"i_long":106.843999,"station_name":"Pasar Minggu","distance":2380,"line":2,"time":2,"transit":false,"i_lat":-6.2842400000000005,"station_id":"PSM"},{"time":4,"station_id":"TNT","station_name":"Tanjung Barat","i_lat":-6.3080680000000005,"i_long":106.838896,"line":2,"is_transit":false,"distance":2820,"transit":false},{"station_name":"Lenteng Agung","line":2,"time":3,"i_long":106.832616,"distance":2671,"i_lat":-6.330363,"station_id":"LNA","is_transit":false,"transit":false},{"distance":1029,"i_long":106.834175,"station_id":"UP","time":2,"line":2,"is_transit":false,"station_name":"Univ. Pancasila","i_lat":-6.339291,"transit":false},{"station_name":"Univ. Indonesia","is_transit":false,"station_id":"UI","i_long":106.831474,"distance":2264,"transit":false,"time":3,"line":2,"i_lat":-6.360749},{"i_long":106.831114,"distance":1109,"station_id":"POC","transit":false,"line":2,"is_transit":false,"i_lat":-6.369073,"station_name":"Pondok Cina","time":2},{"station_id":"DPB","distance":2727,"i_long":106.819451,"is_transit":false,"time":4,"line":2,"i_lat":-6.391065,"station_name":"Depokbaru","transit":false},{"time":3,"station_id":"DP","line":2,"i_long":106.816926,"i_lat":-6.405256,"is_transit":false,"station_name":"Depok","distance":1584,"transit":false},{"i_long":106.800298,"station_id":"CTA","station_name":"Citayam","i_lat":-6.448811,"distance":5084,"time":6,"line":2,"transit":true,"is_transit":true},{"is_transit":false,"i_long":106.824374,"distance":0,"station_id":"PDRG","time":0,"transit":false,"i_lat":-6.460735,"line":21,"station_name":"Pondok Rajeg"}],[{"i_lat":-6.159876,"distance":0,"station_id":"BOI","station_name":"Bojongindah","line":5,"is_transit":false,"transit":false,"i_long":106.737035,"time":0},{"i_lat":-6.1587309999999995,"i_long":106.756522,"time":2,"is_transit":false,"distance":2334,"station_id":"TKO","line":5,"station_name":"Taman Kota","transit":false},{"distance":1614,"station_id":"PSG","transit":false,"station_name":"Pesing","i_long":106.771379,"line":5,"i_lat":-6.161433,"time":2,"is_transit":false},{"distance":2036,"transit":false,"station_name":"Grogol","is_transit":false,"time":2,"station_id":"GGL","line":5,"i_lat":-6.162021,"i_long":106.788277},{"station_id":"DU","station_name":"Duri","line":1,"distance":1700,"i_long":106.800832,"is_transit":true,"i_lat":-6.155215,"transit":true,"time":3},{"time":4,"transit":false,"line":1,"i_lat":-6.144674,"is_transit":false,"distance":1230,"station_id":"AK","station_name":"Angke","i_long":106.79867},{"distance":4102,"station_id":"KPB","i_lat":-6.132549,"line":4,"transit":true,"is_transit":true,"station_name":"Kampung Bandan","time":9,"i_long":106.826365},{"time":3,"station_id":"RJW","is_transit":false,"line":11,"station_name":"Rajawali","distance":1444,"i_lat":-6.14505,"transit":false,"i_long":106.836569},{"time":5,"line":11,"station_id":"KMO","is_transit":false,"distance":1901,"station_name":"Kemayoran","i_lat":-6.161728,"i_long":106.839204,"transit":false},{"line":11,"distance":1436,"i_lat":-6.174784,"i_long":106.84368,"station_name":"Pasar Senen","station_id":"PSE","is_transit":false,"time":4,"transit":false},{"transit":false,"i_lat":-6.185975,"distance":1567,"station_name":"Gang Sentiong","line":11,"is_transit":false,"time":8,"station_id":"GST","i_long":106.850107},{"is_transit":false,"station_id":"KMT","distance":973,"time":1,"i_long":106.855437,"station_name":"Kramat","i_lat":-6.193792,"line":11,"transit":false},{"line":11,"is_transit":false,"transit":false,"station_name":"Pondok Jati","i_lat":-6.209188,"station_id":"POK","i_long":106.861737,"time":2,"distance":1829},{"transit":true,"station_name":"Jatinegara","i_long":106.86807400000001,"i_lat":-6.215091,"station_id":"JNG","line":1,"time":9,"is_transit":true,"distance":1236},{"line":1,"distance":1377,"i_long":106.858896,"station_id":"MTR","time":2,"transit":false,"i_lat":-6.212485,"station_name":"Matraman","is_transit":false},{"distance":1275,"transit":true,"station_name":"Manggarai","station_id":"MRI","i_lat":-6.209883,"i_long":106.84912,"time":2,"line":2,"is_transit":true},{"i_long":106.857948,"is_transit":false,"transit":false,"distance":2610,"station_name":"Tebet","line":2,"station_id":"TEB","time":4,"i_lat":-6.226659},{"station_name":"Cawang","line":2,"transit":false,"i_long":106.856607,"is_transit":false,"time":2,"distance":1230,"i_lat":-6.242512,"station_id":"CW"},{"i_long":106.85449,"transit":false,"station_name":"Duren Kalibata","i_lat":-6.255332,"is_transit":false,"distance":1546,"station_id":"DRN","time":3,"line":2},{"station_id":"PSMB","i_long":106.851577,"time":2,"is_transit":false,"i_lat":-6.263214,"station_name":"Pasar Minggu Baru","distance":824,"transit":false,"line":2},{"time":2,"i_long":106.843999,"line":2,"i_lat":-6.2842400000000005,"is_transit":false,"station_id":"PSM","transit":false,"distance":2380,"station_name":"Pasar Minggu"},{"i_lat":-6.3080680000000005,"line":2,"time":4,"station_name":"Tanjung Barat","distance":2820,"transit":false,"i_long":106.838896,"is_transit":false,"station_id":"TNT"},{"is_transit":false,"time":3,"transit":false,"station_name":"Lenteng Agung","station_id":"LNA","i_lat":-6.330363,"distance":2671,"i_long":106.832616,"line":2},{"distance":1029,"transit":false,"line":2,"station_name":"Univ. Pancasila","i_long":106.834175,"i_lat":-6.339291,"time":2,"station_id":"UP","is_transit":false},{"i_lat":-6.360749,"time":3,"i_long":106.831474,"transit":false,"is_transit":false,"station_id":"UI","station_name":"Univ. Indonesia","line":2,"distance":2264},{"i_long":106.831114,"is_transit":false,"i_lat":-6.369073,"distance":1109,"line":2,"station_name":"Pondok Cina","station_id":"POC","time":2,"transit":false},{"station_id":"DPB","is_transit":false,"transit":false,"station_name":"Depokbaru","time":4,"distance":2727,"i_lat":-6.391065,"line":2,"i_long":106.819451},{"is_transit":false,"distance":1584,"time":3,"transit":false,"station_id":"DP","i_lat":-6.405256,"station_name":"Depok","line":2,"i_long":106.816926},{"station_name":"Citayam","time":6,"line":2,"is_transit":true,"i_long":106.800298,"distance":5084,"station_id":"CTA","transit":true,"i_lat":-6.448811},{"time":0,"is_transit":false,"station_id":"PDRG","transit":false,"line":21,"i_lat":-6.460735,"distance":0,"station_name":"Pondok Rajeg","i_long":106.824374}]]}