{"data":[[{"line":5,"distance":0,"station_id":"BOI","i_lat":-6.159876,"is_transit":false,"time":0,"station_name":"Bojongindah","transit":false,"i_long":106.737035},{"i_long":106.756522,"line":5,"time":2,"station_id":"TKO","is_transit":false,"transit":false,"i_lat":-6.1587309999999995,"distance":2334,"station_name":"Taman Kota"},{"station_name":"Pesing","line":5,"transit":false,"distance":1614,"station_id":"PSG","i_lat":-6.161433,"time":2,"is_transit":false,"i_long":106.771379},{"time":2,"transit":false,"i_long":106.788277,"station_name":"Grogol","is_transit":false,"distance":2036,"station_id":"GGL","i_lat":-6.162021,"line":5},{"i_long":106.800832,"station_id":"DU","transit":true,"station_name":"Duri","line":1,"i_lat":-6.155215,"time":3,"is_transit":true,"distance":1700},{"i_long":106.811091,"time":8,"line":1,"station_name":"Tanah Abang","is_transit":true,"transit":true,"station_id":"THB","i_lat":-6.185545,"distance":3632},{"distance":3191,"station_id":"PLM","station_name":"Palmerah","i_long":106.79689,"line":6,"is_transit":false,"transit":false,"i_lat":-6.207404,"time":6},{"i_long":106.780334,"distance":3737,"line":6,"is_transit":false,"station_name":"Kebayoran","time":7,"i_lat":-6.237242,"station_id":"KBY","transit":false},{"time":8,"station_id":"PDJ","transit":false,"i_long":106.74273,"line":6,"distance":6218,"station_name":"Pondokranji","is_transit":false,"i_lat":-6.276362},{"is_transit":false,"transit":false,"station_name":"Jurangmangu","i_long":106.728916,"time":3,"distance":2179,"station_id":"JMU","line":6,"i_lat":-6.288927},{"i_long":106.712277,"distance":1994,"i_lat":-6.296963,"line":6,"time":4,"transit":false,"is_transit":false,"station_id":"SDM","station_name":"Sudimara"},{"distance":4566,"is_transit":false,"i_long":106.675475,"time":6,"transit":false,"station_id":"RU","line":6,"i_lat":-6.314823,"station_name":"Rawa Buntu"},{"time":4,"station_id":"SRP","is_transit":false,"i_lat":-6.319871,"distance":2413,"i_long":106.66566,"transit":false,"line":6,"station_name":"Serpong"},{"time":4,"is_transit":false,"station_id":"CSK","i_lat":-6.32484,"i_long":106.640411,"transit":false,"line":3,"station_name":"Cisauk","distance":1784},{"i_lat":-6.329547,"i_long":106.617853,"station_name":"Cicayur","transit":false,"time":4,"distance":2519,"station_id":"CC","is_transit":false,"line":3},{"is_transit":false,"line":6,"distance":5968,"i_long":106.568863,"transit":false,"station_name":"Parung Panjang","station_id":"PRP","i_lat":-6.3441410000000005,"time":8},{"station_name":"Cilejit","station_id":"CJT","is_transit":false,"line":3,"transit":false,"i_lat":-6.354349,"time":9,"i_long":106.508482,"distance":7025},{"station_name":"Daru","station_id":"DAR","i_lat":-6.338021,"line":0,"transit":false,"time":6,"is_transit":false,"distance":2675,"i_long":106.491338},{"station_name":"Tenjo","i_lat":-6.327251,"is_transit":false,"station_id":"TEJ","time":5,"i_long":106.460812,"transit":false,"line":6,"distance":3902},{"station_name":"Tigaraksa","station_id":"TGS","transit":false,"i_long":106.425991,"line":6,"i_lat":-6.328533,"time":5,"is_transit":false,"distance":2974},{"i_long":106.411216,"station_name":"Cikoya","distance":2651,"line":3,"i_lat":-6.33561,"transit":false,"station_id":"CKY","is_transit":false,"time":3}],[{"i_long":106.737035,"is_transit":false,"transit":false,"time":0,"i_lat":-6.159876,"station_name":"Bojongindah","line":5,"distance":0,"station_id":"BOI"},{"is_transit":false,"transit":false,"station_name":"Taman Kota","i_lat":-6.1587309999999995,"i_long":106.756522,"time":2,"distance":2334,"line":5,"station_id":"TKO"},{"i_lat":-6.161433,"line":5,"station_name":"Pesing","distance":1614,"time":2,"station_id":"PSG","is_transit":false,"transit":false,"i_long":106.771379},{"line":5,"transit":false,"is_transit":false,"i_long":106.788277,"station_name":"Grogol","i_lat":-6.162021,"distance":2036,"station_id":"GGL","time":2},{"line":1,"i_long":106.800832,"station_name":"Duri","distance":1700,"is_transit":true,"station_id":"DU","transit":true,"time":3,"i_lat":-6.155215},{"i_lat":-6.144674,"line":1,"i_long":106.79867,"distance":1230,"station_name":"Angke","station_id":"AK","is_transit":false,"transit":false,"time":4},{"station_id":"KPB","i_long":106.826365,"is_transit":true,"transit":true,"time":9,"distance":4102,"i_lat":-6.132549,"line":4,"station_name":"Kampung Bandan"},{"is_transit":true,"i_lat":-6.137569,"i_long":106.812439,"station_name":"Jakarta Kota","transit":true,"line":2,"station_id":"JAKK","time":3,"distance":1364},{"i_lat":-6.141205,"is_transit":false,"line":2,"transit":false,"i_long":106.820901,"time":4,"station_name":"Jayakarta","distance":1264,"station_id":"JAY"},{"is_transit":false,"time":2,"transit":false,"i_lat":-6.149769,"i_long":106.82482,"line":2,"station_name":"Manggabesar","distance":1080,"station_id":"MGB"},{"i_long":106.827103,"station_id":"SW","time":2,"is_transit":false,"transit":false,"distance":906,"station_name":"Sawah Besar","line":2,"i_lat":-6.160725},{"line":2,"transit":false,"distance":1149,"station_name":"Juanda","i_long":106.828284,"i_lat":-6.166716,"time":2,"is_transit":false,"station_id":"JUA"},{"is_transit":false,"i_long":106.832183,"station_name":"Gondangdia","time":4,"station_id":"GDD","transit":false,"distance":2015,"i_lat":-6.186295,"line":2},{"i_long":106.840169,"line":2,"station_name":"Cikini","time":3,"is_transit":false,"distance":1750,"station_id":"CKI","i_lat":-6.198556,"transit":false},{"distance":1590,"station_id":"MRI","is_transit":true,"transit":true,"i_long":106.84912,"station_name":"Manggarai","i_lat":-6.209883,"time":4,"line":2},{"distance":3186,"line":1,"is_transit":false,"transit":false,"station_id":"SUD","i_lat":-6.202263,"station_name":"Sudirman","i_long":106.822649,"time":4},{"station_name":"Sudirman Baru","station_id":"SUDB","is_transit":false,"distance":280,"time":1,"transit":false,"i_lat":-6.201433,"i_long":106.819881,"line":1},{"i_long":106.816351,"is_transit":false,"station_name":"Karet","i_lat":-6.20132,"distance":471,"transit":false,"station_id":"KAT","line":1,"time":1},{"i_lat":-6.185545,"line":1,"station_id":"THB","transit":true,"is_transit":true,"time":5,"i_long":106.811091,"station_name":"Tanah Abang","distance":2029},{"station_id":"PLM","is_transit":false,"station_name":"Palmerah","transit":false,"distance":3191,"i_lat":-6.207404,"i_long":106.79689,"line":6,"time":6},{"station_id":"KBY","is_transit":false,"time":7,"distance":3737,"i_lat":-6.237242,"line":6,"i_long":106.780334,"transit":false,"station_name":"Kebayoran"},{"i_long":106.74273,"is_transit":false,"line":6,"transit":false,"station_id":"PDJ","distance":6218,"station_name":"Pondokranji","time":8,"i_lat":-6.276362},{"distance":2179,"transit":false,"station_name":"Jurangmangu","station_id":"JMU","i_long":106.728916,"time":3,"is_transit":false,"line":6,"i_lat":-6.288927},{"transit":false,"is_transit":false,"i_lat":-6.296963,"time":4,"i_long":106.712277,"line":6,"station_name":"Sudimara","station_id":"SDM","distance":1994},{"transit":false,"station_id":"RU","station_name":"Rawa Buntu","is_transit":false,"time":6,"i_lat":-6.314823,"i_long":106.675475,"line":6,"distance":4566},{"line":6,"station_name":"Serpong","station_id":"SRP","is_transit":false,"transit":false,"time":4,"i_lat":-6.319871,"i_long":106.66566,"distance":2413},{"is_transit":false,"station_name":"Cisauk","i_lat":-6.32484,"i_long":106.640411,"station_id":"CSK","distance":1784,"line":3,"transit":false,"time":4},{"distance":2519,"transit":false,"i_lat":-6.329547,"line":3,"i_long":106.617853,"station_id":"CC","time":4,"station_name":"Cicayur","is_transit":false},{"i_long":106.568863,"time":8,"line":6,"distance":5968,"i_lat":-6.3441410000000005,"is_transit":false,"transit":false,"station_name":"Parung Panjang","station_id":"PRP"},{"transit":false,"station_name":"Cilejit","station_id":"CJT","distance":7025,"i_long":106.508482,"is_transit":false,"time":9,"line":3,"i_lat":-6.354349},{"line":0,"station_name":"Daru","is_transit":false,"time":6,"i_lat":-6.338021,"station_id":"DAR","transit":false,"i_long":106.491338,"distance":2675},{"line":6,"station_id":"TEJ","transit":false,"distance":3902,"i_long":106.460812,"time":5,"is_transit":false,"station_name":"Tenjo","i_lat":-6.327251},{"i_lat":-6.328533,"line":6,"transit":false,"station_name":"Tigaraksa","station_id":"TGS","is_transit":false,"time":5,"distance":2974,"i_long":106.425991},{"i_long":106.411216,"station_name":"Cikoya","i_lat":-6.33561,"time":3,"distance":2651,"transit":false,"station_id":"CKY","is_transit":false,"line":3}],[{"distance":0,"line":5,"station_id":"BOI","station_name":"Bojongindah","time":0,"i_long":106.737035,"i_lat":-6.159876,"transit":false,"is_transit":false},{"i_lat":-6.1587309999999995,"is_transit":false,"time":2,"line":5,"transit":false,"station_name":"Taman Kota","distance":2334,"station_id":"TKO","i_long":106.756522},{"line":5,"distance":1614,"station_id":"PSG","i_lat":-6.161433,"time":2,"i_long":106.771379,"station_name":"Pesing","is_transit":false,"transit":false},{"i_lat":-6.162021,"is_transit":false,"station_name":"Grogol","i_long":106.788277,"time":2,"distance":2036,"transit":false,"line":5,"station_id":"GGL"},{"station_id":"DU","station_name":"Duri","transit":true,"time":3,"distance":1700,"i_long":106.800832,"line":1,"is_transit":true,"i_lat":-6.155215},{"station_name":"Angke","distance":1230,"is_transit":false,"line":1,"transit":false,"time":4,"station_id":"AK","i_lat":-6.144674,"i_long":106.79867},{"transit":true,"i_lat":-6.132549,"line":4,"i_long":106.826365,"station_name":"Kampung Bandan","station_id":"KPB","time":9,"distance":4102,"is_transit":true},{"line":11,"i_long":106.836569,"time":3,"station_name":"Rajawali","transit":false,"station_id":"RJW","is_transit":false,"i_lat":-6.14505,"distance":1444},{"time":5,"station_name":"Kemayoran","i_lat":-6.161728,"distance":1901,"is_transit":false,"station_id":"KMO","i_long":106.839204,"line":11,"transit":false},{"distance":1436,"station_id":"PSE","is_transit":false,"line":11,"i_long":106.84368,"i_lat":-6.174784,"time":4,"station_name":"Pasar Senen","transit":false},{"transit":false,"is_transit":false,"line":11,"i_lat":-6.185975,"i_long":106.850107,"time":8,"station_name":"Gang Sentiong","station_id":"GST","distance":1567},{"line":11,"time":1,"distance":973,"is_transit":false,"i_long":106.855437,"transit":false,"station_name":"Kramat","station_id":"KMT","i_lat":-6.193792},{"transit":false,"distance":1829,"is_transit":false,"i_long":106.861737,"station_id":"POK","station_name":"Pondok Jati","i_lat":-6.209188,"line":11,"time":2},{"station_name":"Jatinegara","time":9,"line":1,"station_id":"JNG","distance":1236,"i_long":106.86807400000001,"is_transit":true,"transit":true,"i_lat":-6.215091},{"time":2,"station_id":"MTR","station_name":"Matraman","distance":1377,"i_lat":-6.212485,"i_long":106.858896,"transit":false,"line":1,"is_transit":false},{"station_name":"Manggarai","station_id":"MRI","time":2,"is_transit":false,"i_lat":-6.209883,"distance":1275,"transit":false,"i_long":106.84912,"line":2},{"time":4,"i_long":106.822649,"line":1,"i_lat":-6.202263,"transit":false,"station_id":"SUD","distance":3186,"station_name":"Sudirman","is_transit":false},{"i_long":106.819881,"station_id":"SUDB","distance":280,"station_name":"Sudirman Baru","is_transit":false,"time":1,"i_lat":-6.201433,"transit":false,"line":1},{"time":1,"i_long":106.816351,"line":1,"station_id":"KAT","i_lat":-6.20132,"is_transit":false,"station_name":"Karet","transit":false,"distance":471},{"is_transit":true,"time":5,"i_lat":-6.185545,"line":1,"station_id":"THB","transit":true,"i_long":106.811091,"station_name":"Tanah Abang","distance":2029},{"time":6,"distance":3191,"is_transit":false,"station_id":"PLM","transit":false,"line":6,"station_name":"Palmerah","i_long":106.79689,"i_lat":-6.207404},{"time":7,"i_lat":-6.237242,"station_id":"KBY","transit":false,"station_name":"Kebayoran","line":6,"is_transit":false,"i_long":106.780334,"distance":3737},{"station_id":"PDJ","is_transit":false,"distance":6218,"i_lat":-6.276362,"station_name":"Pondokranji","i_long":106.74273,"time":8,"transit":false,"line":6},{"line":6,"i_long":106.728916,"station_id":"JMU","is_transit":false,"transit":false,"station_name":"Jurangmangu","time":3,"distance":2179,"i_lat":-6.288927},{"is_transit":false,"station_name":"Sudimara","station_id":"SDM","line":6,"transit":false,"distance":1994,"i_long":106.712277,"time":4,"i_lat":-6.296963},{"station_name":"Rawa Buntu","station_id":"RU","distance":4566,"i_long":106.675475,"transit":false,"time":6,"line":6,"i_lat":-6.314823,"is_transit":false},{"line":6,"is_transit":false,"time":4,"transit":false,"distance":2413,"i_long":106.66566,"station_name":"Serpong","station_id":"SRP","i_lat":-6.319871},{"is_transit":false,"transit":false,"distance":1784,"i_long":106.640411,"time":4,"i_lat":-6.32484,"line":3,"station_id":"CSK","station_name":"Cisauk"},{"line":3,"time":4,"station_id":"CC","distance":2519,"i_long":106.617853,"is_transit":false,"station_name":"Cicayur","transit":false,"i_lat":-6.329547},{"station_name":"Parung Panjang","is_transit":false,"distance":5968,"time":8,"line":6,"transit":false,"station_id":"PRP","i_lat":-6.3441410000000005,"i_long":106.568863},{"time":9,"is_transit":false,"transit":false,"distance":7025,"line":3,"station_id":"CJT","station_name":"Cilejit","i_lat":-6.354349,"i_long":106.508482},{"station_name":"Daru","time":6,"transit":false,"is_transit":false,"i_lat":-6.338021,"i_long":106.491338,"line":0,"distance":2675,"station_id":"DAR"},{"station_name":"Tenjo","line":6,"distance":3902,"i_long":106.460812,"transit":false,"is_transit":false,"time":5,"station_id":"TEJ","i_lat":-6.327251},{"station_id":"TGS","is_transit":false,"time":5,"i_long":106.425991,"transit":false,"line":6,"distance":2974,"i_lat":-6.328533,"station_name":"Tigaraksa"},{"station_id":"CKY","transit":false,"distance":2651,"i_long":106.411216,"station_name":"Cikoya","i_lat":-6.33561,"line":3,"is_transit":false,"time":3}]]}