{"data":[[{"time":0,"distance":0,"transit":false,"i_long":106.737035,"line":5,"i_lat":-6.159876,"station_id":"BOI","is_transit":false,"station_name":"Bojongindah"},{"i_long":106.756522,"station_name":"Taman Kota","i_lat":-6.1587309999999995,"line":5,"distance":2334,"time":2,"is_transit":false,"transit":false,"station_id":"TKO"},{"i_long":106.771379,"line":5,"distance":1614,"time":2,"station_name":"Pesing","transit":false,"is_transit":false,"station_id":"PSG","i_lat":-6.161433},{"line":5,"distance":2036,"i_lat":-6.162021,"time":2,"i_long":106.788277,"is_transit":false,"transit":false,"station_id":"GGL","station_name":"Grogol"},{"time":3,"i_lat":-6.155215,"distance":1700,"line":1,"transit":true,"is_transit":true,"i_long":106.800832,"station_id":"DU","station_name":"Duri"},{"i_lat":-6.144674,"station_name":"Angke","line":1,"station_id":"AK","time":4,"i_long":106.79867,"is_transit":false,"distance":1230,"transit":false},{"line":4,"i_long":106.826365,"time":9,"distance":4102,"station_id":"KPB","station_name":"Kampung Bandan","transit":true,"i_lat":-6.132549,"is_transit":true},{"i_lat":-6.14505,"line":11,"station_id":"RJW","station_name":"Rajawali","time":3,"is_transit":false,"transit":false,"i_long":106.836569,"distance":1444},{"i_long":106.839204,"i_lat":-6.161728,"time":5,"line":11,"station_name":"Kemayoran","is_transit":false,"distance":1901,"station_id":"KMO","transit":false}],[{"station_id":"BOI","station_name":"Bojongindah","i_long":106.737035,"distance":0,"i_lat":-6.159876,"transit":false,"line":5,"time":0,"is_transit":false},{"distance":2334,"station_id":"TKO","is_transit":false,"i_long":106.756522,"i_lat":-6.1587309999999995,"time":2,"station_name":"Taman Kota","line":5,"transit":false},{"time":2,"is_transit":false,"i_lat":-6.161433,"distance":1614,"i_long":106.771379,"station_id":"PSG","station_name":"Pesing","transit":false,"line":5},{"distance":2036,"line":5,"time":2,"transit":false,"i_long":106.788277,"station_name":"Grogol","is_transit":false,"station_id":"GGL","i_lat":-6.162021},{"distance":1700,"i_lat":-6.155215,"i_long":106.800832,"line":1,"station_name":"Duri","is_transit":true,"transit":true,"station_id":"DU","time":3},{"line":1,"is_transit":false,"distance":3632,"i_lat":-6.185545,"station_name":"Tanah Abang","transit":false,"i_long":106.811091,"station_id":"THB","time":8},{"station_name":"Karet","distance":2029,"transit":false,"line":1,"is_transit":false,"i_lat":-6.20132,"time":5,"station_id":"KAT","i_long":106.816351},{"i_long":106.819881,"station_id":"SUDB","i_lat":-6.201433,"line":1,"is_transit":false,"time":1,"distance":471,"transit":false,"station_name":"Sudirman Baru"},{"i_long":106.822649,"line":1,"distance":280,"transit":false,"i_lat":-6.202263,"is_transit":false,"time":1,"station_name":"Sudirman","station_id":"SUD"},{"distance":3186,"i_lat":-6.209883,"time":4,"is_transit":false,"transit":false,"i_long":106.84912,"station_id":"MRI","line":2,"station_name":"Manggarai"},{"distance":1275,"transit":false,"line":1,"station_id":"MTR","station_name":"Matraman","time":2,"i_lat":-6.212485,"is_transit":false,"i_long":106.858896},{"is_transit":true,"transit":true,"station_name":"Jatinegara","distance":1377,"i_lat":-6.215091,"station_id":"JNG","i_long":106.86807400000001,"line":1,"time":8},{"i_long":106.861737,"transit":false,"distance":1236,"time":2,"station_name":"Pondok Jati","line":11,"is_transit":false,"station_id":"POK","i_lat":-6.209188},{"distance":1829,"station_id":"KMT","transit":false,"line":11,"i_long":106.855437,"time":2,"is_transit":false,"station_name":"Kramat","i_lat":-6.193792},{"i_long":106.850107,"i_lat":-6.185975,"line":11,"is_transit":false,"time":1,"transit":false,"distance":973,"station_id":"GST","station_name":"Gang Sentiong"},{"line":11,"distance":1567,"i_long":106.84368,"time":8,"station_id":"PSE","station_name":"Pasar Senen","i_lat":-6.174784,"is_transit":false,"transit":false},{"station_id":"KMO","i_lat":-6.161728,"i_long":106.839204,"time":4,"line":11,"station_name":"Kemayoran","is_transit":false,"distance":1436,"transit":false}],[{"i_lat":-6.159876,"distance":0,"time":0,"station_id":"BOI","line":5,"is_transit":false,"station_name":"Bojongindah","transit":false,"i_long":106.737035},{"transit":false,"i_lat":-6.1587309999999995,"time":2,"station_name":"Taman Kota","i_long":106.756522,"distance":2334,"station_id":"TKO","line":5,"is_transit":false},{"i_lat":-6.161433,"distance":1614,"transit":false,"station_id":"PSG","line":5,"time":2,"i_long":106.771379,"is_transit":false,"station_name":"Pesing"},{"distance":2036,"time":2,"transit":false,"i_lat":-6.162021,"station_id":"GGL","station_name":"Grogol","line":5,"i_long":106.788277,"is_transit":false},{"line":1,"time":3,"station_id":"DU","transit":true,"i_lat":-6.155215,"i_long":106.800832,"is_transit":true,"station_name":"Duri","distance":1700},{"time":8,"i_long":106.811091,"line":1,"station_name":"Tanah Abang","transit":false,"i_lat":-6.185545,"is_transit":false,"distance":3632,"station_id":"THB"},{"station_id":"KAT","station_name":"Karet","distance":2029,"i_lat":-6.20132,"line":1,"time":5,"i_long":106.816351,"is_transit":false,"transit":false},{"distance":471,"time":1,"is_transit":false,"transit":false,"station_name":"Sudirman Baru","i_lat":-6.201433,"i_long":106.819881,"station_id":"SUDB","line":1},{"time":1,"distance":280,"station_name":"Sudirman","i_lat":-6.202263,"i_long":106.822649,"is_transit":false,"line":1,"station_id":"SUD","transit":false},{"time":4,"station_id":"MRI","transit":true,"is_transit":true,"station_name":"Manggarai","i_long":106.84912,"distance":3186,"i_lat":-6.209883,"line":2},{"station_id":"CKI","transit":false,"line":2,"i_lat":-6.198556,"distance":1590,"time":4,"station_name":"Cikini","i_long":106.840169,"is_transit":false},{"distance":1750,"i_long":106.832183,"is_transit":false,"line":2,"time":3,"station_name":"Gondangdia","station_id":"GDD","transit":false,"i_lat":-6.186295},{"i_long":106.828284,"station_id":"JUA","line":2,"is_transit":false,"time":4,"station_name":"Juanda","transit":false,"distance":2015,"i_lat":-6.166716},{"station_name":"Sawah Besar","line":2,"transit":false,"distance":1149,"i_lat":-6.160725,"station_id":"SW","time":2,"is_transit":false,"i_long":106.827103},{"station_id":"MGB","is_transit":false,"transit":false,"time":2,"station_name":"Manggabesar","i_lat":-6.149769,"line":2,"i_long":106.82482,"distance":906},{"distance":1080,"i_long":106.820901,"station_name":"Jayakarta","line":2,"time":2,"i_lat":-6.141205,"transit":false,"is_transit":false,"station_id":"JAY"},{"distance":1264,"line":2,"transit":true,"i_long":106.812439,"station_name":"Jakarta Kota","i_lat":-6.137569,"is_transit":true,"station_id":"JAKK","time":4},{"is_transit":true,"transit":true,"distance":1364,"station_id":"KPB","i_lat":-6.132549,"i_long":106.826365,"station_name":"Kampung Bandan","line":4,"time":3},{"is_transit":false,"distance":1444,"time":3,"transit":false,"i_lat":-6.14505,"station_name":"Rajawali","line":11,"i_long":106.836569,"station_id":"RJW"},{"distance":1901,"station_id":"KMO","station_name":"Kemayoran","i_long":106.839204,"time":5,"is_transit":false,"transit":false,"i_lat":-6.161728,"line":11}],[{"distance":0,"station_id":"BOI","time":0,"line":5,"station_name":"Bojongindah","transit":false,"i_lat":-6.159876,"i_long":106.737035,"is_transit":false},{"distance":2334,"transit":false,"station_id":"TKO","i_lat":-6.1587309999999995,"station_name":"Taman Kota","is_transit":false,"i_long":106.756522,"line":5,"time":2},{"i_long":106.771379,"distance":1614,"transit":false,"is_transit":false,"station_name":"Pesing","i_lat":-6.161433,"station_id":"PSG","line":5,"time":2},{"distance":2036,"station_name":"Grogol","line":5,"time":2,"station_id":"GGL","is_transit":false,"transit":false,"i_lat":-6.162021,"i_long":106.788277},{"i_lat":-6.155215,"time":3,"transit":true,"line":1,"station_name":"Duri","is_transit":true,"distance":1700,"i_long":106.800832,"station_id":"DU"},{"station_name":"Angke","i_long":106.79867,"line":1,"time":4,"station_id":"AK","distance":1230,"i_lat":-6.144674,"is_transit":false,"transit":false},{"station_name":"Kampung Bandan","is_transit":true,"i_lat":-6.132549,"i_long":106.826365,"time":9,"line":4,"transit":true,"station_id":"KPB","distance":4102},{"distance":1364,"i_long":106.812439,"i_lat":-6.137569,"transit":true,"station_name":"Jakarta Kota","is_transit":true,"line":2,"station_id":"JAKK","time":3},{"distance":1264,"i_long":106.820901,"time":4,"station_id":"JAY","line":2,"station_name":"Jayakarta","transit":false,"i_lat":-6.141205,"is_transit":false},{"station_id":"MGB","line":2,"is_transit":false,"station_name":"Manggabesar","transit":false,"i_lat":-6.149769,"distance":1080,"i_long":106.82482,"time":2},{"i_long":106.827103,"time":2,"distance":906,"station_name":"Sawah Besar","transit":false,"line":2,"is_transit":false,"i_lat":-6.160725,"station_id":"SW"},{"i_long":106.828284,"station_id":"JUA","station_name":"Juanda","is_transit":false,"distance":1149,"transit":false,"time":2,"i_lat":-6.166716,"line":2},{"transit":false,"time":4,"distance":2015,"is_transit":false,"line":2,"i_lat":-6.186295,"station_id":"GDD","station_name":"Gondangdia","i_long":106.832183},{"distance":1750,"time":3,"i_lat":-6.198556,"transit":false,"is_transit":false,"station_id":"CKI","station_name":"Cikini","line":2,"i_long":106.840169},{"distance":1590,"transit":true,"i_lat":-6.209883,"station_name":"Manggarai","is_transit":true,"time":4,"station_id":"MRI","i_long":106.84912,"line":2},{"station_id":"MTR","time":2,"station_name":"Matraman","distance":1275,"i_long":106.858896,"transit":false,"line":1,"i_lat":-6.212485,"is_transit":false},{"transit":true,"line":1,"is_transit":true,"station_id":"JNG","station_name":"Jatinegara","distance":1377,"i_long":106.86807400000001,"i_lat":-6.215091,"time":8},{"distance":1236,"line":11,"i_lat":-6.209188,"station_id":"POK","is_transit":false,"time":2,"station_name":"Pondok Jati","transit":false,"i_long":106.861737},{"transit":false,"i_lat":-6.193792,"line":11,"is_transit":false,"time":2,"station_id":"KMT","station_name":"Kramat","distance":1829,"i_long":106.855437},{"distance":973,"station_id":"GST","is_transit":false,"i_lat":-6.185975,"time":1,"i_long":106.850107,"station_name":"Gang Sentiong","line":11,"transit":false},{"station_name":"Pasar Senen","station_id":"PSE","is_transit":false,"distance":1567,"i_long":106.84368,"line":11,"time":8,"transit":false,"i_lat":-6.174784},{"i_lat":-6.161728,"is_transit":false,"distance":1436,"transit":false,"time":4,"station_id":"KMO","i_long":106.839204,"station_name":"Kemayoran","line":11}]]}