{"data":[[{"station_name":"Bojongindah","line":5,"i_lat":-6.159876,"is_transit":false,"station_id":"BOI","distance":0,"transit":false,"i_long":106.737035,"time":0},{"transit":false,"i_long":106.756522,"distance":2334,"line":5,"station_id":"TKO","time":2,"i_lat":-6.1587309999999995,"station_name":"Taman Kota","is_transit":false},{"station_name":"Pesing","transit":false,"line":5,"time":2,"distance":1614,"i_long":106.771379,"station_id":"PSG","is_transit":false,"i_lat":-6.161433},{"i_lat":-6.162021,"station_id":"GRG","is_transit":false,"station_name":"Grogol","time":2,"distance":2036,"transit":false,"line":5,"i_long":106.788277},{"i_long":106.800832,"station_id":"DU","distance":1700,"is_transit":true,"line":1,"station_name":"Duri","transit":true,"time":3,"i_lat":-6.155215},{"is_transit":true,"line":1,"i_long":106.811091,"time":8,"i_lat":-6.185545,"distance":3632,"station_id":"THB","station_name":"Tanah Abang","transit":true},{"line":6,"station_name":"Palmerah","transit":false,"i_long":106.79689,"station_id":"PLM","distance":3191,"is_transit":false,"i_lat":-6.207404,"time":6},{"distance":3737,"transit":false,"is_transit":false,"station_name":"Kebayoran","i_long":106.780334,"station_id":"KBY","i_lat":-6.237242,"line":6,"time":7},{"time":8,"station_id":"PDJ","i_lat":-6.276362,"station_name":"Pondokranji","is_transit":false,"transit":false,"i_long":106.74273,"line":6,"distance":6218},{"distance":2179,"i_long":106.728916,"line":6,"transit":false,"station_name":"Jurangmangu","station_id":"JMU","i_lat":-6.288927,"is_transit":false,"time":3},{"distance":1994,"line":6,"station_id":"SDM","time":4,"is_transit":false,"transit":false,"i_long":106.712277,"i_lat":-6.296963,"station_name":"Sudimara"},{"transit":false,"i_lat":-6.314823,"i_long":106.675475,"station_name":"Rawa Buntu","station_id":"RU","time":6,"distance":4566,"line":6,"is_transit":false},{"station_name":"Serpong","transit":false,"i_lat":-6.319871,"line":6,"is_transit":false,"i_long":106.66566,"distance":2413,"station_id":"SRP","time":4},{"is_transit":false,"i_lat":-6.32484,"time":4,"station_name":"Cisauk","transit":false,"distance":1784,"line":3,"i_long":106.640411,"station_id":"CSK"},{"station_name":"Cicayur","transit":false,"i_lat":-6.329547,"line":3,"is_transit":false,"i_long":106.617853,"distance":2519,"time":4,"station_id":"CC"}],[{"station_id":"BOI","i_lat":-6.159876,"line":5,"distance":0,"time":0,"transit":false,"is_transit":false,"station_name":"Bojongindah","i_long":106.737035},{"transit":false,"i_long":106.756522,"station_name":"Taman Kota","time":2,"i_lat":-6.1587309999999995,"line":5,"is_transit":false,"station_id":"TKO","distance":2334},{"distance":1614,"time":2,"station_id":"PSG","station_name":"Pesing","is_transit":false,"i_long":106.771379,"line":5,"transit":false,"i_lat":-6.161433},{"station_id":"GRG","is_transit":false,"i_lat":-6.162021,"line":5,"transit":false,"i_long":106.788277,"time":2,"station_name":"Grogol","distance":2036},{"time":3,"distance":1700,"is_transit":true,"i_lat":-6.155215,"line":1,"transit":true,"i_long":106.800832,"station_name":"Duri","station_id":"DU"},{"i_long":106.79867,"transit":false,"time":4,"station_id":"AK","i_lat":-6.144674,"is_transit":false,"line":1,"station_name":"Angke","distance":1230},{"time":9,"station_name":"Kampung Bandan","is_transit":true,"i_long":106.826365,"station_id":"KPB","line":4,"transit":true,"distance":4102,"i_lat":-6.132549},{"i_lat":-6.137569,"is_transit":true,"transit":true,"distance":1364,"station_id":"JAKK","station_name":"Jakarta Kota","i_long":106.812439,"line":2,"time":3},{"station_id":"JAY","i_long":106.820901,"station_name":"Jayakarta","transit":false,"distance":1264,"line":2,"time":4,"is_transit":false,"i_lat":-6.141205},{"is_transit":false,"i_long":106.82482,"station_name":"Manggabesar","distance":1080,"i_lat":-6.149769,"line":2,"time":2,"transit":false,"station_id":"MGB"},{"line":2,"is_transit":false,"distance":906,"i_lat":-6.160725,"time":2,"station_name":"Sawah Besar","i_long":106.827103,"transit":false,"station_id":"SW"},{"time":2,"distance":1149,"station_id":"JUA","i_lat":-6.166716,"station_name":"Juanda","transit":false,"is_transit":false,"i_long":106.828284,"line":2},{"time":4,"distance":2015,"transit":false,"station_id":"GDD","i_lat":-6.186295,"i_long":106.832183,"line":2,"is_transit":false,"station_name":"Gondangdia"},{"i_lat":-6.198556,"time":3,"distance":1750,"transit":false,"station_id":"CKI","station_name":"Cikini","is_transit":false,"i_long":106.840169,"line":2},{"station_name":"Manggarai","line":2,"time":4,"is_transit":true,"i_lat":-6.209883,"distance":1590,"station_id":"MRI","transit":true,"i_long":106.84912},{"transit":false,"i_lat":-6.202263,"line":1,"is_transit":false,"time":4,"distance":3186,"station_name":"Sudirman","i_long":106.822649,"station_id":"SUD"},{"time":1,"i_long":106.819881,"transit":false,"line":1,"i_lat":-6.201433,"is_transit":false,"distance":280,"station_id":"SUDB","station_name":"Sudirman Baru"},{"i_lat":-6.20132,"station_id":"KAT","time":1,"distance":471,"i_long":106.816351,"station_name":"Karet","transit":false,"is_transit":false,"line":1},{"i_long":106.811091,"i_lat":-6.185545,"line":1,"station_id":"THB","is_transit":true,"distance":2029,"time":5,"station_name":"Tanah Abang","transit":true},{"distance":3191,"is_transit":false,"station_name":"Palmerah","i_lat":-6.207404,"i_long":106.79689,"line":6,"station_id":"PLM","transit":false,"time":6},{"transit":false,"i_long":106.780334,"is_transit":false,"station_name":"Kebayoran","i_lat":-6.237242,"line":6,"station_id":"KBY","time":7,"distance":3737},{"line":6,"is_transit":false,"time":8,"i_lat":-6.276362,"i_long":106.74273,"station_id":"PDJ","distance":6218,"transit":false,"station_name":"Pondokranji"},{"line":6,"time":3,"station_id":"JMU","i_lat":-6.288927,"i_long":106.728916,"transit":false,"station_name":"Jurangmangu","is_transit":false,"distance":2179},{"i_long":106.712277,"is_transit":false,"time":4,"line":6,"transit":false,"i_lat":-6.296963,"station_id":"SDM","distance":1994,"station_name":"Sudimara"},{"is_transit":false,"i_lat":-6.314823,"line":6,"i_long":106.675475,"transit":false,"distance":4566,"station_name":"Rawa Buntu","time":6,"station_id":"RU"},{"line":6,"time":4,"transit":false,"distance":2413,"i_long":106.66566,"is_transit":false,"i_lat":-6.319871,"station_id":"SRP","station_name":"Serpong"},{"transit":false,"time":4,"distance":1784,"line":3,"is_transit":false,"i_long":106.640411,"station_id":"CSK","i_lat":-6.32484,"station_name":"Cisauk"},{"station_name":"Cicayur","transit":false,"distance":2519,"i_long":106.617853,"station_id":"CC","i_lat":-6.329547,"line":3,"is_transit":false,"time":4}],[{"transit":false,"i_long":106.737035,"station_id":"BOI","is_transit":false,"station_name":"Bojongindah","time":0,"distance":0,"line":5,"i_lat":-6.159876},{"station_id":"TKO","station_name":"Taman Kota","i_long":106.756522,"line":5,"is_transit":false,"i_lat":-6.1587309999999995,"transit":false,"time":2,"distance":2334},{"i_long":106.771379,"station_name":"Pesing","line":5,"is_transit":false,"i_lat":-6.161433,"time":2,"station_id":"PSG","distance":1614,"transit":false},{"station_name":"Grogol","is_transit":false,"station_id":"GRG","time":2,"line":5,"transit":false,"i_long":106.788277,"distance":2036,"i_lat":-6.162021},{"station_name":"Duri","station_id":"DU","time":3,"i_lat":-6.155215,"distance":1700,"line":1,"is_transit":true,"transit":true,"i_long":106.800832},{"is_transit":false,"transit":false,"time":4,"line":1,"i_long":106.79867,"station_name":"Angke","i_lat":-6.144674,"station_id":"AK","distance":1230},{"line":4,"is_transit":true,"transit":true,"station_id":"KPB","station_name":"Kampung Bandan","time":9,"i_lat":-6.132549,"i_long":106.826365,"distance":4102},{"transit":false,"station_name":"Rajawali","i_lat":-6.14505,"time":3,"line":11,"distance":1444,"is_transit":false,"i_long":106.836569,"station_id":"RJW"},{"station_id":"KMO","transit":false,"station_name":"Kemayoran","i_long":106.839204,"time":5,"distance":1901,"i_lat":-6.161728,"is_transit":false,"line":11},{"transit":false,"station_name":"Pasar Senen","i_lat":-6.174784,"station_id":"PSE","time":4,"distance":1436,"i_long":106.84368,"is_transit":false,"line":11},{"time":8,"distance":1567,"i_long":106.850107,"line":11,"is_transit":false,"station_id":"GST","transit":false,"station_name":"Gang Sentiong","i_lat":-6.185975},{"time":1,"line":11,"transit":false,"i_long":106.855437,"is_transit":false,"i_lat":-6.193792,"station_id":"KMT","distance":973,"station_name":"Kramat"},{"time":2,"station_id":"POK","i_long":106.861737,"is_transit":false,"distance":1829,"line":11,"station_name":"Pondok Jati","transit":false,"i_lat":-6.209188},{"time":9,"station_name":"Jatinegara","is_transit":true,"transit":true,"i_long":106.86807400000001,"i_lat":-6.215091,"distance":1236,"station_id":"JNG","line":1},{"i_long":106.858896,"distance":1377,"transit":false,"time":2,"station_id":"MTR","station_name":"Matraman","line":1,"is_transit":false,"i_lat":-6.212485},{"i_lat":-6.209883,"distance":1275,"transit":false,"is_transit":false,"i_long":106.84912,"station_id":"MRI","time":2,"station_name":"Manggarai","line":2},{"station_name":"Sudirman","is_transit":false,"time":4,"station_id":"SUD","distance":3186,"i_lat":-6.202263,"i_long":106.822649,"line":1,"transit":false},{"station_id":"SUDB","i_lat":-6.201433,"is_transit":false,"transit":false,"distance":280,"time":1,"station_name":"Sudirman Baru","i_long":106.819881,"line":1},{"station_name":"Karet","transit":false,"line":1,"i_long":106.816351,"station_id":"KAT","time":1,"i_lat":-6.20132,"is_transit":false,"distance":471},{"is_transit":true,"station_name":"Tanah Abang","station_id":"THB","i_lat":-6.185545,"i_long":106.811091,"distance":2029,"time":5,"line":1,"transit":true},{"time":6,"i_long":106.79689,"station_id":"PLM","transit":false,"line":6,"station_name":"Palmerah","is_transit":false,"distance":3191,"i_lat":-6.207404},{"i_lat":-6.237242,"station_name":"Kebayoran","line":6,"time":7,"station_id":"KBY","transit":false,"distance":3737,"is_transit":false,"i_long":106.780334},{"i_lat":-6.276362,"i_long":106.74273,"line":6,"station_id":"PDJ","time":8,"transit":false,"distance":6218,"is_transit":false,"station_name":"Pondokranji"},{"transit":false,"i_lat":-6.288927,"i_long":106.728916,"distance":2179,"line":6,"is_transit":false,"time":3,"station_id":"JMU","station_name":"Jurangmangu"},{"i_long":106.712277,"transit":false,"i_lat":-6.296963,"is_transit":false,"line":6,"time":4,"station_id":"SDM","distance":1994,"station_name":"Sudimara"},{"time":6,"station_id":"RU","i_lat":-6.314823,"is_transit":false,"i_long":106.675475,"line":6,"distance":4566,"transit":false,"station_name":"Rawa Buntu"},{"is_transit":false,"station_name":"Serpong","distance":2413,"transit":false,"time":4,"i_lat":-6.319871,"i_long":106.66566,"line":6,"station_id":"SRP"},{"is_transit":false,"distance":1784,"station_name":"Cisauk","transit":false,"station_id":"CSK","i_lat":-6.32484,"time":4,"line":3,"i_long":106.640411},{"time":4,"station_name":"Cicayur","i_lat":-6.329547,"station_id":"CC","i_long":106.617853,"transit":false,"is_transit":false,"distance":2519,"line":3}]]}