{"data":[[{"station_name":"Bojongindah","transit":false,"line":5,"station_id":"BOI","i_lat":-6.159876,"i_long":106.737035,"distance":0,"time":0,"is_transit":false},{"distance":2334,"station_id":"TKO","line":5,"transit":false,"station_name":"Taman Kota","i_lat":-6.1587309999999995,"is_transit":false,"i_long":106.756522,"time":2},{"i_long":106.771379,"is_transit":false,"station_id":"PSG","i_lat":-6.161433,"station_name":"Pesing","time":2,"distance":1614,"transit":false,"line":5},{"station_name":"Grogol","i_lat":-6.162021,"is_transit":false,"transit":false,"station_id":"GGL","i_long":106.788277,"distance":2036,"time":2,"line":5},{"line":1,"distance":1700,"station_id":"DU","is_transit":true,"transit":true,"time":3,"i_lat":-6.155215,"station_name":"Duri","i_long":106.800832},{"i_long":106.79867,"station_name":"Angke","time":4,"transit":false,"station_id":"AK","i_lat":-6.144674,"distance":1230,"line":1,"is_transit":false},{"station_name":"Kampung Bandan","is_transit":true,"time":9,"transit":true,"station_id":"KPB","distance":4102,"i_lat":-6.132549,"i_long":106.826365,"line":4},{"station_name":"Jakarta Kota","distance":1364,"station_id":"JAKK","i_long":106.812439,"time":3,"line":2,"is_transit":true,"transit":true,"i_lat":-6.137569},{"i_lat":-6.141205,"i_long":106.820901,"line":2,"time":4,"is_transit":false,"station_id":"JAY","transit":false,"distance":1264,"station_name":"Jayakarta"},{"is_transit":false,"time":2,"i_long":106.82482,"line":2,"i_lat":-6.149769,"distance":1080,"station_id":"MGB","station_name":"Manggabesar","transit":false},{"station_id":"SW","i_lat":-6.160725,"station_name":"Sawah Besar","is_transit":false,"i_long":106.827103,"line":2,"transit":false,"time":2,"distance":906},{"time":2,"is_transit":false,"i_long":106.828284,"distance":1149,"line":2,"transit":false,"station_id":"JUA","station_name":"Juanda","i_lat":-6.166716}],[{"i_lat":-6.159876,"station_name":"Bojongindah","i_long":106.737035,"time":0,"distance":0,"transit":false,"station_id":"BOI","is_transit":false,"line":5},{"station_name":"Taman Kota","i_long":106.756522,"station_id":"TKO","line":5,"i_lat":-6.1587309999999995,"is_transit":false,"distance":2334,"transit":false,"time":2},{"line":5,"time":2,"transit":false,"distance":1614,"station_id":"PSG","station_name":"Pesing","is_transit":false,"i_lat":-6.161433,"i_long":106.771379},{"station_name":"Grogol","distance":2036,"station_id":"GGL","i_lat":-6.162021,"transit":false,"line":5,"i_long":106.788277,"is_transit":false,"time":2},{"line":1,"transit":true,"distance":1700,"station_name":"Duri","is_transit":true,"i_lat":-6.155215,"time":3,"station_id":"DU","i_long":106.800832},{"is_transit":false,"line":1,"time":8,"distance":3632,"station_name":"Tanah Abang","i_lat":-6.185545,"i_long":106.811091,"transit":false,"station_id":"THB"},{"distance":2029,"station_name":"Karet","station_id":"KAT","i_lat":-6.20132,"i_long":106.816351,"time":5,"line":1,"transit":false,"is_transit":false},{"i_long":106.819881,"station_id":"SUDB","station_name":"Sudirman Baru","time":1,"i_lat":-6.201433,"is_transit":false,"distance":471,"line":1,"transit":false},{"line":1,"time":1,"distance":280,"i_long":106.822649,"station_name":"Sudirman","i_lat":-6.202263,"is_transit":false,"station_id":"SUD","transit":false},{"is_transit":true,"time":4,"station_id":"MRI","i_long":106.84912,"distance":3186,"station_name":"Manggarai","transit":true,"line":2,"i_lat":-6.209883},{"distance":1590,"station_id":"CKI","station_name":"Cikini","is_transit":false,"line":2,"transit":false,"time":4,"i_lat":-6.198556,"i_long":106.840169},{"transit":false,"is_transit":false,"i_long":106.832183,"distance":1750,"station_name":"Gondangdia","i_lat":-6.186295,"line":2,"station_id":"GDD","time":3},{"station_name":"Juanda","distance":2015,"time":4,"is_transit":false,"i_long":106.828284,"transit":false,"line":2,"i_lat":-6.166716,"station_id":"JUA"}],[{"i_long":106.737035,"time":0,"is_transit":false,"transit":false,"i_lat":-6.159876,"station_name":"Bojongindah","distance":0,"station_id":"BOI","line":5},{"is_transit":false,"time":2,"distance":2334,"station_id":"TKO","i_lat":-6.1587309999999995,"line":5,"transit":false,"station_name":"Taman Kota","i_long":106.756522},{"is_transit":false,"station_id":"PSG","i_long":106.771379,"i_lat":-6.161433,"station_name":"Pesing","line":5,"time":2,"transit":false,"distance":1614},{"i_long":106.788277,"is_transit":false,"transit":false,"distance":2036,"time":2,"line":5,"station_id":"GGL","station_name":"Grogol","i_lat":-6.162021},{"station_name":"Duri","distance":1700,"is_transit":true,"transit":true,"i_long":106.800832,"i_lat":-6.155215,"station_id":"DU","line":1,"time":3},{"station_name":"Angke","is_transit":false,"transit":false,"distance":1230,"i_long":106.79867,"line":1,"i_lat":-6.144674,"station_id":"AK","time":4},{"time":9,"i_lat":-6.132549,"station_name":"Kampung Bandan","distance":4102,"i_long":106.826365,"station_id":"KPB","is_transit":true,"transit":true,"line":4},{"time":3,"distance":1444,"station_id":"RJW","station_name":"Rajawali","is_transit":false,"line":11,"i_long":106.836569,"transit":false,"i_lat":-6.14505},{"distance":1901,"is_transit":false,"transit":false,"time":5,"i_lat":-6.161728,"i_long":106.839204,"line":11,"station_id":"KMO","station_name":"Kemayoran"},{"i_long":106.84368,"distance":1436,"transit":false,"i_lat":-6.174784,"line":11,"is_transit":false,"time":4,"station_name":"Pasar Senen","station_id":"PSE"},{"is_transit":false,"time":8,"station_id":"GST","transit":false,"i_long":106.850107,"i_lat":-6.185975,"distance":1567,"line":11,"station_name":"Gang Sentiong"},{"i_lat":-6.193792,"station_name":"Kramat","transit":false,"line":11,"time":1,"is_transit":false,"station_id":"KMT","i_long":106.855437,"distance":973},{"distance":1829,"station_name":"Pondok Jati","station_id":"POK","is_transit":false,"i_long":106.861737,"time":2,"line":11,"transit":false,"i_lat":-6.209188},{"i_long":106.86807400000001,"station_id":"JNG","station_name":"Jatinegara","distance":1236,"is_transit":true,"transit":true,"i_lat":-6.215091,"time":9,"line":1},{"i_long":106.858896,"line":1,"station_id":"MTR","distance":1377,"station_name":"Matraman","time":2,"is_transit":false,"transit":false,"i_lat":-6.212485},{"station_name":"Manggarai","transit":true,"time":2,"i_lat":-6.209883,"station_id":"MRI","i_long":106.84912,"line":2,"is_transit":true,"distance":1275},{"i_lat":-6.198556,"station_id":"CKI","line":2,"distance":1590,"transit":false,"station_name":"Cikini","is_transit":false,"i_long":106.840169,"time":4},{"station_name":"Gondangdia","time":3,"i_long":106.832183,"station_id":"GDD","distance":1750,"is_transit":false,"transit":false,"i_lat":-6.186295,"line":2},{"line":2,"distance":2015,"station_id":"JUA","transit":false,"is_transit":false,"i_lat":-6.166716,"time":4,"station_name":"Juanda","i_long":106.828284}],[{"distance":0,"is_transit":false,"station_id":"BOI","i_lat":-6.159876,"station_name":"Bojongindah","time":0,"transit":false,"line":5,"i_long":106.737035},{"distance":2334,"time":2,"i_lat":-6.1587309999999995,"i_long":106.756522,"station_id":"TKO","transit":false,"line":5,"is_transit":false,"station_name":"Taman Kota"},{"transit":false,"time":2,"i_lat":-6.161433,"line":5,"i_long":106.771379,"station_name":"Pesing","distance":1614,"station_id":"PSG","is_transit":false},{"line":5,"i_lat":-6.162021,"distance":2036,"station_id":"GGL","transit":false,"station_name":"Grogol","is_transit":false,"i_long":106.788277,"time":2},{"i_lat":-6.155215,"station_id":"DU","time":3,"transit":true,"line":1,"distance":1700,"is_transit":true,"i_long":106.800832,"station_name":"Duri"},{"line":1,"distance":3632,"i_long":106.811091,"station_id":"THB","station_name":"Tanah Abang","transit":false,"time":8,"is_transit":false,"i_lat":-6.185545},{"station_id":"KAT","line":1,"i_lat":-6.20132,"time":5,"transit":false,"is_transit":false,"i_long":106.816351,"station_name":"Karet","distance":2029},{"station_name":"Sudirman Baru","transit":false,"is_transit":false,"time":1,"i_long":106.819881,"distance":471,"i_lat":-6.201433,"station_id":"SUDB","line":1},{"station_id":"SUD","distance":280,"is_transit":false,"time":1,"i_lat":-6.202263,"line":1,"station_name":"Sudirman","transit":false,"i_long":106.822649},{"i_lat":-6.209883,"station_name":"Manggarai","distance":3186,"station_id":"MRI","transit":false,"i_long":106.84912,"line":2,"time":4,"is_transit":false},{"line":1,"is_transit":false,"i_lat":-6.212485,"i_long":106.858896,"station_name":"Matraman","distance":1275,"transit":false,"time":2,"station_id":"MTR"},{"station_name":"Jatinegara","distance":1377,"transit":true,"time":8,"line":1,"i_lat":-6.215091,"i_long":106.86807400000001,"station_id":"JNG","is_transit":true},{"station_id":"POK","i_lat":-6.209188,"time":2,"station_name":"Pondok Jati","transit":false,"line":11,"is_transit":false,"i_long":106.861737,"distance":1236},{"transit":false,"station_name":"Kramat","line":11,"time":2,"station_id":"KMT","distance":1829,"i_long":106.855437,"is_transit":false,"i_lat":-6.193792},{"time":1,"is_transit":false,"station_name":"Gang Sentiong","i_long":106.850107,"i_lat":-6.185975,"distance":973,"station_id":"GST","transit":false,"line":11},{"i_lat":-6.174784,"distance":1567,"station_id":"PSE","time":8,"line":11,"station_name":"Pasar Senen","transit":false,"is_transit":false,"i_long":106.84368},{"line":11,"distance":1436,"i_long":106.839204,"station_name":"Kemayoran","transit":false,"i_lat":-6.161728,"time":4,"station_id":"KMO","is_transit":false},{"distance":1901,"station_name":"Rajawali","station_id":"RJW","transit":false,"i_long":106.836569,"i_lat":-6.14505,"line":11,"time":5,"is_transit":false},{"is_transit":true,"distance":1444,"i_long":106.826365,"station_name":"Kampung Bandan","station_id":"KPB","transit":true,"time":3,"i_lat":-6.132549,"line":4},{"transit":true,"i_long":106.812439,"station_id":"JAKK","time":3,"station_name":"Jakarta Kota","i_lat":-6.137569,"distance":1364,"line":2,"is_transit":true},{"transit":false,"time":4,"i_long":106.820901,"i_lat":-6.141205,"line":2,"distance":1264,"is_transit":false,"station_name":"Jayakarta","station_id":"JAY"},{"time":2,"transit":false,"i_long":106.82482,"i_lat":-6.149769,"distance":1080,"station_id":"MGB","station_name":"Manggabesar","line":2,"is_transit":false},{"station_id":"SW","distance":906,"station_name":"Sawah Besar","time":2,"transit":false,"is_transit":false,"i_lat":-6.160725,"i_long":106.827103,"line":2},{"i_long":106.828284,"i_lat":-6.166716,"line":2,"is_transit":false,"station_id":"JUA","station_name":"Juanda","transit":false,"time":2,"distance":1149}]]}