{"data":[[{"is_transit":false,"transit":false,"i_long":106.737035,"station_id":"BOI","i_lat":-6.159876,"time":0,"line":5,"station_name":"Bojongindah","distance":0},{"distance":2334,"is_transit":false,"station_name":"Taman Kota","time":2,"line":5,"station_id":"TKO","i_lat":-6.1587309999999995,"transit":false,"i_long":106.756522},{"line":5,"is_transit":false,"distance":1614,"station_name":"Pesing","time":2,"transit":false,"i_lat":-6.161433,"station_id":"PSG","i_long":106.771379},{"transit":false,"station_id":"GGL","station_name":"Grogol","is_transit":false,"time":2,"distance":2036,"i_lat":-6.162021,"i_long":106.788277,"line":5},{"line":1,"station_name":"Duri","is_transit":true,"transit":true,"i_lat":-6.155215,"distance":1700,"station_id":"DU","time":3,"i_long":106.800832},{"transit":false,"station_name":"Angke","i_long":106.79867,"line":1,"i_lat":-6.144674,"distance":1230,"station_id":"AK","is_transit":false,"time":4},{"distance":4102,"time":9,"i_lat":-6.132549,"is_transit":true,"station_id":"KPB","transit":true,"i_long":106.826365,"line":4,"station_name":"Kampung Bandan"},{"i_lat":-6.128023,"time":4,"station_id":"AC","station_name":"Ancol","is_transit":false,"line":4,"transit":false,"distance":2185,"i_long":106.84464},{"is_transit":false,"line":4,"time":9,"i_long":106.880089,"distance":4566,"station_name":"Tanjung Priuk","station_id":"TPK","transit":false,"i_lat":-6.1109480000000005}],[{"is_transit":false,"time":0,"i_long":106.737035,"distance":0,"station_name":"Bojongindah","station_id":"BOI","i_lat":-6.159876,"line":5,"transit":false},{"station_id":"TKO","time":2,"is_transit":false,"i_long":106.756522,"line":5,"station_name":"Taman Kota","transit":false,"distance":2334,"i_lat":-6.1587309999999995},{"time":2,"i_long":106.771379,"station_id":"PSG","transit":false,"is_transit":false,"distance":1614,"line":5,"i_lat":-6.161433,"station_name":"Pesing"},{"i_long":106.788277,"line":5,"is_transit":false,"time":2,"station_name":"Grogol","distance":2036,"station_id":"GGL","transit":false,"i_lat":-6.162021},{"transit":true,"station_name":"Duri","distance":1700,"time":3,"line":1,"is_transit":true,"station_id":"DU","i_lat":-6.155215,"i_long":106.800832},{"distance":3632,"transit":false,"i_lat":-6.185545,"time":8,"station_name":"Tanah Abang","i_long":106.811091,"line":1,"station_id":"THB","is_transit":false},{"time":5,"station_name":"Karet","i_long":106.816351,"is_transit":false,"line":1,"transit":false,"distance":2029,"station_id":"KAT","i_lat":-6.20132},{"time":1,"distance":471,"transit":false,"station_name":"Sudirman Baru","i_long":106.819881,"station_id":"SUDB","is_transit":false,"line":1,"i_lat":-6.201433},{"distance":280,"station_id":"SUD","line":1,"time":1,"station_name":"Sudirman","is_transit":false,"i_long":106.822649,"transit":false,"i_lat":-6.202263},{"station_name":"Manggarai","line":2,"is_transit":true,"time":4,"distance":3186,"transit":true,"i_lat":-6.209883,"i_long":106.84912,"station_id":"MRI"},{"time":4,"distance":1590,"line":2,"is_transit":false,"transit":false,"i_lat":-6.198556,"station_id":"CKI","station_name":"Cikini","i_long":106.840169},{"i_long":106.832183,"line":2,"distance":1750,"time":3,"station_name":"Gondangdia","i_lat":-6.186295,"is_transit":false,"station_id":"GDD","transit":false},{"i_long":106.828284,"time":4,"is_transit":false,"transit":false,"distance":2015,"i_lat":-6.166716,"station_id":"JUA","station_name":"Juanda","line":2},{"is_transit":false,"line":2,"i_long":106.827103,"time":2,"station_id":"SW","transit":false,"station_name":"Sawah Besar","i_lat":-6.160725,"distance":1149},{"station_name":"Manggabesar","transit":false,"i_lat":-6.149769,"distance":906,"time":2,"station_id":"MGB","is_transit":false,"i_long":106.82482,"line":2},{"i_lat":-6.141205,"transit":false,"time":2,"i_long":106.820901,"distance":1080,"station_name":"Jayakarta","station_id":"JAY","line":2,"is_transit":false},{"i_lat":-6.137569,"is_transit":true,"i_long":106.812439,"distance":1264,"line":2,"station_id":"JAKK","time":4,"station_name":"Jakarta Kota","transit":true},{"time":3,"station_id":"KPB","i_long":106.826365,"is_transit":true,"distance":1364,"station_name":"Kampung Bandan","i_lat":-6.132549,"line":4,"transit":true},{"transit":false,"i_long":106.84464,"time":4,"station_id":"AC","is_transit":false,"i_lat":-6.128023,"line":4,"station_name":"Ancol","distance":2185},{"transit":false,"station_name":"Tanjung Priuk","i_long":106.880089,"distance":4566,"line":4,"i_lat":-6.1109480000000005,"station_id":"TPK","is_transit":false,"time":9}],[{"transit":false,"i_long":106.737035,"distance":0,"station_id":"BOI","station_name":"Bojongindah","is_transit":false,"time":0,"line":5,"i_lat":-6.159876},{"transit":false,"station_name":"Taman Kota","distance":2334,"station_id":"TKO","i_long":106.756522,"line":5,"time":2,"is_transit":false,"i_lat":-6.1587309999999995},{"i_lat":-6.161433,"line":5,"station_name":"Pesing","is_transit":false,"time":2,"transit":false,"distance":1614,"station_id":"PSG","i_long":106.771379},{"line":5,"station_name":"Grogol","station_id":"GGL","distance":2036,"is_transit":false,"i_long":106.788277,"transit":false,"time":2,"i_lat":-6.162021},{"is_transit":true,"distance":1700,"transit":true,"station_id":"DU","time":3,"i_long":106.800832,"line":1,"i_lat":-6.155215,"station_name":"Duri"},{"transit":false,"station_name":"Tanah Abang","distance":3632,"i_lat":-6.185545,"time":8,"is_transit":false,"i_long":106.811091,"line":1,"station_id":"THB"},{"station_name":"Karet","time":5,"is_transit":false,"transit":false,"station_id":"KAT","i_long":106.816351,"distance":2029,"i_lat":-6.20132,"line":1},{"time":1,"transit":false,"is_transit":false,"station_id":"SUDB","i_long":106.819881,"distance":471,"i_lat":-6.201433,"line":1,"station_name":"Sudirman Baru"},{"distance":280,"transit":false,"time":1,"station_name":"Sudirman","line":1,"station_id":"SUD","is_transit":false,"i_long":106.822649,"i_lat":-6.202263},{"distance":3186,"station_id":"MRI","i_lat":-6.209883,"transit":false,"i_long":106.84912,"is_transit":false,"line":2,"station_name":"Manggarai","time":4},{"station_id":"MTR","i_long":106.858896,"is_transit":false,"time":2,"station_name":"Matraman","line":1,"transit":false,"i_lat":-6.212485,"distance":1275},{"i_long":106.86807400000001,"i_lat":-6.215091,"is_transit":true,"station_name":"Jatinegara","transit":true,"station_id":"JNG","line":1,"time":8,"distance":1377},{"line":11,"station_name":"Pondok Jati","transit":false,"distance":1236,"i_lat":-6.209188,"time":2,"i_long":106.861737,"is_transit":false,"station_id":"POK"},{"i_lat":-6.193792,"is_transit":false,"distance":1829,"line":11,"transit":false,"i_long":106.855437,"station_name":"Kramat","time":2,"station_id":"KMT"},{"station_name":"Gang Sentiong","distance":973,"time":1,"line":11,"i_long":106.850107,"is_transit":false,"station_id":"GST","transit":false,"i_lat":-6.185975},{"time":8,"is_transit":false,"station_id":"PSE","line":11,"transit":false,"i_lat":-6.174784,"station_name":"Pasar Senen","i_long":106.84368,"distance":1567},{"i_lat":-6.161728,"line":11,"distance":1436,"time":4,"transit":false,"station_id":"KMO","i_long":106.839204,"station_name":"Kemayoran","is_transit":false},{"station_id":"RJW","i_lat":-6.14505,"station_name":"Rajawali","line":11,"is_transit":false,"i_long":106.836569,"transit":false,"time":5,"distance":1901},{"is_transit":true,"distance":1444,"time":3,"line":4,"transit":true,"station_id":"KPB","i_lat":-6.132549,"station_name":"Kampung Bandan","i_long":106.826365},{"time":4,"i_long":106.84464,"transit":false,"i_lat":-6.128023,"station_id":"AC","is_transit":false,"distance":2185,"line":4,"station_name":"Ancol"},{"time":9,"transit":false,"station_name":"Tanjung Priuk","distance":4566,"station_id":"TPK","i_lat":-6.1109480000000005,"line":4,"is_transit":false,"i_long":106.880089}]]}