{"data":[[{"station_name":"Bojongindah","transit":false,"time":0,"i_lat":-6.159876,"station_id":"BOI","is_transit":false,"distance":0,"line":0,"i_long":106.737035},{"station_name":"Taman Kota","i_lat":-6.1587309999999995,"station_id":"TKO","is_transit":false,"i_long":106.756522,"line":5,"distance":2334,"time":2,"transit":false},{"distance":1614,"station_name":"Pesing","i_long":106.771379,"line":5,"i_lat":-6.161433,"station_id":"PSG","is_transit":false,"time":2,"transit":false},{"i_long":106.788277,"time":2,"distance":2036,"station_name":"Grogol","transit":false,"line":5,"station_id":"GGL","is_transit":false,"i_lat":-6.162021},{"station_name":"Duri","time":3,"i_long":106.800832,"line":1,"i_lat":-6.155215,"is_transit":true,"transit":true,"distance":1700,"station_id":"DU"},{"i_lat":-6.185545,"i_long":106.811091,"station_name":"Tanah Abang","line":1,"distance":3632,"station_id":"THB","time":8,"is_transit":true,"transit":false},{"station_id":"KAT","line":1,"transit":false,"i_lat":-6.20132,"is_transit":false,"station_name":"Karet","distance":2029,"i_long":106.816351,"time":5},{"time":1,"is_transit":false,"distance":471,"line":1,"station_id":"SUDB","i_lat":-6.201433,"i_long":106.819881,"transit":false,"station_name":"Sudirman Baru"},{"i_lat":-6.202263,"time":1,"station_id":"SUD","i_long":106.822649,"is_transit":false,"line":1,"station_name":"Sudirman","distance":280,"transit":false},{"is_transit":true,"i_lat":-6.209883,"distance":3186,"transit":false,"time":4,"station_id":"MRI","i_long":106.84912,"line":0,"station_name":"Manggarai"},{"station_id":"MTR","distance":1275,"station_name":"Matraman","line":1,"transit":false,"time":2,"i_lat":-6.212485,"is_transit":false,"i_long":106.858896},{"line":0,"time":8,"is_transit":true,"station_id":"JNG","i_long":106.86807400000001,"i_lat":-6.215091,"transit":false,"station_name":"Jatinegara","distance":1377},{"station_id":"KLD","distance":3395,"station_name":"Klender","i_lat":-6.2135,"i_long":106.899548,"time":3,"transit":false,"is_transit":false,"line":1},{"transit":false,"distance":3100,"i_long":106.922662,"time":2,"station_name":"Buaran","station_id":"BUA","i_lat":-6.215568,"line":0,"is_transit":false},{"distance":1305,"line":1,"station_name":"Klenderbaru","is_transit":false,"transit":false,"i_lat":-6.217455,"station_id":"KLDB","time":1,"i_long":106.939679},{"station_id":"CUK","station_name":"Cakung","transit":false,"i_lat":-6.219053,"line":0,"time":8,"is_transit":false,"i_long":106.951283,"distance":1385},{"time":3,"transit":false,"i_long":106.977657,"is_transit":false,"station_id":"KRI","i_lat":-6.224515,"line":1,"distance":3097,"station_name":"Kranji"},{"station_id":"BKS","transit":false,"line":0,"distance":2520,"i_lat":-6.236616,"time":4,"station_name":"Bekasi","is_transit":false,"i_long":106.997013},{"i_lat":-6.248029,"transit":false,"distance":2368,"station_id":"BKST","station_name":"Bekasi Timur","is_transit":false,"line":0,"time":2,"i_long":107.016735}],[{"i_lat":-6.159876,"time":0,"i_long":106.737035,"station_id":"BOI","distance":0,"station_name":"Bojongindah","is_transit":false,"transit":false,"line":0},{"distance":2334,"time":2,"is_transit":false,"transit":false,"i_long":106.756522,"station_name":"Taman Kota","line":5,"station_id":"TKO","i_lat":-6.1587309999999995},{"i_long":106.771379,"is_transit":false,"i_lat":-6.161433,"distance":1614,"time":2,"station_name":"Pesing","station_id":"PSG","transit":false,"line":5},{"is_transit":false,"station_id":"GGL","station_name":"Grogol","time":2,"i_long":106.788277,"distance":2036,"i_lat":-6.162021,"transit":false,"line":5},{"is_transit":true,"station_name":"Duri","transit":true,"line":1,"station_id":"DU","distance":1700,"i_lat":-6.155215,"time":3,"i_long":106.800832},{"i_long":106.79867,"time":4,"station_name":"Angke","station_id":"AK","is_transit":false,"distance":1230,"i_lat":-6.144674,"line":0,"transit":false},{"time":9,"distance":4102,"i_long":106.826365,"station_id":"KPB","station_name":"Kampung Bandan","transit":true,"is_transit":true,"i_lat":-6.132549,"line":0},{"i_lat":-6.14505,"station_name":"Rajawali","time":3,"station_id":"RJW","is_transit":false,"distance":1444,"transit":false,"line":11,"i_long":106.836569},{"time":5,"i_long":106.839204,"transit":false,"is_transit":false,"station_id":"KMO","i_lat":-6.161728,"station_name":"Kemayoran","distance":1901,"line":11},{"distance":1436,"i_lat":-6.174784,"line":11,"is_transit":false,"transit":false,"i_long":106.84368,"time":4,"station_id":"PSE","station_name":"Pasar Senen"},{"i_long":106.850107,"transit":false,"is_transit":false,"time":8,"distance":1567,"i_lat":-6.185975,"line":11,"station_id":"GST","station_name":"Gang Sentiong"},{"is_transit":false,"i_lat":-6.193792,"time":1,"distance":973,"station_id":"KMT","line":11,"i_long":106.855437,"station_name":"Kramat","transit":false},{"i_long":106.861737,"transit":false,"line":11,"station_name":"Pondok Jati","time":2,"distance":1829,"i_lat":-6.209188,"station_id":"POK","is_transit":false},{"line":0,"distance":1236,"station_name":"Jatinegara","time":9,"station_id":"JNG","is_transit":true,"i_lat":-6.215091,"i_long":106.86807400000001,"transit":true},{"distance":3395,"transit":false,"time":3,"i_lat":-6.2135,"i_long":106.899548,"line":1,"station_name":"Klender","station_id":"KLD","is_transit":false},{"station_name":"Buaran","i_long":106.922662,"i_lat":-6.215568,"transit":false,"station_id":"BUA","is_transit":false,"time":2,"distance":3100,"line":0},{"line":1,"i_long":106.939679,"is_transit":false,"time":1,"distance":1305,"station_id":"KLDB","station_name":"Klenderbaru","transit":false,"i_lat":-6.217455},{"i_long":106.951283,"time":8,"distance":1385,"i_lat":-6.219053,"transit":false,"is_transit":false,"line":0,"station_id":"CUK","station_name":"Cakung"},{"transit":false,"station_name":"Kranji","time":3,"station_id":"KRI","is_transit":false,"i_lat":-6.224515,"i_long":106.977657,"distance":3097,"line":1},{"station_name":"Bekasi","i_long":106.997013,"time":4,"is_transit":false,"transit":false,"i_lat":-6.236616,"line":0,"station_id":"BKS","distance":2520},{"distance":2368,"line":0,"transit":false,"station_id":"BKST","i_lat":-6.248029,"i_long":107.016735,"time":2,"is_transit":false,"station_name":"Bekasi Timur"}],[{"station_id":"BOI","station_name":"Bojongindah","i_long":106.737035,"transit":false,"line":0,"time":0,"is_transit":false,"i_lat":-6.159876,"distance":0},{"is_transit":false,"distance":2334,"transit":false,"line":5,"i_long":106.756522,"i_lat":-6.1587309999999995,"time":2,"station_id":"TKO","station_name":"Taman Kota"},{"is_transit":false,"distance":1614,"station_name":"Pesing","station_id":"PSG","line":5,"i_lat":-6.161433,"i_long":106.771379,"time":2,"transit":false},{"station_name":"Grogol","i_lat":-6.162021,"distance":2036,"transit":false,"time":2,"i_long":106.788277,"station_id":"GGL","line":5,"is_transit":false},{"distance":1700,"time":3,"transit":true,"station_id":"DU","i_lat":-6.155215,"i_long":106.800832,"station_name":"Duri","is_transit":true,"line":1},{"line":0,"station_name":"Angke","transit":false,"time":4,"station_id":"AK","distance":1230,"i_lat":-6.144674,"i_long":106.79867,"is_transit":false},{"distance":4102,"station_id":"KPB","time":9,"transit":false,"line":0,"is_transit":true,"i_long":106.826365,"i_lat":-6.132549,"station_name":"Kampung Bandan"},{"station_id":"JAKK","distance":1364,"i_long":106.812439,"time":3,"i_lat":-6.137569,"line":0,"is_transit":true,"transit":true,"station_name":"Jakarta Kota"},{"i_long":106.820901,"transit":false,"is_transit":false,"station_id":"JAY","distance":1264,"i_lat":-6.141205,"line":7,"station_name":"Jayakarta","time":4},{"transit":false,"station_id":"MGB","station_name":"Manggabesar","time":2,"distance":1080,"i_lat":-6.149769,"i_long":106.82482,"line":2,"is_transit":false},{"distance":906,"transit":false,"i_long":106.827103,"station_name":"Sawah Besar","station_id":"SW","is_transit":false,"i_lat":-6.160725,"time":2,"line":2},{"station_id":"JUA","transit":false,"distance":1149,"is_transit":false,"station_name":"Juanda","time":2,"line":2,"i_long":106.828284,"i_lat":-6.166716},{"time":4,"i_long":106.832183,"is_transit":false,"station_name":"Gondangdia","transit":false,"station_id":"GDD","distance":2015,"line":2,"i_lat":-6.186295},{"time":3,"transit":false,"station_name":"Cikini","station_id":"CKI","is_transit":false,"line":0,"i_lat":-6.198556,"i_long":106.840169,"distance":1750},{"station_name":"Manggarai","station_id":"MRI","i_lat":-6.209883,"is_transit":true,"time":4,"distance":1590,"transit":true,"i_long":106.84912,"line":0},{"transit":false,"i_lat":-6.212485,"station_name":"Matraman","time":2,"is_transit":false,"distance":1275,"line":1,"i_long":106.858896,"station_id":"MTR"},{"station_name":"Jatinegara","line":0,"i_long":106.86807400000001,"time":8,"distance":1377,"i_lat":-6.215091,"is_transit":true,"transit":false,"station_id":"JNG"},{"transit":false,"station_id":"KLD","distance":3395,"station_name":"Klender","time":3,"i_lat":-6.2135,"i_long":106.899548,"line":1,"is_transit":false},{"station_id":"BUA","distance":3100,"i_lat":-6.215568,"i_long":106.922662,"transit":false,"is_transit":false,"line":0,"time":2,"station_name":"Buaran"},{"time":1,"i_lat":-6.217455,"line":1,"i_long":106.939679,"distance":1305,"station_name":"Klenderbaru","station_id":"KLDB","is_transit":false,"transit":false},{"time":8,"transit":false,"line":0,"i_lat":-6.219053,"is_transit":false,"station_name":"Cakung","distance":1385,"station_id":"CUK","i_long":106.951283},{"is_transit":false,"station_name":"Kranji","distance":3097,"transit":false,"i_lat":-6.224515,"line":1,"station_id":"KRI","i_long":106.977657,"time":3},{"distance":2520,"i_lat":-6.236616,"i_long":106.997013,"station_id":"BKS","is_transit":false,"line":0,"station_name":"Bekasi","time":4,"transit":false},{"station_id":"BKST","is_transit":false,"i_long":107.016735,"time":2,"transit":false,"line":0,"i_lat":-6.248029,"distance":2368,"station_name":"Bekasi Timur"}],[{"station_name":"Bojongindah","line":0,"is_transit":false,"time":0,"transit":false,"i_lat":-6.159876,"station_id":"BOI","distance":0,"i_long":106.737035},{"i_long":106.756522,"line":5,"transit":false,"station_id":"TKO","i_lat":-6.1587309999999995,"time":2,"station_name":"Taman Kota","distance":2334,"is_transit":false},{"time":2,"station_name":"Pesing","transit":false,"line":5,"i_lat":-6.161433,"is_transit":false,"station_id":"PSG","distance":1614,"i_long":106.771379},{"transit":false,"station_id":"GGL","station_name":"Grogol","i_lat":-6.162021,"distance":2036,"line":5,"time":2,"i_long":106.788277,"is_transit":false},{"is_transit":true,"line":1,"distance":1700,"transit":true,"i_long":106.800832,"station_name":"Duri","station_id":"DU","i_lat":-6.155215,"time":3},{"transit":false,"time":8,"i_lat":-6.185545,"i_long":106.811091,"station_name":"Tanah Abang","line":1,"is_transit":true,"distance":3632,"station_id":"THB"},{"i_long":106.816351,"station_id":"KAT","transit":false,"i_lat":-6.20132,"time":5,"station_name":"Karet","line":1,"distance":2029,"is_transit":false},{"is_transit":false,"station_name":"Sudirman Baru","station_id":"SUDB","time":1,"i_long":106.819881,"distance":471,"transit":false,"i_lat":-6.201433,"line":1},{"i_lat":-6.202263,"time":1,"i_long":106.822649,"line":1,"is_transit":false,"station_id":"SUD","station_name":"Sudirman","distance":280,"transit":false},{"station_id":"MRI","i_long":106.84912,"is_transit":true,"distance":3186,"line":0,"time":4,"station_name":"Manggarai","i_lat":-6.209883,"transit":true},{"line":0,"transit":false,"i_lat":-6.198556,"station_id":"CKI","distance":1590,"station_name":"Cikini","is_transit":false,"time":4,"i_long":106.840169},{"line":2,"i_lat":-6.186295,"station_id":"GDD","station_name":"Gondangdia","time":3,"is_transit":false,"transit":false,"i_long":106.832183,"distance":1750},{"is_transit":false,"line":2,"distance":2015,"i_long":106.828284,"station_id":"JUA","time":4,"station_name":"Juanda","i_lat":-6.166716,"transit":false},{"i_long":106.827103,"station_name":"Sawah Besar","transit":false,"line":2,"distance":1149,"time":2,"station_id":"SW","i_lat":-6.160725,"is_transit":false},{"time":2,"i_long":106.82482,"station_id":"MGB","distance":906,"is_transit":false,"station_name":"Manggabesar","transit":false,"i_lat":-6.149769,"line":2},{"is_transit":false,"station_id":"JAY","distance":1080,"i_lat":-6.141205,"transit":false,"time":2,"i_long":106.820901,"line":7,"station_name":"Jayakarta"},{"station_name":"Jakarta Kota","time":4,"is_transit":true,"transit":true,"i_lat":-6.137569,"station_id":"JAKK","i_long":106.812439,"distance":1264,"line":0},{"distance":1364,"transit":true,"line":0,"is_transit":true,"time":3,"station_name":"Kampung Bandan","i_long":106.826365,"station_id":"KPB","i_lat":-6.132549},{"time":3,"station_id":"RJW","station_name":"Rajawali","distance":1444,"line":11,"i_lat":-6.14505,"transit":false,"i_long":106.836569,"is_transit":false},{"transit":false,"is_transit":false,"distance":1901,"i_lat":-6.161728,"line":11,"station_name":"Kemayoran","station_id":"KMO","i_long":106.839204,"time":5},{"transit":false,"line":11,"i_long":106.84368,"i_lat":-6.174784,"station_id":"PSE","distance":1436,"time":4,"station_name":"Pasar Senen","is_transit":false},{"transit":false,"station_id":"GST","time":8,"distance":1567,"is_transit":false,"station_name":"Gang Sentiong","i_lat":-6.185975,"i_long":106.850107,"line":11},{"time":1,"i_long":106.855437,"station_id":"KMT","transit":false,"distance":973,"i_lat":-6.193792,"line":11,"is_transit":false,"station_name":"Kramat"},{"i_lat":-6.209188,"is_transit":false,"station_name":"Pondok Jati","distance":1829,"i_long":106.861737,"line":11,"station_id":"POK","transit":false,"time":2},{"line":0,"station_name":"Jatinegara","is_transit":true,"time":9,"i_long":106.86807400000001,"distance":1236,"station_id":"JNG","transit":true,"i_lat":-6.215091},{"i_lat":-6.2135,"line":1,"distance":3395,"transit":false,"station_name":"Klender","i_long":106.899548,"station_id":"KLD","is_transit":false,"time":3},{"distance":3100,"transit":false,"time":2,"i_long":106.922662,"station_id":"BUA","line":0,"station_name":"Buaran","is_transit":false,"i_lat":-6.215568},{"transit":false,"is_transit":false,"time":1,"i_long":106.939679,"distance":1305,"i_lat":-6.217455,"line":1,"station_name":"Klenderbaru","station_id":"KLDB"},{"transit":false,"i_long":106.951283,"station_name":"Cakung","station_id":"CUK","distance":1385,"line":0,"is_transit":false,"time":8,"i_lat":-6.219053},{"is_transit":false,"i_lat":-6.224515,"time":3,"i_long":106.977657,"line":1,"distance":3097,"station_id":"KRI","transit":false,"station_name":"Kranji"},{"station_id":"BKS","i_lat":-6.236616,"transit":false,"station_name":"Bekasi","i_long":106.997013,"time":4,"distance":2520,"is_transit":false,"line":0},{"line":0,"station_name":"Bekasi Timur","distance":2368,"time":2,"transit":false,"station_id":"BKST","is_transit":false,"i_long":107.016735,"i_lat":-6.248029}]]}