{"data":[[{"distance":0,"i_lat":-6.159876,"station_name":"Bojongindah","is_transit":false,"i_long":106.737035,"transit":false,"station_id":"BOI","line":5,"time":0},{"i_long":106.756522,"distance":2334,"station_id":"TKO","transit":false,"i_lat":-6.1587309999999995,"time":2,"station_name":"Taman Kota","line":5,"is_transit":false},{"i_lat":-6.161433,"station_name":"Pesing","transit":false,"distance":1614,"i_long":106.771379,"line":5,"time":2,"is_transit":false,"station_id":"PSG"},{"station_name":"Grogol","is_transit":false,"distance":2036,"transit":false,"i_lat":-6.162021,"time":2,"station_id":"GRG","i_long":106.788277,"line":5},{"station_id":"DU","is_transit":true,"transit":true,"station_name":"Duri","i_long":106.800832,"time":3,"i_lat":-6.155215,"line":1,"distance":1700},{"station_name":"Tanah Abang","transit":false,"i_lat":-6.185545,"time":8,"station_id":"THB","i_long":106.811091,"line":1,"distance":3632,"is_transit":false},{"station_name":"Karet","line":1,"distance":2029,"time":5,"station_id":"KAT","i_long":106.816351,"transit":false,"is_transit":false,"i_lat":-6.20132},{"i_long":106.819881,"station_id":"SUDB","is_transit":false,"i_lat":-6.201433,"transit":false,"distance":471,"time":1,"line":1,"station_name":"Sudirman Baru"},{"i_long":106.822649,"line":1,"station_name":"Sudirman","is_transit":false,"i_lat":-6.202263,"transit":false,"station_id":"SUD","distance":280,"time":1},{"distance":3186,"time":4,"is_transit":false,"station_id":"MRI","transit":false,"line":2,"station_name":"Manggarai","i_lat":-6.209883,"i_long":106.84912},{"i_lat":-6.212485,"line":1,"transit":false,"distance":1275,"station_id":"MTR","i_long":106.858896,"is_transit":false,"time":2,"station_name":"Matraman"},{"station_id":"JNG","line":1,"time":8,"distance":1377,"station_name":"Jatinegara","is_transit":false,"i_lat":-6.215091,"i_long":106.86807400000001,"transit":false},{"station_name":"Klender","i_lat":-6.2135,"i_long":106.899548,"station_id":"KLD","is_transit":false,"time":3,"distance":3395,"line":1,"transit":false}],[{"is_transit":false,"i_lat":-6.159876,"i_long":106.737035,"station_id":"BOI","line":5,"transit":false,"station_name":"Bojongindah","distance":0,"time":0},{"station_name":"Taman Kota","transit":false,"distance":2334,"time":2,"is_transit":false,"i_long":106.756522,"line":5,"i_lat":-6.1587309999999995,"station_id":"TKO"},{"station_id":"PSG","time":2,"distance":1614,"line":5,"is_transit":false,"i_lat":-6.161433,"station_name":"Pesing","transit":false,"i_long":106.771379},{"line":5,"station_id":"GRG","time":2,"distance":2036,"station_name":"Grogol","transit":false,"is_transit":false,"i_lat":-6.162021,"i_long":106.788277},{"station_id":"DU","line":1,"i_long":106.800832,"distance":1700,"is_transit":true,"transit":true,"i_lat":-6.155215,"station_name":"Duri","time":3},{"i_lat":-6.144674,"distance":1230,"i_long":106.79867,"is_transit":false,"transit":false,"time":4,"station_name":"Angke","station_id":"AK","line":1},{"line":4,"is_transit":true,"station_name":"Kampung Bandan","i_lat":-6.132549,"i_long":106.826365,"transit":true,"distance":4102,"station_id":"KPB","time":9},{"is_transit":false,"time":3,"distance":1444,"station_id":"RJW","transit":false,"i_lat":-6.14505,"station_name":"Rajawali","line":11,"i_long":106.836569},{"i_lat":-6.161728,"time":5,"i_long":106.839204,"distance":1901,"is_transit":false,"station_id":"KMO","station_name":"Kemayoran","transit":false,"line":11},{"station_id":"PSE","station_name":"Pasar Senen","transit":false,"time":4,"line":11,"distance":1436,"is_transit":false,"i_long":106.84368,"i_lat":-6.174784},{"i_long":106.850107,"station_name":"Gang Sentiong","line":11,"distance":1567,"station_id":"GST","time":8,"transit":false,"i_lat":-6.185975,"is_transit":false},{"is_transit":false,"distance":973,"i_lat":-6.193792,"station_id":"KMT","time":1,"station_name":"Kramat","i_long":106.855437,"line":11,"transit":false},{"time":2,"station_id":"POK","transit":false,"is_transit":false,"i_long":106.861737,"distance":1829,"i_lat":-6.209188,"line":11,"station_name":"Pondok Jati"},{"i_long":106.86807400000001,"station_id":"JNG","is_transit":true,"i_lat":-6.215091,"station_name":"Jatinegara","transit":true,"distance":1236,"line":1,"time":9},{"transit":false,"line":1,"station_id":"KLD","is_transit":false,"i_lat":-6.2135,"time":3,"i_long":106.899548,"distance":3395,"station_name":"Klender"}],[{"line":5,"is_transit":false,"time":0,"i_lat":-6.159876,"station_name":"Bojongindah","station_id":"BOI","distance":0,"i_long":106.737035,"transit":false},{"station_id":"TKO","transit":false,"i_lat":-6.1587309999999995,"distance":2334,"time":2,"is_transit":false,"i_long":106.756522,"line":5,"station_name":"Taman Kota"},{"time":2,"distance":1614,"line":5,"transit":false,"station_id":"PSG","station_name":"Pesing","is_transit":false,"i_lat":-6.161433,"i_long":106.771379},{"is_transit":false,"distance":2036,"i_long":106.788277,"i_lat":-6.162021,"line":5,"station_id":"GRG","station_name":"Grogol","transit":false,"time":2},{"time":3,"i_lat":-6.155215,"line":1,"station_name":"Duri","i_long":106.800832,"station_id":"DU","distance":1700,"is_transit":true,"transit":true},{"time":4,"station_id":"AK","is_transit":false,"distance":1230,"transit":false,"line":1,"i_lat":-6.144674,"station_name":"Angke","i_long":106.79867},{"station_name":"Kampung Bandan","station_id":"KPB","i_lat":-6.132549,"transit":true,"line":4,"i_long":106.826365,"time":9,"distance":4102,"is_transit":true},{"is_transit":true,"transit":true,"station_id":"JAKK","line":2,"distance":1364,"i_lat":-6.137569,"time":3,"i_long":106.812439,"station_name":"Jakarta Kota"},{"time":4,"station_id":"JAY","transit":false,"i_long":106.820901,"distance":1264,"is_transit":false,"i_lat":-6.141205,"line":2,"station_name":"Jayakarta"},{"line":2,"i_lat":-6.149769,"station_id":"MGB","station_name":"Manggabesar","distance":1080,"is_transit":false,"transit":false,"time":2,"i_long":106.82482},{"line":2,"transit":false,"station_id":"SW","is_transit":false,"i_lat":-6.160725,"distance":906,"time":2,"station_name":"Sawah Besar","i_long":106.827103},{"time":2,"distance":1149,"transit":false,"line":2,"i_lat":-6.166716,"station_id":"JUA","is_transit":false,"station_name":"Juanda","i_long":106.828284},{"station_id":"GDD","time":4,"i_long":106.832183,"line":2,"distance":2015,"is_transit":false,"i_lat":-6.186295,"transit":false,"station_name":"Gondangdia"},{"line":2,"station_id":"CKI","is_transit":false,"time":3,"station_name":"Cikini","transit":false,"i_long":106.840169,"i_lat":-6.198556,"distance":1750},{"is_transit":true,"time":4,"station_name":"Manggarai","i_lat":-6.209883,"line":2,"transit":true,"i_long":106.84912,"distance":1590,"station_id":"MRI"},{"distance":1275,"is_transit":false,"station_id":"MTR","i_lat":-6.212485,"transit":false,"station_name":"Matraman","i_long":106.858896,"line":1,"time":2},{"time":8,"station_name":"Jatinegara","transit":false,"i_long":106.86807400000001,"i_lat":-6.215091,"is_transit":false,"line":1,"station_id":"JNG","distance":1377},{"line":1,"i_long":106.899548,"station_id":"KLD","time":3,"i_lat":-6.2135,"distance":3395,"transit":false,"station_name":"Klender","is_transit":false}],[{"i_long":106.737035,"time":0,"distance":0,"line":5,"station_name":"Bojongindah","is_transit":false,"transit":false,"i_lat":-6.159876,"station_id":"BOI"},{"station_id":"TKO","i_long":106.756522,"line":5,"transit":false,"distance":2334,"is_transit":false,"i_lat":-6.1587309999999995,"time":2,"station_name":"Taman Kota"},{"line":5,"station_id":"PSG","station_name":"Pesing","is_transit":false,"time":2,"i_lat":-6.161433,"i_long":106.771379,"distance":1614,"transit":false},{"distance":2036,"station_id":"GRG","time":2,"transit":false,"line":5,"is_transit":false,"i_lat":-6.162021,"i_long":106.788277,"station_name":"Grogol"},{"transit":true,"distance":1700,"time":3,"i_lat":-6.155215,"line":1,"station_id":"DU","station_name":"Duri","is_transit":true,"i_long":106.800832},{"station_id":"THB","station_name":"Tanah Abang","i_lat":-6.185545,"i_long":106.811091,"line":1,"transit":false,"distance":3632,"time":8,"is_transit":false},{"distance":2029,"line":1,"transit":false,"station_name":"Karet","i_long":106.816351,"time":5,"station_id":"KAT","i_lat":-6.20132,"is_transit":false},{"station_id":"SUDB","station_name":"Sudirman Baru","i_lat":-6.201433,"time":1,"i_long":106.819881,"line":1,"distance":471,"transit":false,"is_transit":false},{"time":1,"i_lat":-6.202263,"station_name":"Sudirman","i_long":106.822649,"line":1,"station_id":"SUD","is_transit":false,"distance":280,"transit":false},{"i_lat":-6.209883,"transit":true,"time":4,"station_name":"Manggarai","is_transit":true,"i_long":106.84912,"station_id":"MRI","line":2,"distance":3186},{"distance":1590,"station_name":"Cikini","is_transit":false,"station_id":"CKI","time":4,"i_long":106.840169,"transit":false,"line":2,"i_lat":-6.198556},{"station_name":"Gondangdia","i_lat":-6.186295,"line":2,"time":3,"station_id":"GDD","i_long":106.832183,"is_transit":false,"distance":1750,"transit":false},{"time":4,"distance":2015,"station_id":"JUA","station_name":"Juanda","transit":false,"line":2,"is_transit":false,"i_long":106.828284,"i_lat":-6.166716},{"distance":1149,"station_name":"Sawah Besar","is_transit":false,"line":2,"time":2,"i_long":106.827103,"i_lat":-6.160725,"transit":false,"station_id":"SW"},{"transit":false,"station_name":"Manggabesar","is_transit":false,"i_lat":-6.149769,"distance":906,"station_id":"MGB","line":2,"time":2,"i_long":106.82482},{"time":2,"station_name":"Jayakarta","distance":1080,"is_transit":false,"station_id":"JAY","i_lat":-6.141205,"i_long":106.820901,"line":2,"transit":false},{"station_id":"JAKK","is_transit":true,"i_lat":-6.137569,"station_name":"Jakarta Kota","line":2,"i_long":106.812439,"distance":1264,"time":4,"transit":true},{"station_id":"KPB","line":4,"distance":1364,"time":3,"is_transit":true,"i_lat":-6.132549,"station_name":"Kampung Bandan","transit":true,"i_long":106.826365},{"line":11,"transit":false,"i_long":106.836569,"distance":1444,"time":3,"station_name":"Rajawali","i_lat":-6.14505,"station_id":"RJW","is_transit":false},{"station_id":"KMO","i_long":106.839204,"transit":false,"i_lat":-6.161728,"line":11,"is_transit":false,"time":5,"station_name":"Kemayoran","distance":1901},{"distance":1436,"is_transit":false,"line":11,"station_name":"Pasar Senen","transit":false,"station_id":"PSE","time":4,"i_lat":-6.174784,"i_long":106.84368},{"transit":false,"station_id":"GST","station_name":"Gang Sentiong","i_long":106.850107,"is_transit":false,"i_lat":-6.185975,"line":11,"distance":1567,"time":8},{"transit":false,"station_id":"KMT","i_long":106.855437,"line":11,"distance":973,"is_transit":false,"time":1,"station_name":"Kramat","i_lat":-6.193792},{"i_long":106.861737,"station_name":"Pondok Jati","time":2,"distance":1829,"i_lat":-6.209188,"line":11,"station_id":"POK","is_transit":false,"transit":false},{"i_long":106.86807400000001,"station_id":"JNG","i_lat":-6.215091,"station_name":"Jatinegara","time":9,"is_transit":true,"distance":1236,"line":1,"transit":true},{"station_name":"Klender","i_lat":-6.2135,"i_long":106.899548,"time":3,"station_id":"KLD","line":1,"transit":false,"distance":3395,"is_transit":false}]]}