{"data":[[{"transit":false,"is_transit":false,"i_lat":-6.159876,"time":0,"station_id":"BOI","i_long":106.737035,"line":0,"distance":0,"station_name":"Bojongindah"},{"station_name":"Taman Kota","distance":2334,"i_lat":-6.1587309999999995,"time":2,"line":5,"transit":false,"is_transit":false,"i_long":106.756522,"station_id":"TKO"},{"i_long":106.771379,"station_name":"Pesing","distance":1614,"transit":false,"i_lat":-6.161433,"station_id":"PSG","time":2,"line":5,"is_transit":false},{"transit":false,"i_long":106.788277,"station_id":"GGL","line":5,"distance":2036,"time":2,"station_name":"Grogol","is_transit":false,"i_lat":-6.162021},{"i_lat":-6.155215,"station_name":"Duri","transit":true,"station_id":"DU","line":1,"i_long":106.800832,"distance":1700,"time":3,"is_transit":true},{"time":8,"distance":3632,"i_long":106.811091,"station_id":"THB","i_lat":-6.185545,"station_name":"Tanah Abang","is_transit":true,"line":1,"transit":false},{"is_transit":false,"transit":false,"station_name":"Karet","time":5,"i_lat":-6.20132,"line":1,"station_id":"KAT","distance":2029,"i_long":106.816351},{"i_long":106.819881,"station_name":"Sudirman Baru","distance":471,"time":1,"station_id":"SUDB","is_transit":false,"i_lat":-6.201433,"line":1,"transit":false},{"distance":280,"i_long":106.822649,"time":1,"line":1,"station_name":"Sudirman","is_transit":false,"transit":false,"station_id":"SUD","i_lat":-6.202263},{"station_id":"MRI","transit":false,"is_transit":true,"i_long":106.84912,"time":4,"station_name":"Manggarai","i_lat":-6.209883,"line":0,"distance":3186},{"transit":false,"is_transit":false,"i_long":106.858896,"station_id":"MTR","line":1,"station_name":"Matraman","i_lat":-6.212485,"distance":1275,"time":2},{"station_name":"Jatinegara","transit":false,"distance":1377,"i_long":106.86807400000001,"time":8,"station_id":"JNG","i_lat":-6.215091,"line":0,"is_transit":true},{"i_long":106.899548,"distance":3395,"station_name":"Klender","station_id":"KLD","time":3,"is_transit":false,"transit":false,"i_lat":-6.2135,"line":1},{"is_transit":false,"station_id":"BUA","line":0,"station_name":"Buaran","time":2,"i_lat":-6.215568,"i_long":106.922662,"transit":false,"distance":3100},{"station_id":"KLDB","i_long":106.939679,"distance":1305,"transit":false,"is_transit":false,"i_lat":-6.217455,"station_name":"Klenderbaru","time":1,"line":1},{"station_name":"Cakung","i_long":106.951283,"transit":false,"time":8,"i_lat":-6.219053,"distance":1385,"is_transit":false,"line":0,"station_id":"CUK"},{"i_lat":-6.224515,"i_long":106.977657,"line":1,"is_transit":false,"distance":3097,"station_id":"KRI","time":3,"station_name":"Kranji","transit":false},{"transit":false,"station_name":"Bekasi","distance":2520,"i_lat":-6.236616,"i_long":106.997013,"is_transit":false,"station_id":"BKS","line":0,"time":4},{"station_name":"Bekasi Timur","i_long":107.016735,"station_id":"BKST","line":0,"distance":2368,"time":2,"transit":false,"i_lat":-6.248029,"is_transit":false},{"is_transit":false,"station_name":"Tambun","transit":false,"i_lat":-6.258864,"time":7,"distance":4460,"i_long":107.055722,"station_id":"TB","line":1}],[{"time":0,"distance":0,"i_lat":-6.159876,"is_transit":false,"station_name":"Bojongindah","station_id":"BOI","transit":false,"i_long":106.737035,"line":0},{"transit":false,"i_lat":-6.1587309999999995,"station_id":"TKO","line":5,"distance":2334,"i_long":106.756522,"station_name":"Taman Kota","is_transit":false,"time":2},{"distance":1614,"time":2,"station_name":"Pesing","transit":false,"i_lat":-6.161433,"line":5,"i_long":106.771379,"is_transit":false,"station_id":"PSG"},{"line":5,"station_id":"GGL","station_name":"Grogol","transit":false,"distance":2036,"i_lat":-6.162021,"time":2,"is_transit":false,"i_long":106.788277},{"is_transit":true,"station_name":"Duri","i_lat":-6.155215,"time":3,"distance":1700,"line":1,"station_id":"DU","transit":true,"i_long":106.800832},{"is_transit":false,"time":4,"distance":1230,"i_long":106.79867,"station_name":"Angke","transit":false,"i_lat":-6.144674,"station_id":"AK","line":0},{"line":0,"station_name":"Kampung Bandan","time":9,"i_long":106.826365,"distance":4102,"station_id":"KPB","is_transit":true,"transit":true,"i_lat":-6.132549},{"i_long":106.836569,"distance":1444,"station_id":"RJW","i_lat":-6.14505,"station_name":"Rajawali","is_transit":false,"line":11,"transit":false,"time":3},{"station_name":"Kemayoran","i_lat":-6.161728,"is_transit":false,"distance":1901,"transit":false,"line":11,"time":5,"i_long":106.839204,"station_id":"KMO"},{"line":11,"i_long":106.84368,"is_transit":false,"distance":1436,"time":4,"station_id":"PSE","station_name":"Pasar Senen","i_lat":-6.174784,"transit":false},{"is_transit":false,"i_lat":-6.185975,"station_name":"Gang Sentiong","distance":1567,"transit":false,"time":8,"station_id":"GST","i_long":106.850107,"line":11},{"i_lat":-6.193792,"is_transit":false,"i_long":106.855437,"time":1,"transit":false,"distance":973,"line":11,"station_id":"KMT","station_name":"Kramat"},{"line":11,"station_name":"Pondok Jati","station_id":"POK","is_transit":false,"i_long":106.861737,"time":2,"i_lat":-6.209188,"distance":1829,"transit":false},{"i_lat":-6.215091,"line":0,"transit":true,"is_transit":true,"time":9,"i_long":106.86807400000001,"station_name":"Jatinegara","distance":1236,"station_id":"JNG"},{"time":3,"line":1,"station_id":"KLD","is_transit":false,"i_long":106.899548,"distance":3395,"i_lat":-6.2135,"station_name":"Klender","transit":false},{"station_name":"Buaran","is_transit":false,"distance":3100,"i_lat":-6.215568,"i_long":106.922662,"station_id":"BUA","line":0,"time":2,"transit":false},{"i_lat":-6.217455,"station_name":"Klenderbaru","line":1,"station_id":"KLDB","time":1,"transit":false,"i_long":106.939679,"distance":1305,"is_transit":false},{"station_id":"CUK","distance":1385,"station_name":"Cakung","time":8,"transit":false,"i_lat":-6.219053,"line":0,"is_transit":false,"i_long":106.951283},{"i_long":106.977657,"is_transit":false,"transit":false,"line":1,"station_id":"KRI","distance":3097,"i_lat":-6.224515,"station_name":"Kranji","time":3},{"is_transit":false,"time":4,"station_name":"Bekasi","station_id":"BKS","i_long":106.997013,"distance":2520,"line":0,"i_lat":-6.236616,"transit":false},{"distance":2368,"time":2,"line":0,"station_id":"BKST","station_name":"Bekasi Timur","i_lat":-6.248029,"i_long":107.016735,"is_transit":false,"transit":false},{"line":1,"transit":false,"is_transit":false,"station_name":"Tambun","station_id":"TB","i_long":107.055722,"time":7,"i_lat":-6.258864,"distance":4460}],[{"is_transit":false,"time":0,"distance":0,"i_long":106.737035,"station_id":"BOI","i_lat":-6.159876,"transit":false,"station_name":"Bojongindah","line":0},{"station_name":"Taman Kota","transit":false,"station_id":"TKO","i_lat":-6.1587309999999995,"is_transit":false,"line":5,"i_long":106.756522,"distance":2334,"time":2},{"distance":1614,"station_name":"Pesing","i_lat":-6.161433,"time":2,"transit":false,"line":5,"i_long":106.771379,"is_transit":false,"station_id":"PSG"},{"i_lat":-6.162021,"is_transit":false,"transit":false,"i_long":106.788277,"distance":2036,"time":2,"station_id":"GGL","station_name":"Grogol","line":5},{"station_id":"DU","time":3,"station_name":"Duri","is_transit":true,"i_lat":-6.155215,"transit":true,"i_long":106.800832,"distance":1700,"line":1},{"i_lat":-6.144674,"is_transit":false,"transit":false,"i_long":106.79867,"line":0,"station_id":"AK","time":4,"distance":1230,"station_name":"Angke"},{"line":0,"station_id":"KPB","is_transit":true,"time":9,"distance":4102,"i_lat":-6.132549,"i_long":106.826365,"station_name":"Kampung Bandan","transit":false},{"distance":1364,"station_name":"Jakarta Kota","transit":true,"i_long":106.812439,"time":3,"i_lat":-6.137569,"line":0,"station_id":"JAKK","is_transit":true},{"line":7,"distance":1264,"i_long":106.820901,"station_id":"JAY","i_lat":-6.141205,"station_name":"Jayakarta","time":4,"is_transit":false,"transit":false},{"i_lat":-6.149769,"station_id":"MGB","distance":1080,"time":2,"transit":false,"station_name":"Manggabesar","is_transit":false,"i_long":106.82482,"line":2},{"station_id":"SW","station_name":"Sawah Besar","transit":false,"line":2,"distance":906,"i_long":106.827103,"i_lat":-6.160725,"time":2,"is_transit":false},{"station_id":"JUA","is_transit":false,"station_name":"Juanda","i_lat":-6.166716,"line":2,"time":2,"distance":1149,"transit":false,"i_long":106.828284},{"i_long":106.832183,"transit":false,"time":4,"station_name":"Gondangdia","i_lat":-6.186295,"station_id":"GDD","is_transit":false,"line":2,"distance":2015},{"station_id":"CKI","station_name":"Cikini","distance":1750,"is_transit":false,"i_long":106.840169,"transit":false,"time":3,"line":0,"i_lat":-6.198556},{"i_long":106.84912,"line":0,"station_id":"MRI","is_transit":true,"time":4,"transit":true,"station_name":"Manggarai","i_lat":-6.209883,"distance":1590},{"distance":1275,"i_lat":-6.212485,"station_id":"MTR","line":1,"station_name":"Matraman","transit":false,"is_transit":false,"i_long":106.858896,"time":2},{"station_name":"Jatinegara","time":8,"is_transit":true,"distance":1377,"transit":false,"i_long":106.86807400000001,"i_lat":-6.215091,"line":0,"station_id":"JNG"},{"station_name":"Klender","i_lat":-6.2135,"i_long":106.899548,"line":1,"transit":false,"time":3,"distance":3395,"is_transit":false,"station_id":"KLD"},{"station_name":"Buaran","time":2,"transit":false,"line":0,"distance":3100,"is_transit":false,"station_id":"BUA","i_long":106.922662,"i_lat":-6.215568},{"time":1,"i_lat":-6.217455,"distance":1305,"is_transit":false,"station_name":"Klenderbaru","transit":false,"station_id":"KLDB","i_long":106.939679,"line":1},{"i_long":106.951283,"distance":1385,"i_lat":-6.219053,"station_id":"CUK","transit":false,"station_name":"Cakung","is_transit":false,"line":0,"time":8},{"line":1,"time":3,"is_transit":false,"distance":3097,"i_lat":-6.224515,"station_id":"KRI","station_name":"Kranji","i_long":106.977657,"transit":false},{"station_name":"Bekasi","station_id":"BKS","time":4,"transit":false,"i_lat":-6.236616,"distance":2520,"is_transit":false,"i_long":106.997013,"line":0},{"time":2,"i_long":107.016735,"i_lat":-6.248029,"is_transit":false,"distance":2368,"station_id":"BKST","transit":false,"line":0,"station_name":"Bekasi Timur"},{"line":1,"distance":4460,"is_transit":false,"transit":false,"station_name":"Tambun","time":7,"i_lat":-6.258864,"station_id":"TB","i_long":107.055722}],[{"i_lat":-6.159876,"line":0,"is_transit":false,"transit":false,"distance":0,"station_name":"Bojongindah","station_id":"BOI","time":0,"i_long":106.737035},{"i_lat":-6.1587309999999995,"time":2,"i_long":106.756522,"station_id":"TKO","is_transit":false,"station_name":"Taman Kota","distance":2334,"transit":false,"line":5},{"station_name":"Pesing","is_transit":false,"transit":false,"time":2,"i_lat":-6.161433,"i_long":106.771379,"line":5,"station_id":"PSG","distance":1614},{"time":2,"station_name":"Grogol","line":5,"is_transit":false,"station_id":"GGL","distance":2036,"transit":false,"i_lat":-6.162021,"i_long":106.788277},{"station_id":"DU","distance":1700,"station_name":"Duri","i_lat":-6.155215,"i_long":106.800832,"line":1,"is_transit":true,"time":3,"transit":true},{"line":1,"is_transit":true,"distance":3632,"time":8,"transit":false,"station_id":"THB","station_name":"Tanah Abang","i_long":106.811091,"i_lat":-6.185545},{"transit":false,"time":5,"i_long":106.816351,"i_lat":-6.20132,"line":1,"station_id":"KAT","is_transit":false,"distance":2029,"station_name":"Karet"},{"station_name":"Sudirman Baru","transit":false,"is_transit":false,"line":1,"distance":471,"station_id":"SUDB","i_lat":-6.201433,"time":1,"i_long":106.819881},{"station_name":"Sudirman","i_long":106.822649,"distance":280,"is_transit":false,"line":1,"time":1,"i_lat":-6.202263,"station_id":"SUD","transit":false},{"transit":true,"i_lat":-6.209883,"i_long":106.84912,"is_transit":true,"station_name":"Manggarai","station_id":"MRI","time":4,"distance":3186,"line":0},{"i_long":106.840169,"is_transit":false,"line":0,"time":4,"transit":false,"station_name":"Cikini","i_lat":-6.198556,"station_id":"CKI","distance":1590},{"distance":1750,"line":2,"station_id":"GDD","is_transit":false,"transit":false,"i_long":106.832183,"station_name":"Gondangdia","time":3,"i_lat":-6.186295},{"i_long":106.828284,"time":4,"station_id":"JUA","i_lat":-6.166716,"station_name":"Juanda","distance":2015,"line":2,"is_transit":false,"transit":false},{"time":2,"i_long":106.827103,"line":2,"distance":1149,"station_id":"SW","i_lat":-6.160725,"is_transit":false,"transit":false,"station_name":"Sawah Besar"},{"station_name":"Manggabesar","i_long":106.82482,"i_lat":-6.149769,"line":2,"is_transit":false,"station_id":"MGB","time":2,"distance":906,"transit":false},{"line":7,"i_lat":-6.141205,"time":2,"is_transit":false,"station_name":"Jayakarta","distance":1080,"transit":false,"station_id":"JAY","i_long":106.820901},{"is_transit":true,"line":0,"station_id":"JAKK","i_long":106.812439,"station_name":"Jakarta Kota","distance":1264,"i_lat":-6.137569,"time":4,"transit":true},{"station_name":"Kampung Bandan","i_lat":-6.132549,"transit":true,"is_transit":true,"time":3,"i_long":106.826365,"station_id":"KPB","line":0,"distance":1364},{"time":3,"line":11,"distance":1444,"transit":false,"is_transit":false,"station_id":"RJW","i_lat":-6.14505,"station_name":"Rajawali","i_long":106.836569},{"is_transit":false,"station_name":"Kemayoran","time":5,"i_lat":-6.161728,"transit":false,"i_long":106.839204,"distance":1901,"station_id":"KMO","line":11},{"station_name":"Pasar Senen","station_id":"PSE","i_long":106.84368,"distance":1436,"transit":false,"is_transit":false,"time":4,"i_lat":-6.174784,"line":11},{"time":8,"distance":1567,"transit":false,"station_name":"Gang Sentiong","is_transit":false,"station_id":"GST","i_lat":-6.185975,"i_long":106.850107,"line":11},{"distance":973,"station_id":"KMT","time":1,"transit":false,"i_long":106.855437,"station_name":"Kramat","i_lat":-6.193792,"is_transit":false,"line":11},{"distance":1829,"transit":false,"i_lat":-6.209188,"station_id":"POK","is_transit":false,"time":2,"station_name":"Pondok Jati","i_long":106.861737,"line":11},{"is_transit":true,"transit":true,"i_lat":-6.215091,"i_long":106.86807400000001,"line":0,"station_id":"JNG","time":9,"distance":1236,"station_name":"Jatinegara"},{"i_lat":-6.2135,"station_id":"KLD","station_name":"Klender","time":3,"i_long":106.899548,"distance":3395,"line":1,"transit":false,"is_transit":false},{"station_name":"Buaran","time":2,"distance":3100,"station_id":"BUA","i_long":106.922662,"line":0,"is_transit":false,"transit":false,"i_lat":-6.215568},{"station_name":"Klenderbaru","is_transit":false,"station_id":"KLDB","distance":1305,"transit":false,"line":1,"i_lat":-6.217455,"time":1,"i_long":106.939679},{"station_name":"Cakung","is_transit":false,"distance":1385,"transit":false,"time":8,"i_lat":-6.219053,"i_long":106.951283,"line":0,"station_id":"CUK"},{"station_name":"Kranji","time":3,"transit":false,"i_lat":-6.224515,"station_id":"KRI","is_transit":false,"i_long":106.977657,"distance":3097,"line":1},{"station_name":"Bekasi","line":0,"transit":false,"i_long":106.997013,"distance":2520,"is_transit":false,"time":4,"i_lat":-6.236616,"station_id":"BKS"},{"i_long":107.016735,"station_name":"Bekasi Timur","is_transit":false,"time":2,"line":0,"distance":2368,"i_lat":-6.248029,"transit":false,"station_id":"BKST"},{"time":7,"station_id":"TB","is_transit":false,"i_long":107.055722,"transit":false,"i_lat":-6.258864,"station_name":"Tambun","line":1,"distance":4460}]]}