{"data":[[{"transit":false,"station_name":"Bojongindah","line":5,"time":0,"station_id":"BOI","is_transit":false,"distance":0,"i_lat":-6.159876,"i_long":106.737035},{"is_transit":false,"line":5,"station_name":"Taman Kota","time":2,"i_lat":-6.1587309999999995,"distance":2334,"transit":false,"i_long":106.756522,"station_id":"TKO"},{"station_name":"Pesing","station_id":"PSG","i_long":106.771379,"distance":1614,"transit":false,"line":5,"is_transit":false,"time":2,"i_lat":-6.161433},{"i_long":106.788277,"station_id":"GGL","i_lat":-6.162021,"line":5,"station_name":"Grogol","time":2,"distance":2036,"transit":false,"is_transit":false},{"station_id":"DU","i_long":106.800832,"time":3,"distance":1700,"transit":true,"i_lat":-6.155215,"line":1,"station_name":"Duri","is_transit":true},{"is_transit":false,"distance":1230,"line":1,"i_long":106.79867,"station_name":"Angke","time":4,"i_lat":-6.144674,"station_id":"AK","transit":false},{"time":9,"i_lat":-6.132549,"transit":true,"line":4,"distance":4102,"station_id":"KPB","station_name":"Kampung Bandan","is_transit":true,"i_long":106.826365},{"station_name":"Jakarta Kota","station_id":"JAKK","is_transit":true,"time":3,"transit":true,"i_long":106.812439,"line":2,"distance":1364,"i_lat":-6.137569},{"distance":1264,"line":2,"station_name":"Jayakarta","i_lat":-6.141205,"transit":false,"station_id":"JAY","i_long":106.820901,"is_transit":false,"time":4},{"i_long":106.82482,"distance":1080,"station_id":"MGB","i_lat":-6.149769,"is_transit":false,"transit":false,"time":2,"line":2,"station_name":"Manggabesar"},{"distance":906,"i_long":106.827103,"station_id":"SW","line":2,"transit":false,"station_name":"Sawah Besar","is_transit":false,"time":2,"i_lat":-6.160725},{"is_transit":false,"distance":1149,"i_long":106.828284,"transit":false,"station_name":"Juanda","station_id":"JUA","time":2,"i_lat":-6.166716,"line":2}],[{"i_long":106.737035,"time":0,"distance":0,"station_id":"BOI","transit":false,"station_name":"Bojongindah","is_transit":false,"i_lat":-6.159876,"line":5},{"station_id":"TKO","distance":2334,"line":5,"station_name":"Taman Kota","transit":false,"time":2,"is_transit":false,"i_long":106.756522,"i_lat":-6.1587309999999995},{"station_id":"PSG","distance":1614,"line":5,"i_long":106.771379,"time":2,"station_name":"Pesing","i_lat":-6.161433,"is_transit":false,"transit":false},{"distance":2036,"station_id":"GGL","station_name":"Grogol","time":2,"is_transit":false,"transit":false,"i_lat":-6.162021,"i_long":106.788277,"line":5},{"line":1,"time":3,"i_long":106.800832,"station_name":"Duri","station_id":"DU","is_transit":true,"distance":1700,"transit":true,"i_lat":-6.155215},{"i_long":106.811091,"station_id":"THB","transit":false,"time":8,"i_lat":-6.185545,"is_transit":false,"distance":3632,"line":1,"station_name":"Tanah Abang"},{"station_id":"KAT","station_name":"Karet","is_transit":false,"distance":2029,"i_lat":-6.20132,"i_long":106.816351,"transit":false,"time":5,"line":1},{"time":1,"i_lat":-6.201433,"i_long":106.819881,"station_id":"SUDB","line":1,"is_transit":false,"distance":471,"transit":false,"station_name":"Sudirman Baru"},{"distance":280,"line":1,"i_lat":-6.202263,"time":1,"station_name":"Sudirman","i_long":106.822649,"station_id":"SUD","transit":false,"is_transit":false},{"transit":true,"line":2,"station_id":"MRI","station_name":"Manggarai","time":4,"is_transit":true,"distance":3186,"i_long":106.84912,"i_lat":-6.209883},{"i_lat":-6.198556,"line":2,"station_id":"CKI","is_transit":false,"transit":false,"time":4,"distance":1590,"i_long":106.840169,"station_name":"Cikini"},{"transit":false,"line":2,"station_name":"Gondangdia","distance":1750,"time":3,"station_id":"GDD","i_lat":-6.186295,"is_transit":false,"i_long":106.832183},{"transit":false,"distance":2015,"station_id":"JUA","line":2,"station_name":"Juanda","i_lat":-6.166716,"i_long":106.828284,"time":4,"is_transit":false}],[{"is_transit":false,"line":5,"transit":false,"station_name":"Bojongindah","i_lat":-6.159876,"i_long":106.737035,"distance":0,"station_id":"BOI","time":0},{"transit":false,"i_lat":-6.1587309999999995,"station_id":"TKO","distance":2334,"time":2,"i_long":106.756522,"is_transit":false,"station_name":"Taman Kota","line":5},{"is_transit":false,"line":5,"i_lat":-6.161433,"distance":1614,"transit":false,"station_id":"PSG","time":2,"station_name":"Pesing","i_long":106.771379},{"transit":false,"i_lat":-6.162021,"time":2,"station_id":"GGL","distance":2036,"is_transit":false,"line":5,"station_name":"Grogol","i_long":106.788277},{"line":1,"time":3,"station_id":"DU","transit":true,"station_name":"Duri","i_lat":-6.155215,"i_long":106.800832,"is_transit":true,"distance":1700},{"time":4,"station_name":"Angke","i_lat":-6.144674,"line":1,"i_long":106.79867,"transit":false,"station_id":"AK","is_transit":false,"distance":1230},{"transit":true,"is_transit":true,"station_name":"Kampung Bandan","distance":4102,"station_id":"KPB","i_long":106.826365,"i_lat":-6.132549,"line":4,"time":9},{"is_transit":false,"station_id":"RJW","transit":false,"station_name":"Rajawali","distance":1444,"i_long":106.836569,"i_lat":-6.14505,"time":3,"line":11},{"i_lat":-6.161728,"transit":false,"is_transit":false,"distance":1901,"station_name":"Kemayoran","line":11,"i_long":106.839204,"time":5,"station_id":"KMO"},{"distance":1436,"i_lat":-6.174784,"is_transit":false,"transit":false,"time":4,"i_long":106.84368,"station_name":"Pasar Senen","station_id":"PSE","line":11},{"line":11,"transit":false,"time":8,"station_id":"GST","i_long":106.850107,"station_name":"Gang Sentiong","i_lat":-6.185975,"distance":1567,"is_transit":false},{"line":11,"i_lat":-6.193792,"is_transit":false,"i_long":106.855437,"station_name":"Kramat","time":1,"station_id":"KMT","transit":false,"distance":973},{"time":2,"is_transit":false,"i_lat":-6.209188,"station_id":"POK","station_name":"Pondok Jati","distance":1829,"i_long":106.861737,"transit":false,"line":11},{"i_lat":-6.215091,"transit":true,"is_transit":true,"line":1,"station_id":"JNG","time":9,"station_name":"Jatinegara","distance":1236,"i_long":106.86807400000001},{"i_lat":-6.212485,"transit":false,"station_id":"MTR","station_name":"Matraman","time":2,"distance":1377,"is_transit":false,"i_long":106.858896,"line":1},{"line":2,"time":2,"i_long":106.84912,"station_id":"MRI","i_lat":-6.209883,"transit":true,"station_name":"Manggarai","is_transit":true,"distance":1275},{"time":4,"is_transit":false,"i_long":106.840169,"transit":false,"distance":1590,"line":2,"station_id":"CKI","i_lat":-6.198556,"station_name":"Cikini"},{"transit":false,"i_long":106.832183,"station_name":"Gondangdia","distance":1750,"i_lat":-6.186295,"time":3,"station_id":"GDD","is_transit":false,"line":2},{"line":2,"is_transit":false,"distance":2015,"time":4,"i_lat":-6.166716,"i_long":106.828284,"station_id":"JUA","transit":false,"station_name":"Juanda"}],[{"line":5,"station_name":"Bojongindah","transit":false,"i_long":106.737035,"station_id":"BOI","is_transit":false,"distance":0,"time":0,"i_lat":-6.159876},{"time":2,"distance":2334,"is_transit":false,"station_name":"Taman Kota","station_id":"TKO","i_lat":-6.1587309999999995,"i_long":106.756522,"line":5,"transit":false},{"i_long":106.771379,"transit":false,"is_transit":false,"distance":1614,"station_name":"Pesing","station_id":"PSG","i_lat":-6.161433,"time":2,"line":5},{"station_name":"Grogol","i_long":106.788277,"distance":2036,"transit":false,"time":2,"station_id":"GGL","is_transit":false,"i_lat":-6.162021,"line":5},{"is_transit":true,"line":1,"distance":1700,"time":3,"station_id":"DU","station_name":"Duri","i_lat":-6.155215,"i_long":106.800832,"transit":true},{"station_name":"Tanah Abang","station_id":"THB","is_transit":false,"i_lat":-6.185545,"line":1,"time":8,"distance":3632,"transit":false,"i_long":106.811091},{"is_transit":false,"time":5,"distance":2029,"station_name":"Karet","i_long":106.816351,"station_id":"KAT","transit":false,"line":1,"i_lat":-6.20132},{"i_lat":-6.201433,"line":1,"is_transit":false,"i_long":106.819881,"time":1,"station_name":"Sudirman Baru","station_id":"SUDB","distance":471,"transit":false},{"is_transit":false,"station_id":"SUD","distance":280,"station_name":"Sudirman","time":1,"i_long":106.822649,"transit":false,"i_lat":-6.202263,"line":1},{"i_lat":-6.209883,"i_long":106.84912,"station_name":"Manggarai","transit":false,"is_transit":false,"line":2,"distance":3186,"station_id":"MRI","time":4},{"station_id":"MTR","station_name":"Matraman","is_transit":false,"distance":1275,"transit":false,"time":2,"i_lat":-6.212485,"i_long":106.858896,"line":1},{"time":8,"i_lat":-6.215091,"transit":true,"line":1,"is_transit":true,"station_name":"Jatinegara","distance":1377,"i_long":106.86807400000001,"station_id":"JNG"},{"distance":1236,"time":2,"station_name":"Pondok Jati","station_id":"POK","is_transit":false,"i_lat":-6.209188,"line":11,"i_long":106.861737,"transit":false},{"station_name":"Kramat","station_id":"KMT","is_transit":false,"distance":1829,"time":2,"transit":false,"i_long":106.855437,"i_lat":-6.193792,"line":11},{"station_name":"Gang Sentiong","station_id":"GST","i_long":106.850107,"line":11,"transit":false,"is_transit":false,"time":1,"distance":973,"i_lat":-6.185975},{"is_transit":false,"station_id":"PSE","transit":false,"time":8,"i_long":106.84368,"distance":1567,"line":11,"i_lat":-6.174784,"station_name":"Pasar Senen"},{"is_transit":false,"line":11,"station_id":"KMO","transit":false,"station_name":"Kemayoran","time":4,"distance":1436,"i_lat":-6.161728,"i_long":106.839204},{"transit":false,"time":5,"station_id":"RJW","i_long":106.836569,"line":11,"distance":1901,"station_name":"Rajawali","is_transit":false,"i_lat":-6.14505},{"distance":1444,"transit":true,"station_id":"KPB","time":3,"i_long":106.826365,"i_lat":-6.132549,"line":4,"is_transit":true,"station_name":"Kampung Bandan"},{"line":2,"i_lat":-6.137569,"station_name":"Jakarta Kota","transit":true,"i_long":106.812439,"is_transit":true,"distance":1364,"time":3,"station_id":"JAKK"},{"is_transit":false,"distance":1264,"i_lat":-6.141205,"i_long":106.820901,"transit":false,"line":2,"station_name":"Jayakarta","station_id":"JAY","time":4},{"is_transit":false,"station_name":"Manggabesar","line":2,"time":2,"i_lat":-6.149769,"station_id":"MGB","distance":1080,"transit":false,"i_long":106.82482},{"station_id":"SW","transit":false,"is_transit":false,"time":2,"station_name":"Sawah Besar","line":2,"i_long":106.827103,"i_lat":-6.160725,"distance":906},{"i_lat":-6.166716,"i_long":106.828284,"transit":false,"distance":1149,"station_name":"Juanda","time":2,"line":2,"is_transit":false,"station_id":"JUA"}]]}