{"data":[[{"i_lat":-6.159876,"time":0,"transit":false,"i_long":106.737035,"is_transit":false,"station_name":"Bojongindah","distance":0,"line":5,"station_id":"BOI"},{"station_id":"TKO","i_lat":-6.1587309999999995,"time":2,"station_name":"Taman Kota","i_long":106.756522,"is_transit":false,"transit":false,"distance":2334,"line":5},{"station_id":"PSG","line":5,"distance":1614,"station_name":"Pesing","transit":false,"i_lat":-6.161433,"is_transit":false,"i_long":106.771379,"time":2},{"station_id":"GGL","is_transit":false,"i_lat":-6.162021,"line":5,"transit":false,"station_name":"Grogol","time":2,"distance":2036,"i_long":106.788277},{"i_long":106.800832,"transit":true,"station_name":"Duri","i_lat":-6.155215,"time":3,"line":1,"station_id":"DU","distance":1700,"is_transit":true},{"time":8,"i_lat":-6.185545,"is_transit":false,"transit":false,"i_long":106.811091,"line":1,"distance":3632,"station_name":"Tanah Abang","station_id":"THB"},{"transit":false,"station_id":"KAT","station_name":"Karet","is_transit":false,"i_lat":-6.20132,"time":5,"distance":2029,"i_long":106.816351,"line":1},{"is_transit":false,"distance":471,"i_long":106.819881,"station_id":"SUDB","transit":false,"station_name":"Sudirman Baru","time":1,"i_lat":-6.201433,"line":1},{"is_transit":false,"transit":false,"time":1,"i_long":106.822649,"station_id":"SUD","i_lat":-6.202263,"station_name":"Sudirman","distance":280,"line":1},{"transit":false,"station_id":"MRI","time":4,"distance":3186,"station_name":"Manggarai","is_transit":false,"i_lat":-6.209883,"line":2,"i_long":106.84912},{"transit":false,"station_id":"MTR","line":1,"station_name":"Matraman","time":2,"distance":1275,"i_lat":-6.212485,"i_long":106.858896,"is_transit":false},{"station_id":"JNG","i_lat":-6.215091,"station_name":"Jatinegara","line":1,"transit":false,"i_long":106.86807400000001,"distance":1377,"is_transit":false,"time":8},{"time":3,"station_name":"Klender","is_transit":false,"line":1,"i_lat":-6.2135,"distance":3395,"transit":false,"i_long":106.899548,"station_id":"KLD"},{"line":1,"station_id":"BUA","is_transit":false,"time":2,"i_lat":-6.215568,"transit":false,"i_long":106.922662,"station_name":"Buaran","distance":3100},{"i_lat":-6.217455,"transit":false,"i_long":106.939679,"distance":1305,"station_name":"Klenderbaru","is_transit":false,"time":1,"line":1,"station_id":"KLDB"},{"time":8,"line":1,"i_lat":-6.219053,"distance":1385,"station_name":"Cakung","transit":false,"i_long":106.951283,"station_id":"CUK","is_transit":false},{"transit":false,"station_id":"KRI","time":3,"i_lat":-6.224515,"station_name":"Kranji","is_transit":false,"line":1,"i_long":106.977657,"distance":3097},{"station_name":"Bekasi","station_id":"BKS","i_lat":-6.236616,"transit":false,"is_transit":false,"distance":2520,"i_long":106.997013,"time":4,"line":1},{"time":2,"i_lat":-6.248029,"line":1,"station_id":"BKST","transit":false,"is_transit":false,"i_long":107.016735,"station_name":"Bekasi Timur","distance":2368}],[{"line":5,"i_lat":-6.159876,"is_transit":false,"transit":false,"station_id":"BOI","station_name":"Bojongindah","distance":0,"i_long":106.737035,"time":0},{"transit":false,"i_long":106.756522,"station_name":"Taman Kota","line":5,"is_transit":false,"station_id":"TKO","time":2,"distance":2334,"i_lat":-6.1587309999999995},{"i_lat":-6.161433,"i_long":106.771379,"station_name":"Pesing","time":2,"distance":1614,"line":5,"station_id":"PSG","transit":false,"is_transit":false},{"i_long":106.788277,"line":5,"station_name":"Grogol","station_id":"GGL","is_transit":false,"transit":false,"time":2,"i_lat":-6.162021,"distance":2036},{"transit":true,"i_long":106.800832,"i_lat":-6.155215,"station_name":"Duri","time":3,"line":1,"distance":1700,"station_id":"DU","is_transit":true},{"transit":false,"station_name":"Angke","i_long":106.79867,"i_lat":-6.144674,"station_id":"AK","time":4,"is_transit":false,"distance":1230,"line":1},{"distance":4102,"station_name":"Kampung Bandan","time":9,"station_id":"KPB","transit":true,"is_transit":true,"line":4,"i_lat":-6.132549,"i_long":106.826365},{"transit":false,"time":3,"is_transit":false,"distance":1444,"station_id":"RJW","line":11,"i_long":106.836569,"station_name":"Rajawali","i_lat":-6.14505},{"station_name":"Kemayoran","i_lat":-6.161728,"is_transit":false,"time":5,"transit":false,"line":11,"distance":1901,"i_long":106.839204,"station_id":"KMO"},{"station_name":"Pasar Senen","distance":1436,"line":11,"is_transit":false,"i_lat":-6.174784,"i_long":106.84368,"transit":false,"time":4,"station_id":"PSE"},{"time":8,"is_transit":false,"line":11,"i_lat":-6.185975,"station_id":"GST","station_name":"Gang Sentiong","i_long":106.850107,"distance":1567,"transit":false},{"i_lat":-6.193792,"i_long":106.855437,"line":11,"station_name":"Kramat","transit":false,"station_id":"KMT","is_transit":false,"distance":973,"time":1},{"distance":1829,"i_lat":-6.209188,"station_id":"POK","time":2,"i_long":106.861737,"station_name":"Pondok Jati","line":11,"transit":false,"is_transit":false},{"is_transit":true,"distance":1236,"time":9,"transit":true,"i_lat":-6.215091,"line":1,"station_id":"JNG","station_name":"Jatinegara","i_long":106.86807400000001},{"is_transit":false,"i_lat":-6.2135,"distance":3395,"time":3,"i_long":106.899548,"station_name":"Klender","line":1,"transit":false,"station_id":"KLD"},{"station_id":"BUA","distance":3100,"i_lat":-6.215568,"time":2,"line":1,"is_transit":false,"i_long":106.922662,"transit":false,"station_name":"Buaran"},{"distance":1305,"transit":false,"i_lat":-6.217455,"i_long":106.939679,"station_id":"KLDB","station_name":"Klenderbaru","time":1,"line":1,"is_transit":false},{"time":8,"distance":1385,"station_name":"Cakung","i_lat":-6.219053,"i_long":106.951283,"line":1,"transit":false,"station_id":"CUK","is_transit":false},{"time":3,"i_long":106.977657,"distance":3097,"station_name":"Kranji","transit":false,"i_lat":-6.224515,"is_transit":false,"line":1,"station_id":"KRI"},{"station_id":"BKS","time":4,"station_name":"Bekasi","is_transit":false,"line":1,"transit":false,"i_long":106.997013,"distance":2520,"i_lat":-6.236616},{"station_name":"Bekasi Timur","station_id":"BKST","is_transit":false,"transit":false,"i_lat":-6.248029,"distance":2368,"i_long":107.016735,"line":1,"time":2}],[{"transit":false,"i_lat":-6.159876,"i_long":106.737035,"line":5,"time":0,"station_name":"Bojongindah","distance":0,"station_id":"BOI","is_transit":false},{"i_lat":-6.1587309999999995,"distance":2334,"station_name":"Taman Kota","i_long":106.756522,"station_id":"TKO","time":2,"line":5,"transit":false,"is_transit":false},{"distance":1614,"line":5,"time":2,"i_lat":-6.161433,"station_name":"Pesing","station_id":"PSG","transit":false,"is_transit":false,"i_long":106.771379},{"distance":2036,"is_transit":false,"time":2,"i_lat":-6.162021,"transit":false,"station_id":"GGL","line":5,"i_long":106.788277,"station_name":"Grogol"},{"transit":true,"station_id":"DU","i_lat":-6.155215,"line":1,"time":3,"station_name":"Duri","is_transit":true,"distance":1700,"i_long":106.800832},{"distance":1230,"station_name":"Angke","transit":false,"is_transit":false,"i_lat":-6.144674,"station_id":"AK","i_long":106.79867,"line":1,"time":4},{"is_transit":true,"i_lat":-6.132549,"transit":true,"time":9,"distance":4102,"line":4,"i_long":106.826365,"station_id":"KPB","station_name":"Kampung Bandan"},{"i_lat":-6.137569,"station_name":"Jakarta Kota","is_transit":true,"time":3,"i_long":106.812439,"distance":1364,"transit":true,"line":2,"station_id":"JAKK"},{"time":4,"line":2,"station_id":"JAY","distance":1264,"is_transit":false,"transit":false,"i_lat":-6.141205,"i_long":106.820901,"station_name":"Jayakarta"},{"line":2,"distance":1080,"station_id":"MGB","station_name":"Manggabesar","transit":false,"is_transit":false,"time":2,"i_lat":-6.149769,"i_long":106.82482},{"distance":906,"line":2,"transit":false,"station_name":"Sawah Besar","i_long":106.827103,"station_id":"SW","i_lat":-6.160725,"is_transit":false,"time":2},{"transit":false,"distance":1149,"time":2,"station_id":"JUA","station_name":"Juanda","i_long":106.828284,"line":2,"is_transit":false,"i_lat":-6.166716},{"time":4,"station_id":"GDD","distance":2015,"i_long":106.832183,"i_lat":-6.186295,"is_transit":false,"transit":false,"station_name":"Gondangdia","line":2},{"transit":false,"is_transit":false,"time":3,"distance":1750,"i_lat":-6.198556,"station_id":"CKI","station_name":"Cikini","i_long":106.840169,"line":2},{"distance":1590,"station_name":"Manggarai","time":4,"line":2,"is_transit":true,"transit":true,"station_id":"MRI","i_long":106.84912,"i_lat":-6.209883},{"i_lat":-6.212485,"i_long":106.858896,"line":1,"station_id":"MTR","time":2,"transit":false,"station_name":"Matraman","distance":1275,"is_transit":false},{"is_transit":false,"transit":false,"station_name":"Jatinegara","i_long":106.86807400000001,"time":8,"station_id":"JNG","distance":1377,"i_lat":-6.215091,"line":1},{"transit":false,"i_long":106.899548,"line":1,"station_name":"Klender","i_lat":-6.2135,"time":3,"distance":3395,"is_transit":false,"station_id":"KLD"},{"i_long":106.922662,"line":1,"station_name":"Buaran","distance":3100,"time":2,"station_id":"BUA","transit":false,"is_transit":false,"i_lat":-6.215568},{"i_long":106.939679,"time":1,"transit":false,"is_transit":false,"station_id":"KLDB","i_lat":-6.217455,"station_name":"Klenderbaru","line":1,"distance":1305},{"i_long":106.951283,"is_transit":false,"station_id":"CUK","transit":false,"station_name":"Cakung","time":8,"distance":1385,"line":1,"i_lat":-6.219053},{"time":3,"i_long":106.977657,"line":1,"distance":3097,"i_lat":-6.224515,"transit":false,"station_id":"KRI","is_transit":false,"station_name":"Kranji"},{"i_long":106.997013,"station_name":"Bekasi","line":1,"time":4,"distance":2520,"station_id":"BKS","is_transit":false,"transit":false,"i_lat":-6.236616},{"transit":false,"station_name":"Bekasi Timur","distance":2368,"is_transit":false,"station_id":"BKST","i_long":107.016735,"time":2,"i_lat":-6.248029,"line":1}],[{"station_id":"BOI","station_name":"Bojongindah","time":0,"distance":0,"line":5,"i_long":106.737035,"is_transit":false,"i_lat":-6.159876,"transit":false},{"i_lat":-6.1587309999999995,"distance":2334,"i_long":106.756522,"time":2,"station_name":"Taman Kota","transit":false,"station_id":"TKO","line":5,"is_transit":false},{"is_transit":false,"transit":false,"i_long":106.771379,"distance":1614,"i_lat":-6.161433,"time":2,"station_id":"PSG","line":5,"station_name":"Pesing"},{"is_transit":false,"station_name":"Grogol","time":2,"i_lat":-6.162021,"distance":2036,"transit":false,"i_long":106.788277,"line":5,"station_id":"GGL"},{"i_lat":-6.155215,"i_long":106.800832,"transit":true,"station_name":"Duri","line":1,"station_id":"DU","distance":1700,"time":3,"is_transit":true},{"time":8,"distance":3632,"line":1,"i_lat":-6.185545,"i_long":106.811091,"station_id":"THB","is_transit":false,"transit":false,"station_name":"Tanah Abang"},{"distance":2029,"station_name":"Karet","is_transit":false,"transit":false,"i_lat":-6.20132,"time":5,"i_long":106.816351,"line":1,"station_id":"KAT"},{"line":1,"station_name":"Sudirman Baru","distance":471,"time":1,"transit":false,"station_id":"SUDB","i_lat":-6.201433,"i_long":106.819881,"is_transit":false},{"time":1,"station_name":"Sudirman","is_transit":false,"station_id":"SUD","i_lat":-6.202263,"i_long":106.822649,"distance":280,"line":1,"transit":false},{"station_name":"Manggarai","distance":3186,"i_lat":-6.209883,"transit":true,"i_long":106.84912,"station_id":"MRI","is_transit":true,"line":2,"time":4},{"is_transit":false,"time":4,"transit":false,"distance":1590,"i_lat":-6.198556,"i_long":106.840169,"line":2,"station_name":"Cikini","station_id":"CKI"},{"i_long":106.832183,"time":3,"distance":1750,"transit":false,"station_name":"Gondangdia","i_lat":-6.186295,"station_id":"GDD","is_transit":false,"line":2},{"line":2,"i_lat":-6.166716,"transit":false,"distance":2015,"station_name":"Juanda","station_id":"JUA","i_long":106.828284,"is_transit":false,"time":4},{"is_transit":false,"distance":1149,"line":2,"i_lat":-6.160725,"transit":false,"i_long":106.827103,"station_name":"Sawah Besar","station_id":"SW","time":2},{"time":2,"distance":906,"line":2,"station_name":"Manggabesar","station_id":"MGB","i_long":106.82482,"is_transit":false,"transit":false,"i_lat":-6.149769},{"distance":1080,"i_lat":-6.141205,"i_long":106.820901,"station_name":"Jayakarta","time":2,"line":2,"transit":false,"is_transit":false,"station_id":"JAY"},{"time":4,"i_lat":-6.137569,"station_name":"Jakarta Kota","distance":1264,"transit":true,"is_transit":true,"station_id":"JAKK","line":2,"i_long":106.812439},{"station_name":"Kampung Bandan","distance":1364,"station_id":"KPB","line":4,"i_long":106.826365,"transit":true,"is_transit":true,"time":3,"i_lat":-6.132549},{"transit":false,"is_transit":false,"station_id":"RJW","time":3,"station_name":"Rajawali","line":11,"i_lat":-6.14505,"distance":1444,"i_long":106.836569},{"station_name":"Kemayoran","distance":1901,"i_lat":-6.161728,"station_id":"KMO","transit":false,"is_transit":false,"i_long":106.839204,"line":11,"time":5},{"station_id":"PSE","transit":false,"is_transit":false,"time":4,"line":11,"i_lat":-6.174784,"station_name":"Pasar Senen","i_long":106.84368,"distance":1436},{"time":8,"distance":1567,"transit":false,"i_long":106.850107,"station_id":"GST","station_name":"Gang Sentiong","is_transit":false,"i_lat":-6.185975,"line":11},{"station_name":"Kramat","transit":false,"is_transit":false,"time":1,"line":11,"station_id":"KMT","distance":973,"i_lat":-6.193792,"i_long":106.855437},{"distance":1829,"line":11,"time":2,"is_transit":false,"i_lat":-6.209188,"station_name":"Pondok Jati","transit":false,"station_id":"POK","i_long":106.861737},{"station_name":"Jatinegara","is_transit":true,"distance":1236,"i_lat":-6.215091,"transit":true,"i_long":106.86807400000001,"line":1,"station_id":"JNG","time":9},{"time":3,"is_transit":false,"distance":3395,"i_long":106.899548,"station_id":"KLD","i_lat":-6.2135,"station_name":"Klender","line":1,"transit":false},{"transit":false,"distance":3100,"is_transit":false,"i_long":106.922662,"station_id":"BUA","line":1,"i_lat":-6.215568,"time":2,"station_name":"Buaran"},{"i_lat":-6.217455,"is_transit":false,"distance":1305,"station_id":"KLDB","transit":false,"station_name":"Klenderbaru","time":1,"i_long":106.939679,"line":1},{"time":8,"line":1,"i_long":106.951283,"station_name":"Cakung","transit":false,"station_id":"CUK","is_transit":false,"distance":1385,"i_lat":-6.219053},{"line":1,"is_transit":false,"station_name":"Kranji","time":3,"station_id":"KRI","distance":3097,"i_long":106.977657,"i_lat":-6.224515,"transit":false},{"station_name":"Bekasi","i_long":106.997013,"time":4,"is_transit":false,"i_lat":-6.236616,"transit":false,"line":1,"distance":2520,"station_id":"BKS"},{"i_lat":-6.248029,"station_name":"Bekasi Timur","transit":false,"time":2,"i_long":107.016735,"station_id":"BKST","distance":2368,"line":1,"is_transit":false}]]}