{"data":[[{"transit":false,"i_lat":-6.159876,"line":5,"time":0,"station_id":"BOI","is_transit":false,"station_name":"Bojongindah","distance":0,"i_long":106.737035},{"line":5,"time":2,"i_lat":-6.1587309999999995,"station_id":"TKO","transit":false,"is_transit":false,"i_long":106.756522,"distance":2334,"station_name":"Taman Kota"},{"distance":1614,"station_name":"Pesing","is_transit":false,"line":5,"time":2,"station_id":"PSG","i_lat":-6.161433,"i_long":106.771379,"transit":false},{"station_id":"GGL","transit":false,"i_long":106.788277,"time":2,"distance":2036,"is_transit":false,"station_name":"Grogol","i_lat":-6.162021,"line":5},{"station_id":"DU","station_name":"Duri","is_transit":true,"distance":1700,"line":1,"transit":true,"i_long":106.800832,"i_lat":-6.155215,"time":3},{"time":4,"is_transit":false,"i_long":106.79867,"station_id":"AK","distance":1230,"line":1,"station_name":"Angke","transit":false,"i_lat":-6.144674},{"line":4,"i_lat":-6.132549,"transit":true,"station_id":"KPB","time":9,"is_transit":true,"i_long":106.826365,"station_name":"Kampung Bandan","distance":4102},{"station_name":"Jakarta Kota","line":2,"transit":true,"is_transit":true,"distance":1364,"station_id":"JAKK","time":3,"i_long":106.812439,"i_lat":-6.137569},{"line":2,"station_name":"Jayakarta","time":4,"is_transit":false,"distance":1264,"i_lat":-6.141205,"transit":false,"i_long":106.820901,"station_id":"JAY"},{"transit":false,"line":2,"i_long":106.82482,"station_id":"MGB","station_name":"Manggabesar","distance":1080,"is_transit":false,"i_lat":-6.149769,"time":2},{"is_transit":false,"i_lat":-6.160725,"station_name":"Sawah Besar","distance":906,"i_long":106.827103,"line":2,"station_id":"SW","time":2,"transit":false},{"transit":false,"i_lat":-6.166716,"line":2,"is_transit":false,"station_name":"Juanda","station_id":"JUA","distance":1149,"time":2,"i_long":106.828284}],[{"station_name":"Bojongindah","i_long":106.737035,"is_transit":false,"station_id":"BOI","time":0,"distance":0,"line":5,"transit":false,"i_lat":-6.159876},{"is_transit":false,"station_name":"Taman Kota","transit":false,"i_lat":-6.1587309999999995,"line":5,"time":2,"station_id":"TKO","distance":2334,"i_long":106.756522},{"i_long":106.771379,"time":2,"is_transit":false,"station_id":"PSG","station_name":"Pesing","transit":false,"i_lat":-6.161433,"line":5,"distance":1614},{"station_name":"Grogol","i_lat":-6.162021,"i_long":106.788277,"line":5,"is_transit":false,"station_id":"GGL","distance":2036,"time":2,"transit":false},{"station_name":"Duri","i_long":106.800832,"time":3,"transit":true,"station_id":"DU","distance":1700,"i_lat":-6.155215,"is_transit":true,"line":1},{"time":8,"station_name":"Tanah Abang","i_long":106.811091,"is_transit":false,"station_id":"THB","transit":false,"distance":3632,"line":1,"i_lat":-6.185545},{"i_long":106.816351,"i_lat":-6.20132,"transit":false,"station_name":"Karet","line":1,"is_transit":false,"time":5,"distance":2029,"station_id":"KAT"},{"i_long":106.819881,"distance":471,"station_id":"SUDB","i_lat":-6.201433,"transit":false,"station_name":"Sudirman Baru","line":1,"is_transit":false,"time":1},{"i_long":106.822649,"line":1,"is_transit":false,"transit":false,"station_id":"SUD","station_name":"Sudirman","i_lat":-6.202263,"distance":280,"time":1},{"station_id":"MRI","i_long":106.84912,"time":4,"distance":3186,"line":2,"is_transit":true,"i_lat":-6.209883,"station_name":"Manggarai","transit":true},{"station_name":"Cikini","i_lat":-6.198556,"time":4,"i_long":106.840169,"is_transit":false,"distance":1590,"transit":false,"station_id":"CKI","line":2},{"is_transit":false,"time":3,"station_name":"Gondangdia","distance":1750,"transit":false,"i_long":106.832183,"station_id":"GDD","i_lat":-6.186295,"line":2},{"time":4,"station_id":"JUA","i_lat":-6.166716,"station_name":"Juanda","is_transit":false,"transit":false,"distance":2015,"line":2,"i_long":106.828284}],[{"is_transit":false,"station_name":"Bojongindah","time":0,"line":5,"transit":false,"station_id":"BOI","i_long":106.737035,"distance":0,"i_lat":-6.159876},{"i_long":106.756522,"time":2,"station_id":"TKO","station_name":"Taman Kota","transit":false,"distance":2334,"line":5,"is_transit":false,"i_lat":-6.1587309999999995},{"station_name":"Pesing","station_id":"PSG","distance":1614,"time":2,"transit":false,"i_long":106.771379,"line":5,"is_transit":false,"i_lat":-6.161433},{"time":2,"is_transit":false,"distance":2036,"line":5,"transit":false,"i_lat":-6.162021,"station_name":"Grogol","i_long":106.788277,"station_id":"GGL"},{"station_name":"Duri","station_id":"DU","line":1,"i_long":106.800832,"is_transit":true,"i_lat":-6.155215,"time":3,"distance":1700,"transit":true},{"time":4,"station_id":"AK","transit":false,"station_name":"Angke","i_long":106.79867,"i_lat":-6.144674,"is_transit":false,"line":1,"distance":1230},{"time":9,"line":4,"station_name":"Kampung Bandan","transit":true,"distance":4102,"is_transit":true,"i_long":106.826365,"station_id":"KPB","i_lat":-6.132549},{"station_name":"Rajawali","distance":1444,"i_lat":-6.14505,"line":11,"is_transit":false,"transit":false,"i_long":106.836569,"time":3,"station_id":"RJW"},{"transit":false,"line":11,"time":5,"distance":1901,"i_long":106.839204,"station_id":"KMO","i_lat":-6.161728,"is_transit":false,"station_name":"Kemayoran"},{"is_transit":false,"station_id":"PSE","transit":false,"distance":1436,"station_name":"Pasar Senen","time":4,"i_long":106.84368,"line":11,"i_lat":-6.174784},{"time":8,"i_lat":-6.185975,"station_name":"Gang Sentiong","line":11,"station_id":"GST","is_transit":false,"distance":1567,"transit":false,"i_long":106.850107},{"distance":973,"station_name":"Kramat","i_lat":-6.193792,"station_id":"KMT","i_long":106.855437,"time":1,"transit":false,"line":11,"is_transit":false},{"station_id":"POK","is_transit":false,"line":11,"station_name":"Pondok Jati","i_lat":-6.209188,"i_long":106.861737,"distance":1829,"transit":false,"time":2},{"time":9,"i_long":106.86807400000001,"transit":true,"line":1,"is_transit":true,"station_name":"Jatinegara","distance":1236,"i_lat":-6.215091,"station_id":"JNG"},{"line":1,"transit":false,"is_transit":false,"time":2,"station_name":"Matraman","i_lat":-6.212485,"station_id":"MTR","distance":1377,"i_long":106.858896},{"i_long":106.84912,"station_name":"Manggarai","line":2,"is_transit":true,"station_id":"MRI","distance":1275,"transit":true,"i_lat":-6.209883,"time":2},{"distance":1590,"time":4,"transit":false,"station_name":"Cikini","i_lat":-6.198556,"line":2,"i_long":106.840169,"station_id":"CKI","is_transit":false},{"is_transit":false,"line":2,"transit":false,"time":3,"distance":1750,"i_lat":-6.186295,"station_name":"Gondangdia","i_long":106.832183,"station_id":"GDD"},{"transit":false,"station_id":"JUA","distance":2015,"i_long":106.828284,"line":2,"time":4,"is_transit":false,"station_name":"Juanda","i_lat":-6.166716}],[{"station_id":"BOI","distance":0,"transit":false,"is_transit":false,"station_name":"Bojongindah","line":5,"i_lat":-6.159876,"time":0,"i_long":106.737035},{"time":2,"station_id":"TKO","transit":false,"is_transit":false,"station_name":"Taman Kota","distance":2334,"i_lat":-6.1587309999999995,"i_long":106.756522,"line":5},{"distance":1614,"i_long":106.771379,"station_id":"PSG","station_name":"Pesing","i_lat":-6.161433,"is_transit":false,"line":5,"transit":false,"time":2},{"transit":false,"i_lat":-6.162021,"distance":2036,"i_long":106.788277,"time":2,"station_name":"Grogol","station_id":"GGL","is_transit":false,"line":5},{"station_name":"Duri","station_id":"DU","line":1,"transit":true,"time":3,"distance":1700,"i_lat":-6.155215,"i_long":106.800832,"is_transit":true},{"transit":false,"is_transit":false,"line":1,"distance":3632,"station_id":"THB","i_lat":-6.185545,"i_long":106.811091,"station_name":"Tanah Abang","time":8},{"i_long":106.816351,"transit":false,"distance":2029,"station_id":"KAT","is_transit":false,"time":5,"station_name":"Karet","i_lat":-6.20132,"line":1},{"station_name":"Sudirman Baru","station_id":"SUDB","distance":471,"transit":false,"time":1,"i_long":106.819881,"line":1,"is_transit":false,"i_lat":-6.201433},{"i_long":106.822649,"distance":280,"transit":false,"line":1,"station_id":"SUD","station_name":"Sudirman","time":1,"i_lat":-6.202263,"is_transit":false},{"is_transit":false,"line":2,"distance":3186,"time":4,"i_long":106.84912,"transit":false,"station_id":"MRI","i_lat":-6.209883,"station_name":"Manggarai"},{"transit":false,"station_id":"MTR","time":2,"station_name":"Matraman","i_lat":-6.212485,"distance":1275,"i_long":106.858896,"is_transit":false,"line":1},{"line":1,"is_transit":true,"station_name":"Jatinegara","i_lat":-6.215091,"i_long":106.86807400000001,"distance":1377,"transit":true,"time":8,"station_id":"JNG"},{"distance":1236,"transit":false,"i_lat":-6.209188,"i_long":106.861737,"station_id":"POK","station_name":"Pondok Jati","time":2,"line":11,"is_transit":false},{"station_name":"Kramat","distance":1829,"is_transit":false,"time":2,"transit":false,"line":11,"i_long":106.855437,"i_lat":-6.193792,"station_id":"KMT"},{"i_lat":-6.185975,"time":1,"line":11,"is_transit":false,"transit":false,"i_long":106.850107,"station_id":"GST","distance":973,"station_name":"Gang Sentiong"},{"station_id":"PSE","time":8,"station_name":"Pasar Senen","is_transit":false,"i_long":106.84368,"i_lat":-6.174784,"line":11,"distance":1567,"transit":false},{"time":4,"station_id":"KMO","distance":1436,"i_long":106.839204,"station_name":"Kemayoran","i_lat":-6.161728,"transit":false,"is_transit":false,"line":11},{"station_name":"Rajawali","line":11,"time":5,"i_lat":-6.14505,"distance":1901,"i_long":106.836569,"transit":false,"station_id":"RJW","is_transit":false},{"is_transit":true,"time":3,"distance":1444,"transit":true,"station_name":"Kampung Bandan","i_lat":-6.132549,"i_long":106.826365,"station_id":"KPB","line":4},{"time":3,"station_name":"Jakarta Kota","line":2,"transit":true,"distance":1364,"i_long":106.812439,"station_id":"JAKK","i_lat":-6.137569,"is_transit":true},{"is_transit":false,"station_id":"JAY","i_lat":-6.141205,"time":4,"line":2,"distance":1264,"transit":false,"station_name":"Jayakarta","i_long":106.820901},{"distance":1080,"i_long":106.82482,"station_id":"MGB","transit":false,"time":2,"is_transit":false,"station_name":"Manggabesar","i_lat":-6.149769,"line":2},{"transit":false,"line":2,"station_name":"Sawah Besar","i_lat":-6.160725,"time":2,"i_long":106.827103,"station_id":"SW","is_transit":false,"distance":906},{"station_name":"Juanda","station_id":"JUA","is_transit":false,"i_lat":-6.166716,"i_long":106.828284,"transit":false,"distance":1149,"time":2,"line":2}]]}