{"data":[[{"time":0,"distance":0,"transit":false,"i_lat":-6.159876,"station_id":"BOI","station_name":"Bojongindah","i_long":106.737035,"is_transit":false,"line":5},{"transit":false,"is_transit":false,"station_name":"Taman Kota","time":2,"i_lat":-6.1587309999999995,"line":5,"i_long":106.756522,"distance":2334,"station_id":"TKO"},{"is_transit":false,"transit":false,"line":5,"station_id":"PSG","time":2,"station_name":"Pesing","i_lat":-6.161433,"i_long":106.771379,"distance":1614},{"i_lat":-6.162021,"distance":2036,"time":2,"station_id":"GRG","station_name":"Grogol","line":5,"transit":false,"is_transit":false,"i_long":106.788277},{"station_id":"DU","i_long":106.800832,"line":1,"time":3,"i_lat":-6.155215,"distance":1700,"station_name":"Duri","is_transit":true,"transit":true},{"station_name":"Tanah Abang","is_transit":false,"i_lat":-6.185545,"time":8,"line":1,"distance":3632,"station_id":"THB","i_long":106.811091,"transit":false},{"distance":2029,"station_name":"Karet","is_transit":false,"i_lat":-6.20132,"station_id":"KAT","time":5,"transit":false,"i_long":106.816351,"line":1},{"line":1,"station_id":"SUDB","station_name":"Sudirman Baru","time":1,"transit":false,"is_transit":false,"distance":471,"i_lat":-6.201433,"i_long":106.819881},{"is_transit":false,"line":1,"transit":false,"distance":280,"time":1,"i_long":106.822649,"station_name":"Sudirman","station_id":"SUD","i_lat":-6.202263},{"distance":3186,"is_transit":true,"line":2,"i_lat":-6.209883,"transit":true,"station_id":"MRI","time":4,"station_name":"Manggarai","i_long":106.84912},{"i_long":106.857948,"time":4,"station_id":"TEB","station_name":"Tebet","is_transit":false,"transit":false,"line":2,"distance":2610,"i_lat":-6.226659},{"line":2,"i_long":106.856607,"i_lat":-6.242512,"is_transit":false,"station_name":"Cawang","transit":false,"distance":1230,"time":2,"station_id":"CW"},{"time":3,"station_id":"DRN","station_name":"Duren Kalibata","line":2,"transit":false,"i_lat":-6.255332,"distance":1546,"is_transit":false,"i_long":106.85449},{"station_id":"PSMB","i_lat":-6.263214,"station_name":"Pasar Minggu Baru","i_long":106.851577,"is_transit":false,"line":2,"time":2,"distance":824,"transit":false},{"is_transit":false,"station_id":"PSM","i_long":106.843999,"station_name":"Pasar Minggu","i_lat":-6.2842400000000005,"distance":2380,"transit":false,"time":2,"line":2},{"i_lat":-6.3080680000000005,"line":2,"distance":2820,"station_id":"TNT","i_long":106.838896,"is_transit":false,"transit":false,"time":4,"station_name":"Tanjung Barat"},{"transit":false,"distance":2671,"station_name":"Lenteng Agung","is_transit":false,"time":3,"i_long":106.832616,"line":2,"i_lat":-6.330363,"station_id":"LNA"},{"station_name":"Univ. Pancasila","i_lat":-6.339291,"transit":false,"distance":1029,"station_id":"UP","i_long":106.834175,"line":2,"time":2,"is_transit":false},{"distance":2264,"transit":false,"station_name":"Univ. Indonesia","station_id":"UI","line":2,"i_long":106.831474,"is_transit":false,"i_lat":-6.360749,"time":3},{"time":2,"i_long":106.831114,"line":2,"distance":1109,"station_name":"Pondok Cina","transit":false,"is_transit":false,"i_lat":-6.369073,"station_id":"POC"},{"transit":false,"line":2,"is_transit":false,"i_lat":-6.391065,"distance":2727,"station_name":"Depokbaru","i_long":106.819451,"time":4,"station_id":"DPB"},{"station_name":"Depok","distance":1584,"i_lat":-6.405256,"i_long":106.816926,"transit":false,"line":2,"time":3,"is_transit":false,"station_id":"DP"},{"i_lat":-6.448811,"time":6,"i_long":106.800298,"is_transit":true,"station_name":"Citayam","distance":5084,"line":2,"transit":true,"station_id":"CTA"},{"transit":false,"i_lat":-6.460735,"station_name":"Pondok Rajeg","line":21,"distance":0,"is_transit":false,"time":0,"station_id":"PDRG","i_long":106.824374}],[{"station_id":"BOI","i_lat":-6.159876,"transit":false,"station_name":"Bojongindah","i_long":106.737035,"line":5,"distance":0,"time":0,"is_transit":false},{"is_transit":false,"transit":false,"distance":2334,"i_long":106.756522,"station_name":"Taman Kota","time":2,"i_lat":-6.1587309999999995,"station_id":"TKO","line":5},{"time":2,"station_name":"Pesing","distance":1614,"is_transit":false,"station_id":"PSG","i_lat":-6.161433,"transit":false,"line":5,"i_long":106.771379},{"distance":2036,"is_transit":false,"station_name":"Grogol","line":5,"transit":false,"time":2,"i_lat":-6.162021,"station_id":"GRG","i_long":106.788277},{"transit":true,"station_name":"Duri","i_long":106.800832,"is_transit":true,"time":3,"station_id":"DU","distance":1700,"line":1,"i_lat":-6.155215},{"station_name":"Angke","i_lat":-6.144674,"i_long":106.79867,"transit":false,"distance":1230,"is_transit":false,"station_id":"AK","line":1,"time":4},{"distance":4102,"time":9,"station_name":"Kampung Bandan","i_long":106.826365,"transit":true,"station_id":"KPB","i_lat":-6.132549,"is_transit":true,"line":4},{"time":3,"is_transit":true,"i_lat":-6.137569,"line":2,"station_id":"JAKK","distance":1364,"station_name":"Jakarta Kota","i_long":106.812439,"transit":true},{"line":2,"station_id":"JAY","is_transit":false,"station_name":"Jayakarta","distance":1264,"i_long":106.820901,"i_lat":-6.141205,"time":4,"transit":false},{"station_name":"Manggabesar","is_transit":false,"transit":false,"i_lat":-6.149769,"time":2,"i_long":106.82482,"distance":1080,"line":2,"station_id":"MGB"},{"time":2,"distance":906,"transit":false,"line":2,"i_lat":-6.160725,"station_name":"Sawah Besar","i_long":106.827103,"station_id":"SW","is_transit":false},{"station_id":"JUA","transit":false,"i_lat":-6.166716,"i_long":106.828284,"is_transit":false,"line":2,"time":2,"station_name":"Juanda","distance":1149},{"i_lat":-6.186295,"distance":2015,"is_transit":false,"station_name":"Gondangdia","station_id":"GDD","transit":false,"i_long":106.832183,"line":2,"time":4},{"line":2,"is_transit":false,"distance":1750,"station_name":"Cikini","i_long":106.840169,"station_id":"CKI","transit":false,"time":3,"i_lat":-6.198556},{"time":4,"i_lat":-6.209883,"is_transit":false,"station_id":"MRI","line":2,"distance":1590,"station_name":"Manggarai","transit":false,"i_long":106.84912},{"time":4,"i_lat":-6.226659,"transit":false,"station_name":"Tebet","line":2,"distance":2610,"is_transit":false,"station_id":"TEB","i_long":106.857948},{"line":2,"time":2,"distance":1230,"i_lat":-6.242512,"is_transit":false,"transit":false,"station_id":"CW","i_long":106.856607,"station_name":"Cawang"},{"i_long":106.85449,"i_lat":-6.255332,"transit":false,"time":3,"is_transit":false,"station_name":"Duren Kalibata","distance":1546,"station_id":"DRN","line":2},{"line":2,"station_id":"PSMB","time":2,"transit":false,"station_name":"Pasar Minggu Baru","i_lat":-6.263214,"i_long":106.851577,"is_transit":false,"distance":824},{"line":2,"i_lat":-6.2842400000000005,"is_transit":false,"transit":false,"distance":2380,"time":2,"station_name":"Pasar Minggu","station_id":"PSM","i_long":106.843999},{"station_id":"TNT","distance":2820,"i_long":106.838896,"line":2,"transit":false,"is_transit":false,"station_name":"Tanjung Barat","i_lat":-6.3080680000000005,"time":4},{"transit":false,"i_lat":-6.330363,"station_id":"LNA","time":3,"i_long":106.832616,"is_transit":false,"station_name":"Lenteng Agung","distance":2671,"line":2},{"i_long":106.834175,"line":2,"i_lat":-6.339291,"time":2,"transit":false,"station_id":"UP","distance":1029,"station_name":"Univ. Pancasila","is_transit":false},{"transit":false,"i_long":106.831474,"line":2,"station_name":"Univ. Indonesia","station_id":"UI","i_lat":-6.360749,"is_transit":false,"time":3,"distance":2264},{"line":2,"time":2,"transit":false,"station_id":"POC","i_lat":-6.369073,"is_transit":false,"station_name":"Pondok Cina","distance":1109,"i_long":106.831114},{"distance":2727,"time":4,"station_name":"Depokbaru","i_lat":-6.391065,"station_id":"DPB","is_transit":false,"line":2,"transit":false,"i_long":106.819451},{"station_id":"DP","distance":1584,"i_long":106.816926,"line":2,"is_transit":false,"transit":false,"i_lat":-6.405256,"time":3,"station_name":"Depok"},{"transit":true,"i_lat":-6.448811,"is_transit":true,"i_long":106.800298,"station_id":"CTA","station_name":"Citayam","distance":5084,"line":2,"time":6},{"station_name":"Pondok Rajeg","distance":0,"line":21,"transit":false,"time":0,"i_long":106.824374,"is_transit":false,"station_id":"PDRG","i_lat":-6.460735}],[{"time":0,"distance":0,"station_name":"Bojongindah","line":5,"i_lat":-6.159876,"station_id":"BOI","is_transit":false,"transit":false,"i_long":106.737035},{"transit":false,"station_name":"Taman Kota","time":2,"distance":2334,"is_transit":false,"line":5,"station_id":"TKO","i_lat":-6.1587309999999995,"i_long":106.756522},{"is_transit":false,"station_id":"PSG","i_long":106.771379,"distance":1614,"time":2,"i_lat":-6.161433,"station_name":"Pesing","transit":false,"line":5},{"is_transit":false,"time":2,"station_id":"GRG","distance":2036,"i_lat":-6.162021,"station_name":"Grogol","transit":false,"i_long":106.788277,"line":5},{"is_transit":true,"i_long":106.800832,"distance":1700,"station_name":"Duri","i_lat":-6.155215,"time":3,"transit":true,"station_id":"DU","line":1},{"i_lat":-6.144674,"distance":1230,"line":1,"time":4,"i_long":106.79867,"station_id":"AK","transit":false,"is_transit":false,"station_name":"Angke"},{"distance":4102,"station_name":"Kampung Bandan","i_long":106.826365,"line":4,"station_id":"KPB","i_lat":-6.132549,"is_transit":true,"time":9,"transit":true},{"distance":1444,"i_long":106.836569,"station_id":"RJW","line":11,"time":3,"is_transit":false,"transit":false,"station_name":"Rajawali","i_lat":-6.14505},{"distance":1901,"i_lat":-6.161728,"station_name":"Kemayoran","line":11,"i_long":106.839204,"time":5,"station_id":"KMO","is_transit":false,"transit":false},{"time":4,"i_long":106.84368,"transit":false,"line":11,"is_transit":false,"station_name":"Pasar Senen","distance":1436,"station_id":"PSE","i_lat":-6.174784},{"station_name":"Gang Sentiong","time":8,"station_id":"GST","transit":false,"line":11,"distance":1567,"is_transit":false,"i_lat":-6.185975,"i_long":106.850107},{"line":11,"i_lat":-6.193792,"transit":false,"time":1,"i_long":106.855437,"is_transit":false,"station_name":"Kramat","station_id":"KMT","distance":973},{"i_lat":-6.209188,"transit":false,"is_transit":false,"distance":1829,"station_name":"Pondok Jati","time":2,"station_id":"POK","line":11,"i_long":106.861737},{"is_transit":true,"transit":true,"time":9,"line":1,"i_long":106.86807400000001,"station_id":"JNG","station_name":"Jatinegara","distance":1236,"i_lat":-6.215091},{"distance":1377,"transit":false,"station_name":"Matraman","station_id":"MTR","i_lat":-6.212485,"i_long":106.858896,"line":1,"time":2,"is_transit":false},{"station_name":"Manggarai","time":2,"line":2,"distance":1275,"i_long":106.84912,"is_transit":true,"station_id":"MRI","i_lat":-6.209883,"transit":true},{"distance":2610,"time":4,"i_lat":-6.226659,"is_transit":false,"transit":false,"station_id":"TEB","station_name":"Tebet","i_long":106.857948,"line":2},{"station_id":"CW","station_name":"Cawang","line":2,"is_transit":false,"distance":1230,"transit":false,"time":2,"i_lat":-6.242512,"i_long":106.856607},{"transit":false,"distance":1546,"time":3,"station_name":"Duren Kalibata","is_transit":false,"station_id":"DRN","i_lat":-6.255332,"i_long":106.85449,"line":2},{"distance":824,"i_lat":-6.263214,"is_transit":false,"i_long":106.851577,"transit":false,"line":2,"station_id":"PSMB","time":2,"station_name":"Pasar Minggu Baru"},{"transit":false,"time":2,"distance":2380,"station_id":"PSM","i_long":106.843999,"i_lat":-6.2842400000000005,"station_name":"Pasar Minggu","line":2,"is_transit":false},{"station_id":"TNT","time":4,"station_name":"Tanjung Barat","is_transit":false,"distance":2820,"i_long":106.838896,"line":2,"transit":false,"i_lat":-6.3080680000000005},{"i_long":106.832616,"transit":false,"is_transit":false,"station_name":"Lenteng Agung","station_id":"LNA","time":3,"line":2,"distance":2671,"i_lat":-6.330363},{"i_long":106.834175,"is_transit":false,"time":2,"station_name":"Univ. Pancasila","station_id":"UP","distance":1029,"line":2,"transit":false,"i_lat":-6.339291},{"transit":false,"time":3,"station_name":"Univ. Indonesia","station_id":"UI","is_transit":false,"i_lat":-6.360749,"distance":2264,"i_long":106.831474,"line":2},{"i_long":106.831114,"is_transit":false,"distance":1109,"station_id":"POC","transit":false,"time":2,"line":2,"station_name":"Pondok Cina","i_lat":-6.369073},{"i_long":106.819451,"is_transit":false,"transit":false,"i_lat":-6.391065,"line":2,"station_name":"Depokbaru","time":4,"distance":2727,"station_id":"DPB"},{"station_name":"Depok","line":2,"station_id":"DP","i_lat":-6.405256,"time":3,"transit":false,"i_long":106.816926,"is_transit":false,"distance":1584},{"transit":true,"is_transit":true,"distance":5084,"i_long":106.800298,"time":6,"station_name":"Citayam","i_lat":-6.448811,"line":2,"station_id":"CTA"},{"is_transit":false,"i_lat":-6.460735,"time":0,"station_name":"Pondok Rajeg","station_id":"PDRG","i_long":106.824374,"transit":false,"distance":0,"line":21}]]}