{"data":[[{"station_name":"Bojongindah","is_transit":false,"line":5,"i_lat":-6.159876,"time":0,"station_id":"BOI","distance":0,"i_long":106.737035,"transit":false},{"is_transit":false,"time":2,"i_lat":-6.1587309999999995,"transit":false,"i_long":106.756522,"station_name":"Taman Kota","line":5,"station_id":"TKO","distance":2334},{"time":2,"is_transit":false,"station_name":"Pesing","i_long":106.771379,"line":5,"i_lat":-6.161433,"transit":false,"distance":1614,"station_id":"PSG"},{"i_long":106.788277,"station_name":"Grogol","time":2,"i_lat":-6.162021,"line":5,"is_transit":false,"distance":2036,"station_id":"GGL","transit":false},{"transit":true,"station_id":"DU","is_transit":true,"station_name":"Duri","i_long":106.800832,"i_lat":-6.155215,"line":1,"distance":1700,"time":3},{"transit":false,"line":1,"time":8,"i_lat":-6.185545,"i_long":106.811091,"distance":3632,"station_id":"THB","is_transit":false,"station_name":"Tanah Abang"},{"i_long":106.816351,"transit":false,"i_lat":-6.20132,"station_id":"KAT","distance":2029,"is_transit":false,"station_name":"Karet","line":1,"time":5},{"station_id":"SUDB","i_lat":-6.201433,"time":1,"distance":471,"transit":false,"i_long":106.819881,"is_transit":false,"line":1,"station_name":"Sudirman Baru"},{"i_long":106.822649,"i_lat":-6.202263,"station_id":"SUD","line":1,"is_transit":false,"transit":false,"station_name":"Sudirman","time":1,"distance":280},{"time":4,"station_id":"MRI","i_long":106.84912,"transit":false,"distance":3186,"station_name":"Manggarai","line":2,"i_lat":-6.209883,"is_transit":false},{"transit":false,"is_transit":false,"i_lat":-6.212485,"time":2,"line":1,"distance":1275,"station_id":"MTR","station_name":"Matraman","i_long":106.858896},{"i_lat":-6.215091,"distance":1377,"station_name":"Jatinegara","transit":false,"is_transit":false,"time":8,"i_long":106.86807400000001,"line":1,"station_id":"JNG"},{"distance":3395,"i_long":106.899548,"transit":false,"i_lat":-6.2135,"station_id":"KLD","is_transit":false,"time":3,"station_name":"Klender","line":1},{"is_transit":false,"station_id":"BUA","i_long":106.922662,"transit":false,"distance":3100,"time":2,"station_name":"Buaran","i_lat":-6.215568,"line":1},{"i_long":106.939679,"station_name":"Klenderbaru","transit":false,"distance":1305,"time":1,"line":1,"i_lat":-6.217455,"station_id":"KLDB","is_transit":false},{"station_name":"Cakung","line":1,"distance":1385,"time":8,"station_id":"CUK","is_transit":false,"i_lat":-6.219053,"transit":false,"i_long":106.951283},{"is_transit":false,"transit":false,"i_lat":-6.224515,"i_long":106.977657,"distance":3097,"station_name":"Kranji","station_id":"KRI","line":1,"time":3},{"time":4,"station_id":"BKS","line":1,"is_transit":false,"station_name":"Bekasi","transit":false,"distance":2520,"i_lat":-6.236616,"i_long":106.997013},{"time":2,"is_transit":false,"station_id":"BKST","station_name":"Bekasi Timur","line":1,"distance":2368,"transit":false,"i_long":107.016735,"i_lat":-6.248029},{"time":7,"i_long":107.055722,"transit":false,"is_transit":false,"station_name":"Tambun","line":1,"station_id":"TB","distance":4460,"i_lat":-6.258864}],[{"station_id":"BOI","distance":0,"transit":false,"is_transit":false,"station_name":"Bojongindah","line":5,"time":0,"i_long":106.737035,"i_lat":-6.159876},{"station_name":"Taman Kota","line":5,"i_long":106.756522,"distance":2334,"time":2,"i_lat":-6.1587309999999995,"transit":false,"station_id":"TKO","is_transit":false},{"i_lat":-6.161433,"time":2,"is_transit":false,"distance":1614,"station_name":"Pesing","line":5,"station_id":"PSG","transit":false,"i_long":106.771379},{"distance":2036,"transit":false,"is_transit":false,"i_lat":-6.162021,"i_long":106.788277,"time":2,"line":5,"station_id":"GGL","station_name":"Grogol"},{"station_name":"Duri","transit":true,"is_transit":true,"i_long":106.800832,"i_lat":-6.155215,"time":3,"line":1,"station_id":"DU","distance":1700},{"distance":1230,"time":4,"station_name":"Angke","i_long":106.79867,"transit":false,"is_transit":false,"line":1,"station_id":"AK","i_lat":-6.144674},{"station_name":"Kampung Bandan","distance":4102,"station_id":"KPB","transit":true,"is_transit":true,"i_long":106.826365,"i_lat":-6.132549,"time":9,"line":4},{"i_lat":-6.14505,"i_long":106.836569,"line":11,"distance":1444,"station_id":"RJW","transit":false,"time":3,"is_transit":false,"station_name":"Rajawali"},{"transit":false,"station_id":"KMO","time":5,"station_name":"Kemayoran","is_transit":false,"distance":1901,"i_lat":-6.161728,"i_long":106.839204,"line":11},{"is_transit":false,"distance":1436,"i_long":106.84368,"line":11,"station_name":"Pasar Senen","transit":false,"time":4,"i_lat":-6.174784,"station_id":"PSE"},{"is_transit":false,"i_lat":-6.185975,"time":8,"station_id":"GST","i_long":106.850107,"distance":1567,"line":11,"station_name":"Gang Sentiong","transit":false},{"time":1,"is_transit":false,"line":11,"station_id":"KMT","transit":false,"station_name":"Kramat","i_long":106.855437,"i_lat":-6.193792,"distance":973},{"i_long":106.861737,"time":2,"station_id":"POK","line":11,"distance":1829,"transit":false,"station_name":"Pondok Jati","i_lat":-6.209188,"is_transit":false},{"distance":1236,"i_lat":-6.215091,"time":9,"i_long":106.86807400000001,"station_name":"Jatinegara","line":1,"station_id":"JNG","is_transit":true,"transit":true},{"i_long":106.899548,"distance":3395,"station_name":"Klender","time":3,"i_lat":-6.2135,"line":1,"transit":false,"station_id":"KLD","is_transit":false},{"is_transit":false,"station_name":"Buaran","transit":false,"line":1,"time":2,"distance":3100,"station_id":"BUA","i_lat":-6.215568,"i_long":106.922662},{"i_long":106.939679,"line":1,"distance":1305,"is_transit":false,"transit":false,"time":1,"station_id":"KLDB","station_name":"Klenderbaru","i_lat":-6.217455},{"is_transit":false,"time":8,"line":1,"distance":1385,"station_name":"Cakung","i_lat":-6.219053,"station_id":"CUK","transit":false,"i_long":106.951283},{"distance":3097,"station_name":"Kranji","i_long":106.977657,"line":1,"is_transit":false,"i_lat":-6.224515,"time":3,"transit":false,"station_id":"KRI"},{"line":1,"i_lat":-6.236616,"transit":false,"is_transit":false,"station_name":"Bekasi","time":4,"station_id":"BKS","i_long":106.997013,"distance":2520},{"transit":false,"is_transit":false,"distance":2368,"time":2,"i_lat":-6.248029,"i_long":107.016735,"station_name":"Bekasi Timur","line":1,"station_id":"BKST"},{"station_id":"TB","time":7,"line":1,"is_transit":false,"transit":false,"distance":4460,"i_lat":-6.258864,"i_long":107.055722,"station_name":"Tambun"}],[{"i_lat":-6.159876,"station_id":"BOI","transit":false,"time":0,"i_long":106.737035,"distance":0,"is_transit":false,"station_name":"Bojongindah","line":5},{"time":2,"distance":2334,"station_name":"Taman Kota","transit":false,"i_long":106.756522,"station_id":"TKO","is_transit":false,"line":5,"i_lat":-6.1587309999999995},{"distance":1614,"is_transit":false,"time":2,"i_long":106.771379,"station_name":"Pesing","line":5,"i_lat":-6.161433,"transit":false,"station_id":"PSG"},{"transit":false,"is_transit":false,"station_id":"GGL","i_lat":-6.162021,"line":5,"distance":2036,"station_name":"Grogol","time":2,"i_long":106.788277},{"line":1,"transit":true,"i_lat":-6.155215,"time":3,"distance":1700,"station_name":"Duri","i_long":106.800832,"is_transit":true,"station_id":"DU"},{"transit":false,"station_name":"Angke","distance":1230,"i_lat":-6.144674,"time":4,"station_id":"AK","line":1,"i_long":106.79867,"is_transit":false},{"station_id":"KPB","distance":4102,"i_long":106.826365,"station_name":"Kampung Bandan","is_transit":true,"time":9,"transit":true,"line":4,"i_lat":-6.132549},{"i_long":106.812439,"time":3,"i_lat":-6.137569,"is_transit":true,"line":2,"transit":true,"station_name":"Jakarta Kota","distance":1364,"station_id":"JAKK"},{"station_name":"Jayakarta","line":2,"i_lat":-6.141205,"station_id":"JAY","is_transit":false,"transit":false,"distance":1264,"i_long":106.820901,"time":4},{"station_id":"MGB","i_lat":-6.149769,"i_long":106.82482,"transit":false,"is_transit":false,"line":2,"distance":1080,"time":2,"station_name":"Manggabesar"},{"transit":false,"is_transit":false,"station_id":"SW","i_lat":-6.160725,"distance":906,"time":2,"i_long":106.827103,"line":2,"station_name":"Sawah Besar"},{"time":2,"transit":false,"is_transit":false,"line":2,"station_name":"Juanda","station_id":"JUA","i_lat":-6.166716,"distance":1149,"i_long":106.828284},{"distance":2015,"time":4,"i_long":106.832183,"transit":false,"station_id":"GDD","is_transit":false,"station_name":"Gondangdia","line":2,"i_lat":-6.186295},{"station_id":"CKI","time":3,"i_lat":-6.198556,"distance":1750,"i_long":106.840169,"line":2,"is_transit":false,"transit":false,"station_name":"Cikini"},{"time":4,"i_lat":-6.209883,"line":2,"transit":true,"i_long":106.84912,"station_id":"MRI","station_name":"Manggarai","is_transit":true,"distance":1590},{"station_id":"MTR","station_name":"Matraman","is_transit":false,"i_lat":-6.212485,"transit":false,"line":1,"time":2,"i_long":106.858896,"distance":1275},{"transit":false,"is_transit":false,"station_name":"Jatinegara","line":1,"distance":1377,"time":8,"i_lat":-6.215091,"i_long":106.86807400000001,"station_id":"JNG"},{"transit":false,"i_long":106.899548,"line":1,"station_id":"KLD","station_name":"Klender","is_transit":false,"distance":3395,"i_lat":-6.2135,"time":3},{"is_transit":false,"i_long":106.922662,"time":2,"line":1,"transit":false,"station_id":"BUA","station_name":"Buaran","i_lat":-6.215568,"distance":3100},{"transit":false,"line":1,"time":1,"is_transit":false,"station_id":"KLDB","i_lat":-6.217455,"distance":1305,"station_name":"Klenderbaru","i_long":106.939679},{"distance":1385,"i_lat":-6.219053,"station_name":"Cakung","time":8,"transit":false,"is_transit":false,"station_id":"CUK","i_long":106.951283,"line":1},{"i_long":106.977657,"i_lat":-6.224515,"is_transit":false,"line":1,"distance":3097,"transit":false,"time":3,"station_name":"Kranji","station_id":"KRI"},{"time":4,"station_name":"Bekasi","is_transit":false,"distance":2520,"i_lat":-6.236616,"station_id":"BKS","transit":false,"i_long":106.997013,"line":1},{"station_id":"BKST","i_long":107.016735,"i_lat":-6.248029,"distance":2368,"time":2,"is_transit":false,"line":1,"station_name":"Bekasi Timur","transit":false},{"i_long":107.055722,"station_id":"TB","time":7,"transit":false,"distance":4460,"is_transit":false,"line":1,"station_name":"Tambun","i_lat":-6.258864}],[{"i_lat":-6.159876,"distance":0,"station_name":"Bojongindah","time":0,"is_transit":false,"i_long":106.737035,"line":5,"transit":false,"station_id":"BOI"},{"transit":false,"time":2,"station_name":"Taman Kota","i_lat":-6.1587309999999995,"i_long":106.756522,"is_transit":false,"line":5,"distance":2334,"station_id":"TKO"},{"time":2,"is_transit":false,"i_long":106.771379,"station_id":"PSG","station_name":"Pesing","transit":false,"distance":1614,"i_lat":-6.161433,"line":5},{"time":2,"station_name":"Grogol","distance":2036,"transit":false,"i_lat":-6.162021,"line":5,"station_id":"GGL","i_long":106.788277,"is_transit":false},{"distance":1700,"station_id":"DU","is_transit":true,"i_long":106.800832,"line":1,"transit":true,"station_name":"Duri","i_lat":-6.155215,"time":3},{"transit":false,"is_transit":false,"time":8,"line":1,"i_long":106.811091,"i_lat":-6.185545,"distance":3632,"station_name":"Tanah Abang","station_id":"THB"},{"line":1,"time":5,"is_transit":false,"transit":false,"station_id":"KAT","distance":2029,"station_name":"Karet","i_lat":-6.20132,"i_long":106.816351},{"i_long":106.819881,"station_id":"SUDB","line":1,"time":1,"transit":false,"distance":471,"is_transit":false,"i_lat":-6.201433,"station_name":"Sudirman Baru"},{"distance":280,"time":1,"station_id":"SUD","line":1,"i_long":106.822649,"transit":false,"is_transit":false,"station_name":"Sudirman","i_lat":-6.202263},{"distance":3186,"line":2,"station_name":"Manggarai","transit":true,"i_long":106.84912,"is_transit":true,"time":4,"i_lat":-6.209883,"station_id":"MRI"},{"is_transit":false,"transit":false,"time":4,"line":2,"i_long":106.840169,"station_name":"Cikini","i_lat":-6.198556,"station_id":"CKI","distance":1590},{"line":2,"i_lat":-6.186295,"time":3,"transit":false,"is_transit":false,"station_name":"Gondangdia","distance":1750,"station_id":"GDD","i_long":106.832183},{"transit":false,"i_lat":-6.166716,"i_long":106.828284,"is_transit":false,"station_name":"Juanda","line":2,"time":4,"station_id":"JUA","distance":2015},{"time":2,"transit":false,"is_transit":false,"station_name":"Sawah Besar","i_long":106.827103,"distance":1149,"i_lat":-6.160725,"station_id":"SW","line":2},{"line":2,"station_name":"Manggabesar","i_lat":-6.149769,"distance":906,"time":2,"station_id":"MGB","is_transit":false,"i_long":106.82482,"transit":false},{"line":2,"is_transit":false,"i_long":106.820901,"time":2,"i_lat":-6.141205,"transit":false,"station_name":"Jayakarta","station_id":"JAY","distance":1080},{"line":2,"distance":1264,"time":4,"is_transit":true,"station_id":"JAKK","transit":true,"station_name":"Jakarta Kota","i_long":106.812439,"i_lat":-6.137569},{"station_id":"KPB","is_transit":true,"i_lat":-6.132549,"i_long":106.826365,"station_name":"Kampung Bandan","line":4,"time":3,"transit":true,"distance":1364},{"station_id":"RJW","transit":false,"time":3,"is_transit":false,"i_long":106.836569,"line":11,"station_name":"Rajawali","distance":1444,"i_lat":-6.14505},{"line":11,"distance":1901,"time":5,"is_transit":false,"transit":false,"i_long":106.839204,"station_name":"Kemayoran","i_lat":-6.161728,"station_id":"KMO"},{"station_id":"PSE","i_long":106.84368,"time":4,"i_lat":-6.174784,"station_name":"Pasar Senen","is_transit":false,"transit":false,"distance":1436,"line":11},{"time":8,"is_transit":false,"i_long":106.850107,"i_lat":-6.185975,"station_id":"GST","distance":1567,"transit":false,"station_name":"Gang Sentiong","line":11},{"station_name":"Kramat","i_lat":-6.193792,"line":11,"distance":973,"station_id":"KMT","transit":false,"i_long":106.855437,"time":1,"is_transit":false},{"station_id":"POK","is_transit":false,"time":2,"distance":1829,"i_lat":-6.209188,"transit":false,"line":11,"i_long":106.861737,"station_name":"Pondok Jati"},{"time":9,"distance":1236,"station_id":"JNG","is_transit":true,"line":1,"i_long":106.86807400000001,"i_lat":-6.215091,"transit":true,"station_name":"Jatinegara"},{"is_transit":false,"station_name":"Klender","line":1,"transit":false,"i_lat":-6.2135,"time":3,"distance":3395,"i_long":106.899548,"station_id":"KLD"},{"distance":3100,"transit":false,"time":2,"i_lat":-6.215568,"i_long":106.922662,"line":1,"station_id":"BUA","is_transit":false,"station_name":"Buaran"},{"time":1,"is_transit":false,"line":1,"i_lat":-6.217455,"distance":1305,"station_name":"Klenderbaru","i_long":106.939679,"station_id":"KLDB","transit":false},{"station_id":"CUK","station_name":"Cakung","is_transit":false,"i_lat":-6.219053,"transit":false,"distance":1385,"i_long":106.951283,"line":1,"time":8},{"distance":3097,"station_id":"KRI","i_long":106.977657,"transit":false,"time":3,"line":1,"is_transit":false,"station_name":"Kranji","i_lat":-6.224515},{"station_id":"BKS","time":4,"station_name":"Bekasi","i_long":106.997013,"line":1,"distance":2520,"is_transit":false,"i_lat":-6.236616,"transit":false},{"transit":false,"time":2,"i_lat":-6.248029,"i_long":107.016735,"line":1,"station_name":"Bekasi Timur","station_id":"BKST","distance":2368,"is_transit":false},{"station_id":"TB","i_long":107.055722,"i_lat":-6.258864,"time":7,"line":1,"station_name":"Tambun","transit":false,"is_transit":false,"distance":4460}]]}