{"data":[[{"time":0,"distance":0,"line":5,"station_id":"BOI","i_lat":-6.159876,"is_transit":false,"transit":false,"i_long":106.737035,"station_name":"Bojongindah"},{"i_lat":-6.1587309999999995,"distance":2334,"station_id":"TKO","time":2,"is_transit":false,"transit":false,"i_long":106.756522,"line":5,"station_name":"Taman Kota"},{"station_name":"Pesing","distance":1614,"i_lat":-6.161433,"station_id":"PSG","time":2,"line":5,"is_transit":false,"transit":false,"i_long":106.771379},{"station_id":"GGL","station_name":"Grogol","transit":false,"distance":2036,"is_transit":false,"i_lat":-6.162021,"line":5,"time":2,"i_long":106.788277},{"is_transit":true,"distance":1700,"time":3,"i_lat":-6.155215,"i_long":106.800832,"station_id":"DU","station_name":"Duri","line":1,"transit":true},{"i_long":106.811091,"station_name":"Tanah Abang","i_lat":-6.185545,"station_id":"THB","time":8,"line":1,"distance":3632,"is_transit":false,"transit":false},{"station_id":"KAT","i_long":106.816351,"distance":2029,"is_transit":false,"transit":false,"time":5,"i_lat":-6.20132,"line":1,"station_name":"Karet"},{"station_id":"SUDB","i_long":106.819881,"i_lat":-6.201433,"line":1,"is_transit":false,"time":1,"distance":471,"station_name":"Sudirman Baru","transit":false},{"is_transit":false,"station_id":"SUD","transit":false,"i_lat":-6.202263,"i_long":106.822649,"line":1,"station_name":"Sudirman","time":1,"distance":280},{"station_name":"Manggarai","station_id":"MRI","i_long":106.84912,"time":4,"distance":3186,"i_lat":-6.209883,"transit":false,"is_transit":false,"line":2},{"time":2,"i_long":106.858896,"transit":false,"line":1,"station_id":"MTR","distance":1275,"is_transit":false,"station_name":"Matraman","i_lat":-6.212485},{"station_id":"JNG","is_transit":false,"transit":false,"time":8,"line":1,"distance":1377,"i_long":106.86807400000001,"station_name":"Jatinegara","i_lat":-6.215091},{"is_transit":false,"i_lat":-6.2135,"i_long":106.899548,"time":3,"transit":false,"station_id":"KLD","station_name":"Klender","distance":3395,"line":1}],[{"distance":0,"station_name":"Bojongindah","station_id":"BOI","time":0,"transit":false,"i_long":106.737035,"is_transit":false,"i_lat":-6.159876,"line":5},{"is_transit":false,"distance":2334,"i_lat":-6.1587309999999995,"station_id":"TKO","time":2,"line":5,"station_name":"Taman Kota","i_long":106.756522,"transit":false},{"distance":1614,"line":5,"is_transit":false,"station_name":"Pesing","time":2,"station_id":"PSG","transit":false,"i_lat":-6.161433,"i_long":106.771379},{"line":5,"i_lat":-6.162021,"transit":false,"time":2,"is_transit":false,"station_name":"Grogol","station_id":"GGL","i_long":106.788277,"distance":2036},{"transit":true,"i_lat":-6.155215,"i_long":106.800832,"station_name":"Duri","distance":1700,"station_id":"DU","is_transit":true,"time":3,"line":1},{"is_transit":false,"time":4,"station_id":"AK","i_long":106.79867,"station_name":"Angke","line":1,"distance":1230,"transit":false,"i_lat":-6.144674},{"station_id":"KPB","i_lat":-6.132549,"station_name":"Kampung Bandan","transit":true,"i_long":106.826365,"line":4,"is_transit":true,"distance":4102,"time":9},{"is_transit":false,"station_id":"RJW","station_name":"Rajawali","i_lat":-6.14505,"distance":1444,"i_long":106.836569,"time":3,"transit":false,"line":11},{"transit":false,"station_name":"Kemayoran","line":11,"distance":1901,"is_transit":false,"station_id":"KMO","time":5,"i_long":106.839204,"i_lat":-6.161728},{"station_name":"Pasar Senen","time":4,"line":11,"is_transit":false,"transit":false,"i_long":106.84368,"station_id":"PSE","i_lat":-6.174784,"distance":1436},{"i_lat":-6.185975,"i_long":106.850107,"line":11,"station_id":"GST","transit":false,"is_transit":false,"distance":1567,"time":8,"station_name":"Gang Sentiong"},{"is_transit":false,"station_id":"KMT","i_lat":-6.193792,"station_name":"Kramat","i_long":106.855437,"distance":973,"transit":false,"time":1,"line":11},{"line":11,"is_transit":false,"time":2,"transit":false,"distance":1829,"i_lat":-6.209188,"i_long":106.861737,"station_id":"POK","station_name":"Pondok Jati"},{"station_name":"Jatinegara","time":9,"line":1,"transit":true,"station_id":"JNG","is_transit":true,"i_lat":-6.215091,"i_long":106.86807400000001,"distance":1236},{"station_id":"KLD","is_transit":false,"transit":false,"station_name":"Klender","line":1,"distance":3395,"i_lat":-6.2135,"time":3,"i_long":106.899548}],[{"i_lat":-6.159876,"i_long":106.737035,"is_transit":false,"distance":0,"transit":false,"station_id":"BOI","station_name":"Bojongindah","line":5,"time":0},{"is_transit":false,"distance":2334,"station_id":"TKO","station_name":"Taman Kota","i_lat":-6.1587309999999995,"time":2,"line":5,"transit":false,"i_long":106.756522},{"distance":1614,"transit":false,"is_transit":false,"station_name":"Pesing","station_id":"PSG","line":5,"time":2,"i_long":106.771379,"i_lat":-6.161433},{"time":2,"station_id":"GGL","i_lat":-6.162021,"transit":false,"distance":2036,"line":5,"station_name":"Grogol","is_transit":false,"i_long":106.788277},{"i_lat":-6.155215,"station_name":"Duri","distance":1700,"station_id":"DU","is_transit":true,"transit":true,"time":3,"line":1,"i_long":106.800832},{"i_long":106.79867,"station_name":"Angke","is_transit":false,"line":1,"transit":false,"time":4,"i_lat":-6.144674,"station_id":"AK","distance":1230},{"line":4,"station_name":"Kampung Bandan","time":9,"distance":4102,"is_transit":true,"i_lat":-6.132549,"station_id":"KPB","transit":true,"i_long":106.826365},{"i_long":106.812439,"station_id":"JAKK","line":2,"time":3,"distance":1364,"transit":true,"is_transit":true,"station_name":"Jakarta Kota","i_lat":-6.137569},{"station_name":"Jayakarta","time":4,"transit":false,"station_id":"JAY","line":2,"is_transit":false,"distance":1264,"i_lat":-6.141205,"i_long":106.820901},{"distance":1080,"transit":false,"is_transit":false,"time":2,"station_id":"MGB","station_name":"Manggabesar","line":2,"i_lat":-6.149769,"i_long":106.82482},{"i_long":106.827103,"line":2,"is_transit":false,"station_id":"SW","distance":906,"time":2,"transit":false,"station_name":"Sawah Besar","i_lat":-6.160725},{"station_id":"JUA","distance":1149,"line":2,"transit":false,"station_name":"Juanda","i_long":106.828284,"time":2,"is_transit":false,"i_lat":-6.166716},{"time":4,"i_lat":-6.186295,"station_name":"Gondangdia","is_transit":false,"i_long":106.832183,"station_id":"GDD","distance":2015,"transit":false,"line":2},{"distance":1750,"is_transit":false,"station_id":"CKI","station_name":"Cikini","i_long":106.840169,"line":2,"time":3,"i_lat":-6.198556,"transit":false},{"station_id":"MRI","transit":true,"station_name":"Manggarai","time":4,"is_transit":true,"distance":1590,"i_lat":-6.209883,"i_long":106.84912,"line":2},{"line":1,"is_transit":false,"time":2,"station_id":"MTR","i_long":106.858896,"station_name":"Matraman","transit":false,"i_lat":-6.212485,"distance":1275},{"i_lat":-6.215091,"station_id":"JNG","transit":false,"is_transit":false,"time":8,"line":1,"station_name":"Jatinegara","distance":1377,"i_long":106.86807400000001},{"i_long":106.899548,"i_lat":-6.2135,"station_id":"KLD","distance":3395,"transit":false,"is_transit":false,"line":1,"station_name":"Klender","time":3}],[{"station_name":"Bojongindah","i_long":106.737035,"time":0,"line":5,"station_id":"BOI","distance":0,"transit":false,"is_transit":false,"i_lat":-6.159876},{"i_lat":-6.1587309999999995,"station_name":"Taman Kota","time":2,"transit":false,"is_transit":false,"i_long":106.756522,"line":5,"station_id":"TKO","distance":2334},{"station_name":"Pesing","transit":false,"distance":1614,"i_long":106.771379,"time":2,"is_transit":false,"station_id":"PSG","line":5,"i_lat":-6.161433},{"time":2,"transit":false,"i_lat":-6.162021,"i_long":106.788277,"line":5,"station_name":"Grogol","is_transit":false,"distance":2036,"station_id":"GGL"},{"distance":1700,"is_transit":true,"i_long":106.800832,"station_name":"Duri","i_lat":-6.155215,"station_id":"DU","transit":true,"time":3,"line":1},{"i_lat":-6.185545,"station_id":"THB","is_transit":false,"time":8,"i_long":106.811091,"station_name":"Tanah Abang","transit":false,"distance":3632,"line":1},{"transit":false,"i_long":106.816351,"station_id":"KAT","distance":2029,"time":5,"is_transit":false,"station_name":"Karet","i_lat":-6.20132,"line":1},{"distance":471,"i_lat":-6.201433,"transit":false,"time":1,"station_name":"Sudirman Baru","i_long":106.819881,"is_transit":false,"line":1,"station_id":"SUDB"},{"i_lat":-6.202263,"time":1,"transit":false,"station_name":"Sudirman","distance":280,"is_transit":false,"station_id":"SUD","i_long":106.822649,"line":1},{"line":2,"time":4,"is_transit":true,"station_id":"MRI","station_name":"Manggarai","i_lat":-6.209883,"distance":3186,"transit":true,"i_long":106.84912},{"time":4,"transit":false,"station_id":"CKI","i_long":106.840169,"line":2,"is_transit":false,"distance":1590,"station_name":"Cikini","i_lat":-6.198556},{"i_long":106.832183,"station_name":"Gondangdia","distance":1750,"is_transit":false,"time":3,"station_id":"GDD","transit":false,"line":2,"i_lat":-6.186295},{"time":4,"line":2,"i_lat":-6.166716,"station_id":"JUA","transit":false,"station_name":"Juanda","distance":2015,"is_transit":false,"i_long":106.828284},{"station_name":"Sawah Besar","i_lat":-6.160725,"station_id":"SW","time":2,"i_long":106.827103,"distance":1149,"line":2,"is_transit":false,"transit":false},{"line":2,"is_transit":false,"station_name":"Manggabesar","time":2,"transit":false,"station_id":"MGB","i_lat":-6.149769,"distance":906,"i_long":106.82482},{"i_lat":-6.141205,"line":2,"is_transit":false,"station_name":"Jayakarta","distance":1080,"i_long":106.820901,"time":2,"station_id":"JAY","transit":false},{"distance":1264,"line":2,"is_transit":true,"i_lat":-6.137569,"station_id":"JAKK","station_name":"Jakarta Kota","time":4,"transit":true,"i_long":106.812439},{"station_name":"Kampung Bandan","distance":1364,"line":4,"station_id":"KPB","i_long":106.826365,"transit":true,"is_transit":true,"time":3,"i_lat":-6.132549},{"i_long":106.836569,"line":11,"station_id":"RJW","transit":false,"station_name":"Rajawali","is_transit":false,"time":3,"distance":1444,"i_lat":-6.14505},{"station_name":"Kemayoran","transit":false,"distance":1901,"station_id":"KMO","i_lat":-6.161728,"i_long":106.839204,"line":11,"time":5,"is_transit":false},{"transit":false,"distance":1436,"station_name":"Pasar Senen","line":11,"time":4,"station_id":"PSE","is_transit":false,"i_lat":-6.174784,"i_long":106.84368},{"is_transit":false,"station_id":"GST","transit":false,"i_long":106.850107,"i_lat":-6.185975,"line":11,"time":8,"station_name":"Gang Sentiong","distance":1567},{"time":1,"i_long":106.855437,"is_transit":false,"distance":973,"station_id":"KMT","i_lat":-6.193792,"station_name":"Kramat","line":11,"transit":false},{"is_transit":false,"station_id":"POK","time":2,"i_long":106.861737,"station_name":"Pondok Jati","transit":false,"distance":1829,"line":11,"i_lat":-6.209188},{"i_lat":-6.215091,"distance":1236,"i_long":106.86807400000001,"is_transit":true,"time":9,"station_id":"JNG","line":1,"station_name":"Jatinegara","transit":true},{"i_long":106.899548,"station_id":"KLD","station_name":"Klender","distance":3395,"line":1,"time":3,"i_lat":-6.2135,"is_transit":false,"transit":false}]]}