{"data":[[{"i_long":106.737035,"is_transit":false,"station_name":"Bojongindah","line":5,"distance":0,"station_id":"BOI","time":0,"transit":false,"i_lat":-6.159876},{"station_name":"Taman Kota","is_transit":false,"transit":false,"i_long":106.756522,"line":5,"i_lat":-6.1587309999999995,"time":2,"distance":2334,"station_id":"TKO"},{"time":2,"station_name":"Pesing","distance":1614,"is_transit":false,"i_lat":-6.161433,"i_long":106.771379,"line":5,"transit":false,"station_id":"PSG"},{"line":5,"i_long":106.788277,"transit":false,"time":2,"distance":2036,"station_id":"GRG","station_name":"Grogol","is_transit":false,"i_lat":-6.162021},{"time":3,"i_lat":-6.155215,"transit":true,"station_name":"Duri","is_transit":true,"station_id":"DU","distance":1700,"i_long":106.800832,"line":1},{"time":8,"line":1,"transit":false,"is_transit":false,"i_long":106.811091,"distance":3632,"station_id":"THB","station_name":"Tanah Abang","i_lat":-6.185545},{"time":5,"is_transit":false,"i_long":106.816351,"line":1,"transit":false,"station_id":"KAT","station_name":"Karet","i_lat":-6.20132,"distance":2029},{"time":1,"i_long":106.819881,"distance":471,"station_name":"Sudirman Baru","is_transit":false,"transit":false,"i_lat":-6.201433,"station_id":"SUDB","line":1},{"is_transit":false,"station_id":"SUD","time":1,"transit":false,"station_name":"Sudirman","i_long":106.822649,"distance":280,"i_lat":-6.202263,"line":1},{"transit":true,"time":4,"i_lat":-6.209883,"distance":3186,"station_name":"Manggarai","i_long":106.84912,"is_transit":true,"line":2,"station_id":"MRI"},{"distance":2610,"i_lat":-6.226659,"station_id":"TEB","transit":false,"i_long":106.857948,"line":2,"station_name":"Tebet","is_transit":false,"time":4}],[{"distance":0,"transit":false,"station_id":"BOI","station_name":"Bojongindah","i_long":106.737035,"line":5,"time":0,"is_transit":false,"i_lat":-6.159876},{"i_long":106.756522,"line":5,"is_transit":false,"transit":false,"distance":2334,"time":2,"station_id":"TKO","station_name":"Taman Kota","i_lat":-6.1587309999999995},{"station_id":"PSG","i_lat":-6.161433,"i_long":106.771379,"distance":1614,"station_name":"Pesing","transit":false,"time":2,"line":5,"is_transit":false},{"transit":false,"i_long":106.788277,"station_name":"Grogol","i_lat":-6.162021,"station_id":"GRG","line":5,"time":2,"distance":2036,"is_transit":false},{"is_transit":true,"i_lat":-6.155215,"line":1,"station_id":"DU","distance":1700,"i_long":106.800832,"station_name":"Duri","time":3,"transit":true},{"station_id":"AK","is_transit":false,"station_name":"Angke","i_lat":-6.144674,"transit":false,"line":1,"time":4,"distance":1230,"i_long":106.79867},{"i_long":106.826365,"station_name":"Kampung Bandan","station_id":"KPB","line":4,"transit":true,"time":9,"distance":4102,"is_transit":true,"i_lat":-6.132549},{"distance":1364,"i_long":106.812439,"station_id":"JAKK","time":3,"is_transit":true,"line":2,"transit":true,"i_lat":-6.137569,"station_name":"Jakarta Kota"},{"station_name":"Jayakarta","time":4,"i_long":106.820901,"line":2,"station_id":"JAY","distance":1264,"is_transit":false,"transit":false,"i_lat":-6.141205},{"time":2,"is_transit":false,"distance":1080,"transit":false,"station_name":"Manggabesar","i_lat":-6.149769,"i_long":106.82482,"line":2,"station_id":"MGB"},{"transit":false,"i_long":106.827103,"distance":906,"station_name":"Sawah Besar","station_id":"SW","line":2,"i_lat":-6.160725,"time":2,"is_transit":false},{"station_id":"JUA","station_name":"Juanda","i_long":106.828284,"is_transit":false,"time":2,"distance":1149,"transit":false,"line":2,"i_lat":-6.166716},{"distance":2015,"is_transit":false,"station_id":"GDD","station_name":"Gondangdia","i_lat":-6.186295,"transit":false,"i_long":106.832183,"time":4,"line":2},{"distance":1750,"station_id":"CKI","i_lat":-6.198556,"time":3,"line":2,"transit":false,"i_long":106.840169,"is_transit":false,"station_name":"Cikini"},{"station_id":"MRI","station_name":"Manggarai","transit":false,"is_transit":false,"line":2,"i_lat":-6.209883,"i_long":106.84912,"time":4,"distance":1590},{"i_lat":-6.226659,"station_id":"TEB","is_transit":false,"station_name":"Tebet","time":4,"line":2,"i_long":106.857948,"distance":2610,"transit":false}],[{"i_long":106.737035,"i_lat":-6.159876,"station_name":"Bojongindah","time":0,"line":5,"distance":0,"station_id":"BOI","transit":false,"is_transit":false},{"station_id":"TKO","is_transit":false,"i_lat":-6.1587309999999995,"i_long":106.756522,"time":2,"transit":false,"line":5,"distance":2334,"station_name":"Taman Kota"},{"distance":1614,"transit":false,"time":2,"station_name":"Pesing","station_id":"PSG","line":5,"is_transit":false,"i_long":106.771379,"i_lat":-6.161433},{"i_lat":-6.162021,"line":5,"time":2,"is_transit":false,"i_long":106.788277,"station_name":"Grogol","distance":2036,"station_id":"GRG","transit":false},{"i_long":106.800832,"i_lat":-6.155215,"line":1,"time":3,"is_transit":true,"transit":true,"station_id":"DU","distance":1700,"station_name":"Duri"},{"station_id":"AK","station_name":"Angke","time":4,"transit":false,"i_lat":-6.144674,"i_long":106.79867,"is_transit":false,"line":1,"distance":1230},{"transit":true,"time":9,"distance":4102,"station_name":"Kampung Bandan","i_lat":-6.132549,"i_long":106.826365,"station_id":"KPB","line":4,"is_transit":true},{"time":3,"is_transit":false,"distance":1444,"i_lat":-6.14505,"station_name":"Rajawali","transit":false,"station_id":"RJW","i_long":106.836569,"line":11},{"is_transit":false,"transit":false,"i_long":106.839204,"line":11,"time":5,"i_lat":-6.161728,"station_name":"Kemayoran","station_id":"KMO","distance":1901},{"time":4,"station_name":"Pasar Senen","is_transit":false,"transit":false,"i_long":106.84368,"distance":1436,"i_lat":-6.174784,"line":11,"station_id":"PSE"},{"i_long":106.850107,"station_name":"Gang Sentiong","distance":1567,"i_lat":-6.185975,"station_id":"GST","transit":false,"time":8,"is_transit":false,"line":11},{"station_name":"Kramat","line":11,"distance":973,"station_id":"KMT","i_long":106.855437,"i_lat":-6.193792,"is_transit":false,"transit":false,"time":1},{"line":11,"distance":1829,"station_id":"POK","station_name":"Pondok Jati","is_transit":false,"time":2,"i_lat":-6.209188,"transit":false,"i_long":106.861737},{"line":1,"time":9,"station_name":"Jatinegara","transit":true,"station_id":"JNG","i_long":106.86807400000001,"i_lat":-6.215091,"distance":1236,"is_transit":true},{"i_lat":-6.212485,"station_name":"Matraman","distance":1377,"station_id":"MTR","is_transit":false,"transit":false,"line":1,"i_long":106.858896,"time":2},{"transit":true,"station_id":"MRI","i_lat":-6.209883,"line":2,"is_transit":true,"time":2,"station_name":"Manggarai","i_long":106.84912,"distance":1275},{"time":4,"i_lat":-6.226659,"i_long":106.857948,"is_transit":false,"station_id":"TEB","station_name":"Tebet","transit":false,"line":2,"distance":2610}]]}