{"data":[[{"line":5,"is_transit":false,"station_id":"BOI","transit":false,"distance":0,"i_lat":-6.159876,"station_name":"Bojongindah","time":0,"i_long":106.737035},{"line":5,"i_lat":-6.1587309999999995,"is_transit":false,"time":2,"distance":2334,"i_long":106.756522,"transit":false,"station_name":"Taman Kota","station_id":"TKO"},{"transit":false,"distance":1614,"time":2,"i_lat":-6.161433,"station_id":"PSG","station_name":"Pesing","is_transit":false,"line":5,"i_long":106.771379},{"is_transit":false,"distance":2036,"i_long":106.788277,"transit":false,"line":5,"time":2,"station_name":"Grogol","station_id":"GGL","i_lat":-6.162021},{"line":1,"i_long":106.800832,"station_name":"Duri","i_lat":-6.155215,"distance":1700,"station_id":"DU","time":3,"is_transit":true,"transit":true},{"station_name":"Tanah Abang","time":8,"station_id":"THB","i_long":106.811091,"line":1,"transit":false,"is_transit":false,"i_lat":-6.185545,"distance":3632},{"is_transit":false,"time":5,"i_lat":-6.20132,"transit":false,"station_id":"KAT","line":1,"station_name":"Karet","distance":2029,"i_long":106.816351},{"i_lat":-6.201433,"station_name":"Sudirman Baru","transit":false,"time":1,"station_id":"SUDB","distance":471,"i_long":106.819881,"line":1,"is_transit":false},{"line":1,"time":1,"i_lat":-6.202263,"is_transit":false,"station_id":"SUD","transit":false,"distance":280,"station_name":"Sudirman","i_long":106.822649},{"station_id":"MRI","is_transit":true,"i_lat":-6.209883,"transit":true,"i_long":106.84912,"line":2,"time":4,"station_name":"Manggarai","distance":3186},{"time":4,"i_lat":-6.226659,"distance":2610,"i_long":106.857948,"station_id":"TEB","is_transit":false,"station_name":"Tebet","line":2,"transit":false}],[{"station_id":"BOI","distance":0,"i_lat":-6.159876,"i_long":106.737035,"is_transit":false,"line":5,"station_name":"Bojongindah","transit":false,"time":0},{"distance":2334,"i_long":106.756522,"time":2,"line":5,"station_name":"Taman Kota","is_transit":false,"i_lat":-6.1587309999999995,"transit":false,"station_id":"TKO"},{"distance":1614,"transit":false,"i_lat":-6.161433,"station_id":"PSG","line":5,"is_transit":false,"station_name":"Pesing","i_long":106.771379,"time":2},{"station_id":"GGL","time":2,"line":5,"is_transit":false,"i_lat":-6.162021,"transit":false,"distance":2036,"i_long":106.788277,"station_name":"Grogol"},{"station_name":"Duri","time":3,"distance":1700,"line":1,"station_id":"DU","is_transit":true,"transit":true,"i_long":106.800832,"i_lat":-6.155215},{"distance":1230,"i_long":106.79867,"station_name":"Angke","transit":false,"station_id":"AK","time":4,"line":1,"is_transit":false,"i_lat":-6.144674},{"distance":4102,"line":4,"i_lat":-6.132549,"time":9,"transit":true,"i_long":106.826365,"station_name":"Kampung Bandan","is_transit":true,"station_id":"KPB"},{"distance":1364,"i_lat":-6.137569,"i_long":106.812439,"station_name":"Jakarta Kota","station_id":"JAKK","is_transit":true,"time":3,"transit":true,"line":2},{"station_id":"JAY","line":2,"time":4,"is_transit":false,"distance":1264,"transit":false,"i_lat":-6.141205,"station_name":"Jayakarta","i_long":106.820901},{"station_id":"MGB","line":2,"i_lat":-6.149769,"i_long":106.82482,"transit":false,"time":2,"distance":1080,"is_transit":false,"station_name":"Manggabesar"},{"time":2,"distance":906,"line":2,"station_id":"SW","transit":false,"i_lat":-6.160725,"is_transit":false,"station_name":"Sawah Besar","i_long":106.827103},{"i_lat":-6.166716,"i_long":106.828284,"station_name":"Juanda","is_transit":false,"time":2,"line":2,"station_id":"JUA","distance":1149,"transit":false},{"transit":false,"i_long":106.832183,"i_lat":-6.186295,"station_id":"GDD","station_name":"Gondangdia","distance":2015,"is_transit":false,"time":4,"line":2},{"i_long":106.840169,"is_transit":false,"time":3,"line":2,"distance":1750,"station_name":"Cikini","transit":false,"i_lat":-6.198556,"station_id":"CKI"},{"is_transit":false,"station_name":"Manggarai","line":2,"transit":false,"i_long":106.84912,"station_id":"MRI","time":4,"distance":1590,"i_lat":-6.209883},{"is_transit":false,"i_lat":-6.226659,"station_id":"TEB","distance":2610,"station_name":"Tebet","time":4,"transit":false,"i_long":106.857948,"line":2}],[{"station_id":"BOI","station_name":"Bojongindah","is_transit":false,"i_lat":-6.159876,"time":0,"line":5,"transit":false,"distance":0,"i_long":106.737035},{"i_long":106.756522,"station_name":"Taman Kota","distance":2334,"line":5,"time":2,"i_lat":-6.1587309999999995,"transit":false,"station_id":"TKO","is_transit":false},{"time":2,"i_lat":-6.161433,"station_id":"PSG","distance":1614,"i_long":106.771379,"line":5,"transit":false,"is_transit":false,"station_name":"Pesing"},{"is_transit":false,"station_name":"Grogol","time":2,"station_id":"GGL","transit":false,"distance":2036,"i_long":106.788277,"i_lat":-6.162021,"line":5},{"station_name":"Duri","station_id":"DU","transit":true,"is_transit":true,"i_long":106.800832,"i_lat":-6.155215,"distance":1700,"line":1,"time":3},{"line":1,"is_transit":false,"station_name":"Angke","time":4,"i_lat":-6.144674,"station_id":"AK","distance":1230,"i_long":106.79867,"transit":false},{"i_long":106.826365,"station_name":"Kampung Bandan","line":4,"is_transit":true,"station_id":"KPB","time":9,"distance":4102,"i_lat":-6.132549,"transit":true},{"time":3,"transit":false,"station_id":"RJW","i_long":106.836569,"line":11,"station_name":"Rajawali","is_transit":false,"distance":1444,"i_lat":-6.14505},{"i_lat":-6.161728,"time":5,"station_id":"KMO","is_transit":false,"distance":1901,"line":11,"station_name":"Kemayoran","transit":false,"i_long":106.839204},{"station_name":"Pasar Senen","line":11,"station_id":"PSE","time":4,"i_long":106.84368,"i_lat":-6.174784,"is_transit":false,"distance":1436,"transit":false},{"is_transit":false,"time":8,"transit":false,"distance":1567,"station_id":"GST","station_name":"Gang Sentiong","line":11,"i_lat":-6.185975,"i_long":106.850107},{"transit":false,"distance":973,"is_transit":false,"station_id":"KMT","i_long":106.855437,"station_name":"Kramat","i_lat":-6.193792,"time":1,"line":11},{"i_lat":-6.209188,"distance":1829,"is_transit":false,"line":11,"time":2,"station_name":"Pondok Jati","i_long":106.861737,"station_id":"POK","transit":false},{"station_id":"JNG","is_transit":true,"distance":1236,"line":1,"i_lat":-6.215091,"transit":true,"time":9,"station_name":"Jatinegara","i_long":106.86807400000001},{"station_id":"MTR","station_name":"Matraman","transit":false,"i_lat":-6.212485,"i_long":106.858896,"line":1,"distance":1377,"time":2,"is_transit":false},{"time":2,"transit":true,"is_transit":true,"station_name":"Manggarai","distance":1275,"station_id":"MRI","i_lat":-6.209883,"i_long":106.84912,"line":2},{"station_id":"TEB","time":4,"i_lat":-6.226659,"i_long":106.857948,"transit":false,"is_transit":false,"distance":2610,"line":2,"station_name":"Tebet"}]]}