{"data":[[{"line":0,"i_long":106.737035,"transit":false,"station_id":"BOI","distance":0,"i_lat":-6.159876,"time":0,"station_name":"Bojongindah","is_transit":false},{"station_name":"Taman Kota","i_long":106.756522,"station_id":"TKO","line":5,"transit":false,"is_transit":false,"time":2,"distance":2334,"i_lat":-6.1587309999999995},{"station_id":"PSG","time":2,"is_transit":false,"line":5,"i_long":106.771379,"station_name":"Pesing","transit":false,"i_lat":-6.161433,"distance":1614},{"is_transit":false,"i_long":106.788277,"time":2,"station_name":"Grogol","station_id":"GGL","i_lat":-6.162021,"distance":2036,"transit":false,"line":5},{"i_long":106.800832,"line":1,"distance":1700,"station_id":"DU","transit":true,"is_transit":true,"station_name":"Duri","i_lat":-6.155215,"time":3},{"i_long":106.811091,"station_id":"THB","station_name":"Tanah Abang","is_transit":true,"transit":false,"i_lat":-6.185545,"line":1,"time":8,"distance":3632},{"distance":2029,"time":5,"transit":false,"line":1,"i_long":106.816351,"i_lat":-6.20132,"is_transit":false,"station_name":"Karet","station_id":"KAT"},{"is_transit":false,"station_name":"Sudirman Baru","i_lat":-6.201433,"station_id":"SUDB","line":1,"i_long":106.819881,"distance":471,"time":1,"transit":false},{"transit":false,"station_id":"SUD","i_lat":-6.202263,"is_transit":false,"time":1,"station_name":"Sudirman","distance":280,"i_long":106.822649,"line":1},{"transit":false,"station_id":"MRI","i_lat":-6.209883,"time":4,"i_long":106.84912,"distance":3186,"station_name":"Manggarai","line":0,"is_transit":true},{"transit":false,"station_id":"MTR","time":2,"distance":1275,"i_lat":-6.212485,"i_long":106.858896,"station_name":"Matraman","is_transit":false,"line":1},{"station_name":"Jatinegara","distance":1377,"is_transit":true,"i_long":106.86807400000001,"time":8,"transit":false,"i_lat":-6.215091,"line":0,"station_id":"JNG"},{"i_long":106.899548,"line":1,"station_id":"KLD","transit":false,"time":3,"is_transit":false,"distance":3395,"i_lat":-6.2135,"station_name":"Klender"},{"station_id":"BUA","i_long":106.922662,"time":2,"is_transit":false,"distance":3100,"line":0,"transit":false,"i_lat":-6.215568,"station_name":"Buaran"},{"is_transit":false,"station_id":"KLDB","i_lat":-6.217455,"time":1,"station_name":"Klenderbaru","i_long":106.939679,"line":1,"distance":1305,"transit":false},{"station_name":"Cakung","i_lat":-6.219053,"distance":1385,"line":0,"station_id":"CUK","time":8,"i_long":106.951283,"is_transit":false,"transit":false}],[{"i_lat":-6.159876,"transit":false,"line":0,"is_transit":false,"time":0,"station_name":"Bojongindah","i_long":106.737035,"distance":0,"station_id":"BOI"},{"i_long":106.756522,"is_transit":false,"time":2,"i_lat":-6.1587309999999995,"transit":false,"line":5,"station_name":"Taman Kota","distance":2334,"station_id":"TKO"},{"i_long":106.771379,"transit":false,"station_id":"PSG","time":2,"line":5,"i_lat":-6.161433,"distance":1614,"is_transit":false,"station_name":"Pesing"},{"is_transit":false,"time":2,"station_id":"GGL","station_name":"Grogol","distance":2036,"transit":false,"i_lat":-6.162021,"line":5,"i_long":106.788277},{"distance":1700,"transit":true,"station_name":"Duri","time":3,"i_long":106.800832,"station_id":"DU","i_lat":-6.155215,"line":1,"is_transit":true},{"i_long":106.79867,"i_lat":-6.144674,"transit":false,"distance":1230,"time":4,"station_id":"AK","is_transit":false,"station_name":"Angke","line":0},{"is_transit":true,"transit":true,"i_long":106.826365,"station_name":"Kampung Bandan","i_lat":-6.132549,"line":0,"station_id":"KPB","distance":4102,"time":9},{"station_name":"Rajawali","is_transit":false,"station_id":"RJW","time":3,"distance":1444,"i_lat":-6.14505,"transit":false,"i_long":106.836569,"line":11},{"station_id":"KMO","time":5,"distance":1901,"is_transit":false,"transit":false,"i_lat":-6.161728,"station_name":"Kemayoran","line":11,"i_long":106.839204},{"station_name":"Pasar Senen","line":11,"transit":false,"i_lat":-6.174784,"station_id":"PSE","distance":1436,"time":4,"is_transit":false,"i_long":106.84368},{"station_name":"Gang Sentiong","i_lat":-6.185975,"is_transit":false,"i_long":106.850107,"distance":1567,"time":8,"transit":false,"station_id":"GST","line":11},{"station_id":"KMT","time":1,"station_name":"Kramat","i_lat":-6.193792,"distance":973,"transit":false,"is_transit":false,"i_long":106.855437,"line":11},{"station_name":"Pondok Jati","i_lat":-6.209188,"i_long":106.861737,"station_id":"POK","transit":false,"distance":1829,"is_transit":false,"time":2,"line":11},{"i_lat":-6.215091,"transit":true,"station_name":"Jatinegara","i_long":106.86807400000001,"is_transit":true,"time":9,"station_id":"JNG","distance":1236,"line":0},{"station_id":"KLD","time":3,"distance":3395,"i_lat":-6.2135,"station_name":"Klender","i_long":106.899548,"line":1,"is_transit":false,"transit":false},{"station_id":"BUA","is_transit":false,"distance":3100,"i_long":106.922662,"transit":false,"time":2,"line":0,"i_lat":-6.215568,"station_name":"Buaran"},{"is_transit":false,"line":1,"station_id":"KLDB","station_name":"Klenderbaru","distance":1305,"transit":false,"i_lat":-6.217455,"i_long":106.939679,"time":1},{"station_id":"CUK","transit":false,"i_lat":-6.219053,"line":0,"time":8,"station_name":"Cakung","is_transit":false,"distance":1385,"i_long":106.951283}],[{"line":0,"distance":0,"station_id":"BOI","is_transit":false,"i_long":106.737035,"transit":false,"station_name":"Bojongindah","time":0,"i_lat":-6.159876},{"i_long":106.756522,"i_lat":-6.1587309999999995,"transit":false,"distance":2334,"time":2,"is_transit":false,"station_id":"TKO","station_name":"Taman Kota","line":5},{"i_long":106.771379,"line":5,"distance":1614,"is_transit":false,"station_name":"Pesing","i_lat":-6.161433,"time":2,"transit":false,"station_id":"PSG"},{"station_name":"Grogol","station_id":"GGL","distance":2036,"i_long":106.788277,"time":2,"transit":false,"i_lat":-6.162021,"is_transit":false,"line":5},{"i_long":106.800832,"i_lat":-6.155215,"transit":true,"distance":1700,"station_id":"DU","time":3,"is_transit":true,"line":1,"station_name":"Duri"},{"i_long":106.79867,"station_id":"AK","transit":false,"line":0,"time":4,"distance":1230,"station_name":"Angke","is_transit":false,"i_lat":-6.144674},{"time":9,"line":0,"is_transit":true,"i_long":106.826365,"station_name":"Kampung Bandan","distance":4102,"i_lat":-6.132549,"transit":false,"station_id":"KPB"},{"i_lat":-6.137569,"time":3,"line":0,"i_long":106.812439,"distance":1364,"is_transit":true,"transit":true,"station_id":"JAKK","station_name":"Jakarta Kota"},{"station_id":"JAY","time":4,"transit":false,"station_name":"Jayakarta","i_lat":-6.141205,"i_long":106.820901,"distance":1264,"line":7,"is_transit":false},{"station_name":"Manggabesar","distance":1080,"line":2,"time":2,"transit":false,"is_transit":false,"i_long":106.82482,"station_id":"MGB","i_lat":-6.149769},{"station_id":"SW","time":2,"i_lat":-6.160725,"distance":906,"transit":false,"is_transit":false,"i_long":106.827103,"station_name":"Sawah Besar","line":2},{"time":2,"i_lat":-6.166716,"station_id":"JUA","station_name":"Juanda","is_transit":false,"distance":1149,"i_long":106.828284,"line":2,"transit":false},{"line":2,"is_transit":false,"station_id":"GDD","time":4,"i_lat":-6.186295,"distance":2015,"i_long":106.832183,"station_name":"Gondangdia","transit":false},{"transit":false,"time":3,"line":0,"station_id":"CKI","station_name":"Cikini","i_long":106.840169,"i_lat":-6.198556,"is_transit":false,"distance":1750},{"i_lat":-6.209883,"line":0,"i_long":106.84912,"distance":1590,"station_name":"Manggarai","transit":true,"station_id":"MRI","time":4,"is_transit":true},{"i_long":106.858896,"time":2,"i_lat":-6.212485,"transit":false,"is_transit":false,"station_name":"Matraman","station_id":"MTR","distance":1275,"line":1},{"transit":false,"distance":1377,"line":0,"station_id":"JNG","i_lat":-6.215091,"i_long":106.86807400000001,"time":8,"station_name":"Jatinegara","is_transit":true},{"time":3,"distance":3395,"transit":false,"is_transit":false,"i_lat":-6.2135,"station_id":"KLD","station_name":"Klender","i_long":106.899548,"line":1},{"station_name":"Buaran","time":2,"transit":false,"i_lat":-6.215568,"line":0,"distance":3100,"is_transit":false,"station_id":"BUA","i_long":106.922662},{"distance":1305,"is_transit":false,"i_lat":-6.217455,"line":1,"time":1,"transit":false,"station_id":"KLDB","station_name":"Klenderbaru","i_long":106.939679},{"station_id":"CUK","is_transit":false,"distance":1385,"i_lat":-6.219053,"line":0,"station_name":"Cakung","i_long":106.951283,"time":8,"transit":false}],[{"transit":false,"station_id":"BOI","is_transit":false,"time":0,"station_name":"Bojongindah","distance":0,"i_lat":-6.159876,"i_long":106.737035,"line":0},{"line":5,"is_transit":false,"transit":false,"time":2,"i_lat":-6.1587309999999995,"station_name":"Taman Kota","station_id":"TKO","i_long":106.756522,"distance":2334},{"distance":1614,"i_lat":-6.161433,"is_transit":false,"i_long":106.771379,"line":5,"transit":false,"time":2,"station_id":"PSG","station_name":"Pesing"},{"time":2,"transit":false,"station_name":"Grogol","is_transit":false,"distance":2036,"i_lat":-6.162021,"i_long":106.788277,"station_id":"GGL","line":5},{"distance":1700,"transit":true,"i_lat":-6.155215,"i_long":106.800832,"time":3,"is_transit":true,"station_id":"DU","line":1,"station_name":"Duri"},{"time":8,"distance":3632,"i_lat":-6.185545,"transit":false,"is_transit":true,"station_id":"THB","station_name":"Tanah Abang","i_long":106.811091,"line":1},{"transit":false,"distance":2029,"line":1,"station_id":"KAT","is_transit":false,"station_name":"Karet","time":5,"i_long":106.816351,"i_lat":-6.20132},{"transit":false,"is_transit":false,"i_lat":-6.201433,"time":1,"line":1,"i_long":106.819881,"distance":471,"station_id":"SUDB","station_name":"Sudirman Baru"},{"is_transit":false,"station_name":"Sudirman","distance":280,"time":1,"i_long":106.822649,"transit":false,"station_id":"SUD","i_lat":-6.202263,"line":1},{"distance":3186,"i_lat":-6.209883,"i_long":106.84912,"time":4,"line":0,"station_name":"Manggarai","transit":true,"is_transit":true,"station_id":"MRI"},{"station_name":"Cikini","distance":1590,"is_transit":false,"transit":false,"i_long":106.840169,"time":4,"line":0,"station_id":"CKI","i_lat":-6.198556},{"i_lat":-6.186295,"i_long":106.832183,"distance":1750,"transit":false,"time":3,"station_name":"Gondangdia","line":2,"station_id":"GDD","is_transit":false},{"transit":false,"is_transit":false,"station_name":"Juanda","i_lat":-6.166716,"station_id":"JUA","line":2,"time":4,"distance":2015,"i_long":106.828284},{"station_name":"Sawah Besar","line":2,"i_long":106.827103,"distance":1149,"i_lat":-6.160725,"transit":false,"station_id":"SW","is_transit":false,"time":2},{"is_transit":false,"time":2,"station_id":"MGB","distance":906,"i_long":106.82482,"i_lat":-6.149769,"station_name":"Manggabesar","line":2,"transit":false},{"line":7,"is_transit":false,"i_lat":-6.141205,"transit":false,"distance":1080,"station_id":"JAY","time":2,"station_name":"Jayakarta","i_long":106.820901},{"i_lat":-6.137569,"line":0,"time":4,"station_id":"JAKK","transit":true,"is_transit":true,"i_long":106.812439,"distance":1264,"station_name":"Jakarta Kota"},{"transit":true,"i_long":106.826365,"station_name":"Kampung Bandan","line":0,"station_id":"KPB","is_transit":true,"distance":1364,"i_lat":-6.132549,"time":3},{"distance":1444,"station_name":"Rajawali","line":11,"station_id":"RJW","i_long":106.836569,"time":3,"is_transit":false,"i_lat":-6.14505,"transit":false},{"transit":false,"distance":1901,"i_lat":-6.161728,"i_long":106.839204,"station_id":"KMO","station_name":"Kemayoran","is_transit":false,"time":5,"line":11},{"i_lat":-6.174784,"i_long":106.84368,"transit":false,"station_name":"Pasar Senen","line":11,"is_transit":false,"distance":1436,"time":4,"station_id":"PSE"},{"station_name":"Gang Sentiong","station_id":"GST","distance":1567,"transit":false,"time":8,"is_transit":false,"line":11,"i_long":106.850107,"i_lat":-6.185975},{"line":11,"transit":false,"station_id":"KMT","is_transit":false,"time":1,"i_long":106.855437,"distance":973,"i_lat":-6.193792,"station_name":"Kramat"},{"is_transit":false,"transit":false,"distance":1829,"station_name":"Pondok Jati","i_long":106.861737,"line":11,"station_id":"POK","time":2,"i_lat":-6.209188},{"transit":true,"i_lat":-6.215091,"i_long":106.86807400000001,"station_id":"JNG","station_name":"Jatinegara","is_transit":true,"time":9,"distance":1236,"line":0},{"station_name":"Klender","transit":false,"is_transit":false,"distance":3395,"i_lat":-6.2135,"i_long":106.899548,"station_id":"KLD","time":3,"line":1},{"time":2,"i_long":106.922662,"station_id":"BUA","line":0,"i_lat":-6.215568,"distance":3100,"station_name":"Buaran","transit":false,"is_transit":false},{"station_id":"KLDB","station_name":"Klenderbaru","i_long":106.939679,"distance":1305,"i_lat":-6.217455,"line":1,"is_transit":false,"time":1,"transit":false},{"i_lat":-6.219053,"station_id":"CUK","is_transit":false,"station_name":"Cakung","time":8,"distance":1385,"transit":false,"i_long":106.951283,"line":0}]]}