{"data":[[{"station_id":"BOI","line":5,"station_name":"Bojongindah","is_transit":false,"time":0,"distance":0,"i_lat":-6.159876,"transit":false,"i_long":106.737035},{"time":2,"distance":2334,"is_transit":false,"i_lat":-6.1587309999999995,"station_name":"Taman Kota","transit":false,"i_long":106.756522,"line":5,"station_id":"TKO"},{"time":2,"transit":false,"station_id":"PSG","is_transit":false,"i_lat":-6.161433,"i_long":106.771379,"line":5,"distance":1614,"station_name":"Pesing"},{"station_name":"Grogol","is_transit":false,"i_lat":-6.162021,"i_long":106.788277,"line":5,"distance":2036,"transit":false,"time":2,"station_id":"GRG"},{"distance":1700,"time":3,"station_name":"Duri","line":1,"is_transit":true,"station_id":"DU","transit":true,"i_lat":-6.155215,"i_long":106.800832},{"station_name":"Tanah Abang","line":1,"distance":3632,"time":8,"is_transit":false,"station_id":"THB","transit":false,"i_lat":-6.185545,"i_long":106.811091},{"line":1,"time":5,"station_name":"Karet","i_lat":-6.20132,"distance":2029,"i_long":106.816351,"transit":false,"station_id":"KAT","is_transit":false},{"distance":471,"station_name":"Sudirman Baru","time":1,"i_lat":-6.201433,"transit":false,"i_long":106.819881,"station_id":"SUDB","is_transit":false,"line":1},{"distance":280,"station_id":"SUD","line":1,"is_transit":false,"station_name":"Sudirman","time":1,"i_lat":-6.202263,"i_long":106.822649,"transit":false},{"station_id":"MRI","time":4,"i_long":106.84912,"is_transit":false,"line":2,"transit":false,"distance":3186,"station_name":"Manggarai","i_lat":-6.209883},{"i_long":106.858896,"i_lat":-6.212485,"time":2,"is_transit":false,"station_id":"MTR","distance":1275,"station_name":"Matraman","line":1,"transit":false},{"time":8,"line":1,"i_lat":-6.215091,"station_id":"JNG","i_long":106.86807400000001,"station_name":"Jatinegara","transit":false,"distance":1377,"is_transit":false},{"station_name":"Klender","distance":3395,"i_lat":-6.2135,"line":1,"is_transit":false,"transit":false,"i_long":106.899548,"time":3,"station_id":"KLD"},{"distance":3100,"station_id":"BUA","line":1,"i_long":106.922662,"time":2,"station_name":"Buaran","is_transit":false,"transit":false,"i_lat":-6.215568},{"distance":1305,"time":1,"station_name":"Klenderbaru","is_transit":false,"transit":false,"i_long":106.939679,"i_lat":-6.217455,"line":1,"station_id":"KLDB"},{"distance":1385,"is_transit":false,"i_long":106.951283,"time":8,"station_name":"Cakung","i_lat":-6.219053,"transit":false,"station_id":"CUK","line":1},{"time":3,"distance":3097,"is_transit":false,"station_name":"Kranji","station_id":"KRI","i_long":106.977657,"i_lat":-6.224515,"line":1,"transit":false},{"line":1,"station_name":"Bekasi","station_id":"BKS","i_long":106.997013,"transit":false,"time":4,"is_transit":false,"i_lat":-6.236616,"distance":2520},{"transit":false,"station_id":"BKST","time":2,"distance":2368,"station_name":"Bekasi Timur","i_lat":-6.248029,"i_long":107.016735,"is_transit":false,"line":1},{"time":7,"line":1,"i_lat":-6.258864,"transit":false,"is_transit":false,"i_long":107.055722,"distance":4460,"station_id":"TB","station_name":"Tambun"},{"station_id":"CIT","is_transit":false,"transit":false,"line":1,"i_long":107.083084,"i_lat":-6.261877,"time":3,"station_name":"Cibitung","distance":3420},{"time":2,"i_long":107.093313,"station_id":"TLM","is_transit":false,"line":1,"distance":2800,"transit":false,"i_lat":-6.262938,"station_name":"Metland Telaga Murni"},{"station_name":"Cikarang","line":1,"time":4,"station_id":"CKR","distance":3689,"transit":false,"i_lat":-6.2553149999999995,"i_long":107.144613,"is_transit":false}],[{"station_id":"BOI","i_long":106.737035,"time":0,"station_name":"Bojongindah","is_transit":false,"i_lat":-6.159876,"distance":0,"line":5,"transit":false},{"station_name":"Taman Kota","i_long":106.756522,"time":2,"is_transit":false,"line":5,"transit":false,"distance":2334,"i_lat":-6.1587309999999995,"station_id":"TKO"},{"is_transit":false,"transit":false,"distance":1614,"i_lat":-6.161433,"station_id":"PSG","time":2,"i_long":106.771379,"line":5,"station_name":"Pesing"},{"distance":2036,"station_name":"Grogol","i_long":106.788277,"line":5,"station_id":"GRG","is_transit":false,"time":2,"transit":false,"i_lat":-6.162021},{"i_long":106.800832,"i_lat":-6.155215,"transit":true,"line":1,"time":3,"station_id":"DU","is_transit":true,"station_name":"Duri","distance":1700},{"is_transit":false,"line":1,"distance":1230,"i_long":106.79867,"time":4,"i_lat":-6.144674,"transit":false,"station_name":"Angke","station_id":"AK"},{"transit":true,"i_long":106.826365,"station_id":"KPB","distance":4102,"station_name":"Kampung Bandan","is_transit":true,"time":9,"i_lat":-6.132549,"line":4},{"i_long":106.836569,"station_id":"RJW","time":3,"is_transit":false,"distance":1444,"transit":false,"i_lat":-6.14505,"line":11,"station_name":"Rajawali"},{"i_lat":-6.161728,"transit":false,"is_transit":false,"station_id":"KMO","station_name":"Kemayoran","time":5,"i_long":106.839204,"line":11,"distance":1901},{"distance":1436,"station_id":"PSE","is_transit":false,"station_name":"Pasar Senen","transit":false,"line":11,"i_lat":-6.174784,"time":4,"i_long":106.84368},{"i_long":106.850107,"distance":1567,"time":8,"station_name":"Gang Sentiong","i_lat":-6.185975,"line":11,"transit":false,"is_transit":false,"station_id":"GST"},{"transit":false,"station_name":"Kramat","i_long":106.855437,"distance":973,"is_transit":false,"line":11,"time":1,"station_id":"KMT","i_lat":-6.193792},{"is_transit":false,"i_lat":-6.209188,"transit":false,"i_long":106.861737,"station_id":"POK","time":2,"station_name":"Pondok Jati","distance":1829,"line":11},{"transit":true,"station_id":"JNG","is_transit":true,"station_name":"Jatinegara","i_lat":-6.215091,"line":1,"i_long":106.86807400000001,"time":9,"distance":1236},{"transit":false,"station_name":"Klender","line":1,"is_transit":false,"station_id":"KLD","i_long":106.899548,"time":3,"i_lat":-6.2135,"distance":3395},{"line":1,"station_name":"Buaran","transit":false,"time":2,"station_id":"BUA","i_long":106.922662,"is_transit":false,"distance":3100,"i_lat":-6.215568},{"station_name":"Klenderbaru","transit":false,"distance":1305,"line":1,"station_id":"KLDB","i_long":106.939679,"time":1,"is_transit":false,"i_lat":-6.217455},{"distance":1385,"line":1,"is_transit":false,"station_name":"Cakung","i_long":106.951283,"time":8,"i_lat":-6.219053,"station_id":"CUK","transit":false},{"transit":false,"line":1,"station_name":"Kranji","time":3,"i_long":106.977657,"i_lat":-6.224515,"station_id":"KRI","distance":3097,"is_transit":false},{"i_long":106.997013,"distance":2520,"station_id":"BKS","line":1,"transit":false,"station_name":"Bekasi","time":4,"i_lat":-6.236616,"is_transit":false},{"time":2,"station_id":"BKST","i_lat":-6.248029,"is_transit":false,"line":1,"transit":false,"station_name":"Bekasi Timur","i_long":107.016735,"distance":2368},{"i_lat":-6.258864,"line":1,"transit":false,"is_transit":false,"time":7,"distance":4460,"station_name":"Tambun","station_id":"TB","i_long":107.055722},{"is_transit":false,"i_lat":-6.261877,"distance":3420,"station_name":"Cibitung","line":1,"time":3,"transit":false,"station_id":"CIT","i_long":107.083084},{"is_transit":false,"time":2,"i_lat":-6.262938,"station_id":"TLM","line":1,"station_name":"Metland Telaga Murni","i_long":107.093313,"transit":false,"distance":2800},{"i_lat":-6.2553149999999995,"line":1,"distance":3689,"transit":false,"time":4,"is_transit":false,"i_long":107.144613,"station_id":"CKR","station_name":"Cikarang"}],[{"is_transit":false,"i_lat":-6.159876,"station_name":"Bojongindah","i_long":106.737035,"line":5,"transit":false,"station_id":"BOI","distance":0,"time":0},{"station_id":"TKO","station_name":"Taman Kota","is_transit":false,"distance":2334,"i_long":106.756522,"time":2,"line":5,"transit":false,"i_lat":-6.1587309999999995},{"time":2,"station_id":"PSG","i_lat":-6.161433,"is_transit":false,"distance":1614,"line":5,"i_long":106.771379,"station_name":"Pesing","transit":false},{"i_lat":-6.162021,"line":5,"is_transit":false,"i_long":106.788277,"station_name":"Grogol","station_id":"GRG","distance":2036,"time":2,"transit":false},{"i_long":106.800832,"station_id":"DU","transit":true,"is_transit":true,"distance":1700,"time":3,"station_name":"Duri","i_lat":-6.155215,"line":1},{"line":1,"i_lat":-6.144674,"transit":false,"station_name":"Angke","is_transit":false,"distance":1230,"time":4,"i_long":106.79867,"station_id":"AK"},{"time":9,"i_long":106.826365,"distance":4102,"line":4,"is_transit":true,"station_id":"KPB","transit":true,"station_name":"Kampung Bandan","i_lat":-6.132549},{"station_name":"Jakarta Kota","transit":true,"station_id":"JAKK","time":3,"i_lat":-6.137569,"line":2,"is_transit":true,"i_long":106.812439,"distance":1364},{"distance":1264,"station_name":"Jayakarta","line":2,"time":4,"transit":false,"i_lat":-6.141205,"station_id":"JAY","i_long":106.820901,"is_transit":false},{"time":2,"line":2,"distance":1080,"station_name":"Manggabesar","transit":false,"station_id":"MGB","is_transit":false,"i_lat":-6.149769,"i_long":106.82482},{"i_long":106.827103,"transit":false,"distance":906,"time":2,"station_name":"Sawah Besar","station_id":"SW","i_lat":-6.160725,"line":2,"is_transit":false},{"transit":false,"distance":1149,"station_name":"Juanda","is_transit":false,"i_long":106.828284,"line":2,"station_id":"JUA","time":2,"i_lat":-6.166716},{"time":4,"station_id":"GDD","distance":2015,"i_long":106.832183,"transit":false,"is_transit":false,"i_lat":-6.186295,"station_name":"Gondangdia","line":2},{"station_name":"Cikini","i_lat":-6.198556,"distance":1750,"transit":false,"i_long":106.840169,"station_id":"CKI","line":2,"is_transit":false,"time":3},{"i_long":106.84912,"station_id":"MRI","is_transit":true,"i_lat":-6.209883,"station_name":"Manggarai","line":2,"distance":1590,"time":4,"transit":true},{"station_id":"MTR","is_transit":false,"time":2,"i_lat":-6.212485,"line":1,"station_name":"Matraman","transit":false,"distance":1275,"i_long":106.858896},{"line":1,"transit":false,"station_name":"Jatinegara","i_lat":-6.215091,"time":8,"is_transit":false,"station_id":"JNG","distance":1377,"i_long":106.86807400000001},{"station_name":"Klender","is_transit":false,"transit":false,"station_id":"KLD","time":3,"line":1,"distance":3395,"i_lat":-6.2135,"i_long":106.899548},{"distance":3100,"i_lat":-6.215568,"transit":false,"station_name":"Buaran","i_long":106.922662,"is_transit":false,"station_id":"BUA","time":2,"line":1},{"time":1,"i_long":106.939679,"distance":1305,"station_name":"Klenderbaru","is_transit":false,"i_lat":-6.217455,"station_id":"KLDB","line":1,"transit":false},{"is_transit":false,"line":1,"transit":false,"station_name":"Cakung","distance":1385,"time":8,"i_lat":-6.219053,"station_id":"CUK","i_long":106.951283},{"time":3,"distance":3097,"i_lat":-6.224515,"line":1,"station_id":"KRI","station_name":"Kranji","is_transit":false,"i_long":106.977657,"transit":false},{"time":4,"i_long":106.997013,"transit":false,"station_name":"Bekasi","i_lat":-6.236616,"distance":2520,"line":1,"station_id":"BKS","is_transit":false},{"distance":2368,"line":1,"i_long":107.016735,"station_id":"BKST","station_name":"Bekasi Timur","transit":false,"i_lat":-6.248029,"time":2,"is_transit":false},{"distance":4460,"is_transit":false,"i_lat":-6.258864,"line":1,"transit":false,"station_id":"TB","time":7,"station_name":"Tambun","i_long":107.055722},{"distance":3420,"i_lat":-6.261877,"station_id":"CIT","time":3,"line":1,"transit":false,"is_transit":false,"station_name":"Cibitung","i_long":107.083084},{"station_id":"TLM","time":2,"transit":false,"is_transit":false,"i_lat":-6.262938,"line":1,"station_name":"Metland Telaga Murni","i_long":107.093313,"distance":2800},{"distance":3689,"transit":false,"station_id":"CKR","time":4,"line":1,"i_lat":-6.2553149999999995,"station_name":"Cikarang","is_transit":false,"i_long":107.144613}],[{"is_transit":false,"station_id":"BOI","transit":false,"station_name":"Bojongindah","i_lat":-6.159876,"distance":0,"time":0,"line":5,"i_long":106.737035},{"is_transit":false,"i_lat":-6.1587309999999995,"i_long":106.756522,"station_name":"Taman Kota","line":5,"station_id":"TKO","distance":2334,"time":2,"transit":false},{"is_transit":false,"time":2,"station_id":"PSG","i_lat":-6.161433,"i_long":106.771379,"station_name":"Pesing","distance":1614,"transit":false,"line":5},{"station_id":"GRG","time":2,"station_name":"Grogol","distance":2036,"i_long":106.788277,"is_transit":false,"line":5,"transit":false,"i_lat":-6.162021},{"is_transit":true,"station_id":"DU","station_name":"Duri","i_lat":-6.155215,"line":1,"time":3,"distance":1700,"i_long":106.800832,"transit":true},{"distance":3632,"is_transit":false,"station_name":"Tanah Abang","i_lat":-6.185545,"time":8,"line":1,"transit":false,"station_id":"THB","i_long":106.811091},{"distance":2029,"time":5,"transit":false,"station_id":"KAT","station_name":"Karet","i_long":106.816351,"line":1,"i_lat":-6.20132,"is_transit":false},{"transit":false,"is_transit":false,"i_lat":-6.201433,"i_long":106.819881,"station_id":"SUDB","distance":471,"station_name":"Sudirman Baru","time":1,"line":1},{"time":1,"line":1,"station_name":"Sudirman","distance":280,"i_long":106.822649,"is_transit":false,"i_lat":-6.202263,"transit":false,"station_id":"SUD"},{"transit":true,"is_transit":true,"time":4,"distance":3186,"station_name":"Manggarai","i_lat":-6.209883,"i_long":106.84912,"line":2,"station_id":"MRI"},{"i_long":106.840169,"transit":false,"time":4,"is_transit":false,"i_lat":-6.198556,"station_id":"CKI","distance":1590,"line":2,"station_name":"Cikini"},{"time":3,"station_name":"Gondangdia","transit":false,"is_transit":false,"station_id":"GDD","distance":1750,"i_lat":-6.186295,"i_long":106.832183,"line":2},{"time":4,"station_id":"JUA","i_long":106.828284,"is_transit":false,"transit":false,"distance":2015,"station_name":"Juanda","i_lat":-6.166716,"line":2},{"line":2,"i_lat":-6.160725,"station_id":"SW","transit":false,"distance":1149,"station_name":"Sawah Besar","i_long":106.827103,"is_transit":false,"time":2},{"station_id":"MGB","station_name":"Manggabesar","line":2,"i_long":106.82482,"time":2,"transit":false,"distance":906,"i_lat":-6.149769,"is_transit":false},{"is_transit":false,"line":2,"time":2,"transit":false,"station_id":"JAY","distance":1080,"station_name":"Jayakarta","i_long":106.820901,"i_lat":-6.141205},{"station_name":"Jakarta Kota","line":2,"time":4,"is_transit":true,"distance":1264,"i_lat":-6.137569,"transit":true,"i_long":106.812439,"station_id":"JAKK"},{"i_lat":-6.132549,"is_transit":true,"station_id":"KPB","time":3,"station_name":"Kampung Bandan","line":4,"transit":true,"distance":1364,"i_long":106.826365},{"is_transit":false,"line":11,"time":3,"i_long":106.836569,"distance":1444,"transit":false,"station_id":"RJW","station_name":"Rajawali","i_lat":-6.14505},{"is_transit":false,"time":5,"i_long":106.839204,"distance":1901,"station_name":"Kemayoran","station_id":"KMO","i_lat":-6.161728,"line":11,"transit":false},{"station_id":"PSE","time":4,"is_transit":false,"i_long":106.84368,"line":11,"transit":false,"station_name":"Pasar Senen","distance":1436,"i_lat":-6.174784},{"time":8,"i_long":106.850107,"station_id":"GST","transit":false,"is_transit":false,"distance":1567,"line":11,"i_lat":-6.185975,"station_name":"Gang Sentiong"},{"i_long":106.855437,"line":11,"is_transit":false,"time":1,"station_name":"Kramat","station_id":"KMT","distance":973,"transit":false,"i_lat":-6.193792},{"transit":false,"station_name":"Pondok Jati","distance":1829,"time":2,"line":11,"is_transit":false,"station_id":"POK","i_lat":-6.209188,"i_long":106.861737},{"distance":1236,"transit":true,"i_lat":-6.215091,"time":9,"station_name":"Jatinegara","i_long":106.86807400000001,"line":1,"station_id":"JNG","is_transit":true},{"time":3,"station_name":"Klender","i_long":106.899548,"is_transit":false,"line":1,"transit":false,"station_id":"KLD","distance":3395,"i_lat":-6.2135},{"time":2,"distance":3100,"transit":false,"station_name":"Buaran","i_long":106.922662,"station_id":"BUA","is_transit":false,"line":1,"i_lat":-6.215568},{"station_id":"KLDB","distance":1305,"line":1,"time":1,"is_transit":false,"station_name":"Klenderbaru","i_long":106.939679,"transit":false,"i_lat":-6.217455},{"station_name":"Cakung","line":1,"is_transit":false,"time":8,"distance":1385,"transit":false,"i_lat":-6.219053,"i_long":106.951283,"station_id":"CUK"},{"time":3,"distance":3097,"line":1,"is_transit":false,"transit":false,"i_lat":-6.224515,"station_id":"KRI","station_name":"Kranji","i_long":106.977657},{"i_long":106.997013,"line":1,"distance":2520,"time":4,"station_name":"Bekasi","i_lat":-6.236616,"is_transit":false,"station_id":"BKS","transit":false},{"i_long":107.016735,"time":2,"transit":false,"is_transit":false,"distance":2368,"i_lat":-6.248029,"station_id":"BKST","station_name":"Bekasi Timur","line":1},{"is_transit":false,"line":1,"i_long":107.055722,"time":7,"transit":false,"station_id":"TB","station_name":"Tambun","i_lat":-6.258864,"distance":4460},{"line":1,"time":3,"i_lat":-6.261877,"station_id":"CIT","station_name":"Cibitung","i_long":107.083084,"transit":false,"is_transit":false,"distance":3420},{"station_id":"TLM","distance":2800,"transit":false,"time":2,"is_transit":false,"i_long":107.093313,"station_name":"Metland Telaga Murni","line":1,"i_lat":-6.262938},{"is_transit":false,"station_id":"CKR","time":4,"station_name":"Cikarang","i_lat":-6.2553149999999995,"distance":3689,"line":1,"transit":false,"i_long":107.144613}]]}