{"data":[[{"i_lat":-6.159876,"transit":false,"distance":0,"station_id":"BOI","station_name":"Bojongindah","i_long":106.737035,"line":5,"time":0,"is_transit":false},{"station_name":"Taman Kota","station_id":"TKO","is_transit":false,"transit":false,"line":5,"distance":2334,"time":2,"i_lat":-6.1587309999999995,"i_long":106.756522},{"distance":1614,"line":5,"transit":false,"is_transit":false,"i_lat":-6.161433,"i_long":106.771379,"station_id":"PSG","station_name":"Pesing","time":2},{"transit":false,"i_long":106.788277,"distance":2036,"is_transit":false,"i_lat":-6.162021,"line":5,"station_name":"Grogol","time":2,"station_id":"GRG"},{"distance":1700,"is_transit":true,"i_lat":-6.155215,"time":3,"transit":true,"line":1,"station_id":"DU","i_long":106.800832,"station_name":"Duri"},{"time":4,"i_long":106.79867,"station_name":"Angke","i_lat":-6.144674,"transit":false,"station_id":"AK","line":1,"distance":1230,"is_transit":false},{"is_transit":true,"i_lat":-6.132549,"line":4,"station_name":"Kampung Bandan","station_id":"KPB","distance":4102,"i_long":106.826365,"time":9,"transit":true},{"is_transit":false,"time":3,"transit":false,"distance":1444,"station_id":"RJW","i_lat":-6.14505,"line":11,"i_long":106.836569,"station_name":"Rajawali"},{"distance":1901,"is_transit":false,"i_long":106.839204,"time":5,"station_name":"Kemayoran","station_id":"KMO","transit":false,"i_lat":-6.161728,"line":11}],[{"is_transit":false,"distance":0,"line":5,"station_name":"Bojongindah","transit":false,"i_lat":-6.159876,"time":0,"i_long":106.737035,"station_id":"BOI"},{"i_long":106.756522,"distance":2334,"station_id":"TKO","transit":false,"is_transit":false,"time":2,"i_lat":-6.1587309999999995,"station_name":"Taman Kota","line":5},{"i_long":106.771379,"station_name":"Pesing","time":2,"station_id":"PSG","distance":1614,"i_lat":-6.161433,"transit":false,"is_transit":false,"line":5},{"time":2,"station_id":"GRG","station_name":"Grogol","i_lat":-6.162021,"distance":2036,"i_long":106.788277,"is_transit":false,"transit":false,"line":5},{"i_lat":-6.155215,"distance":1700,"station_id":"DU","is_transit":true,"line":1,"station_name":"Duri","transit":true,"i_long":106.800832,"time":3},{"transit":false,"i_lat":-6.185545,"time":8,"distance":3632,"i_long":106.811091,"line":1,"station_id":"THB","station_name":"Tanah Abang","is_transit":false},{"i_lat":-6.20132,"line":1,"station_id":"KAT","i_long":106.816351,"distance":2029,"station_name":"Karet","time":5,"is_transit":false,"transit":false},{"transit":false,"is_transit":false,"station_id":"SUDB","station_name":"Sudirman Baru","i_long":106.819881,"i_lat":-6.201433,"time":1,"distance":471,"line":1},{"distance":280,"line":1,"i_lat":-6.202263,"is_transit":false,"i_long":106.822649,"station_id":"SUD","station_name":"Sudirman","time":1,"transit":false},{"station_name":"Manggarai","i_lat":-6.209883,"line":2,"transit":false,"time":4,"station_id":"MRI","i_long":106.84912,"distance":3186,"is_transit":false},{"station_name":"Matraman","i_long":106.858896,"line":1,"time":2,"distance":1275,"transit":false,"station_id":"MTR","is_transit":false,"i_lat":-6.212485},{"is_transit":true,"line":1,"time":8,"station_id":"JNG","transit":true,"i_long":106.86807400000001,"distance":1377,"i_lat":-6.215091,"station_name":"Jatinegara"},{"transit":false,"station_id":"POK","station_name":"Pondok Jati","i_lat":-6.209188,"time":2,"is_transit":false,"line":11,"i_long":106.861737,"distance":1236},{"time":2,"station_id":"KMT","transit":false,"distance":1829,"i_lat":-6.193792,"i_long":106.855437,"line":11,"station_name":"Kramat","is_transit":false},{"station_id":"GST","distance":973,"line":11,"is_transit":false,"time":1,"station_name":"Gang Sentiong","i_lat":-6.185975,"i_long":106.850107,"transit":false},{"distance":1567,"station_id":"PSE","i_long":106.84368,"i_lat":-6.174784,"is_transit":false,"time":8,"transit":false,"station_name":"Pasar Senen","line":11},{"station_name":"Kemayoran","distance":1436,"i_lat":-6.161728,"line":11,"i_long":106.839204,"station_id":"KMO","time":4,"is_transit":false,"transit":false}],[{"distance":0,"is_transit":false,"station_id":"BOI","time":0,"transit":false,"i_lat":-6.159876,"line":5,"i_long":106.737035,"station_name":"Bojongindah"},{"transit":false,"line":5,"i_lat":-6.1587309999999995,"station_name":"Taman Kota","distance":2334,"i_long":106.756522,"time":2,"station_id":"TKO","is_transit":false},{"line":5,"station_id":"PSG","time":2,"i_long":106.771379,"is_transit":false,"distance":1614,"transit":false,"i_lat":-6.161433,"station_name":"Pesing"},{"station_name":"Grogol","i_long":106.788277,"distance":2036,"is_transit":false,"transit":false,"station_id":"GRG","i_lat":-6.162021,"line":5,"time":2},{"distance":1700,"i_lat":-6.155215,"station_name":"Duri","station_id":"DU","is_transit":true,"transit":true,"line":1,"time":3,"i_long":106.800832},{"distance":3632,"transit":false,"is_transit":false,"station_id":"THB","time":8,"i_long":106.811091,"station_name":"Tanah Abang","line":1,"i_lat":-6.185545},{"station_id":"KAT","time":5,"distance":2029,"line":1,"transit":false,"station_name":"Karet","is_transit":false,"i_lat":-6.20132,"i_long":106.816351},{"time":1,"station_id":"SUDB","is_transit":false,"transit":false,"i_long":106.819881,"station_name":"Sudirman Baru","i_lat":-6.201433,"line":1,"distance":471},{"time":1,"transit":false,"is_transit":false,"i_lat":-6.202263,"line":1,"i_long":106.822649,"station_name":"Sudirman","station_id":"SUD","distance":280},{"time":4,"station_name":"Manggarai","i_lat":-6.209883,"line":2,"distance":3186,"transit":true,"i_long":106.84912,"station_id":"MRI","is_transit":true},{"is_transit":false,"station_id":"CKI","line":2,"distance":1590,"transit":false,"station_name":"Cikini","i_lat":-6.198556,"time":4,"i_long":106.840169},{"station_name":"Gondangdia","transit":false,"distance":1750,"line":2,"time":3,"i_long":106.832183,"is_transit":false,"i_lat":-6.186295,"station_id":"GDD"},{"is_transit":false,"time":4,"line":2,"i_long":106.828284,"station_name":"Juanda","station_id":"JUA","distance":2015,"transit":false,"i_lat":-6.166716},{"station_id":"SW","line":2,"i_lat":-6.160725,"i_long":106.827103,"time":2,"transit":false,"is_transit":false,"distance":1149,"station_name":"Sawah Besar"},{"line":2,"i_long":106.82482,"time":2,"distance":906,"station_name":"Manggabesar","station_id":"MGB","is_transit":false,"transit":false,"i_lat":-6.149769},{"station_name":"Jayakarta","i_lat":-6.141205,"time":2,"distance":1080,"transit":false,"is_transit":false,"i_long":106.820901,"line":2,"station_id":"JAY"},{"i_lat":-6.137569,"i_long":106.812439,"station_id":"JAKK","transit":true,"time":4,"is_transit":true,"distance":1264,"line":2,"station_name":"Jakarta Kota"},{"station_id":"KPB","station_name":"Kampung Bandan","distance":1364,"i_long":106.826365,"transit":true,"is_transit":true,"time":3,"line":4,"i_lat":-6.132549},{"i_long":106.836569,"i_lat":-6.14505,"station_name":"Rajawali","distance":1444,"line":11,"time":3,"is_transit":false,"station_id":"RJW","transit":false},{"time":5,"distance":1901,"i_long":106.839204,"is_transit":false,"station_name":"Kemayoran","station_id":"KMO","line":11,"transit":false,"i_lat":-6.161728}],[{"is_transit":false,"line":5,"i_lat":-6.159876,"i_long":106.737035,"station_id":"BOI","distance":0,"transit":false,"station_name":"Bojongindah","time":0},{"distance":2334,"station_id":"TKO","line":5,"station_name":"Taman Kota","transit":false,"i_lat":-6.1587309999999995,"i_long":106.756522,"time":2,"is_transit":false},{"i_lat":-6.161433,"i_long":106.771379,"time":2,"line":5,"station_name":"Pesing","station_id":"PSG","is_transit":false,"distance":1614,"transit":false},{"station_name":"Grogol","station_id":"GRG","distance":2036,"time":2,"i_long":106.788277,"i_lat":-6.162021,"line":5,"is_transit":false,"transit":false},{"i_long":106.800832,"station_id":"DU","i_lat":-6.155215,"transit":true,"time":3,"line":1,"station_name":"Duri","distance":1700,"is_transit":true},{"i_lat":-6.144674,"i_long":106.79867,"station_name":"Angke","time":4,"line":1,"station_id":"AK","transit":false,"is_transit":false,"distance":1230},{"distance":4102,"i_lat":-6.132549,"time":9,"transit":true,"i_long":106.826365,"line":4,"station_id":"KPB","station_name":"Kampung Bandan","is_transit":true},{"time":3,"distance":1364,"is_transit":true,"i_lat":-6.137569,"station_name":"Jakarta Kota","station_id":"JAKK","line":2,"i_long":106.812439,"transit":true},{"time":4,"distance":1264,"transit":false,"station_id":"JAY","station_name":"Jayakarta","is_transit":false,"i_lat":-6.141205,"i_long":106.820901,"line":2},{"station_name":"Manggabesar","line":2,"is_transit":false,"distance":1080,"transit":false,"station_id":"MGB","i_lat":-6.149769,"time":2,"i_long":106.82482},{"station_id":"SW","i_lat":-6.160725,"time":2,"line":2,"i_long":106.827103,"station_name":"Sawah Besar","is_transit":false,"transit":false,"distance":906},{"station_id":"JUA","is_transit":false,"i_long":106.828284,"line":2,"transit":false,"distance":1149,"i_lat":-6.166716,"time":2,"station_name":"Juanda"},{"station_name":"Gondangdia","i_lat":-6.186295,"time":4,"line":2,"station_id":"GDD","transit":false,"i_long":106.832183,"is_transit":false,"distance":2015},{"i_long":106.840169,"distance":1750,"i_lat":-6.198556,"is_transit":false,"time":3,"transit":false,"line":2,"station_name":"Cikini","station_id":"CKI"},{"station_name":"Manggarai","distance":1590,"is_transit":true,"i_lat":-6.209883,"line":2,"i_long":106.84912,"station_id":"MRI","time":4,"transit":true},{"i_lat":-6.212485,"line":1,"station_name":"Matraman","station_id":"MTR","is_transit":false,"distance":1275,"transit":false,"time":2,"i_long":106.858896},{"station_name":"Jatinegara","line":1,"is_transit":true,"distance":1377,"station_id":"JNG","time":8,"transit":true,"i_lat":-6.215091,"i_long":106.86807400000001},{"station_id":"POK","time":2,"distance":1236,"i_long":106.861737,"is_transit":false,"station_name":"Pondok Jati","line":11,"i_lat":-6.209188,"transit":false},{"station_name":"Kramat","transit":false,"i_lat":-6.193792,"time":2,"is_transit":false,"line":11,"distance":1829,"station_id":"KMT","i_long":106.855437},{"i_lat":-6.185975,"transit":false,"station_name":"Gang Sentiong","i_long":106.850107,"distance":973,"time":1,"station_id":"GST","line":11,"is_transit":false},{"i_lat":-6.174784,"transit":false,"station_id":"PSE","time":8,"station_name":"Pasar Senen","line":11,"is_transit":false,"i_long":106.84368,"distance":1567},{"i_lat":-6.161728,"is_transit":false,"transit":false,"station_name":"Kemayoran","distance":1436,"line":11,"i_long":106.839204,"station_id":"KMO","time":4}]]}