{"data":[[{"station_name":"Bojongindah","line":0,"time":0,"i_long":106.737035,"distance":0,"transit":false,"station_id":"BOI","is_transit":false,"i_lat":-6.159876},{"time":2,"distance":2334,"i_lat":-6.1587309999999995,"i_long":106.756522,"line":5,"station_id":"TKO","transit":false,"station_name":"Taman Kota","is_transit":false},{"line":5,"transit":false,"i_lat":-6.161433,"is_transit":false,"distance":1614,"station_id":"PSG","i_long":106.771379,"station_name":"Pesing","time":2},{"transit":false,"i_lat":-6.162021,"time":2,"station_name":"Grogol","is_transit":false,"station_id":"GGL","i_long":106.788277,"line":5,"distance":2036},{"station_id":"DU","line":1,"is_transit":true,"station_name":"Duri","time":3,"i_long":106.800832,"i_lat":-6.155215,"distance":1700,"transit":true},{"transit":false,"station_id":"THB","distance":3632,"is_transit":true,"i_lat":-6.185545,"time":8,"line":1,"i_long":106.811091,"station_name":"Tanah Abang"},{"station_name":"Karet","transit":false,"station_id":"KAT","line":1,"time":5,"distance":2029,"i_lat":-6.20132,"i_long":106.816351,"is_transit":false},{"time":1,"line":1,"station_name":"Sudirman Baru","transit":false,"i_lat":-6.201433,"is_transit":false,"i_long":106.819881,"station_id":"SUDB","distance":471},{"line":1,"distance":280,"transit":false,"station_name":"Sudirman","time":1,"station_id":"SUD","i_lat":-6.202263,"is_transit":false,"i_long":106.822649},{"distance":3186,"station_id":"MRI","i_long":106.84912,"is_transit":true,"i_lat":-6.209883,"line":0,"transit":false,"time":4,"station_name":"Manggarai"},{"station_name":"Matraman","i_long":106.858896,"time":2,"is_transit":false,"line":1,"transit":false,"distance":1275,"i_lat":-6.212485,"station_id":"MTR"},{"i_lat":-6.215091,"station_name":"Jatinegara","i_long":106.86807400000001,"line":0,"transit":false,"time":8,"station_id":"JNG","distance":1377,"is_transit":true},{"i_lat":-6.2135,"i_long":106.899548,"station_id":"KLD","station_name":"Klender","transit":false,"line":1,"is_transit":false,"distance":3395,"time":3},{"distance":3100,"time":2,"i_long":106.922662,"station_id":"BUA","transit":false,"i_lat":-6.215568,"line":0,"is_transit":false,"station_name":"Buaran"},{"is_transit":false,"line":1,"time":1,"i_long":106.939679,"station_id":"KLDB","distance":1305,"station_name":"Klenderbaru","transit":false,"i_lat":-6.217455},{"is_transit":false,"time":8,"station_id":"CUK","line":0,"i_lat":-6.219053,"station_name":"Cakung","distance":1385,"i_long":106.951283,"transit":false},{"line":1,"i_long":106.977657,"distance":3097,"station_id":"KRI","time":3,"transit":false,"i_lat":-6.224515,"is_transit":false,"station_name":"Kranji"},{"is_transit":false,"line":0,"time":4,"station_name":"Bekasi","distance":2520,"transit":false,"station_id":"BKS","i_lat":-6.236616,"i_long":106.997013},{"time":2,"station_id":"BKST","i_long":107.016735,"distance":2368,"is_transit":false,"i_lat":-6.248029,"station_name":"Bekasi Timur","transit":false,"line":0},{"transit":false,"distance":4460,"station_name":"Tambun","i_lat":-6.258864,"is_transit":false,"station_id":"TB","line":1,"time":7,"i_long":107.055722},{"transit":false,"is_transit":false,"station_name":"Cibitung","time":3,"i_lat":-6.261877,"line":0,"i_long":107.083084,"distance":3420,"station_id":"CIT"},{"i_long":107.093313,"time":2,"line":1,"station_name":"Metland Telaga Murni","is_transit":false,"distance":2800,"transit":false,"station_id":"TLM","i_lat":-6.262938},{"i_long":107.144613,"station_name":"Cikarang","distance":3689,"time":4,"line":0,"transit":false,"i_lat":-6.2553149999999995,"station_id":"CKR","is_transit":false}],[{"line":0,"time":0,"i_lat":-6.159876,"is_transit":false,"transit":false,"station_name":"Bojongindah","i_long":106.737035,"distance":0,"station_id":"BOI"},{"is_transit":false,"station_name":"Taman Kota","station_id":"TKO","time":2,"distance":2334,"transit":false,"i_lat":-6.1587309999999995,"i_long":106.756522,"line":5},{"i_lat":-6.161433,"station_name":"Pesing","station_id":"PSG","distance":1614,"is_transit":false,"i_long":106.771379,"time":2,"transit":false,"line":5},{"transit":false,"is_transit":false,"i_lat":-6.162021,"time":2,"i_long":106.788277,"distance":2036,"line":5,"station_name":"Grogol","station_id":"GGL"},{"i_lat":-6.155215,"is_transit":true,"station_name":"Duri","time":3,"transit":true,"station_id":"DU","i_long":106.800832,"line":1,"distance":1700},{"i_lat":-6.144674,"i_long":106.79867,"station_name":"Angke","line":0,"station_id":"AK","distance":1230,"is_transit":false,"transit":false,"time":4},{"is_transit":true,"i_long":106.826365,"time":9,"distance":4102,"station_name":"Kampung Bandan","transit":true,"station_id":"KPB","line":0,"i_lat":-6.132549},{"time":3,"is_transit":false,"station_name":"Rajawali","i_lat":-6.14505,"station_id":"RJW","i_long":106.836569,"line":11,"transit":false,"distance":1444},{"station_id":"KMO","time":5,"i_lat":-6.161728,"station_name":"Kemayoran","distance":1901,"i_long":106.839204,"line":11,"transit":false,"is_transit":false},{"transit":false,"station_id":"PSE","time":4,"distance":1436,"station_name":"Pasar Senen","is_transit":false,"i_long":106.84368,"line":11,"i_lat":-6.174784},{"is_transit":false,"station_id":"GST","i_long":106.850107,"station_name":"Gang Sentiong","distance":1567,"transit":false,"time":8,"i_lat":-6.185975,"line":11},{"station_id":"KMT","transit":false,"i_long":106.855437,"time":1,"i_lat":-6.193792,"line":11,"distance":973,"station_name":"Kramat","is_transit":false},{"distance":1829,"station_name":"Pondok Jati","transit":false,"i_lat":-6.209188,"station_id":"POK","i_long":106.861737,"is_transit":false,"line":11,"time":2},{"time":9,"station_id":"JNG","i_lat":-6.215091,"line":0,"transit":true,"is_transit":true,"i_long":106.86807400000001,"station_name":"Jatinegara","distance":1236},{"time":3,"i_lat":-6.2135,"is_transit":false,"transit":false,"station_id":"KLD","line":1,"i_long":106.899548,"station_name":"Klender","distance":3395},{"time":2,"distance":3100,"i_long":106.922662,"is_transit":false,"station_id":"BUA","transit":false,"line":0,"station_name":"Buaran","i_lat":-6.215568},{"transit":false,"station_id":"KLDB","i_long":106.939679,"station_name":"Klenderbaru","i_lat":-6.217455,"distance":1305,"time":1,"line":1,"is_transit":false},{"i_long":106.951283,"distance":1385,"station_id":"CUK","station_name":"Cakung","time":8,"i_lat":-6.219053,"line":0,"transit":false,"is_transit":false},{"station_name":"Kranji","transit":false,"is_transit":false,"station_id":"KRI","i_long":106.977657,"distance":3097,"i_lat":-6.224515,"line":1,"time":3},{"station_id":"BKS","station_name":"Bekasi","distance":2520,"i_long":106.997013,"i_lat":-6.236616,"transit":false,"line":0,"is_transit":false,"time":4},{"station_name":"Bekasi Timur","is_transit":false,"time":2,"station_id":"BKST","transit":false,"line":0,"distance":2368,"i_long":107.016735,"i_lat":-6.248029},{"station_name":"Tambun","time":7,"is_transit":false,"distance":4460,"transit":false,"i_lat":-6.258864,"i_long":107.055722,"line":1,"station_id":"TB"},{"distance":3420,"is_transit":false,"time":3,"transit":false,"station_name":"Cibitung","station_id":"CIT","i_long":107.083084,"line":0,"i_lat":-6.261877},{"i_long":107.093313,"station_name":"Metland Telaga Murni","time":2,"line":1,"distance":2800,"i_lat":-6.262938,"station_id":"TLM","is_transit":false,"transit":false},{"transit":false,"i_long":107.144613,"time":4,"line":0,"station_id":"CKR","distance":3689,"station_name":"Cikarang","i_lat":-6.2553149999999995,"is_transit":false}],[{"i_lat":-6.159876,"line":0,"transit":false,"i_long":106.737035,"station_name":"Bojongindah","is_transit":false,"time":0,"station_id":"BOI","distance":0},{"station_name":"Taman Kota","i_long":106.756522,"is_transit":false,"distance":2334,"i_lat":-6.1587309999999995,"time":2,"transit":false,"station_id":"TKO","line":5},{"transit":false,"station_id":"PSG","i_lat":-6.161433,"line":5,"station_name":"Pesing","distance":1614,"i_long":106.771379,"is_transit":false,"time":2},{"is_transit":false,"distance":2036,"transit":false,"time":2,"i_lat":-6.162021,"i_long":106.788277,"station_id":"GGL","line":5,"station_name":"Grogol"},{"distance":1700,"station_id":"DU","is_transit":true,"station_name":"Duri","i_lat":-6.155215,"transit":true,"time":3,"i_long":106.800832,"line":1},{"line":0,"time":4,"station_name":"Angke","distance":1230,"station_id":"AK","i_long":106.79867,"transit":false,"is_transit":false,"i_lat":-6.144674},{"is_transit":true,"i_lat":-6.132549,"distance":4102,"transit":false,"station_name":"Kampung Bandan","station_id":"KPB","line":0,"i_long":106.826365,"time":9},{"i_lat":-6.137569,"i_long":106.812439,"distance":1364,"station_id":"JAKK","time":3,"is_transit":true,"line":0,"transit":true,"station_name":"Jakarta Kota"},{"station_name":"Jayakarta","is_transit":false,"transit":false,"i_lat":-6.141205,"time":4,"station_id":"JAY","i_long":106.820901,"line":7,"distance":1264},{"transit":false,"time":2,"station_name":"Manggabesar","i_lat":-6.149769,"line":2,"is_transit":false,"i_long":106.82482,"station_id":"MGB","distance":1080},{"time":2,"distance":906,"i_long":106.827103,"line":2,"station_id":"SW","i_lat":-6.160725,"transit":false,"is_transit":false,"station_name":"Sawah Besar"},{"station_id":"JUA","i_long":106.828284,"line":2,"station_name":"Juanda","is_transit":false,"transit":false,"time":2,"distance":1149,"i_lat":-6.166716},{"time":4,"i_lat":-6.186295,"station_name":"Gondangdia","is_transit":false,"line":2,"transit":false,"i_long":106.832183,"distance":2015,"station_id":"GDD"},{"line":0,"transit":false,"i_long":106.840169,"is_transit":false,"distance":1750,"time":3,"station_id":"CKI","station_name":"Cikini","i_lat":-6.198556},{"distance":1590,"station_name":"Manggarai","i_long":106.84912,"transit":true,"station_id":"MRI","is_transit":true,"time":4,"i_lat":-6.209883,"line":0},{"line":1,"is_transit":false,"i_lat":-6.212485,"time":2,"distance":1275,"i_long":106.858896,"station_id":"MTR","transit":false,"station_name":"Matraman"},{"station_id":"JNG","is_transit":true,"time":8,"transit":false,"station_name":"Jatinegara","i_lat":-6.215091,"i_long":106.86807400000001,"line":0,"distance":1377},{"distance":3395,"i_lat":-6.2135,"is_transit":false,"i_long":106.899548,"line":1,"station_name":"Klender","transit":false,"station_id":"KLD","time":3},{"i_lat":-6.215568,"time":2,"transit":false,"is_transit":false,"station_name":"Buaran","line":0,"distance":3100,"i_long":106.922662,"station_id":"BUA"},{"i_lat":-6.217455,"station_name":"Klenderbaru","station_id":"KLDB","line":1,"transit":false,"is_transit":false,"time":1,"distance":1305,"i_long":106.939679},{"station_name":"Cakung","time":8,"is_transit":false,"station_id":"CUK","transit":false,"i_lat":-6.219053,"distance":1385,"i_long":106.951283,"line":0},{"time":3,"is_transit":false,"distance":3097,"i_long":106.977657,"line":1,"transit":false,"station_name":"Kranji","station_id":"KRI","i_lat":-6.224515},{"is_transit":false,"station_id":"BKS","line":0,"distance":2520,"transit":false,"station_name":"Bekasi","i_lat":-6.236616,"time":4,"i_long":106.997013},{"i_lat":-6.248029,"is_transit":false,"i_long":107.016735,"station_id":"BKST","line":0,"transit":false,"distance":2368,"station_name":"Bekasi Timur","time":2},{"line":1,"i_long":107.055722,"is_transit":false,"station_id":"TB","distance":4460,"time":7,"station_name":"Tambun","transit":false,"i_lat":-6.258864},{"distance":3420,"i_long":107.083084,"is_transit":false,"i_lat":-6.261877,"time":3,"station_name":"Cibitung","line":0,"transit":false,"station_id":"CIT"},{"line":1,"station_id":"TLM","distance":2800,"is_transit":false,"station_name":"Metland Telaga Murni","transit":false,"i_lat":-6.262938,"time":2,"i_long":107.093313},{"is_transit":false,"transit":false,"station_name":"Cikarang","distance":3689,"line":0,"time":4,"i_long":107.144613,"station_id":"CKR","i_lat":-6.2553149999999995}],[{"time":0,"i_lat":-6.159876,"transit":false,"station_id":"BOI","distance":0,"i_long":106.737035,"line":0,"is_transit":false,"station_name":"Bojongindah"},{"distance":2334,"time":2,"station_id":"TKO","i_lat":-6.1587309999999995,"i_long":106.756522,"station_name":"Taman Kota","transit":false,"is_transit":false,"line":5},{"distance":1614,"time":2,"station_name":"Pesing","transit":false,"station_id":"PSG","i_lat":-6.161433,"i_long":106.771379,"line":5,"is_transit":false},{"is_transit":false,"transit":false,"i_lat":-6.162021,"time":2,"line":5,"station_id":"GGL","i_long":106.788277,"station_name":"Grogol","distance":2036},{"station_id":"DU","time":3,"is_transit":true,"station_name":"Duri","transit":true,"i_lat":-6.155215,"line":1,"i_long":106.800832,"distance":1700},{"time":8,"station_name":"Tanah Abang","is_transit":true,"i_long":106.811091,"line":1,"transit":false,"station_id":"THB","distance":3632,"i_lat":-6.185545},{"i_lat":-6.20132,"is_transit":false,"transit":false,"station_name":"Karet","station_id":"KAT","time":5,"distance":2029,"i_long":106.816351,"line":1},{"station_name":"Sudirman Baru","i_long":106.819881,"i_lat":-6.201433,"time":1,"is_transit":false,"distance":471,"line":1,"station_id":"SUDB","transit":false},{"i_long":106.822649,"station_name":"Sudirman","time":1,"station_id":"SUD","i_lat":-6.202263,"distance":280,"transit":false,"line":1,"is_transit":false},{"station_id":"MRI","line":0,"is_transit":true,"station_name":"Manggarai","i_lat":-6.209883,"transit":true,"time":4,"i_long":106.84912,"distance":3186},{"i_long":106.840169,"transit":false,"station_id":"CKI","line":0,"station_name":"Cikini","is_transit":false,"time":4,"distance":1590,"i_lat":-6.198556},{"transit":false,"i_lat":-6.186295,"i_long":106.832183,"is_transit":false,"station_name":"Gondangdia","distance":1750,"line":2,"station_id":"GDD","time":3},{"is_transit":false,"transit":false,"station_name":"Juanda","station_id":"JUA","i_long":106.828284,"time":4,"i_lat":-6.166716,"distance":2015,"line":2},{"time":2,"distance":1149,"i_long":106.827103,"station_name":"Sawah Besar","transit":false,"line":2,"station_id":"SW","is_transit":false,"i_lat":-6.160725},{"distance":906,"is_transit":false,"station_id":"MGB","transit":false,"i_lat":-6.149769,"line":2,"i_long":106.82482,"station_name":"Manggabesar","time":2},{"station_id":"JAY","i_long":106.820901,"is_transit":false,"distance":1080,"line":7,"station_name":"Jayakarta","time":2,"i_lat":-6.141205,"transit":false},{"time":4,"station_name":"Jakarta Kota","i_lat":-6.137569,"station_id":"JAKK","is_transit":true,"transit":true,"i_long":106.812439,"distance":1264,"line":0},{"station_name":"Kampung Bandan","line":0,"transit":true,"time":3,"i_lat":-6.132549,"station_id":"KPB","i_long":106.826365,"distance":1364,"is_transit":true},{"is_transit":false,"station_name":"Rajawali","transit":false,"time":3,"distance":1444,"i_lat":-6.14505,"line":11,"station_id":"RJW","i_long":106.836569},{"line":11,"distance":1901,"i_lat":-6.161728,"is_transit":false,"i_long":106.839204,"station_id":"KMO","station_name":"Kemayoran","time":5,"transit":false},{"time":4,"transit":false,"distance":1436,"i_lat":-6.174784,"is_transit":false,"line":11,"station_name":"Pasar Senen","i_long":106.84368,"station_id":"PSE"},{"transit":false,"i_lat":-6.185975,"time":8,"i_long":106.850107,"station_name":"Gang Sentiong","is_transit":false,"line":11,"station_id":"GST","distance":1567},{"time":1,"station_id":"KMT","line":11,"i_long":106.855437,"transit":false,"station_name":"Kramat","i_lat":-6.193792,"distance":973,"is_transit":false},{"is_transit":false,"station_name":"Pondok Jati","transit":false,"time":2,"i_lat":-6.209188,"distance":1829,"station_id":"POK","i_long":106.861737,"line":11},{"transit":true,"line":0,"station_id":"JNG","is_transit":true,"distance":1236,"time":9,"i_lat":-6.215091,"station_name":"Jatinegara","i_long":106.86807400000001},{"is_transit":false,"transit":false,"station_id":"KLD","i_long":106.899548,"station_name":"Klender","i_lat":-6.2135,"time":3,"line":1,"distance":3395},{"station_name":"Buaran","time":2,"line":0,"distance":3100,"i_lat":-6.215568,"station_id":"BUA","i_long":106.922662,"is_transit":false,"transit":false},{"is_transit":false,"transit":false,"station_name":"Klenderbaru","time":1,"i_long":106.939679,"distance":1305,"i_lat":-6.217455,"line":1,"station_id":"KLDB"},{"distance":1385,"time":8,"transit":false,"i_long":106.951283,"line":0,"is_transit":false,"station_id":"CUK","i_lat":-6.219053,"station_name":"Cakung"},{"i_long":106.977657,"distance":3097,"transit":false,"station_id":"KRI","is_transit":false,"i_lat":-6.224515,"time":3,"station_name":"Kranji","line":1},{"line":0,"time":4,"distance":2520,"transit":false,"station_name":"Bekasi","station_id":"BKS","is_transit":false,"i_lat":-6.236616,"i_long":106.997013},{"distance":2368,"line":0,"station_name":"Bekasi Timur","i_long":107.016735,"time":2,"transit":false,"i_lat":-6.248029,"station_id":"BKST","is_transit":false},{"distance":4460,"station_id":"TB","i_lat":-6.258864,"line":1,"time":7,"station_name":"Tambun","transit":false,"i_long":107.055722,"is_transit":false},{"transit":false,"station_name":"Cibitung","time":3,"station_id":"CIT","line":0,"distance":3420,"is_transit":false,"i_lat":-6.261877,"i_long":107.083084},{"line":1,"distance":2800,"i_long":107.093313,"transit":false,"station_name":"Metland Telaga Murni","is_transit":false,"station_id":"TLM","i_lat":-6.262938,"time":2},{"station_name":"Cikarang","station_id":"CKR","i_lat":-6.2553149999999995,"time":4,"transit":false,"distance":3689,"i_long":107.144613,"is_transit":false,"line":0}]]}