{"data":[[{"station_name":"Bojongindah","station_id":"BOI","transit":false,"line":5,"i_long":106.737035,"i_lat":-6.159876,"time":0,"is_transit":false,"distance":0},{"station_name":"Taman Kota","is_transit":false,"time":2,"line":5,"distance":2334,"i_long":106.756522,"station_id":"TKO","transit":false,"i_lat":-6.1587309999999995},{"station_id":"PSG","transit":false,"station_name":"Pesing","i_lat":-6.161433,"i_long":106.771379,"time":2,"is_transit":false,"distance":1614,"line":5},{"time":2,"i_lat":-6.162021,"i_long":106.788277,"line":5,"station_name":"Grogol","transit":false,"is_transit":false,"distance":2036,"station_id":"GGL"},{"transit":true,"time":3,"is_transit":true,"station_name":"Duri","distance":1700,"station_id":"DU","i_lat":-6.155215,"line":1,"i_long":106.800832},{"station_name":"Tanah Abang","transit":true,"distance":3632,"line":1,"station_id":"THB","time":8,"i_lat":-6.185545,"is_transit":true,"i_long":106.811091},{"line":6,"is_transit":false,"i_long":106.79689,"transit":false,"station_id":"PLM","station_name":"Palmerah","time":6,"distance":3191,"i_lat":-6.207404},{"i_lat":-6.237242,"i_long":106.780334,"distance":3737,"is_transit":false,"station_id":"KBY","transit":false,"time":7,"line":6,"station_name":"Kebayoran"},{"transit":false,"i_lat":-6.276362,"time":8,"i_long":106.74273,"line":6,"distance":6218,"station_id":"PDJ","station_name":"Pondokranji","is_transit":false},{"is_transit":false,"i_long":106.728916,"station_id":"JMU","transit":false,"line":6,"distance":2179,"i_lat":-6.288927,"station_name":"Jurangmangu","time":3},{"distance":1994,"station_id":"SDM","line":6,"transit":false,"station_name":"Sudimara","is_transit":false,"time":4,"i_lat":-6.296963,"i_long":106.712277},{"time":6,"is_transit":false,"line":6,"i_long":106.675475,"distance":4566,"station_name":"Rawa Buntu","i_lat":-6.314823,"transit":false,"station_id":"RU"},{"line":6,"station_id":"SRP","is_transit":false,"station_name":"Serpong","time":4,"distance":2413,"i_long":106.66566,"transit":false,"i_lat":-6.319871},{"i_lat":-6.32484,"is_transit":false,"station_name":"Cisauk","station_id":"CSK","i_long":106.640411,"line":3,"transit":false,"distance":1784,"time":4},{"station_id":"CC","i_long":106.617853,"i_lat":-6.329547,"is_transit":false,"line":3,"station_name":"Cicayur","transit":false,"time":4,"distance":2519},{"station_id":"PRP","time":8,"line":6,"i_lat":-6.3441410000000005,"distance":5968,"station_name":"Parung Panjang","is_transit":false,"transit":false,"i_long":106.568863},{"line":3,"i_long":106.508482,"station_name":"Cilejit","i_lat":-6.354349,"station_id":"CJT","transit":false,"is_transit":false,"time":9,"distance":7025},{"station_id":"DAR","station_name":"Daru","transit":false,"is_transit":false,"i_lat":-6.338021,"i_long":106.491338,"line":0,"time":6,"distance":2675},{"line":6,"station_name":"Tenjo","i_lat":-6.327251,"station_id":"TEJ","time":5,"transit":false,"distance":3902,"i_long":106.460812,"is_transit":false},{"distance":2974,"transit":false,"i_long":106.425991,"is_transit":false,"line":6,"i_lat":-6.328533,"time":5,"station_name":"Tigaraksa","station_id":"TGS"},{"distance":2651,"time":3,"i_long":106.411216,"i_lat":-6.33561,"line":3,"transit":false,"station_name":"Cikoya","station_id":"CKY","is_transit":false}],[{"time":0,"i_lat":-6.159876,"station_id":"BOI","distance":0,"line":5,"station_name":"Bojongindah","transit":false,"is_transit":false,"i_long":106.737035},{"distance":2334,"transit":false,"station_id":"TKO","time":2,"i_lat":-6.1587309999999995,"line":5,"i_long":106.756522,"station_name":"Taman Kota","is_transit":false},{"transit":false,"time":2,"i_lat":-6.161433,"is_transit":false,"line":5,"station_name":"Pesing","station_id":"PSG","i_long":106.771379,"distance":1614},{"transit":false,"i_long":106.788277,"station_name":"Grogol","station_id":"GGL","i_lat":-6.162021,"time":2,"is_transit":false,"distance":2036,"line":5},{"station_id":"DU","i_lat":-6.155215,"i_long":106.800832,"is_transit":true,"time":3,"station_name":"Duri","transit":true,"distance":1700,"line":1},{"time":4,"station_name":"Angke","line":1,"i_long":106.79867,"transit":false,"station_id":"AK","is_transit":false,"distance":1230,"i_lat":-6.144674},{"station_id":"KPB","transit":true,"distance":4102,"i_long":106.826365,"i_lat":-6.132549,"station_name":"Kampung Bandan","is_transit":true,"time":9,"line":4},{"station_name":"Jakarta Kota","transit":true,"station_id":"JAKK","time":3,"distance":1364,"line":2,"i_long":106.812439,"i_lat":-6.137569,"is_transit":true},{"station_name":"Jayakarta","is_transit":false,"line":2,"transit":false,"i_lat":-6.141205,"time":4,"station_id":"JAY","i_long":106.820901,"distance":1264},{"station_name":"Manggabesar","transit":false,"distance":1080,"is_transit":false,"time":2,"station_id":"MGB","i_lat":-6.149769,"line":2,"i_long":106.82482},{"station_name":"Sawah Besar","distance":906,"line":2,"time":2,"i_lat":-6.160725,"station_id":"SW","i_long":106.827103,"transit":false,"is_transit":false},{"station_id":"JUA","i_lat":-6.166716,"distance":1149,"time":2,"is_transit":false,"i_long":106.828284,"station_name":"Juanda","line":2,"transit":false},{"transit":false,"is_transit":false,"station_name":"Gondangdia","distance":2015,"i_lat":-6.186295,"station_id":"GDD","time":4,"i_long":106.832183,"line":2},{"i_lat":-6.198556,"is_transit":false,"station_id":"CKI","time":3,"distance":1750,"line":2,"transit":false,"i_long":106.840169,"station_name":"Cikini"},{"transit":true,"is_transit":true,"station_id":"MRI","station_name":"Manggarai","i_long":106.84912,"time":4,"i_lat":-6.209883,"line":2,"distance":1590},{"i_long":106.822649,"transit":false,"distance":3186,"is_transit":false,"line":1,"station_id":"SUD","station_name":"Sudirman","time":4,"i_lat":-6.202263},{"time":1,"i_lat":-6.201433,"i_long":106.819881,"line":1,"distance":280,"station_name":"Sudirman Baru","transit":false,"station_id":"SUDB","is_transit":false},{"is_transit":false,"transit":false,"station_id":"KAT","i_lat":-6.20132,"line":1,"i_long":106.816351,"station_name":"Karet","time":1,"distance":471},{"i_lat":-6.185545,"line":1,"distance":2029,"time":5,"is_transit":true,"station_name":"Tanah Abang","transit":true,"i_long":106.811091,"station_id":"THB"},{"i_long":106.79689,"station_name":"Palmerah","distance":3191,"transit":false,"station_id":"PLM","time":6,"i_lat":-6.207404,"line":6,"is_transit":false},{"station_name":"Kebayoran","i_long":106.780334,"transit":false,"line":6,"station_id":"KBY","is_transit":false,"distance":3737,"time":7,"i_lat":-6.237242},{"station_name":"Pondokranji","station_id":"PDJ","is_transit":false,"time":8,"i_long":106.74273,"line":6,"distance":6218,"transit":false,"i_lat":-6.276362},{"station_name":"Jurangmangu","is_transit":false,"transit":false,"i_lat":-6.288927,"time":3,"distance":2179,"i_long":106.728916,"station_id":"JMU","line":6},{"is_transit":false,"distance":1994,"i_lat":-6.296963,"i_long":106.712277,"station_name":"Sudimara","time":4,"line":6,"transit":false,"station_id":"SDM"},{"station_name":"Rawa Buntu","distance":4566,"i_long":106.675475,"i_lat":-6.314823,"line":6,"is_transit":false,"station_id":"RU","transit":false,"time":6},{"line":6,"is_transit":false,"station_name":"Serpong","i_lat":-6.319871,"i_long":106.66566,"transit":false,"time":4,"station_id":"SRP","distance":2413},{"i_long":106.640411,"line":3,"station_name":"Cisauk","station_id":"CSK","distance":1784,"transit":false,"is_transit":false,"i_lat":-6.32484,"time":4},{"line":3,"transit":false,"distance":2519,"station_name":"Cicayur","is_transit":false,"station_id":"CC","time":4,"i_lat":-6.329547,"i_long":106.617853},{"station_id":"PRP","distance":5968,"is_transit":false,"station_name":"Parung Panjang","transit":false,"time":8,"i_long":106.568863,"i_lat":-6.3441410000000005,"line":6},{"time":9,"station_id":"CJT","i_long":106.508482,"transit":false,"is_transit":false,"i_lat":-6.354349,"distance":7025,"line":3,"station_name":"Cilejit"},{"station_name":"Daru","time":6,"distance":2675,"station_id":"DAR","transit":false,"i_lat":-6.338021,"line":0,"is_transit":false,"i_long":106.491338},{"distance":3902,"time":5,"station_id":"TEJ","line":6,"station_name":"Tenjo","i_long":106.460812,"transit":false,"i_lat":-6.327251,"is_transit":false},{"is_transit":false,"station_name":"Tigaraksa","time":5,"distance":2974,"i_lat":-6.328533,"station_id":"TGS","line":6,"transit":false,"i_long":106.425991},{"transit":false,"line":3,"i_lat":-6.33561,"station_name":"Cikoya","is_transit":false,"time":3,"distance":2651,"station_id":"CKY","i_long":106.411216}],[{"distance":0,"is_transit":false,"station_name":"Bojongindah","i_long":106.737035,"time":0,"line":5,"transit":false,"station_id":"BOI","i_lat":-6.159876},{"line":5,"time":2,"transit":false,"i_lat":-6.1587309999999995,"station_name":"Taman Kota","distance":2334,"i_long":106.756522,"is_transit":false,"station_id":"TKO"},{"station_name":"Pesing","is_transit":false,"transit":false,"time":2,"line":5,"i_lat":-6.161433,"station_id":"PSG","distance":1614,"i_long":106.771379},{"is_transit":false,"station_id":"GGL","distance":2036,"i_long":106.788277,"transit":false,"i_lat":-6.162021,"line":5,"station_name":"Grogol","time":2},{"i_long":106.800832,"station_name":"Duri","transit":true,"time":3,"is_transit":true,"station_id":"DU","distance":1700,"line":1,"i_lat":-6.155215},{"station_id":"AK","line":1,"station_name":"Angke","transit":false,"is_transit":false,"distance":1230,"i_lat":-6.144674,"i_long":106.79867,"time":4},{"is_transit":true,"time":9,"i_lat":-6.132549,"line":4,"i_long":106.826365,"distance":4102,"station_id":"KPB","transit":true,"station_name":"Kampung Bandan"},{"station_id":"RJW","is_transit":false,"transit":false,"time":3,"distance":1444,"i_long":106.836569,"station_name":"Rajawali","line":11,"i_lat":-6.14505},{"i_lat":-6.161728,"distance":1901,"is_transit":false,"station_name":"Kemayoran","i_long":106.839204,"transit":false,"station_id":"KMO","time":5,"line":11},{"transit":false,"i_long":106.84368,"is_transit":false,"line":11,"time":4,"station_name":"Pasar Senen","station_id":"PSE","distance":1436,"i_lat":-6.174784},{"i_lat":-6.185975,"station_name":"Gang Sentiong","time":8,"station_id":"GST","distance":1567,"line":11,"i_long":106.850107,"transit":false,"is_transit":false},{"i_long":106.855437,"time":1,"is_transit":false,"station_id":"KMT","distance":973,"line":11,"station_name":"Kramat","transit":false,"i_lat":-6.193792},{"time":2,"transit":false,"line":11,"i_long":106.861737,"i_lat":-6.209188,"station_id":"POK","station_name":"Pondok Jati","is_transit":false,"distance":1829},{"i_long":106.86807400000001,"i_lat":-6.215091,"time":9,"station_name":"Jatinegara","station_id":"JNG","distance":1236,"transit":true,"line":1,"is_transit":true},{"distance":1377,"transit":false,"time":2,"is_transit":false,"station_id":"MTR","i_lat":-6.212485,"station_name":"Matraman","i_long":106.858896,"line":1},{"i_lat":-6.209883,"station_id":"MRI","transit":false,"line":2,"distance":1275,"station_name":"Manggarai","i_long":106.84912,"time":2,"is_transit":false},{"distance":3186,"transit":false,"i_long":106.822649,"station_id":"SUD","is_transit":false,"i_lat":-6.202263,"time":4,"station_name":"Sudirman","line":1},{"transit":false,"station_name":"Sudirman Baru","time":1,"i_long":106.819881,"distance":280,"i_lat":-6.201433,"is_transit":false,"line":1,"station_id":"SUDB"},{"station_id":"KAT","line":1,"is_transit":false,"station_name":"Karet","distance":471,"i_lat":-6.20132,"transit":false,"i_long":106.816351,"time":1},{"time":5,"i_long":106.811091,"transit":true,"distance":2029,"station_name":"Tanah Abang","line":1,"i_lat":-6.185545,"is_transit":true,"station_id":"THB"},{"i_long":106.79689,"station_id":"PLM","transit":false,"i_lat":-6.207404,"is_transit":false,"station_name":"Palmerah","time":6,"line":6,"distance":3191},{"i_long":106.780334,"transit":false,"station_name":"Kebayoran","is_transit":false,"distance":3737,"i_lat":-6.237242,"line":6,"station_id":"KBY","time":7},{"is_transit":false,"i_long":106.74273,"line":6,"transit":false,"station_name":"Pondokranji","time":8,"i_lat":-6.276362,"distance":6218,"station_id":"PDJ"},{"time":3,"distance":2179,"station_name":"Jurangmangu","i_lat":-6.288927,"i_long":106.728916,"is_transit":false,"transit":false,"line":6,"station_id":"JMU"},{"line":6,"station_name":"Sudimara","i_lat":-6.296963,"distance":1994,"station_id":"SDM","is_transit":false,"i_long":106.712277,"time":4,"transit":false},{"transit":false,"i_long":106.675475,"line":6,"station_name":"Rawa Buntu","distance":4566,"i_lat":-6.314823,"is_transit":false,"station_id":"RU","time":6},{"time":4,"i_lat":-6.319871,"i_long":106.66566,"station_name":"Serpong","is_transit":false,"station_id":"SRP","distance":2413,"line":6,"transit":false},{"line":3,"transit":false,"station_name":"Cisauk","is_transit":false,"i_long":106.640411,"distance":1784,"i_lat":-6.32484,"time":4,"station_id":"CSK"},{"is_transit":false,"station_name":"Cicayur","time":4,"i_long":106.617853,"station_id":"CC","transit":false,"distance":2519,"i_lat":-6.329547,"line":3},{"time":8,"line":6,"transit":false,"station_id":"PRP","is_transit":false,"i_long":106.568863,"station_name":"Parung Panjang","distance":5968,"i_lat":-6.3441410000000005},{"transit":false,"distance":7025,"station_id":"CJT","line":3,"is_transit":false,"station_name":"Cilejit","time":9,"i_lat":-6.354349,"i_long":106.508482},{"transit":false,"i_long":106.491338,"time":6,"distance":2675,"station_id":"DAR","is_transit":false,"i_lat":-6.338021,"line":0,"station_name":"Daru"},{"i_long":106.460812,"transit":false,"station_id":"TEJ","time":5,"line":6,"station_name":"Tenjo","distance":3902,"is_transit":false,"i_lat":-6.327251},{"is_transit":false,"transit":false,"distance":2974,"i_long":106.425991,"time":5,"station_id":"TGS","i_lat":-6.328533,"station_name":"Tigaraksa","line":6},{"line":3,"station_name":"Cikoya","is_transit":false,"i_long":106.411216,"i_lat":-6.33561,"station_id":"CKY","transit":false,"time":3,"distance":2651}]]}