{"data":[[{"i_long":106.737035,"distance":0,"is_transit":false,"transit":false,"station_name":"Bojongindah","station_id":"BOI","i_lat":-6.159876,"time":0,"line":5},{"i_lat":-6.1587309999999995,"i_long":106.756522,"transit":false,"station_id":"TKO","distance":2334,"is_transit":false,"station_name":"Taman Kota","time":2,"line":5},{"is_transit":false,"i_lat":-6.161433,"station_name":"Pesing","i_long":106.771379,"transit":false,"station_id":"PSG","line":5,"time":2,"distance":1614},{"i_lat":-6.162021,"time":2,"i_long":106.788277,"line":5,"distance":2036,"transit":false,"station_id":"GGL","station_name":"Grogol","is_transit":false},{"i_lat":-6.155215,"distance":1700,"time":3,"line":1,"i_long":106.800832,"station_id":"DU","is_transit":true,"station_name":"Duri","transit":true},{"station_id":"THB","time":8,"line":1,"i_lat":-6.185545,"i_long":106.811091,"transit":false,"station_name":"Tanah Abang","is_transit":false,"distance":3632},{"time":5,"distance":2029,"station_name":"Karet","transit":false,"station_id":"KAT","is_transit":false,"line":1,"i_lat":-6.20132,"i_long":106.816351},{"station_id":"SUDB","line":1,"time":1,"i_long":106.819881,"is_transit":false,"i_lat":-6.201433,"station_name":"Sudirman Baru","transit":false,"distance":471},{"i_long":106.822649,"time":1,"transit":false,"i_lat":-6.202263,"distance":280,"station_name":"Sudirman","line":1,"station_id":"SUD","is_transit":false},{"station_id":"MRI","i_long":106.84912,"i_lat":-6.209883,"line":2,"time":4,"is_transit":false,"transit":false,"station_name":"Manggarai","distance":3186},{"line":1,"station_id":"MTR","time":2,"transit":false,"distance":1275,"i_long":106.858896,"i_lat":-6.212485,"station_name":"Matraman","is_transit":false},{"time":8,"station_id":"JNG","i_long":106.86807400000001,"is_transit":false,"line":1,"station_name":"Jatinegara","i_lat":-6.215091,"transit":false,"distance":1377},{"is_transit":false,"station_id":"KLD","time":3,"line":1,"transit":false,"station_name":"Klender","distance":3395,"i_long":106.899548,"i_lat":-6.2135},{"transit":false,"distance":3100,"is_transit":false,"i_lat":-6.215568,"time":2,"station_id":"BUA","line":1,"i_long":106.922662,"station_name":"Buaran"},{"line":1,"time":1,"is_transit":false,"i_long":106.939679,"transit":false,"station_id":"KLDB","distance":1305,"i_lat":-6.217455,"station_name":"Klenderbaru"},{"i_lat":-6.219053,"is_transit":false,"line":1,"time":8,"station_id":"CUK","distance":1385,"transit":false,"station_name":"Cakung","i_long":106.951283},{"distance":3097,"i_long":106.977657,"i_lat":-6.224515,"station_id":"KRI","line":1,"is_transit":false,"time":3,"station_name":"Kranji","transit":false},{"is_transit":false,"i_long":106.997013,"i_lat":-6.236616,"station_name":"Bekasi","station_id":"BKS","transit":false,"distance":2520,"line":1,"time":4},{"line":1,"i_lat":-6.248029,"time":2,"is_transit":false,"distance":2368,"i_long":107.016735,"transit":false,"station_id":"BKST","station_name":"Bekasi Timur"},{"distance":4460,"transit":false,"i_lat":-6.258864,"station_name":"Tambun","line":1,"i_long":107.055722,"station_id":"TB","is_transit":false,"time":7}],[{"time":0,"distance":0,"i_lat":-6.159876,"i_long":106.737035,"station_id":"BOI","line":5,"station_name":"Bojongindah","transit":false,"is_transit":false},{"i_lat":-6.1587309999999995,"station_name":"Taman Kota","station_id":"TKO","time":2,"transit":false,"distance":2334,"line":5,"i_long":106.756522,"is_transit":false},{"is_transit":false,"i_lat":-6.161433,"line":5,"transit":false,"time":2,"station_id":"PSG","distance":1614,"i_long":106.771379,"station_name":"Pesing"},{"station_name":"Grogol","transit":false,"time":2,"is_transit":false,"i_lat":-6.162021,"line":5,"station_id":"GGL","distance":2036,"i_long":106.788277},{"distance":1700,"is_transit":true,"i_lat":-6.155215,"station_id":"DU","i_long":106.800832,"time":3,"station_name":"Duri","line":1,"transit":true},{"station_id":"AK","is_transit":false,"i_long":106.79867,"distance":1230,"station_name":"Angke","transit":false,"i_lat":-6.144674,"time":4,"line":1},{"time":9,"station_id":"KPB","is_transit":true,"i_long":106.826365,"i_lat":-6.132549,"transit":true,"station_name":"Kampung Bandan","distance":4102,"line":4},{"station_name":"Rajawali","time":3,"distance":1444,"is_transit":false,"station_id":"RJW","i_lat":-6.14505,"line":11,"i_long":106.836569,"transit":false},{"station_id":"KMO","i_lat":-6.161728,"i_long":106.839204,"line":11,"distance":1901,"is_transit":false,"transit":false,"station_name":"Kemayoran","time":5},{"i_lat":-6.174784,"i_long":106.84368,"time":4,"distance":1436,"line":11,"is_transit":false,"transit":false,"station_id":"PSE","station_name":"Pasar Senen"},{"is_transit":false,"i_lat":-6.185975,"station_name":"Gang Sentiong","distance":1567,"time":8,"transit":false,"i_long":106.850107,"line":11,"station_id":"GST"},{"transit":false,"i_lat":-6.193792,"i_long":106.855437,"is_transit":false,"time":1,"station_name":"Kramat","station_id":"KMT","line":11,"distance":973},{"is_transit":false,"station_name":"Pondok Jati","i_lat":-6.209188,"line":11,"station_id":"POK","transit":false,"time":2,"i_long":106.861737,"distance":1829},{"line":1,"distance":1236,"time":9,"i_lat":-6.215091,"transit":true,"station_name":"Jatinegara","i_long":106.86807400000001,"station_id":"JNG","is_transit":true},{"i_long":106.899548,"time":3,"transit":false,"station_name":"Klender","station_id":"KLD","is_transit":false,"distance":3395,"i_lat":-6.2135,"line":1},{"i_lat":-6.215568,"transit":false,"station_id":"BUA","is_transit":false,"time":2,"i_long":106.922662,"station_name":"Buaran","line":1,"distance":3100},{"line":1,"time":1,"i_lat":-6.217455,"transit":false,"station_name":"Klenderbaru","station_id":"KLDB","distance":1305,"i_long":106.939679,"is_transit":false},{"station_id":"CUK","station_name":"Cakung","transit":false,"i_long":106.951283,"i_lat":-6.219053,"line":1,"is_transit":false,"distance":1385,"time":8},{"station_name":"Kranji","transit":false,"station_id":"KRI","is_transit":false,"i_lat":-6.224515,"distance":3097,"time":3,"line":1,"i_long":106.977657},{"transit":false,"distance":2520,"i_lat":-6.236616,"line":1,"station_id":"BKS","is_transit":false,"station_name":"Bekasi","i_long":106.997013,"time":4},{"i_long":107.016735,"line":1,"station_id":"BKST","is_transit":false,"time":2,"distance":2368,"i_lat":-6.248029,"transit":false,"station_name":"Bekasi Timur"},{"time":7,"distance":4460,"i_lat":-6.258864,"line":1,"transit":false,"station_id":"TB","is_transit":false,"i_long":107.055722,"station_name":"Tambun"}],[{"station_id":"BOI","i_long":106.737035,"station_name":"Bojongindah","i_lat":-6.159876,"is_transit":false,"transit":false,"distance":0,"line":5,"time":0},{"is_transit":false,"station_name":"Taman Kota","station_id":"TKO","time":2,"distance":2334,"i_lat":-6.1587309999999995,"i_long":106.756522,"transit":false,"line":5},{"i_lat":-6.161433,"distance":1614,"line":5,"time":2,"transit":false,"station_id":"PSG","is_transit":false,"i_long":106.771379,"station_name":"Pesing"},{"i_long":106.788277,"i_lat":-6.162021,"transit":false,"line":5,"time":2,"distance":2036,"station_name":"Grogol","is_transit":false,"station_id":"GGL"},{"station_name":"Duri","is_transit":true,"i_lat":-6.155215,"line":1,"i_long":106.800832,"transit":true,"distance":1700,"time":3,"station_id":"DU"},{"i_long":106.79867,"station_id":"AK","is_transit":false,"transit":false,"time":4,"i_lat":-6.144674,"distance":1230,"station_name":"Angke","line":1},{"time":9,"line":4,"station_name":"Kampung Bandan","i_long":106.826365,"i_lat":-6.132549,"is_transit":true,"transit":true,"distance":4102,"station_id":"KPB"},{"is_transit":true,"time":3,"distance":1364,"i_lat":-6.137569,"transit":true,"station_name":"Jakarta Kota","station_id":"JAKK","i_long":106.812439,"line":2},{"i_long":106.820901,"is_transit":false,"station_id":"JAY","distance":1264,"line":2,"i_lat":-6.141205,"time":4,"transit":false,"station_name":"Jayakarta"},{"line":2,"distance":1080,"i_lat":-6.149769,"station_id":"MGB","is_transit":false,"transit":false,"time":2,"i_long":106.82482,"station_name":"Manggabesar"},{"transit":false,"station_name":"Sawah Besar","distance":906,"i_long":106.827103,"line":2,"i_lat":-6.160725,"station_id":"SW","time":2,"is_transit":false},{"distance":1149,"station_id":"JUA","time":2,"i_lat":-6.166716,"is_transit":false,"transit":false,"i_long":106.828284,"station_name":"Juanda","line":2},{"is_transit":false,"time":4,"station_id":"GDD","i_long":106.832183,"line":2,"i_lat":-6.186295,"station_name":"Gondangdia","transit":false,"distance":2015},{"station_name":"Cikini","distance":1750,"station_id":"CKI","is_transit":false,"i_lat":-6.198556,"line":2,"transit":false,"i_long":106.840169,"time":3},{"time":4,"i_long":106.84912,"line":2,"transit":true,"station_name":"Manggarai","i_lat":-6.209883,"distance":1590,"station_id":"MRI","is_transit":true},{"station_id":"MTR","distance":1275,"transit":false,"line":1,"i_lat":-6.212485,"i_long":106.858896,"is_transit":false,"station_name":"Matraman","time":2},{"is_transit":false,"i_lat":-6.215091,"time":8,"transit":false,"station_name":"Jatinegara","station_id":"JNG","distance":1377,"i_long":106.86807400000001,"line":1},{"station_name":"Klender","station_id":"KLD","time":3,"line":1,"distance":3395,"is_transit":false,"i_lat":-6.2135,"i_long":106.899548,"transit":false},{"transit":false,"time":2,"line":1,"station_name":"Buaran","i_lat":-6.215568,"is_transit":false,"i_long":106.922662,"distance":3100,"station_id":"BUA"},{"i_lat":-6.217455,"distance":1305,"line":1,"time":1,"station_id":"KLDB","transit":false,"station_name":"Klenderbaru","is_transit":false,"i_long":106.939679},{"time":8,"distance":1385,"i_long":106.951283,"is_transit":false,"transit":false,"i_lat":-6.219053,"station_id":"CUK","line":1,"station_name":"Cakung"},{"i_lat":-6.224515,"transit":false,"station_id":"KRI","station_name":"Kranji","i_long":106.977657,"line":1,"is_transit":false,"distance":3097,"time":3},{"is_transit":false,"station_id":"BKS","line":1,"station_name":"Bekasi","time":4,"i_lat":-6.236616,"distance":2520,"i_long":106.997013,"transit":false},{"station_name":"Bekasi Timur","distance":2368,"time":2,"is_transit":false,"line":1,"transit":false,"i_lat":-6.248029,"station_id":"BKST","i_long":107.016735},{"i_lat":-6.258864,"is_transit":false,"distance":4460,"transit":false,"station_name":"Tambun","i_long":107.055722,"line":1,"station_id":"TB","time":7}],[{"line":5,"i_long":106.737035,"time":0,"transit":false,"station_name":"Bojongindah","is_transit":false,"distance":0,"i_lat":-6.159876,"station_id":"BOI"},{"i_lat":-6.1587309999999995,"distance":2334,"i_long":106.756522,"station_name":"Taman Kota","time":2,"transit":false,"line":5,"is_transit":false,"station_id":"TKO"},{"line":5,"i_long":106.771379,"distance":1614,"transit":false,"station_name":"Pesing","station_id":"PSG","is_transit":false,"time":2,"i_lat":-6.161433},{"i_long":106.788277,"is_transit":false,"distance":2036,"station_name":"Grogol","station_id":"GGL","i_lat":-6.162021,"time":2,"transit":false,"line":5},{"i_lat":-6.155215,"station_id":"DU","line":1,"distance":1700,"is_transit":true,"transit":true,"station_name":"Duri","i_long":106.800832,"time":3},{"station_name":"Tanah Abang","transit":false,"station_id":"THB","distance":3632,"i_long":106.811091,"line":1,"is_transit":false,"i_lat":-6.185545,"time":8},{"is_transit":false,"time":5,"transit":false,"station_id":"KAT","station_name":"Karet","i_lat":-6.20132,"i_long":106.816351,"line":1,"distance":2029},{"station_id":"SUDB","station_name":"Sudirman Baru","time":1,"is_transit":false,"i_long":106.819881,"i_lat":-6.201433,"line":1,"distance":471,"transit":false},{"station_name":"Sudirman","transit":false,"time":1,"distance":280,"i_lat":-6.202263,"station_id":"SUD","line":1,"is_transit":false,"i_long":106.822649},{"i_lat":-6.209883,"transit":true,"station_name":"Manggarai","time":4,"distance":3186,"is_transit":true,"line":2,"station_id":"MRI","i_long":106.84912},{"station_name":"Cikini","time":4,"i_lat":-6.198556,"line":2,"station_id":"CKI","is_transit":false,"i_long":106.840169,"transit":false,"distance":1590},{"station_id":"GDD","is_transit":false,"i_lat":-6.186295,"line":2,"time":3,"i_long":106.832183,"transit":false,"distance":1750,"station_name":"Gondangdia"},{"is_transit":false,"distance":2015,"time":4,"transit":false,"i_lat":-6.166716,"station_id":"JUA","station_name":"Juanda","i_long":106.828284,"line":2},{"time":2,"i_long":106.827103,"line":2,"is_transit":false,"station_name":"Sawah Besar","transit":false,"i_lat":-6.160725,"station_id":"SW","distance":1149},{"station_id":"MGB","transit":false,"station_name":"Manggabesar","is_transit":false,"time":2,"i_lat":-6.149769,"distance":906,"line":2,"i_long":106.82482},{"transit":false,"i_lat":-6.141205,"line":2,"station_id":"JAY","time":2,"i_long":106.820901,"distance":1080,"station_name":"Jayakarta","is_transit":false},{"i_long":106.812439,"is_transit":true,"station_id":"JAKK","distance":1264,"time":4,"line":2,"i_lat":-6.137569,"station_name":"Jakarta Kota","transit":true},{"time":3,"i_long":106.826365,"i_lat":-6.132549,"station_name":"Kampung Bandan","transit":true,"distance":1364,"station_id":"KPB","is_transit":true,"line":4},{"line":11,"is_transit":false,"station_name":"Rajawali","transit":false,"distance":1444,"time":3,"i_lat":-6.14505,"station_id":"RJW","i_long":106.836569},{"station_name":"Kemayoran","transit":false,"is_transit":false,"line":11,"station_id":"KMO","distance":1901,"time":5,"i_long":106.839204,"i_lat":-6.161728},{"transit":false,"station_name":"Pasar Senen","station_id":"PSE","i_long":106.84368,"distance":1436,"line":11,"i_lat":-6.174784,"is_transit":false,"time":4},{"station_name":"Gang Sentiong","is_transit":false,"distance":1567,"i_long":106.850107,"line":11,"i_lat":-6.185975,"time":8,"transit":false,"station_id":"GST"},{"line":11,"i_long":106.855437,"station_id":"KMT","station_name":"Kramat","distance":973,"is_transit":false,"i_lat":-6.193792,"time":1,"transit":false},{"distance":1829,"line":11,"transit":false,"i_long":106.861737,"is_transit":false,"station_id":"POK","station_name":"Pondok Jati","time":2,"i_lat":-6.209188},{"station_id":"JNG","is_transit":true,"line":1,"station_name":"Jatinegara","distance":1236,"i_lat":-6.215091,"i_long":106.86807400000001,"time":9,"transit":true},{"station_name":"Klender","i_long":106.899548,"line":1,"transit":false,"i_lat":-6.2135,"station_id":"KLD","is_transit":false,"time":3,"distance":3395},{"distance":3100,"i_long":106.922662,"station_id":"BUA","line":1,"time":2,"station_name":"Buaran","i_lat":-6.215568,"transit":false,"is_transit":false},{"station_id":"KLDB","station_name":"Klenderbaru","i_lat":-6.217455,"transit":false,"is_transit":false,"time":1,"i_long":106.939679,"line":1,"distance":1305},{"station_id":"CUK","station_name":"Cakung","is_transit":false,"transit":false,"time":8,"i_lat":-6.219053,"i_long":106.951283,"line":1,"distance":1385},{"distance":3097,"station_name":"Kranji","is_transit":false,"transit":false,"time":3,"i_long":106.977657,"i_lat":-6.224515,"station_id":"KRI","line":1},{"distance":2520,"i_lat":-6.236616,"is_transit":false,"i_long":106.997013,"station_name":"Bekasi","line":1,"time":4,"station_id":"BKS","transit":false},{"i_long":107.016735,"time":2,"distance":2368,"station_name":"Bekasi Timur","station_id":"BKST","transit":false,"is_transit":false,"i_lat":-6.248029,"line":1},{"transit":false,"i_lat":-6.258864,"i_long":107.055722,"line":1,"time":7,"distance":4460,"is_transit":false,"station_name":"Tambun","station_id":"TB"}]]}