{"data":[[{"is_transit":false,"station_id":"BOI","station_name":"Bojongindah","i_long":106.737035,"line":5,"time":0,"distance":0,"transit":false,"i_lat":-6.159876},{"station_id":"TKO","i_lat":-6.1587309999999995,"line":5,"distance":2334,"i_long":106.756522,"time":2,"is_transit":false,"transit":false,"station_name":"Taman Kota"},{"station_id":"PSG","i_lat":-6.161433,"station_name":"Pesing","distance":1614,"is_transit":false,"line":5,"transit":false,"i_long":106.771379,"time":2},{"is_transit":false,"line":5,"station_name":"Grogol","i_long":106.788277,"distance":2036,"time":2,"i_lat":-6.162021,"transit":false,"station_id":"GRG"},{"time":3,"station_id":"DU","transit":true,"i_lat":-6.155215,"i_long":106.800832,"station_name":"Duri","distance":1700,"line":1,"is_transit":true},{"transit":false,"station_id":"THB","i_lat":-6.185545,"station_name":"Tanah Abang","line":1,"i_long":106.811091,"distance":3632,"is_transit":false,"time":8},{"station_name":"Karet","i_long":106.816351,"time":5,"distance":2029,"i_lat":-6.20132,"station_id":"KAT","is_transit":false,"transit":false,"line":1},{"transit":false,"station_name":"Sudirman Baru","station_id":"SUDB","distance":471,"time":1,"i_lat":-6.201433,"i_long":106.819881,"line":1,"is_transit":false},{"i_long":106.822649,"i_lat":-6.202263,"line":1,"is_transit":false,"distance":280,"station_id":"SUD","transit":false,"time":1,"station_name":"Sudirman"},{"transit":false,"station_id":"MRI","is_transit":false,"station_name":"Manggarai","i_lat":-6.209883,"time":4,"i_long":106.84912,"distance":3186,"line":2},{"is_transit":false,"i_long":106.858896,"transit":false,"time":2,"line":1,"station_name":"Matraman","i_lat":-6.212485,"distance":1275,"station_id":"MTR"},{"time":8,"station_id":"JNG","transit":false,"i_lat":-6.215091,"distance":1377,"is_transit":false,"station_name":"Jatinegara","i_long":106.86807400000001,"line":1},{"time":3,"distance":3395,"is_transit":false,"transit":false,"i_lat":-6.2135,"i_long":106.899548,"station_name":"Klender","station_id":"KLD","line":1},{"station_name":"Buaran","transit":false,"line":1,"time":2,"i_lat":-6.215568,"station_id":"BUA","is_transit":false,"distance":3100,"i_long":106.922662},{"station_name":"Klenderbaru","time":1,"i_lat":-6.217455,"distance":1305,"station_id":"KLDB","line":1,"is_transit":false,"i_long":106.939679,"transit":false},{"transit":false,"time":8,"station_id":"CUK","i_lat":-6.219053,"distance":1385,"is_transit":false,"i_long":106.951283,"station_name":"Cakung","line":1},{"time":3,"is_transit":false,"transit":false,"i_long":106.977657,"line":1,"distance":3097,"i_lat":-6.224515,"station_id":"KRI","station_name":"Kranji"},{"station_name":"Bekasi","time":4,"is_transit":false,"i_lat":-6.236616,"i_long":106.997013,"station_id":"BKS","line":1,"distance":2520,"transit":false},{"distance":2368,"is_transit":false,"i_lat":-6.248029,"i_long":107.016735,"station_id":"BKST","line":1,"transit":false,"time":2,"station_name":"Bekasi Timur"},{"line":1,"station_name":"Tambun","transit":false,"is_transit":false,"i_long":107.055722,"i_lat":-6.258864,"distance":4460,"time":7,"station_id":"TB"}],[{"transit":false,"is_transit":false,"time":0,"station_name":"Bojongindah","line":5,"i_lat":-6.159876,"distance":0,"i_long":106.737035,"station_id":"BOI"},{"i_long":106.756522,"station_name":"Taman Kota","time":2,"distance":2334,"station_id":"TKO","line":5,"transit":false,"i_lat":-6.1587309999999995,"is_transit":false},{"station_name":"Pesing","i_long":106.771379,"distance":1614,"line":5,"is_transit":false,"station_id":"PSG","time":2,"i_lat":-6.161433,"transit":false},{"i_long":106.788277,"transit":false,"is_transit":false,"i_lat":-6.162021,"line":5,"station_id":"GRG","station_name":"Grogol","distance":2036,"time":2},{"transit":true,"station_id":"DU","i_lat":-6.155215,"time":3,"line":1,"i_long":106.800832,"station_name":"Duri","is_transit":true,"distance":1700},{"i_lat":-6.144674,"transit":false,"line":1,"station_name":"Angke","time":4,"is_transit":false,"i_long":106.79867,"station_id":"AK","distance":1230},{"distance":4102,"i_long":106.826365,"station_name":"Kampung Bandan","time":9,"transit":true,"is_transit":true,"station_id":"KPB","i_lat":-6.132549,"line":4},{"station_id":"RJW","distance":1444,"time":3,"i_long":106.836569,"is_transit":false,"station_name":"Rajawali","line":11,"i_lat":-6.14505,"transit":false},{"transit":false,"station_name":"Kemayoran","i_lat":-6.161728,"is_transit":false,"time":5,"line":11,"distance":1901,"station_id":"KMO","i_long":106.839204},{"i_lat":-6.174784,"transit":false,"station_name":"Pasar Senen","i_long":106.84368,"distance":1436,"time":4,"station_id":"PSE","line":11,"is_transit":false},{"i_lat":-6.185975,"transit":false,"station_id":"GST","time":8,"station_name":"Gang Sentiong","line":11,"is_transit":false,"i_long":106.850107,"distance":1567},{"i_lat":-6.193792,"is_transit":false,"transit":false,"station_name":"Kramat","distance":973,"line":11,"i_long":106.855437,"station_id":"KMT","time":1},{"time":2,"i_long":106.861737,"station_name":"Pondok Jati","i_lat":-6.209188,"transit":false,"line":11,"station_id":"POK","is_transit":false,"distance":1829},{"i_lat":-6.215091,"i_long":106.86807400000001,"line":1,"time":9,"transit":true,"station_id":"JNG","station_name":"Jatinegara","is_transit":true,"distance":1236},{"is_transit":false,"transit":false,"distance":3395,"i_long":106.899548,"station_name":"Klender","line":1,"i_lat":-6.2135,"station_id":"KLD","time":3},{"i_lat":-6.215568,"distance":3100,"time":2,"transit":false,"station_id":"BUA","is_transit":false,"i_long":106.922662,"station_name":"Buaran","line":1},{"line":1,"time":1,"i_lat":-6.217455,"station_id":"KLDB","station_name":"Klenderbaru","i_long":106.939679,"transit":false,"is_transit":false,"distance":1305},{"time":8,"i_long":106.951283,"line":1,"distance":1385,"station_name":"Cakung","transit":false,"is_transit":false,"i_lat":-6.219053,"station_id":"CUK"},{"transit":false,"line":1,"is_transit":false,"i_lat":-6.224515,"distance":3097,"station_name":"Kranji","i_long":106.977657,"time":3,"station_id":"KRI"},{"station_name":"Bekasi","distance":2520,"i_lat":-6.236616,"i_long":106.997013,"transit":false,"line":1,"time":4,"is_transit":false,"station_id":"BKS"},{"i_lat":-6.248029,"time":2,"i_long":107.016735,"station_name":"Bekasi Timur","is_transit":false,"distance":2368,"line":1,"transit":false,"station_id":"BKST"},{"transit":false,"i_lat":-6.258864,"station_name":"Tambun","line":1,"distance":4460,"is_transit":false,"time":7,"station_id":"TB","i_long":107.055722}],[{"station_id":"BOI","i_lat":-6.159876,"transit":false,"station_name":"Bojongindah","i_long":106.737035,"line":5,"distance":0,"time":0,"is_transit":false},{"is_transit":false,"transit":false,"distance":2334,"i_long":106.756522,"station_name":"Taman Kota","time":2,"i_lat":-6.1587309999999995,"station_id":"TKO","line":5},{"distance":1614,"station_name":"Pesing","time":2,"station_id":"PSG","is_transit":false,"i_lat":-6.161433,"transit":false,"line":5,"i_long":106.771379},{"distance":2036,"station_name":"Grogol","is_transit":false,"line":5,"transit":false,"time":2,"i_lat":-6.162021,"station_id":"GRG","i_long":106.788277},{"transit":true,"station_name":"Duri","i_long":106.800832,"station_id":"DU","is_transit":true,"distance":1700,"time":3,"line":1,"i_lat":-6.155215},{"station_name":"Angke","i_lat":-6.144674,"i_long":106.79867,"transit":false,"distance":1230,"is_transit":false,"station_id":"AK","line":1,"time":4},{"distance":4102,"time":9,"station_name":"Kampung Bandan","i_long":106.826365,"transit":true,"station_id":"KPB","i_lat":-6.132549,"is_transit":true,"line":4},{"time":3,"is_transit":true,"i_lat":-6.137569,"line":2,"station_id":"JAKK","distance":1364,"station_name":"Jakarta Kota","i_long":106.812439,"transit":true},{"line":2,"station_id":"JAY","is_transit":false,"station_name":"Jayakarta","distance":1264,"i_long":106.820901,"i_lat":-6.141205,"time":4,"transit":false},{"station_name":"Manggabesar","transit":false,"is_transit":false,"i_lat":-6.149769,"time":2,"i_long":106.82482,"distance":1080,"line":2,"station_id":"MGB"},{"time":2,"distance":906,"transit":false,"line":2,"i_lat":-6.160725,"station_name":"Sawah Besar","i_long":106.827103,"station_id":"SW","is_transit":false},{"station_id":"JUA","transit":false,"i_lat":-6.166716,"i_long":106.828284,"is_transit":false,"line":2,"time":2,"station_name":"Juanda","distance":1149},{"i_lat":-6.186295,"distance":2015,"station_name":"Gondangdia","is_transit":false,"station_id":"GDD","transit":false,"i_long":106.832183,"line":2,"time":4},{"line":2,"is_transit":false,"distance":1750,"station_name":"Cikini","i_long":106.840169,"station_id":"CKI","transit":false,"time":3,"i_lat":-6.198556},{"time":4,"i_lat":-6.209883,"station_id":"MRI","is_transit":true,"line":2,"distance":1590,"station_name":"Manggarai","transit":true,"i_long":106.84912},{"time":2,"i_lat":-6.212485,"transit":false,"station_name":"Matraman","line":1,"distance":1275,"station_id":"MTR","is_transit":false,"i_long":106.858896},{"line":1,"time":8,"distance":1377,"i_lat":-6.215091,"station_id":"JNG","transit":false,"is_transit":false,"i_long":106.86807400000001,"station_name":"Jatinegara"},{"i_long":106.899548,"i_lat":-6.2135,"transit":false,"distance":3395,"station_name":"Klender","is_transit":false,"time":3,"station_id":"KLD","line":1},{"line":1,"station_id":"BUA","time":2,"transit":false,"station_name":"Buaran","i_lat":-6.215568,"i_long":106.922662,"is_transit":false,"distance":3100},{"line":1,"i_lat":-6.217455,"is_transit":false,"transit":false,"distance":1305,"station_id":"KLDB","station_name":"Klenderbaru","time":1,"i_long":106.939679},{"time":8,"distance":1385,"i_long":106.951283,"line":1,"transit":false,"is_transit":false,"station_name":"Cakung","i_lat":-6.219053,"station_id":"CUK"},{"transit":false,"i_lat":-6.224515,"station_id":"KRI","time":3,"i_long":106.977657,"station_name":"Kranji","is_transit":false,"distance":3097,"line":1},{"i_long":106.997013,"line":1,"i_lat":-6.236616,"time":4,"transit":false,"station_id":"BKS","distance":2520,"station_name":"Bekasi","is_transit":false},{"transit":false,"i_long":107.016735,"line":1,"station_id":"BKST","station_name":"Bekasi Timur","i_lat":-6.248029,"is_transit":false,"time":2,"distance":2368},{"line":1,"time":7,"transit":false,"station_id":"TB","i_lat":-6.258864,"is_transit":false,"station_name":"Tambun","distance":4460,"i_long":107.055722}],[{"distance":0,"time":0,"station_name":"Bojongindah","i_lat":-6.159876,"station_id":"BOI","is_transit":false,"line":5,"transit":false,"i_long":106.737035},{"distance":2334,"time":2,"i_long":106.756522,"line":5,"is_transit":false,"transit":false,"i_lat":-6.1587309999999995,"station_id":"TKO","station_name":"Taman Kota"},{"transit":false,"i_lat":-6.161433,"is_transit":false,"i_long":106.771379,"station_id":"PSG","station_name":"Pesing","distance":1614,"line":5,"time":2},{"station_name":"Grogol","distance":2036,"line":5,"transit":false,"time":2,"i_long":106.788277,"is_transit":false,"station_id":"GRG","i_lat":-6.162021},{"time":3,"distance":1700,"station_name":"Duri","line":1,"i_lat":-6.155215,"station_id":"DU","transit":true,"is_transit":true,"i_long":106.800832},{"transit":false,"station_name":"Tanah Abang","distance":3632,"time":8,"is_transit":false,"line":1,"station_id":"THB","i_lat":-6.185545,"i_long":106.811091},{"station_id":"KAT","is_transit":false,"i_long":106.816351,"distance":2029,"time":5,"i_lat":-6.20132,"station_name":"Karet","transit":false,"line":1},{"is_transit":false,"station_id":"SUDB","time":1,"distance":471,"i_lat":-6.201433,"station_name":"Sudirman Baru","transit":false,"i_long":106.819881,"line":1},{"is_transit":false,"i_long":106.822649,"distance":280,"station_name":"Sudirman","i_lat":-6.202263,"time":1,"transit":false,"station_id":"SUD","line":1},{"i_lat":-6.209883,"distance":3186,"line":2,"time":4,"i_long":106.84912,"station_id":"MRI","transit":true,"station_name":"Manggarai","is_transit":true},{"distance":1590,"station_name":"Cikini","i_long":106.840169,"line":2,"station_id":"CKI","i_lat":-6.198556,"is_transit":false,"time":4,"transit":false},{"distance":1750,"i_long":106.832183,"station_id":"GDD","line":2,"time":3,"transit":false,"is_transit":false,"station_name":"Gondangdia","i_lat":-6.186295},{"distance":2015,"i_lat":-6.166716,"station_name":"Juanda","line":2,"i_long":106.828284,"station_id":"JUA","time":4,"is_transit":false,"transit":false},{"time":2,"i_long":106.827103,"transit":false,"line":2,"is_transit":false,"station_name":"Sawah Besar","distance":1149,"station_id":"SW","i_lat":-6.160725},{"station_name":"Manggabesar","time":2,"station_id":"MGB","transit":false,"line":2,"distance":906,"is_transit":false,"i_lat":-6.149769,"i_long":106.82482},{"line":2,"i_lat":-6.141205,"transit":false,"time":2,"i_long":106.820901,"station_name":"Jayakarta","is_transit":false,"station_id":"JAY","distance":1080},{"i_lat":-6.137569,"transit":true,"is_transit":true,"distance":1264,"station_name":"Jakarta Kota","time":4,"station_id":"JAKK","line":2,"i_long":106.812439},{"i_long":106.826365,"transit":true,"station_id":"KPB","line":4,"station_name":"Kampung Bandan","distance":1364,"i_lat":-6.132549,"time":3,"is_transit":true},{"station_id":"RJW","station_name":"Rajawali","transit":false,"is_transit":false,"time":3,"i_long":106.836569,"line":11,"distance":1444,"i_lat":-6.14505},{"distance":1901,"is_transit":false,"time":5,"i_long":106.839204,"line":11,"station_id":"KMO","transit":false,"station_name":"Kemayoran","i_lat":-6.161728},{"is_transit":false,"station_name":"Pasar Senen","i_lat":-6.174784,"time":4,"distance":1436,"transit":false,"station_id":"PSE","line":11,"i_long":106.84368},{"station_id":"GST","station_name":"Gang Sentiong","line":11,"is_transit":false,"distance":1567,"transit":false,"time":8,"i_lat":-6.185975,"i_long":106.850107},{"transit":false,"distance":973,"station_id":"KMT","station_name":"Kramat","is_transit":false,"time":1,"i_lat":-6.193792,"i_long":106.855437,"line":11},{"time":2,"i_lat":-6.209188,"is_transit":false,"i_long":106.861737,"transit":false,"line":11,"station_id":"POK","station_name":"Pondok Jati","distance":1829},{"is_transit":true,"distance":1236,"time":9,"station_id":"JNG","i_long":106.86807400000001,"i_lat":-6.215091,"station_name":"Jatinegara","line":1,"transit":true},{"station_id":"KLD","station_name":"Klender","time":3,"is_transit":false,"distance":3395,"i_long":106.899548,"line":1,"transit":false,"i_lat":-6.2135},{"i_long":106.922662,"transit":false,"station_name":"Buaran","is_transit":false,"station_id":"BUA","time":2,"line":1,"distance":3100,"i_lat":-6.215568},{"i_long":106.939679,"station_name":"Klenderbaru","is_transit":false,"station_id":"KLDB","distance":1305,"time":1,"line":1,"transit":false,"i_lat":-6.217455},{"transit":false,"time":8,"station_name":"Cakung","station_id":"CUK","is_transit":false,"i_lat":-6.219053,"distance":1385,"i_long":106.951283,"line":1},{"i_long":106.977657,"is_transit":false,"distance":3097,"station_id":"KRI","transit":false,"time":3,"line":1,"station_name":"Kranji","i_lat":-6.224515},{"i_long":106.997013,"is_transit":false,"transit":false,"i_lat":-6.236616,"line":1,"station_name":"Bekasi","time":4,"distance":2520,"station_id":"BKS"},{"station_name":"Bekasi Timur","line":1,"station_id":"BKST","i_lat":-6.248029,"time":2,"transit":false,"i_long":107.016735,"is_transit":false,"distance":2368},{"transit":false,"is_transit":false,"distance":4460,"i_long":107.055722,"time":7,"station_name":"Tambun","i_lat":-6.258864,"line":1,"station_id":"TB"}]]}