{"data":[[{"distance":0,"station_name":"Bojongindah","time":0,"i_lat":-6.159876,"station_id":"BOI","transit":false,"is_transit":false,"line":0,"i_long":106.737035},{"i_lat":-6.1587309999999995,"station_id":"TKO","is_transit":false,"time":2,"station_name":"Taman Kota","transit":false,"distance":2334,"i_long":106.756522,"line":5},{"time":2,"distance":1614,"i_lat":-6.161433,"i_long":106.771379,"is_transit":false,"line":5,"station_name":"Pesing","transit":false,"station_id":"PSG"},{"line":5,"transit":false,"is_transit":false,"time":2,"distance":2036,"i_lat":-6.162021,"station_name":"Grogol","station_id":"GGL","i_long":106.788277},{"station_name":"Duri","transit":true,"i_long":106.800832,"line":1,"i_lat":-6.155215,"is_transit":true,"station_id":"DU","time":3,"distance":1700},{"distance":3632,"line":1,"is_transit":true,"i_lat":-6.185545,"station_id":"THB","transit":false,"time":8,"station_name":"Tanah Abang","i_long":106.811091},{"time":5,"station_name":"Karet","i_lat":-6.20132,"i_long":106.816351,"transit":false,"is_transit":false,"station_id":"KAT","distance":2029,"line":1},{"i_lat":-6.201433,"distance":471,"is_transit":false,"station_name":"Sudirman Baru","transit":false,"i_long":106.819881,"time":1,"station_id":"SUDB","line":1},{"i_long":106.822649,"line":1,"station_id":"SUD","transit":false,"i_lat":-6.202263,"time":1,"distance":280,"station_name":"Sudirman","is_transit":false},{"is_transit":true,"i_long":106.84912,"time":4,"station_name":"Manggarai","line":0,"transit":false,"i_lat":-6.209883,"station_id":"MRI","distance":3186},{"station_id":"MTR","station_name":"Matraman","is_transit":false,"transit":false,"distance":1275,"i_lat":-6.212485,"time":2,"i_long":106.858896,"line":1},{"time":8,"line":0,"station_id":"JNG","distance":1377,"i_long":106.86807400000001,"station_name":"Jatinegara","is_transit":true,"transit":false,"i_lat":-6.215091}],[{"station_name":"Bojongindah","i_long":106.737035,"distance":0,"i_lat":-6.159876,"transit":false,"is_transit":false,"line":0,"station_id":"BOI","time":0},{"station_name":"Taman Kota","i_lat":-6.1587309999999995,"transit":false,"station_id":"TKO","is_transit":false,"time":2,"distance":2334,"i_long":106.756522,"line":5},{"i_lat":-6.161433,"station_id":"PSG","is_transit":false,"transit":false,"time":2,"distance":1614,"i_long":106.771379,"line":5,"station_name":"Pesing"},{"station_name":"Grogol","is_transit":false,"distance":2036,"transit":false,"time":2,"i_lat":-6.162021,"i_long":106.788277,"station_id":"GGL","line":5},{"i_long":106.800832,"station_id":"DU","transit":true,"line":1,"time":3,"is_transit":true,"distance":1700,"station_name":"Duri","i_lat":-6.155215},{"time":4,"is_transit":false,"transit":false,"distance":1230,"line":0,"station_name":"Angke","i_long":106.79867,"station_id":"AK","i_lat":-6.144674},{"station_id":"KPB","is_transit":true,"station_name":"Kampung Bandan","time":9,"distance":4102,"i_long":106.826365,"transit":true,"i_lat":-6.132549,"line":0},{"distance":1444,"i_long":106.836569,"line":11,"time":3,"i_lat":-6.14505,"station_id":"RJW","station_name":"Rajawali","transit":false,"is_transit":false},{"i_lat":-6.161728,"station_name":"Kemayoran","time":5,"is_transit":false,"i_long":106.839204,"distance":1901,"line":11,"transit":false,"station_id":"KMO"},{"is_transit":false,"station_id":"PSE","transit":false,"station_name":"Pasar Senen","i_long":106.84368,"time":4,"line":11,"distance":1436,"i_lat":-6.174784},{"distance":1567,"station_name":"Gang Sentiong","transit":false,"is_transit":false,"time":8,"station_id":"GST","i_lat":-6.185975,"line":11,"i_long":106.850107},{"i_long":106.855437,"time":1,"line":11,"station_id":"KMT","is_transit":false,"distance":973,"transit":false,"i_lat":-6.193792,"station_name":"Kramat"},{"time":2,"station_name":"Pondok Jati","is_transit":false,"i_long":106.861737,"distance":1829,"i_lat":-6.209188,"station_id":"POK","transit":false,"line":11},{"station_name":"Jatinegara","i_lat":-6.215091,"is_transit":true,"transit":false,"i_long":106.86807400000001,"station_id":"JNG","line":0,"distance":1236,"time":9}],[{"line":0,"transit":false,"time":0,"is_transit":false,"station_id":"BOI","distance":0,"i_lat":-6.159876,"i_long":106.737035,"station_name":"Bojongindah"},{"i_long":106.756522,"is_transit":false,"time":2,"station_name":"Taman Kota","station_id":"TKO","i_lat":-6.1587309999999995,"line":5,"distance":2334,"transit":false},{"time":2,"i_lat":-6.161433,"line":5,"station_name":"Pesing","distance":1614,"is_transit":false,"i_long":106.771379,"transit":false,"station_id":"PSG"},{"time":2,"station_id":"GGL","is_transit":false,"transit":false,"i_long":106.788277,"station_name":"Grogol","i_lat":-6.162021,"distance":2036,"line":5},{"station_name":"Duri","time":3,"i_lat":-6.155215,"line":1,"is_transit":true,"transit":true,"i_long":106.800832,"station_id":"DU","distance":1700},{"line":0,"is_transit":false,"station_id":"AK","distance":1230,"i_long":106.79867,"time":4,"transit":false,"i_lat":-6.144674,"station_name":"Angke"},{"i_long":106.826365,"is_transit":true,"station_id":"KPB","time":9,"i_lat":-6.132549,"line":0,"distance":4102,"station_name":"Kampung Bandan","transit":false},{"station_id":"JAKK","line":0,"i_long":106.812439,"station_name":"Jakarta Kota","is_transit":true,"transit":true,"i_lat":-6.137569,"time":3,"distance":1364},{"station_name":"Jayakarta","is_transit":false,"i_lat":-6.141205,"station_id":"JAY","time":4,"transit":false,"i_long":106.820901,"line":7,"distance":1264},{"station_id":"MGB","is_transit":false,"transit":false,"distance":1080,"i_lat":-6.149769,"line":2,"i_long":106.82482,"time":2,"station_name":"Manggabesar"},{"station_name":"Sawah Besar","is_transit":false,"station_id":"SW","time":2,"distance":906,"transit":false,"i_long":106.827103,"line":2,"i_lat":-6.160725},{"station_id":"JUA","distance":1149,"line":2,"time":2,"station_name":"Juanda","i_lat":-6.166716,"is_transit":false,"transit":false,"i_long":106.828284},{"distance":2015,"is_transit":false,"station_name":"Gondangdia","station_id":"GDD","i_lat":-6.186295,"transit":false,"i_long":106.832183,"time":4,"line":2},{"distance":1750,"station_name":"Cikini","station_id":"CKI","is_transit":false,"line":0,"i_lat":-6.198556,"time":3,"transit":false,"i_long":106.840169},{"station_name":"Manggarai","is_transit":true,"time":4,"distance":1590,"i_long":106.84912,"i_lat":-6.209883,"line":0,"transit":true,"station_id":"MRI"},{"transit":false,"time":2,"distance":1275,"i_long":106.858896,"station_name":"Matraman","is_transit":false,"i_lat":-6.212485,"line":1,"station_id":"MTR"},{"transit":false,"i_lat":-6.215091,"station_name":"Jatinegara","station_id":"JNG","time":8,"line":0,"i_long":106.86807400000001,"is_transit":true,"distance":1377}],[{"is_transit":false,"i_lat":-6.159876,"i_long":106.737035,"line":0,"station_id":"BOI","distance":0,"transit":false,"time":0,"station_name":"Bojongindah"},{"is_transit":false,"station_id":"TKO","line":5,"station_name":"Taman Kota","i_lat":-6.1587309999999995,"i_long":106.756522,"transit":false,"time":2,"distance":2334},{"distance":1614,"station_name":"Pesing","is_transit":false,"time":2,"i_lat":-6.161433,"i_long":106.771379,"station_id":"PSG","transit":false,"line":5},{"line":5,"time":2,"is_transit":false,"i_lat":-6.162021,"i_long":106.788277,"transit":false,"station_name":"Grogol","distance":2036,"station_id":"GGL"},{"transit":true,"i_long":106.800832,"time":3,"line":1,"i_lat":-6.155215,"station_id":"DU","distance":1700,"is_transit":true,"station_name":"Duri"},{"station_name":"Tanah Abang","is_transit":true,"i_lat":-6.185545,"station_id":"THB","time":8,"i_long":106.811091,"distance":3632,"transit":false,"line":1},{"i_lat":-6.20132,"transit":false,"line":1,"distance":2029,"is_transit":false,"station_id":"KAT","i_long":106.816351,"station_name":"Karet","time":5},{"i_lat":-6.201433,"station_id":"SUDB","station_name":"Sudirman Baru","distance":471,"transit":false,"time":1,"line":1,"is_transit":false,"i_long":106.819881},{"time":1,"distance":280,"station_name":"Sudirman","is_transit":false,"line":1,"transit":false,"i_long":106.822649,"station_id":"SUD","i_lat":-6.202263},{"is_transit":true,"transit":true,"i_lat":-6.209883,"station_id":"MRI","time":4,"i_long":106.84912,"distance":3186,"line":0,"station_name":"Manggarai"},{"is_transit":false,"line":0,"i_lat":-6.198556,"i_long":106.840169,"transit":false,"station_id":"CKI","station_name":"Cikini","time":4,"distance":1590},{"line":2,"distance":1750,"transit":false,"station_name":"Gondangdia","i_lat":-6.186295,"is_transit":false,"time":3,"station_id":"GDD","i_long":106.832183},{"time":4,"station_id":"JUA","is_transit":false,"i_lat":-6.166716,"transit":false,"distance":2015,"station_name":"Juanda","line":2,"i_long":106.828284},{"transit":false,"time":2,"distance":1149,"station_name":"Sawah Besar","line":2,"station_id":"SW","is_transit":false,"i_long":106.827103,"i_lat":-6.160725},{"time":2,"distance":906,"i_long":106.82482,"station_id":"MGB","station_name":"Manggabesar","line":2,"i_lat":-6.149769,"is_transit":false,"transit":false},{"distance":1080,"i_lat":-6.141205,"i_long":106.820901,"time":2,"line":7,"station_name":"Jayakarta","station_id":"JAY","is_transit":false,"transit":false},{"station_name":"Jakarta Kota","station_id":"JAKK","is_transit":true,"i_lat":-6.137569,"line":0,"time":4,"transit":true,"i_long":106.812439,"distance":1264},{"i_lat":-6.132549,"is_transit":true,"line":0,"station_name":"Kampung Bandan","transit":true,"time":3,"i_long":106.826365,"distance":1364,"station_id":"KPB"},{"i_lat":-6.14505,"station_name":"Rajawali","transit":false,"line":11,"station_id":"RJW","distance":1444,"i_long":106.836569,"time":3,"is_transit":false},{"time":5,"transit":false,"i_long":106.839204,"station_name":"Kemayoran","i_lat":-6.161728,"line":11,"is_transit":false,"distance":1901,"station_id":"KMO"},{"distance":1436,"station_name":"Pasar Senen","i_long":106.84368,"i_lat":-6.174784,"line":11,"time":4,"transit":false,"is_transit":false,"station_id":"PSE"},{"station_id":"GST","distance":1567,"transit":false,"line":11,"i_lat":-6.185975,"is_transit":false,"station_name":"Gang Sentiong","i_long":106.850107,"time":8},{"is_transit":false,"i_long":106.855437,"time":1,"line":11,"station_id":"KMT","distance":973,"station_name":"Kramat","transit":false,"i_lat":-6.193792},{"transit":false,"i_long":106.861737,"i_lat":-6.209188,"distance":1829,"station_name":"Pondok Jati","time":2,"line":11,"station_id":"POK","is_transit":false},{"i_long":106.86807400000001,"is_transit":true,"i_lat":-6.215091,"station_id":"JNG","station_name":"Jatinegara","time":9,"line":0,"transit":false,"distance":1236}]]}