{"data":[[{"i_lat":-6.159876,"distance":0,"transit":false,"i_long":106.737035,"station_id":"BOI","time":0,"line":5,"is_transit":false,"station_name":"Bojongindah"},{"line":5,"is_transit":false,"distance":2334,"station_name":"Taman Kota","time":2,"i_lat":-6.1587309999999995,"i_long":106.756522,"station_id":"TKO","transit":false},{"line":5,"distance":1614,"station_name":"Pesing","station_id":"PSG","transit":false,"i_lat":-6.161433,"i_long":106.771379,"is_transit":false,"time":2},{"is_transit":false,"transit":false,"station_name":"Grogol","i_long":106.788277,"i_lat":-6.162021,"time":2,"distance":2036,"line":5,"station_id":"GGL"},{"i_long":106.800832,"time":3,"station_id":"DU","i_lat":-6.155215,"line":1,"is_transit":true,"transit":true,"station_name":"Duri","distance":1700},{"station_id":"AK","transit":false,"is_transit":false,"station_name":"Angke","distance":1230,"line":1,"i_long":106.79867,"time":4,"i_lat":-6.144674},{"time":9,"i_lat":-6.132549,"distance":4102,"is_transit":true,"station_id":"KPB","station_name":"Kampung Bandan","line":4,"transit":true,"i_long":106.826365},{"i_lat":-6.128023,"i_long":106.84464,"time":4,"line":4,"transit":false,"is_transit":false,"station_id":"AC","station_name":"Ancol","distance":2185},{"line":4,"distance":4566,"transit":false,"i_lat":-6.1109480000000005,"i_long":106.880089,"time":9,"station_id":"TPK","station_name":"Tanjung Priuk","is_transit":false}],[{"distance":0,"is_transit":false,"i_lat":-6.159876,"line":5,"i_long":106.737035,"transit":false,"station_name":"Bojongindah","station_id":"BOI","time":0},{"is_transit":false,"i_lat":-6.1587309999999995,"station_id":"TKO","transit":false,"i_long":106.756522,"time":2,"distance":2334,"line":5,"station_name":"Taman Kota"},{"time":2,"line":5,"i_lat":-6.161433,"is_transit":false,"transit":false,"station_id":"PSG","distance":1614,"station_name":"Pesing","i_long":106.771379},{"i_lat":-6.162021,"station_name":"Grogol","line":5,"i_long":106.788277,"time":2,"station_id":"GGL","is_transit":false,"transit":false,"distance":2036},{"time":3,"distance":1700,"station_name":"Duri","i_lat":-6.155215,"line":1,"station_id":"DU","i_long":106.800832,"transit":true,"is_transit":true},{"line":1,"time":8,"transit":false,"i_long":106.811091,"distance":3632,"is_transit":false,"station_name":"Tanah Abang","station_id":"THB","i_lat":-6.185545},{"is_transit":false,"time":5,"i_long":106.816351,"station_name":"Karet","transit":false,"line":1,"station_id":"KAT","i_lat":-6.20132,"distance":2029},{"i_long":106.819881,"station_name":"Sudirman Baru","i_lat":-6.201433,"line":1,"is_transit":false,"station_id":"SUDB","distance":471,"transit":false,"time":1},{"station_id":"SUD","time":1,"transit":false,"i_long":106.822649,"station_name":"Sudirman","i_lat":-6.202263,"is_transit":false,"distance":280,"line":1},{"transit":true,"station_name":"Manggarai","time":4,"distance":3186,"i_lat":-6.209883,"i_long":106.84912,"line":2,"is_transit":true,"station_id":"MRI"},{"i_long":106.840169,"i_lat":-6.198556,"line":2,"time":4,"station_name":"Cikini","station_id":"CKI","transit":false,"is_transit":false,"distance":1590},{"i_lat":-6.186295,"distance":1750,"station_name":"Gondangdia","time":3,"is_transit":false,"transit":false,"line":2,"station_id":"GDD","i_long":106.832183},{"line":2,"station_name":"Juanda","transit":false,"i_lat":-6.166716,"distance":2015,"time":4,"is_transit":false,"station_id":"JUA","i_long":106.828284},{"station_id":"SW","i_long":106.827103,"line":2,"station_name":"Sawah Besar","transit":false,"i_lat":-6.160725,"is_transit":false,"time":2,"distance":1149},{"is_transit":false,"station_id":"MGB","transit":false,"i_long":106.82482,"distance":906,"time":2,"i_lat":-6.149769,"station_name":"Manggabesar","line":2},{"is_transit":false,"line":2,"i_long":106.820901,"station_id":"JAY","i_lat":-6.141205,"distance":1080,"transit":false,"time":2,"station_name":"Jayakarta"},{"time":4,"distance":1264,"i_long":106.812439,"i_lat":-6.137569,"line":2,"is_transit":true,"station_id":"JAKK","transit":true,"station_name":"Jakarta Kota"},{"i_lat":-6.132549,"line":4,"transit":true,"station_id":"KPB","station_name":"Kampung Bandan","is_transit":true,"i_long":106.826365,"time":3,"distance":1364},{"station_name":"Ancol","transit":false,"i_lat":-6.128023,"i_long":106.84464,"is_transit":false,"time":4,"distance":2185,"line":4,"station_id":"AC"},{"is_transit":false,"i_lat":-6.1109480000000005,"distance":4566,"i_long":106.880089,"station_name":"Tanjung Priuk","line":4,"time":9,"transit":false,"station_id":"TPK"}],[{"i_lat":-6.159876,"distance":0,"station_name":"Bojongindah","time":0,"i_long":106.737035,"line":5,"transit":false,"is_transit":false,"station_id":"BOI"},{"is_transit":false,"transit":false,"time":2,"distance":2334,"i_long":106.756522,"i_lat":-6.1587309999999995,"station_id":"TKO","line":5,"station_name":"Taman Kota"},{"is_transit":false,"distance":1614,"time":2,"i_long":106.771379,"line":5,"station_id":"PSG","transit":false,"station_name":"Pesing","i_lat":-6.161433},{"distance":2036,"time":2,"is_transit":false,"transit":false,"line":5,"i_long":106.788277,"station_id":"GGL","station_name":"Grogol","i_lat":-6.162021},{"station_id":"DU","i_long":106.800832,"line":1,"distance":1700,"station_name":"Duri","i_lat":-6.155215,"time":3,"transit":true,"is_transit":true},{"line":1,"time":8,"station_name":"Tanah Abang","station_id":"THB","is_transit":false,"transit":false,"distance":3632,"i_lat":-6.185545,"i_long":106.811091},{"is_transit":false,"station_id":"KAT","station_name":"Karet","transit":false,"i_lat":-6.20132,"distance":2029,"i_long":106.816351,"line":1,"time":5},{"line":1,"i_long":106.819881,"station_id":"SUDB","i_lat":-6.201433,"is_transit":false,"transit":false,"distance":471,"time":1,"station_name":"Sudirman Baru"},{"time":1,"is_transit":false,"station_id":"SUD","i_lat":-6.202263,"distance":280,"i_long":106.822649,"line":1,"transit":false,"station_name":"Sudirman"},{"station_name":"Manggarai","time":4,"is_transit":false,"station_id":"MRI","i_lat":-6.209883,"i_long":106.84912,"distance":3186,"transit":false,"line":2},{"time":2,"i_long":106.858896,"distance":1275,"station_id":"MTR","transit":false,"is_transit":false,"i_lat":-6.212485,"line":1,"station_name":"Matraman"},{"is_transit":true,"station_id":"JNG","transit":true,"distance":1377,"line":1,"time":8,"station_name":"Jatinegara","i_lat":-6.215091,"i_long":106.86807400000001},{"line":11,"i_long":106.861737,"distance":1236,"time":2,"i_lat":-6.209188,"is_transit":false,"transit":false,"station_id":"POK","station_name":"Pondok Jati"},{"station_name":"Kramat","line":11,"distance":1829,"i_long":106.855437,"time":2,"is_transit":false,"transit":false,"i_lat":-6.193792,"station_id":"KMT"},{"time":1,"station_name":"Gang Sentiong","distance":973,"line":11,"station_id":"GST","i_long":106.850107,"transit":false,"i_lat":-6.185975,"is_transit":false},{"transit":false,"station_id":"PSE","i_lat":-6.174784,"i_long":106.84368,"distance":1567,"is_transit":false,"station_name":"Pasar Senen","time":8,"line":11},{"line":11,"station_name":"Kemayoran","i_long":106.839204,"i_lat":-6.161728,"is_transit":false,"distance":1436,"time":4,"transit":false,"station_id":"KMO"},{"i_lat":-6.14505,"is_transit":false,"line":11,"distance":1901,"i_long":106.836569,"time":5,"transit":false,"station_name":"Rajawali","station_id":"RJW"},{"i_long":106.826365,"station_id":"KPB","i_lat":-6.132549,"transit":true,"is_transit":true,"time":3,"distance":1444,"line":4,"station_name":"Kampung Bandan"},{"i_lat":-6.128023,"is_transit":false,"station_name":"Ancol","i_long":106.84464,"line":4,"transit":false,"station_id":"AC","time":4,"distance":2185},{"is_transit":false,"time":9,"transit":false,"station_name":"Tanjung Priuk","station_id":"TPK","i_lat":-6.1109480000000005,"i_long":106.880089,"line":4,"distance":4566}]]}