{"data":[[{"station_id":"BOI","transit":false,"time":0,"station_name":"Bojongindah","i_long":106.737035,"is_transit":false,"i_lat":-6.159876,"line":0,"distance":0},{"is_transit":false,"station_id":"TKO","station_name":"Taman Kota","distance":2334,"time":2,"i_lat":-6.1587309999999995,"line":5,"transit":false,"i_long":106.756522},{"station_name":"Pesing","line":5,"transit":false,"i_lat":-6.161433,"i_long":106.771379,"time":2,"is_transit":false,"station_id":"PSG","distance":1614},{"i_lat":-6.162021,"station_id":"GGL","transit":false,"station_name":"Grogol","line":5,"i_long":106.788277,"time":2,"distance":2036,"is_transit":false},{"is_transit":true,"distance":1700,"i_lat":-6.155215,"i_long":106.800832,"time":3,"transit":true,"line":1,"station_name":"Duri","station_id":"DU"},{"i_long":106.811091,"i_lat":-6.185545,"line":1,"station_id":"THB","distance":3632,"station_name":"Tanah Abang","transit":true,"is_transit":true,"time":8},{"transit":false,"line":6,"is_transit":false,"distance":3191,"i_long":106.79689,"time":6,"station_id":"PLM","i_lat":-6.207404,"station_name":"Palmerah"},{"line":6,"i_long":106.780334,"station_id":"KBY","transit":false,"i_lat":-6.237242,"is_transit":false,"station_name":"Kebayoran","time":7,"distance":3737},{"is_transit":false,"station_id":"PDJ","i_long":106.74273,"distance":6218,"transit":false,"i_lat":-6.276362,"time":8,"line":6,"station_name":"Pondokranji"},{"station_name":"Jurangmangu","is_transit":false,"line":6,"i_lat":-6.288927,"time":3,"transit":false,"i_long":106.728916,"station_id":"JMU","distance":2179},{"is_transit":false,"i_long":106.712277,"distance":1994,"transit":false,"station_id":"SDM","station_name":"Sudimara","line":6,"time":4,"i_lat":-6.296963},{"station_name":"Rawa Buntu","station_id":"RU","i_lat":-6.314823,"transit":false,"line":6,"distance":4566,"is_transit":false,"time":6,"i_long":106.675475},{"i_lat":-6.319871,"distance":2413,"i_long":106.66566,"station_name":"Serpong","station_id":"SRP","is_transit":false,"transit":false,"time":4,"line":6},{"station_id":"CSK","station_name":"Cisauk","is_transit":false,"time":4,"line":0,"distance":1784,"i_lat":-6.32484,"i_long":106.640411,"transit":false},{"transit":false,"time":4,"i_long":106.617853,"station_name":"Cicayur","station_id":"CC","is_transit":false,"distance":2519,"i_lat":-6.329547,"line":0},{"station_name":"Parung Panjang","i_lat":-6.3441410000000005,"i_long":106.568863,"transit":false,"is_transit":false,"station_id":"PRP","time":8,"distance":5968,"line":6},{"i_long":106.508482,"transit":false,"time":9,"station_name":"Cilejit","distance":7025,"is_transit":false,"station_id":"CJT","i_lat":-6.354349,"line":0},{"is_transit":false,"line":0,"i_lat":-6.338021,"time":6,"i_long":106.491338,"transit":false,"distance":2675,"station_id":"DAR","station_name":"Daru"},{"station_id":"TEJ","distance":3902,"station_name":"Tenjo","i_lat":-6.327251,"i_long":106.460812,"time":5,"line":6,"is_transit":false,"transit":false},{"station_name":"Tigaraksa","line":6,"is_transit":false,"distance":2974,"i_long":106.425991,"station_id":"TGS","transit":false,"time":5,"i_lat":-6.328533},{"is_transit":false,"i_long":106.411216,"line":0,"distance":2651,"station_name":"Cikoya","station_id":"CKY","transit":false,"time":3,"i_lat":-6.33561}],[{"is_transit":false,"distance":0,"i_lat":-6.159876,"line":0,"station_name":"Bojongindah","i_long":106.737035,"station_id":"BOI","transit":false,"time":0},{"station_id":"TKO","transit":false,"is_transit":false,"distance":2334,"i_long":106.756522,"line":5,"station_name":"Taman Kota","i_lat":-6.1587309999999995,"time":2},{"time":2,"i_long":106.771379,"i_lat":-6.161433,"is_transit":false,"line":5,"station_id":"PSG","station_name":"Pesing","distance":1614,"transit":false},{"line":5,"is_transit":false,"station_name":"Grogol","time":2,"i_long":106.788277,"distance":2036,"i_lat":-6.162021,"transit":false,"station_id":"GGL"},{"transit":true,"i_lat":-6.155215,"station_id":"DU","station_name":"Duri","distance":1700,"time":3,"i_long":106.800832,"line":1,"is_transit":true},{"i_long":106.79867,"time":4,"is_transit":false,"transit":false,"station_name":"Angke","i_lat":-6.144674,"station_id":"AK","line":0,"distance":1230},{"transit":false,"time":9,"is_transit":true,"station_name":"Kampung Bandan","distance":4102,"i_lat":-6.132549,"line":0,"station_id":"KPB","i_long":106.826365},{"distance":1364,"station_id":"JAKK","i_long":106.812439,"line":0,"time":3,"is_transit":true,"station_name":"Jakarta Kota","i_lat":-6.137569,"transit":true},{"line":7,"is_transit":false,"time":4,"i_lat":-6.141205,"transit":false,"station_id":"JAY","station_name":"Jayakarta","distance":1264,"i_long":106.820901},{"station_name":"Manggabesar","distance":1080,"i_lat":-6.149769,"line":2,"station_id":"MGB","i_long":106.82482,"transit":false,"is_transit":false,"time":2},{"line":2,"station_name":"Sawah Besar","distance":906,"transit":false,"is_transit":false,"station_id":"SW","time":2,"i_long":106.827103,"i_lat":-6.160725},{"i_lat":-6.166716,"i_long":106.828284,"line":2,"is_transit":false,"station_name":"Juanda","distance":1149,"time":2,"station_id":"JUA","transit":false},{"transit":false,"station_name":"Gondangdia","i_lat":-6.186295,"i_long":106.832183,"station_id":"GDD","is_transit":false,"time":4,"distance":2015,"line":2},{"station_id":"CKI","i_lat":-6.198556,"transit":false,"time":3,"line":0,"distance":1750,"i_long":106.840169,"station_name":"Cikini","is_transit":false},{"is_transit":true,"i_lat":-6.209883,"station_id":"MRI","distance":1590,"station_name":"Manggarai","transit":true,"time":4,"i_long":106.84912,"line":0},{"line":1,"i_lat":-6.202263,"transit":false,"station_id":"SUD","time":4,"station_name":"Sudirman","distance":3186,"i_long":106.822649,"is_transit":false},{"is_transit":false,"line":1,"i_long":106.819881,"distance":280,"transit":false,"i_lat":-6.201433,"station_id":"SUDB","station_name":"Sudirman Baru","time":1},{"time":1,"line":1,"station_id":"KAT","transit":false,"station_name":"Karet","distance":471,"i_lat":-6.20132,"i_long":106.816351,"is_transit":false},{"i_lat":-6.185545,"transit":true,"station_name":"Tanah Abang","distance":2029,"time":5,"i_long":106.811091,"station_id":"THB","line":1,"is_transit":true},{"transit":false,"time":6,"distance":3191,"i_long":106.79689,"is_transit":false,"i_lat":-6.207404,"line":6,"station_id":"PLM","station_name":"Palmerah"},{"is_transit":false,"i_long":106.780334,"transit":false,"station_id":"KBY","distance":3737,"i_lat":-6.237242,"time":7,"line":6,"station_name":"Kebayoran"},{"line":6,"i_long":106.74273,"time":8,"distance":6218,"station_id":"PDJ","station_name":"Pondokranji","i_lat":-6.276362,"transit":false,"is_transit":false},{"line":6,"is_transit":false,"i_lat":-6.288927,"transit":false,"station_name":"Jurangmangu","distance":2179,"i_long":106.728916,"station_id":"JMU","time":3},{"i_lat":-6.296963,"i_long":106.712277,"distance":1994,"station_name":"Sudimara","is_transit":false,"line":6,"transit":false,"time":4,"station_id":"SDM"},{"time":6,"transit":false,"station_id":"RU","distance":4566,"station_name":"Rawa Buntu","i_long":106.675475,"line":6,"i_lat":-6.314823,"is_transit":false},{"station_name":"Serpong","i_long":106.66566,"distance":2413,"is_transit":false,"time":4,"station_id":"SRP","transit":false,"i_lat":-6.319871,"line":6},{"is_transit":false,"i_long":106.640411,"time":4,"station_id":"CSK","station_name":"Cisauk","distance":1784,"i_lat":-6.32484,"transit":false,"line":0},{"transit":false,"station_id":"CC","distance":2519,"time":4,"is_transit":false,"station_name":"Cicayur","i_long":106.617853,"line":0,"i_lat":-6.329547},{"time":8,"transit":false,"distance":5968,"i_lat":-6.3441410000000005,"i_long":106.568863,"station_name":"Parung Panjang","station_id":"PRP","is_transit":false,"line":6},{"i_long":106.508482,"i_lat":-6.354349,"time":9,"distance":7025,"station_name":"Cilejit","station_id":"CJT","is_transit":false,"transit":false,"line":0},{"time":6,"i_lat":-6.338021,"station_name":"Daru","transit":false,"distance":2675,"station_id":"DAR","is_transit":false,"i_long":106.491338,"line":0},{"is_transit":false,"transit":false,"station_id":"TEJ","distance":3902,"line":6,"time":5,"i_lat":-6.327251,"i_long":106.460812,"station_name":"Tenjo"},{"distance":2974,"i_long":106.425991,"line":6,"is_transit":false,"station_id":"TGS","transit":false,"time":5,"station_name":"Tigaraksa","i_lat":-6.328533},{"i_lat":-6.33561,"is_transit":false,"time":3,"line":0,"distance":2651,"station_name":"Cikoya","station_id":"CKY","transit":false,"i_long":106.411216}],[{"station_name":"Bojongindah","time":0,"station_id":"BOI","is_transit":false,"distance":0,"line":0,"i_lat":-6.159876,"transit":false,"i_long":106.737035},{"transit":false,"i_lat":-6.1587309999999995,"station_name":"Taman Kota","is_transit":false,"station_id":"TKO","distance":2334,"time":2,"i_long":106.756522,"line":5},{"is_transit":false,"line":5,"time":2,"distance":1614,"station_id":"PSG","station_name":"Pesing","transit":false,"i_lat":-6.161433,"i_long":106.771379},{"station_id":"GGL","station_name":"Grogol","i_long":106.788277,"line":5,"is_transit":false,"distance":2036,"time":2,"transit":false,"i_lat":-6.162021},{"is_transit":true,"station_name":"Duri","distance":1700,"i_lat":-6.155215,"station_id":"DU","transit":true,"i_long":106.800832,"line":1,"time":3},{"station_name":"Angke","transit":false,"distance":1230,"is_transit":false,"station_id":"AK","i_lat":-6.144674,"i_long":106.79867,"time":4,"line":0},{"station_name":"Kampung Bandan","time":9,"i_lat":-6.132549,"is_transit":true,"station_id":"KPB","i_long":106.826365,"transit":true,"distance":4102,"line":0},{"station_id":"RJW","station_name":"Rajawali","is_transit":false,"time":3,"i_long":106.836569,"i_lat":-6.14505,"distance":1444,"transit":false,"line":11},{"time":5,"station_name":"Kemayoran","distance":1901,"i_lat":-6.161728,"i_long":106.839204,"line":11,"transit":false,"is_transit":false,"station_id":"KMO"},{"distance":1436,"line":11,"station_id":"PSE","transit":false,"i_long":106.84368,"time":4,"station_name":"Pasar Senen","i_lat":-6.174784,"is_transit":false},{"station_id":"GST","i_long":106.850107,"is_transit":false,"distance":1567,"time":8,"i_lat":-6.185975,"line":11,"station_name":"Gang Sentiong","transit":false},{"distance":973,"line":11,"is_transit":false,"transit":false,"i_long":106.855437,"i_lat":-6.193792,"station_id":"KMT","time":1,"station_name":"Kramat"},{"distance":1829,"i_lat":-6.209188,"i_long":106.861737,"line":11,"time":2,"station_id":"POK","is_transit":false,"transit":false,"station_name":"Pondok Jati"},{"i_long":106.86807400000001,"line":0,"station_id":"JNG","i_lat":-6.215091,"is_transit":true,"time":9,"distance":1236,"transit":true,"station_name":"Jatinegara"},{"transit":false,"station_id":"MTR","i_long":106.858896,"line":1,"distance":1377,"i_lat":-6.212485,"time":2,"is_transit":false,"station_name":"Matraman"},{"distance":1275,"line":0,"station_id":"MRI","is_transit":true,"i_long":106.84912,"transit":false,"i_lat":-6.209883,"time":2,"station_name":"Manggarai"},{"i_lat":-6.202263,"time":4,"station_name":"Sudirman","station_id":"SUD","i_long":106.822649,"line":1,"is_transit":false,"transit":false,"distance":3186},{"transit":false,"i_lat":-6.201433,"i_long":106.819881,"station_id":"SUDB","time":1,"distance":280,"station_name":"Sudirman Baru","line":1,"is_transit":false},{"transit":false,"station_name":"Karet","i_lat":-6.20132,"i_long":106.816351,"station_id":"KAT","time":1,"is_transit":false,"line":1,"distance":471},{"i_long":106.811091,"time":5,"is_transit":true,"transit":true,"station_name":"Tanah Abang","i_lat":-6.185545,"line":1,"station_id":"THB","distance":2029},{"station_name":"Palmerah","line":6,"is_transit":false,"distance":3191,"station_id":"PLM","i_lat":-6.207404,"time":6,"i_long":106.79689,"transit":false},{"i_lat":-6.237242,"transit":false,"station_id":"KBY","time":7,"line":6,"station_name":"Kebayoran","i_long":106.780334,"distance":3737,"is_transit":false},{"is_transit":false,"station_id":"PDJ","i_long":106.74273,"station_name":"Pondokranji","line":6,"distance":6218,"time":8,"i_lat":-6.276362,"transit":false},{"line":6,"is_transit":false,"station_id":"JMU","station_name":"Jurangmangu","time":3,"i_lat":-6.288927,"i_long":106.728916,"transit":false,"distance":2179},{"is_transit":false,"station_name":"Sudimara","distance":1994,"i_lat":-6.296963,"line":6,"time":4,"transit":false,"i_long":106.712277,"station_id":"SDM"},{"transit":false,"distance":4566,"i_long":106.675475,"line":6,"is_transit":false,"time":6,"i_lat":-6.314823,"station_name":"Rawa Buntu","station_id":"RU"},{"transit":false,"distance":2413,"station_name":"Serpong","i_long":106.66566,"time":4,"is_transit":false,"i_lat":-6.319871,"line":6,"station_id":"SRP"},{"transit":false,"station_name":"Cisauk","i_lat":-6.32484,"line":0,"time":4,"distance":1784,"station_id":"CSK","i_long":106.640411,"is_transit":false},{"i_long":106.617853,"line":0,"station_id":"CC","station_name":"Cicayur","distance":2519,"time":4,"i_lat":-6.329547,"transit":false,"is_transit":false},{"line":6,"is_transit":false,"transit":false,"time":8,"distance":5968,"station_id":"PRP","station_name":"Parung Panjang","i_lat":-6.3441410000000005,"i_long":106.568863},{"station_name":"Cilejit","i_long":106.508482,"line":0,"station_id":"CJT","i_lat":-6.354349,"transit":false,"time":9,"is_transit":false,"distance":7025},{"transit":false,"station_id":"DAR","distance":2675,"is_transit":false,"time":6,"line":0,"i_long":106.491338,"station_name":"Daru","i_lat":-6.338021},{"time":5,"i_long":106.460812,"station_name":"Tenjo","line":6,"transit":false,"i_lat":-6.327251,"is_transit":false,"station_id":"TEJ","distance":3902},{"time":5,"line":6,"station_name":"Tigaraksa","transit":false,"is_transit":false,"distance":2974,"i_long":106.425991,"i_lat":-6.328533,"station_id":"TGS"},{"i_lat":-6.33561,"distance":2651,"is_transit":false,"station_id":"CKY","transit":false,"line":0,"time":3,"station_name":"Cikoya","i_long":106.411216}]]}