{"data":[[{"line":5,"i_lat":-6.159876,"time":0,"is_transit":false,"distance":0,"i_long":106.737035,"transit":false,"station_id":"BOI","station_name":"Bojongindah"},{"distance":2334,"transit":false,"i_lat":-6.1587309999999995,"station_name":"Taman Kota","line":5,"i_long":106.756522,"station_id":"TKO","is_transit":false,"time":2},{"time":2,"distance":1614,"i_lat":-6.161433,"i_long":106.771379,"station_id":"PSG","line":5,"station_name":"Pesing","transit":false,"is_transit":false},{"i_lat":-6.162021,"station_name":"Grogol","station_id":"GGL","time":2,"transit":false,"distance":2036,"line":5,"i_long":106.788277,"is_transit":false},{"is_transit":true,"i_lat":-6.155215,"line":1,"transit":true,"time":3,"station_id":"DU","distance":1700,"i_long":106.800832,"station_name":"Duri"},{"station_name":"Tanah Abang","transit":false,"time":8,"is_transit":false,"i_lat":-6.185545,"line":1,"station_id":"THB","distance":3632,"i_long":106.811091},{"distance":2029,"is_transit":false,"i_lat":-6.20132,"station_id":"KAT","i_long":106.816351,"time":5,"station_name":"Karet","line":1,"transit":false},{"station_id":"SUDB","is_transit":false,"i_long":106.819881,"distance":471,"station_name":"Sudirman Baru","transit":false,"i_lat":-6.201433,"time":1,"line":1},{"time":1,"station_id":"SUD","is_transit":false,"i_long":106.822649,"i_lat":-6.202263,"transit":false,"station_name":"Sudirman","distance":280,"line":1},{"station_name":"Manggarai","time":4,"distance":3186,"is_transit":true,"station_id":"MRI","i_lat":-6.209883,"line":2,"i_long":106.84912,"transit":true},{"station_id":"TEB","i_lat":-6.226659,"i_long":106.857948,"line":2,"distance":2610,"is_transit":false,"transit":false,"station_name":"Tebet","time":4},{"i_lat":-6.242512,"i_long":106.856607,"time":2,"distance":1230,"line":2,"is_transit":false,"transit":false,"station_id":"CW","station_name":"Cawang"},{"is_transit":false,"i_lat":-6.255332,"station_name":"Duren Kalibata","distance":1546,"time":3,"transit":false,"i_long":106.85449,"line":2,"station_id":"DRN"},{"transit":false,"i_lat":-6.263214,"i_long":106.851577,"is_transit":false,"time":2,"station_name":"Pasar Minggu Baru","station_id":"PSMB","line":2,"distance":824},{"is_transit":false,"station_name":"Pasar Minggu","i_lat":-6.2842400000000005,"line":2,"station_id":"PSM","transit":false,"time":2,"i_long":106.843999,"distance":2380},{"line":2,"distance":2820,"time":4,"i_lat":-6.3080680000000005,"transit":false,"station_name":"Tanjung Barat","i_long":106.838896,"station_id":"TNT","is_transit":false},{"i_long":106.832616,"time":3,"transit":false,"station_name":"Lenteng Agung","station_id":"LNA","is_transit":false,"distance":2671,"i_lat":-6.330363,"line":2},{"i_long":106.834175,"time":2,"distance":1029,"station_id":"UP","i_lat":-6.339291,"line":2,"station_name":"Univ. Pancasila","transit":false,"is_transit":false},{"station_name":"Univ. Indonesia","line":2,"station_id":"UI","is_transit":false,"distance":2264,"time":3,"i_long":106.831474,"transit":false,"i_lat":-6.360749},{"station_id":"POC","station_name":"Pondok Cina","transit":false,"i_long":106.831114,"i_lat":-6.369073,"line":2,"is_transit":false,"distance":1109,"time":2},{"station_name":"Depokbaru","transit":false,"station_id":"DPB","is_transit":false,"i_lat":-6.391065,"distance":2727,"time":4,"line":2,"i_long":106.819451},{"transit":false,"distance":1584,"i_lat":-6.405256,"line":2,"station_id":"DP","is_transit":false,"station_name":"Depok","i_long":106.816926,"time":3},{"i_long":106.800298,"line":2,"station_id":"CTA","is_transit":true,"time":6,"distance":5084,"i_lat":-6.448811,"transit":true,"station_name":"Citayam"},{"time":0,"distance":0,"i_lat":-6.460735,"line":21,"transit":false,"station_id":"PDRG","is_transit":false,"i_long":106.824374,"station_name":"Pondok Rajeg"}],[{"station_id":"BOI","i_long":106.737035,"station_name":"Bojongindah","i_lat":-6.159876,"is_transit":false,"transit":false,"distance":0,"line":5,"time":0},{"is_transit":false,"station_name":"Taman Kota","station_id":"TKO","time":2,"distance":2334,"i_lat":-6.1587309999999995,"i_long":106.756522,"transit":false,"line":5},{"i_lat":-6.161433,"distance":1614,"line":5,"time":2,"transit":false,"station_id":"PSG","is_transit":false,"i_long":106.771379,"station_name":"Pesing"},{"i_long":106.788277,"i_lat":-6.162021,"transit":false,"line":5,"time":2,"distance":2036,"station_name":"Grogol","is_transit":false,"station_id":"GGL"},{"station_name":"Duri","is_transit":true,"i_lat":-6.155215,"line":1,"i_long":106.800832,"transit":true,"distance":1700,"time":3,"station_id":"DU"},{"i_long":106.79867,"station_id":"AK","is_transit":false,"transit":false,"time":4,"i_lat":-6.144674,"distance":1230,"station_name":"Angke","line":1},{"time":9,"line":4,"station_name":"Kampung Bandan","i_long":106.826365,"i_lat":-6.132549,"is_transit":true,"transit":true,"distance":4102,"station_id":"KPB"},{"is_transit":true,"time":3,"distance":1364,"i_lat":-6.137569,"transit":true,"station_name":"Jakarta Kota","station_id":"JAKK","i_long":106.812439,"line":2},{"i_long":106.820901,"is_transit":false,"station_id":"JAY","distance":1264,"line":2,"i_lat":-6.141205,"time":4,"transit":false,"station_name":"Jayakarta"},{"line":2,"distance":1080,"i_lat":-6.149769,"station_id":"MGB","is_transit":false,"transit":false,"time":2,"i_long":106.82482,"station_name":"Manggabesar"},{"transit":false,"station_name":"Sawah Besar","distance":906,"i_long":106.827103,"line":2,"i_lat":-6.160725,"station_id":"SW","time":2,"is_transit":false},{"distance":1149,"station_id":"JUA","time":2,"i_lat":-6.166716,"is_transit":false,"transit":false,"i_long":106.828284,"station_name":"Juanda","line":2},{"is_transit":false,"time":4,"station_id":"GDD","i_long":106.832183,"line":2,"i_lat":-6.186295,"station_name":"Gondangdia","transit":false,"distance":2015},{"station_name":"Cikini","distance":1750,"station_id":"CKI","is_transit":false,"i_lat":-6.198556,"line":2,"transit":false,"i_long":106.840169,"time":3},{"time":4,"i_long":106.84912,"line":2,"transit":false,"station_name":"Manggarai","i_lat":-6.209883,"distance":1590,"station_id":"MRI","is_transit":false},{"station_id":"TEB","distance":2610,"transit":false,"line":2,"i_lat":-6.226659,"i_long":106.857948,"is_transit":false,"station_name":"Tebet","time":4},{"is_transit":false,"i_lat":-6.242512,"time":2,"transit":false,"station_name":"Cawang","station_id":"CW","distance":1230,"i_long":106.856607,"line":2},{"station_name":"Duren Kalibata","station_id":"DRN","time":3,"line":2,"distance":1546,"is_transit":false,"i_lat":-6.255332,"i_long":106.85449,"transit":false},{"transit":false,"time":2,"line":2,"station_name":"Pasar Minggu Baru","i_lat":-6.263214,"is_transit":false,"i_long":106.851577,"distance":824,"station_id":"PSMB"},{"i_lat":-6.2842400000000005,"distance":2380,"line":2,"time":2,"station_id":"PSM","transit":false,"station_name":"Pasar Minggu","is_transit":false,"i_long":106.843999},{"time":4,"distance":2820,"i_long":106.838896,"is_transit":false,"transit":false,"i_lat":-6.3080680000000005,"station_id":"TNT","line":2,"station_name":"Tanjung Barat"},{"i_lat":-6.330363,"transit":false,"station_id":"LNA","station_name":"Lenteng Agung","i_long":106.832616,"line":2,"is_transit":false,"distance":2671,"time":3},{"is_transit":false,"station_id":"UP","line":2,"station_name":"Univ. Pancasila","time":2,"i_lat":-6.339291,"distance":1029,"i_long":106.834175,"transit":false},{"station_name":"Univ. Indonesia","distance":2264,"time":3,"is_transit":false,"line":2,"transit":false,"i_lat":-6.360749,"station_id":"UI","i_long":106.831474},{"i_lat":-6.369073,"is_transit":false,"distance":1109,"transit":false,"station_name":"Pondok Cina","i_long":106.831114,"line":2,"station_id":"POC","time":2},{"line":2,"i_long":106.819451,"time":4,"transit":false,"station_name":"Depokbaru","is_transit":false,"distance":2727,"i_lat":-6.391065,"station_id":"DPB"},{"i_lat":-6.405256,"distance":1584,"i_long":106.816926,"station_name":"Depok","time":3,"transit":false,"line":2,"is_transit":false,"station_id":"DP"},{"line":2,"i_long":106.800298,"distance":5084,"transit":true,"station_name":"Citayam","station_id":"CTA","is_transit":true,"time":6,"i_lat":-6.448811},{"i_long":106.824374,"is_transit":false,"distance":0,"station_name":"Pondok Rajeg","station_id":"PDRG","i_lat":-6.460735,"time":0,"transit":false,"line":21}],[{"i_lat":-6.159876,"station_id":"BOI","line":5,"distance":0,"is_transit":false,"transit":false,"station_name":"Bojongindah","i_long":106.737035,"time":0},{"station_name":"Taman Kota","transit":false,"station_id":"TKO","distance":2334,"i_long":106.756522,"line":5,"is_transit":false,"i_lat":-6.1587309999999995,"time":2},{"is_transit":false,"time":2,"transit":false,"station_id":"PSG","station_name":"Pesing","i_lat":-6.161433,"i_long":106.771379,"line":5,"distance":1614},{"station_id":"GGL","station_name":"Grogol","time":2,"is_transit":false,"i_long":106.788277,"i_lat":-6.162021,"line":5,"distance":2036,"transit":false},{"station_name":"Duri","transit":true,"time":3,"distance":1700,"i_lat":-6.155215,"station_id":"DU","line":1,"is_transit":true,"i_long":106.800832},{"i_lat":-6.144674,"transit":false,"station_name":"Angke","time":4,"distance":1230,"is_transit":false,"line":1,"station_id":"AK","i_long":106.79867},{"station_name":"Kampung Bandan","time":9,"i_lat":-6.132549,"line":4,"station_id":"KPB","is_transit":true,"i_long":106.826365,"transit":true,"distance":4102},{"station_id":"RJW","is_transit":false,"i_lat":-6.14505,"line":11,"time":3,"i_long":106.836569,"transit":false,"distance":1444,"station_name":"Rajawali"},{"is_transit":false,"distance":1901,"time":5,"transit":false,"i_lat":-6.161728,"station_id":"KMO","station_name":"Kemayoran","i_long":106.839204,"line":11},{"time":4,"i_long":106.84368,"line":11,"is_transit":false,"station_name":"Pasar Senen","transit":false,"i_lat":-6.174784,"station_id":"PSE","distance":1436},{"station_id":"GST","transit":false,"station_name":"Gang Sentiong","is_transit":false,"time":8,"i_lat":-6.185975,"distance":1567,"line":11,"i_long":106.850107},{"transit":false,"i_lat":-6.193792,"line":11,"station_id":"KMT","time":1,"i_long":106.855437,"distance":973,"station_name":"Kramat","is_transit":false},{"i_long":106.861737,"is_transit":false,"station_id":"POK","distance":1829,"time":2,"line":11,"i_lat":-6.209188,"station_name":"Pondok Jati","transit":false},{"transit":true,"i_long":106.86807400000001,"station_id":"JNG","station_name":"Jatinegara","is_transit":true,"time":9,"distance":1236,"line":1,"i_lat":-6.215091},{"is_transit":false,"i_lat":-6.212485,"distance":1377,"station_id":"MTR","transit":false,"station_name":"Matraman","line":1,"time":2,"i_long":106.858896},{"distance":1275,"i_lat":-6.209883,"station_id":"MRI","line":2,"station_name":"Manggarai","time":2,"transit":true,"is_transit":true,"i_long":106.84912},{"station_name":"Tebet","station_id":"TEB","time":4,"distance":2610,"i_lat":-6.226659,"i_long":106.857948,"line":2,"is_transit":false,"transit":false},{"station_name":"Cawang","is_transit":false,"distance":1230,"i_long":106.856607,"line":2,"i_lat":-6.242512,"time":2,"transit":false,"station_id":"CW"},{"line":2,"i_long":106.85449,"station_id":"DRN","station_name":"Duren Kalibata","distance":1546,"is_transit":false,"i_lat":-6.255332,"time":3,"transit":false},{"distance":824,"line":2,"transit":false,"i_long":106.851577,"is_transit":false,"station_id":"PSMB","station_name":"Pasar Minggu Baru","time":2,"i_lat":-6.263214},{"station_id":"PSM","is_transit":false,"line":2,"station_name":"Pasar Minggu","distance":2380,"i_lat":-6.2842400000000005,"i_long":106.843999,"time":2,"transit":false},{"station_name":"Tanjung Barat","i_long":106.838896,"line":2,"transit":false,"i_lat":-6.3080680000000005,"station_id":"TNT","is_transit":false,"time":4,"distance":2820},{"distance":2671,"i_long":106.832616,"station_id":"LNA","line":2,"time":3,"station_name":"Lenteng Agung","i_lat":-6.330363,"transit":false,"is_transit":false},{"station_id":"UP","station_name":"Univ. Pancasila","i_lat":-6.339291,"transit":false,"is_transit":false,"time":2,"i_long":106.834175,"line":2,"distance":1029},{"station_id":"UI","station_name":"Univ. Indonesia","is_transit":false,"transit":false,"time":3,"i_lat":-6.360749,"i_long":106.831474,"line":2,"distance":2264},{"distance":1109,"station_name":"Pondok Cina","is_transit":false,"transit":false,"time":2,"i_long":106.831114,"i_lat":-6.369073,"station_id":"POC","line":2},{"distance":2727,"i_lat":-6.391065,"is_transit":false,"i_long":106.819451,"station_name":"Depokbaru","line":2,"time":4,"station_id":"DPB","transit":false},{"i_long":106.816926,"time":3,"distance":1584,"station_name":"Depok","station_id":"DP","transit":false,"is_transit":false,"i_lat":-6.405256,"line":2},{"transit":true,"i_lat":-6.448811,"i_long":106.800298,"line":2,"time":6,"distance":5084,"is_transit":true,"station_name":"Citayam","station_id":"CTA"},{"i_long":106.824374,"line":21,"i_lat":-6.460735,"is_transit":false,"transit":false,"station_name":"Pondok Rajeg","time":0,"distance":0,"station_id":"PDRG"}]]}