{"data":[[{"time":0,"station_id":"BOI","station_name":"Bojongindah","distance":0,"i_lat":-6.159876,"i_long":106.737035,"transit":false,"line":5,"is_transit":false},{"station_name":"Taman Kota","station_id":"TKO","time":2,"is_transit":false,"i_lat":-6.1587309999999995,"distance":2334,"transit":false,"i_long":106.756522,"line":5},{"time":2,"i_long":106.771379,"line":5,"i_lat":-6.161433,"station_id":"PSG","transit":false,"distance":1614,"station_name":"Pesing","is_transit":false},{"i_long":106.788277,"distance":2036,"station_id":"GGL","station_name":"Grogol","is_transit":false,"time":2,"i_lat":-6.162021,"transit":false,"line":5},{"time":3,"i_long":106.800832,"line":1,"station_id":"DU","i_lat":-6.155215,"is_transit":true,"distance":1700,"station_name":"Duri","transit":true},{"time":8,"is_transit":false,"i_lat":-6.185545,"line":1,"station_id":"THB","transit":false,"i_long":106.811091,"distance":3632,"station_name":"Tanah Abang"},{"time":5,"distance":2029,"is_transit":false,"station_id":"KAT","transit":false,"line":1,"station_name":"Karet","i_long":106.816351,"i_lat":-6.20132},{"time":1,"i_lat":-6.201433,"station_id":"SUDB","transit":false,"station_name":"Sudirman Baru","line":1,"is_transit":false,"i_long":106.819881,"distance":471},{"distance":280,"station_id":"SUD","is_transit":false,"i_lat":-6.202263,"station_name":"Sudirman","i_long":106.822649,"time":1,"transit":false,"line":1}],[{"line":5,"i_long":106.737035,"time":0,"station_id":"BOI","is_transit":false,"distance":0,"station_name":"Bojongindah","transit":false,"i_lat":-6.159876},{"is_transit":false,"station_id":"TKO","station_name":"Taman Kota","line":5,"distance":2334,"transit":false,"i_long":106.756522,"time":2,"i_lat":-6.1587309999999995},{"station_id":"PSG","distance":1614,"station_name":"Pesing","i_long":106.771379,"transit":false,"time":2,"line":5,"i_lat":-6.161433,"is_transit":false},{"line":5,"is_transit":false,"time":2,"distance":2036,"transit":false,"i_long":106.788277,"station_name":"Grogol","station_id":"GGL","i_lat":-6.162021},{"is_transit":true,"distance":1700,"transit":true,"i_long":106.800832,"time":3,"i_lat":-6.155215,"line":1,"station_id":"DU","station_name":"Duri"},{"line":1,"time":4,"distance":1230,"station_id":"AK","i_long":106.79867,"is_transit":false,"station_name":"Angke","transit":false,"i_lat":-6.144674},{"station_name":"Kampung Bandan","is_transit":true,"distance":4102,"time":9,"line":4,"station_id":"KPB","transit":true,"i_lat":-6.132549,"i_long":106.826365},{"time":3,"is_transit":true,"transit":true,"distance":1364,"line":2,"station_id":"JAKK","station_name":"Jakarta Kota","i_lat":-6.137569,"i_long":106.812439},{"station_name":"Jayakarta","time":4,"is_transit":false,"transit":false,"i_lat":-6.141205,"i_long":106.820901,"line":2,"distance":1264,"station_id":"JAY"},{"station_name":"Manggabesar","line":2,"distance":1080,"i_long":106.82482,"is_transit":false,"time":2,"transit":false,"station_id":"MGB","i_lat":-6.149769},{"station_id":"SW","line":2,"i_long":106.827103,"is_transit":false,"i_lat":-6.160725,"distance":906,"transit":false,"time":2,"station_name":"Sawah Besar"},{"i_lat":-6.166716,"station_name":"Juanda","transit":false,"line":2,"time":2,"i_long":106.828284,"distance":1149,"station_id":"JUA","is_transit":false},{"transit":false,"i_lat":-6.186295,"line":2,"i_long":106.832183,"time":4,"is_transit":false,"station_id":"GDD","distance":2015,"station_name":"Gondangdia"},{"is_transit":false,"i_lat":-6.198556,"i_long":106.840169,"line":2,"transit":false,"station_id":"CKI","station_name":"Cikini","time":3,"distance":1750},{"station_id":"MRI","is_transit":true,"transit":true,"distance":1590,"i_long":106.84912,"time":4,"line":2,"i_lat":-6.209883,"station_name":"Manggarai"},{"station_name":"Sudirman","transit":false,"i_long":106.822649,"line":1,"distance":3186,"station_id":"SUD","i_lat":-6.202263,"is_transit":false,"time":4}],[{"i_lat":-6.159876,"station_name":"Bojongindah","distance":0,"transit":false,"station_id":"BOI","time":0,"line":5,"i_long":106.737035,"is_transit":false},{"i_lat":-6.1587309999999995,"time":2,"is_transit":false,"station_name":"Taman Kota","distance":2334,"transit":false,"station_id":"TKO","i_long":106.756522,"line":5},{"i_long":106.771379,"i_lat":-6.161433,"line":5,"station_id":"PSG","time":2,"is_transit":false,"station_name":"Pesing","distance":1614,"transit":false},{"i_lat":-6.162021,"transit":false,"is_transit":false,"line":5,"time":2,"station_name":"Grogol","distance":2036,"station_id":"GGL","i_long":106.788277},{"time":3,"is_transit":true,"i_lat":-6.155215,"line":1,"station_id":"DU","station_name":"Duri","distance":1700,"transit":true,"i_long":106.800832},{"station_id":"AK","i_long":106.79867,"time":4,"line":1,"is_transit":false,"transit":false,"i_lat":-6.144674,"distance":1230,"station_name":"Angke"},{"station_id":"KPB","i_long":106.826365,"transit":true,"i_lat":-6.132549,"distance":4102,"station_name":"Kampung Bandan","time":9,"is_transit":true,"line":4},{"distance":1444,"station_name":"Rajawali","i_lat":-6.14505,"is_transit":false,"station_id":"RJW","transit":false,"i_long":106.836569,"time":3,"line":11},{"station_name":"Kemayoran","line":11,"i_lat":-6.161728,"transit":false,"station_id":"KMO","time":5,"i_long":106.839204,"is_transit":false,"distance":1901},{"station_name":"Pasar Senen","station_id":"PSE","i_long":106.84368,"is_transit":false,"time":4,"i_lat":-6.174784,"transit":false,"distance":1436,"line":11},{"distance":1567,"station_id":"GST","i_lat":-6.185975,"time":8,"line":11,"is_transit":false,"station_name":"Gang Sentiong","i_long":106.850107,"transit":false},{"time":1,"transit":false,"i_long":106.855437,"station_name":"Kramat","distance":973,"is_transit":false,"station_id":"KMT","line":11,"i_lat":-6.193792},{"transit":false,"is_transit":false,"station_name":"Pondok Jati","line":11,"i_lat":-6.209188,"i_long":106.861737,"time":2,"distance":1829,"station_id":"POK"},{"station_name":"Jatinegara","is_transit":true,"station_id":"JNG","transit":true,"time":9,"i_lat":-6.215091,"line":1,"distance":1236,"i_long":106.86807400000001},{"transit":false,"line":1,"is_transit":false,"station_id":"MTR","i_lat":-6.212485,"time":2,"i_long":106.858896,"distance":1377,"station_name":"Matraman"},{"station_name":"Manggarai","is_transit":false,"transit":false,"distance":1275,"time":2,"line":2,"i_lat":-6.209883,"i_long":106.84912,"station_id":"MRI"},{"is_transit":false,"i_long":106.822649,"station_name":"Sudirman","transit":false,"distance":3186,"station_id":"SUD","i_lat":-6.202263,"line":1,"time":4}]]}