{"data":[[{"transit":false,"i_lat":-6.159876,"is_transit":false,"time":0,"station_id":"BOI","station_name":"Bojongindah","line":0,"i_long":106.737035,"distance":0},{"line":5,"station_id":"TKO","i_long":106.756522,"distance":2334,"is_transit":false,"station_name":"Taman Kota","time":2,"i_lat":-6.1587309999999995,"transit":false},{"is_transit":false,"station_id":"PSG","i_long":106.771379,"station_name":"Pesing","distance":1614,"transit":false,"i_lat":-6.161433,"line":5,"time":2},{"station_name":"Grogol","is_transit":false,"station_id":"GGL","i_long":106.788277,"distance":2036,"transit":false,"line":5,"time":2,"i_lat":-6.162021},{"i_lat":-6.155215,"distance":1700,"transit":true,"line":1,"i_long":106.800832,"station_id":"DU","station_name":"Duri","is_transit":true,"time":3},{"line":0,"i_lat":-6.144674,"distance":1230,"station_name":"Angke","is_transit":false,"transit":false,"i_long":106.79867,"time":4,"station_id":"AK"},{"time":9,"line":0,"transit":true,"is_transit":true,"station_id":"KPB","station_name":"Kampung Bandan","i_long":106.826365,"i_lat":-6.132549,"distance":4102},{"is_transit":false,"station_name":"Rajawali","time":3,"distance":1444,"i_long":106.836569,"station_id":"RJW","transit":false,"i_lat":-6.14505,"line":11},{"station_id":"KMO","time":5,"i_long":106.839204,"is_transit":false,"station_name":"Kemayoran","line":11,"distance":1901,"transit":false,"i_lat":-6.161728}],[{"distance":0,"i_lat":-6.159876,"time":0,"transit":false,"station_name":"Bojongindah","is_transit":false,"i_long":106.737035,"station_id":"BOI","line":0},{"transit":false,"time":2,"line":5,"i_lat":-6.1587309999999995,"station_name":"Taman Kota","distance":2334,"is_transit":false,"station_id":"TKO","i_long":106.756522},{"transit":false,"is_transit":false,"i_long":106.771379,"station_name":"Pesing","distance":1614,"time":2,"i_lat":-6.161433,"line":5,"station_id":"PSG"},{"time":2,"distance":2036,"station_name":"Grogol","i_long":106.788277,"station_id":"GGL","i_lat":-6.162021,"is_transit":false,"transit":false,"line":5},{"i_lat":-6.155215,"line":1,"distance":1700,"station_id":"DU","station_name":"Duri","is_transit":true,"transit":true,"i_long":106.800832,"time":3},{"transit":false,"distance":3632,"line":1,"station_id":"THB","is_transit":true,"station_name":"Tanah Abang","time":8,"i_long":106.811091,"i_lat":-6.185545},{"line":1,"i_lat":-6.20132,"time":5,"station_name":"Karet","i_long":106.816351,"distance":2029,"station_id":"KAT","is_transit":false,"transit":false},{"station_id":"SUDB","station_name":"Sudirman Baru","i_lat":-6.201433,"line":1,"is_transit":false,"time":1,"distance":471,"transit":false,"i_long":106.819881},{"line":1,"station_id":"SUD","time":1,"is_transit":false,"transit":false,"distance":280,"station_name":"Sudirman","i_long":106.822649,"i_lat":-6.202263},{"is_transit":true,"line":0,"time":4,"i_lat":-6.209883,"transit":false,"i_long":106.84912,"station_name":"Manggarai","station_id":"MRI","distance":3186},{"time":2,"transit":false,"station_id":"MTR","station_name":"Matraman","is_transit":false,"i_lat":-6.212485,"distance":1275,"line":1,"i_long":106.858896},{"transit":true,"i_lat":-6.215091,"station_name":"Jatinegara","is_transit":true,"line":0,"time":8,"station_id":"JNG","i_long":106.86807400000001,"distance":1377},{"station_name":"Pondok Jati","distance":1236,"is_transit":false,"i_long":106.861737,"station_id":"POK","i_lat":-6.209188,"time":2,"line":11,"transit":false},{"time":2,"i_long":106.855437,"i_lat":-6.193792,"station_id":"KMT","line":11,"station_name":"Kramat","distance":1829,"is_transit":false,"transit":false},{"distance":973,"transit":false,"station_id":"GST","station_name":"Gang Sentiong","i_lat":-6.185975,"is_transit":false,"i_long":106.850107,"line":11,"time":1},{"line":11,"station_id":"PSE","station_name":"Pasar Senen","distance":1567,"is_transit":false,"time":8,"transit":false,"i_lat":-6.174784,"i_long":106.84368},{"transit":false,"distance":1436,"i_long":106.839204,"i_lat":-6.161728,"line":11,"time":4,"is_transit":false,"station_name":"Kemayoran","station_id":"KMO"}],[{"distance":0,"i_lat":-6.159876,"is_transit":false,"station_name":"Bojongindah","transit":false,"station_id":"BOI","i_long":106.737035,"line":0,"time":0},{"transit":false,"distance":2334,"station_name":"Taman Kota","station_id":"TKO","i_long":106.756522,"i_lat":-6.1587309999999995,"time":2,"line":5,"is_transit":false},{"time":2,"line":5,"is_transit":false,"distance":1614,"station_id":"PSG","station_name":"Pesing","transit":false,"i_lat":-6.161433,"i_long":106.771379},{"station_id":"GGL","station_name":"Grogol","i_long":106.788277,"is_transit":false,"i_lat":-6.162021,"distance":2036,"time":2,"transit":false,"line":5},{"i_long":106.800832,"transit":true,"line":1,"is_transit":true,"station_id":"DU","time":3,"station_name":"Duri","i_lat":-6.155215,"distance":1700},{"transit":false,"time":8,"distance":3632,"i_long":106.811091,"line":1,"station_name":"Tanah Abang","i_lat":-6.185545,"is_transit":true,"station_id":"THB"},{"station_name":"Karet","distance":2029,"is_transit":false,"time":5,"i_long":106.816351,"station_id":"KAT","transit":false,"i_lat":-6.20132,"line":1},{"line":1,"is_transit":false,"time":1,"distance":471,"i_lat":-6.201433,"i_long":106.819881,"station_id":"SUDB","transit":false,"station_name":"Sudirman Baru"},{"station_id":"SUD","i_lat":-6.202263,"line":1,"time":1,"station_name":"Sudirman","i_long":106.822649,"transit":false,"is_transit":false,"distance":280},{"transit":true,"i_lat":-6.209883,"distance":3186,"i_long":106.84912,"station_name":"Manggarai","time":4,"line":0,"is_transit":true,"station_id":"MRI"},{"distance":1590,"is_transit":false,"station_name":"Cikini","station_id":"CKI","time":4,"transit":false,"i_lat":-6.198556,"i_long":106.840169,"line":0},{"station_name":"Gondangdia","time":3,"transit":false,"i_lat":-6.186295,"station_id":"GDD","is_transit":false,"distance":1750,"i_long":106.832183,"line":2},{"is_transit":false,"distance":2015,"station_id":"JUA","time":4,"station_name":"Juanda","i_lat":-6.166716,"transit":false,"i_long":106.828284,"line":2},{"i_lat":-6.160725,"station_id":"SW","distance":1149,"i_long":106.827103,"line":2,"station_name":"Sawah Besar","transit":false,"is_transit":false,"time":2},{"transit":false,"time":2,"line":2,"distance":906,"i_long":106.82482,"station_name":"Manggabesar","i_lat":-6.149769,"is_transit":false,"station_id":"MGB"},{"time":2,"distance":1080,"station_name":"Jayakarta","transit":false,"i_long":106.820901,"is_transit":false,"i_lat":-6.141205,"line":7,"station_id":"JAY"},{"is_transit":true,"distance":1264,"i_lat":-6.137569,"line":0,"station_name":"Jakarta Kota","i_long":106.812439,"time":4,"station_id":"JAKK","transit":true},{"is_transit":true,"line":0,"station_id":"KPB","i_long":106.826365,"time":3,"distance":1364,"transit":true,"station_name":"Kampung Bandan","i_lat":-6.132549},{"station_id":"RJW","i_lat":-6.14505,"distance":1444,"line":11,"i_long":106.836569,"time":3,"transit":false,"is_transit":false,"station_name":"Rajawali"},{"station_id":"KMO","time":5,"transit":false,"is_transit":false,"station_name":"Kemayoran","line":11,"distance":1901,"i_lat":-6.161728,"i_long":106.839204}],[{"i_lat":-6.159876,"is_transit":false,"time":0,"transit":false,"i_long":106.737035,"line":0,"station_name":"Bojongindah","station_id":"BOI","distance":0},{"is_transit":false,"i_lat":-6.1587309999999995,"station_name":"Taman Kota","distance":2334,"station_id":"TKO","time":2,"transit":false,"i_long":106.756522,"line":5},{"line":5,"i_long":106.771379,"is_transit":false,"transit":false,"time":2,"distance":1614,"station_name":"Pesing","station_id":"PSG","i_lat":-6.161433},{"time":2,"i_lat":-6.162021,"line":5,"i_long":106.788277,"is_transit":false,"distance":2036,"transit":false,"station_name":"Grogol","station_id":"GGL"},{"distance":1700,"station_name":"Duri","station_id":"DU","is_transit":true,"time":3,"i_lat":-6.155215,"i_long":106.800832,"transit":true,"line":1},{"i_long":106.79867,"time":4,"line":0,"distance":1230,"is_transit":false,"i_lat":-6.144674,"station_name":"Angke","transit":false,"station_id":"AK"},{"station_name":"Kampung Bandan","time":9,"distance":4102,"station_id":"KPB","transit":false,"i_long":106.826365,"i_lat":-6.132549,"is_transit":true,"line":0},{"i_lat":-6.137569,"is_transit":true,"line":0,"station_name":"Jakarta Kota","transit":true,"distance":1364,"station_id":"JAKK","i_long":106.812439,"time":3},{"is_transit":false,"transit":false,"line":7,"distance":1264,"station_name":"Jayakarta","time":4,"station_id":"JAY","i_lat":-6.141205,"i_long":106.820901},{"i_long":106.82482,"station_name":"Manggabesar","line":2,"i_lat":-6.149769,"is_transit":false,"time":2,"station_id":"MGB","transit":false,"distance":1080},{"distance":906,"i_lat":-6.160725,"time":2,"station_id":"SW","station_name":"Sawah Besar","transit":false,"i_long":106.827103,"line":2,"is_transit":false},{"station_name":"Juanda","i_lat":-6.166716,"i_long":106.828284,"line":2,"transit":false,"time":2,"is_transit":false,"distance":1149,"station_id":"JUA"},{"distance":2015,"time":4,"station_id":"GDD","i_lat":-6.186295,"station_name":"Gondangdia","line":2,"is_transit":false,"transit":false,"i_long":106.832183},{"station_name":"Cikini","time":3,"i_lat":-6.198556,"is_transit":false,"station_id":"CKI","distance":1750,"transit":false,"i_long":106.840169,"line":0},{"distance":1590,"transit":true,"station_id":"MRI","i_long":106.84912,"is_transit":true,"time":4,"line":0,"station_name":"Manggarai","i_lat":-6.209883},{"time":2,"station_id":"MTR","station_name":"Matraman","is_transit":false,"distance":1275,"i_long":106.858896,"i_lat":-6.212485,"line":1,"transit":false},{"station_id":"JNG","transit":true,"distance":1377,"is_transit":true,"time":8,"station_name":"Jatinegara","i_lat":-6.215091,"line":0,"i_long":106.86807400000001},{"i_lat":-6.209188,"station_name":"Pondok Jati","i_long":106.861737,"station_id":"POK","time":2,"line":11,"distance":1236,"is_transit":false,"transit":false},{"station_id":"KMT","time":2,"distance":1829,"i_lat":-6.193792,"station_name":"Kramat","i_long":106.855437,"line":11,"transit":false,"is_transit":false},{"line":11,"station_id":"GST","transit":false,"i_lat":-6.185975,"i_long":106.850107,"is_transit":false,"time":1,"station_name":"Gang Sentiong","distance":973},{"is_transit":false,"station_name":"Pasar Senen","line":11,"station_id":"PSE","i_lat":-6.174784,"transit":false,"time":8,"i_long":106.84368,"distance":1567},{"station_name":"Kemayoran","time":4,"is_transit":false,"distance":1436,"transit":false,"i_lat":-6.161728,"i_long":106.839204,"station_id":"KMO","line":11}]]}