{"data":[[{"distance":0,"station_name":"Bojongindah","time":0,"i_lat":-6.159876,"station_id":"BOI","transit":false,"is_transit":false,"line":0,"i_long":106.737035},{"i_lat":-6.1587309999999995,"station_id":"TKO","is_transit":false,"time":2,"station_name":"Taman Kota","transit":false,"distance":2334,"i_long":106.756522,"line":5},{"time":2,"distance":1614,"i_lat":-6.161433,"i_long":106.771379,"is_transit":false,"line":5,"station_name":"Pesing","transit":false,"station_id":"PSG"},{"line":5,"transit":false,"is_transit":false,"time":2,"distance":2036,"i_lat":-6.162021,"station_name":"Grogol","station_id":"GGL","i_long":106.788277},{"station_name":"Duri","transit":true,"i_long":106.800832,"line":1,"i_lat":-6.155215,"is_transit":true,"station_id":"DU","time":3,"distance":1700},{"distance":1230,"line":0,"is_transit":false,"i_lat":-6.144674,"station_id":"AK","transit":false,"time":4,"station_name":"Angke","i_long":106.79867},{"time":9,"station_name":"Kampung Bandan","i_lat":-6.132549,"i_long":106.826365,"transit":false,"is_transit":true,"station_id":"KPB","distance":4102,"line":0},{"i_lat":-6.137569,"distance":1364,"is_transit":true,"station_name":"Jakarta Kota","transit":true,"i_long":106.812439,"time":3,"station_id":"JAKK","line":0},{"i_long":106.820901,"line":7,"station_id":"JAY","transit":false,"i_lat":-6.141205,"time":4,"distance":1264,"station_name":"Jayakarta","is_transit":false},{"is_transit":false,"i_long":106.82482,"time":2,"station_name":"Manggabesar","line":2,"transit":false,"i_lat":-6.149769,"station_id":"MGB","distance":1080},{"station_id":"SW","station_name":"Sawah Besar","is_transit":false,"transit":false,"distance":906,"i_lat":-6.160725,"time":2,"i_long":106.827103,"line":2},{"time":2,"line":2,"station_id":"JUA","distance":1149,"i_long":106.828284,"station_name":"Juanda","is_transit":false,"transit":false,"i_lat":-6.166716}],[{"i_long":106.737035,"i_lat":-6.159876,"station_id":"BOI","is_transit":false,"distance":0,"line":0,"station_name":"Bojongindah","time":0,"transit":false},{"station_name":"Taman Kota","station_id":"TKO","line":5,"time":2,"transit":false,"is_transit":false,"i_lat":-6.1587309999999995,"i_long":106.756522,"distance":2334},{"line":5,"time":2,"distance":1614,"station_id":"PSG","station_name":"Pesing","transit":false,"i_long":106.771379,"is_transit":false,"i_lat":-6.161433},{"station_id":"GGL","i_long":106.788277,"line":5,"time":2,"is_transit":false,"transit":false,"i_lat":-6.162021,"station_name":"Grogol","distance":2036},{"is_transit":true,"station_id":"DU","transit":true,"station_name":"Duri","i_lat":-6.155215,"time":3,"distance":1700,"i_long":106.800832,"line":1},{"is_transit":true,"distance":3632,"transit":false,"i_long":106.811091,"station_id":"THB","i_lat":-6.185545,"station_name":"Tanah Abang","time":8,"line":1},{"is_transit":false,"transit":false,"station_name":"Karet","station_id":"KAT","distance":2029,"i_lat":-6.20132,"line":1,"time":5,"i_long":106.816351},{"transit":false,"i_lat":-6.201433,"distance":471,"station_name":"Sudirman Baru","line":1,"station_id":"SUDB","is_transit":false,"time":1,"i_long":106.819881},{"time":1,"line":1,"is_transit":false,"station_name":"Sudirman","distance":280,"station_id":"SUD","i_lat":-6.202263,"transit":false,"i_long":106.822649},{"time":4,"station_name":"Manggarai","line":0,"distance":3186,"transit":true,"i_lat":-6.209883,"is_transit":true,"station_id":"MRI","i_long":106.84912},{"i_lat":-6.198556,"i_long":106.840169,"station_name":"Cikini","line":0,"transit":false,"time":4,"distance":1590,"station_id":"CKI","is_transit":false},{"is_transit":false,"line":2,"i_lat":-6.186295,"station_id":"GDD","i_long":106.832183,"station_name":"Gondangdia","time":3,"transit":false,"distance":1750},{"transit":false,"i_lat":-6.166716,"line":2,"station_id":"JUA","distance":2015,"is_transit":false,"i_long":106.828284,"time":4,"station_name":"Juanda"}],[{"transit":false,"i_long":106.737035,"is_transit":false,"i_lat":-6.159876,"station_id":"BOI","line":0,"distance":0,"station_name":"Bojongindah","time":0},{"transit":false,"time":2,"is_transit":false,"distance":2334,"i_lat":-6.1587309999999995,"station_name":"Taman Kota","i_long":106.756522,"line":5,"station_id":"TKO"},{"station_name":"Pesing","i_long":106.771379,"distance":1614,"i_lat":-6.161433,"transit":false,"is_transit":false,"line":5,"station_id":"PSG","time":2},{"station_name":"Grogol","i_lat":-6.162021,"transit":false,"station_id":"GGL","is_transit":false,"time":2,"distance":2036,"i_long":106.788277,"line":5},{"i_lat":-6.155215,"station_id":"DU","is_transit":true,"transit":true,"time":3,"distance":1700,"i_long":106.800832,"line":1,"station_name":"Duri"},{"station_name":"Angke","is_transit":false,"distance":1230,"transit":false,"time":4,"i_lat":-6.144674,"i_long":106.79867,"station_id":"AK","line":0},{"i_long":106.826365,"station_id":"KPB","transit":true,"line":0,"time":9,"is_transit":true,"distance":4102,"station_name":"Kampung Bandan","i_lat":-6.132549},{"time":3,"is_transit":false,"transit":false,"distance":1444,"line":11,"station_name":"Rajawali","i_long":106.836569,"station_id":"RJW","i_lat":-6.14505},{"station_id":"KMO","is_transit":false,"station_name":"Kemayoran","time":5,"distance":1901,"i_long":106.839204,"transit":false,"i_lat":-6.161728,"line":11},{"distance":1436,"i_long":106.84368,"line":11,"time":4,"i_lat":-6.174784,"station_id":"PSE","station_name":"Pasar Senen","transit":false,"is_transit":false},{"i_lat":-6.185975,"station_name":"Gang Sentiong","time":8,"is_transit":false,"i_long":106.850107,"distance":1567,"line":11,"transit":false,"station_id":"GST"},{"is_transit":false,"station_id":"KMT","transit":false,"station_name":"Kramat","i_long":106.855437,"time":1,"line":11,"distance":973,"i_lat":-6.193792},{"distance":1829,"station_name":"Pondok Jati","transit":false,"is_transit":false,"time":2,"station_id":"POK","i_lat":-6.209188,"line":11,"i_long":106.861737},{"i_long":106.86807400000001,"time":9,"line":0,"station_id":"JNG","is_transit":true,"distance":1236,"transit":true,"i_lat":-6.215091,"station_name":"Jatinegara"},{"time":2,"station_name":"Matraman","is_transit":false,"i_long":106.858896,"distance":1377,"i_lat":-6.212485,"station_id":"MTR","transit":false,"line":1},{"station_name":"Manggarai","i_lat":-6.209883,"is_transit":true,"transit":true,"i_long":106.84912,"station_id":"MRI","line":0,"distance":1275,"time":2},{"line":0,"transit":false,"time":4,"is_transit":false,"station_id":"CKI","distance":1590,"i_lat":-6.198556,"i_long":106.840169,"station_name":"Cikini"},{"station_id":"GDD","i_lat":-6.186295,"transit":false,"i_long":106.832183,"is_transit":false,"time":3,"distance":1750,"station_name":"Gondangdia","line":2},{"i_long":106.828284,"station_id":"JUA","time":4,"distance":2015,"station_name":"Juanda","transit":false,"i_lat":-6.166716,"is_transit":false,"line":2}],[{"i_long":106.737035,"station_id":"BOI","is_transit":false,"station_name":"Bojongindah","distance":0,"time":0,"transit":false,"i_lat":-6.159876,"line":0},{"i_lat":-6.1587309999999995,"transit":false,"line":5,"i_long":106.756522,"station_id":"TKO","station_name":"Taman Kota","distance":2334,"is_transit":false,"time":2},{"transit":false,"time":2,"distance":1614,"line":5,"station_id":"PSG","is_transit":false,"station_name":"Pesing","i_lat":-6.161433,"i_long":106.771379},{"is_transit":false,"distance":2036,"station_id":"GGL","time":2,"i_lat":-6.162021,"transit":false,"line":5,"station_name":"Grogol","i_long":106.788277},{"station_id":"DU","is_transit":true,"line":1,"time":3,"distance":1700,"station_name":"Duri","transit":true,"i_lat":-6.155215,"i_long":106.800832},{"station_id":"THB","time":8,"distance":3632,"transit":false,"i_lat":-6.185545,"i_long":106.811091,"line":1,"is_transit":true,"station_name":"Tanah Abang"},{"i_long":106.816351,"line":1,"distance":2029,"is_transit":false,"station_name":"Karet","station_id":"KAT","time":5,"transit":false,"i_lat":-6.20132},{"i_long":106.819881,"time":1,"distance":471,"station_id":"SUDB","line":1,"i_lat":-6.201433,"is_transit":false,"station_name":"Sudirman Baru","transit":false},{"time":1,"distance":280,"station_name":"Sudirman","i_lat":-6.202263,"transit":false,"is_transit":false,"line":1,"i_long":106.822649,"station_id":"SUD"},{"time":4,"distance":3186,"is_transit":true,"station_name":"Manggarai","line":0,"i_long":106.84912,"station_id":"MRI","transit":false,"i_lat":-6.209883},{"station_id":"MTR","line":1,"is_transit":false,"transit":false,"time":2,"i_lat":-6.212485,"station_name":"Matraman","distance":1275,"i_long":106.858896},{"station_name":"Jatinegara","i_lat":-6.215091,"line":0,"transit":true,"is_transit":true,"time":8,"distance":1377,"i_long":106.86807400000001,"station_id":"JNG"},{"station_id":"POK","station_name":"Pondok Jati","i_long":106.861737,"line":11,"distance":1236,"transit":false,"is_transit":false,"i_lat":-6.209188,"time":2},{"line":11,"distance":1829,"station_id":"KMT","is_transit":false,"station_name":"Kramat","transit":false,"time":2,"i_lat":-6.193792,"i_long":106.855437},{"is_transit":false,"time":1,"i_long":106.850107,"transit":false,"station_name":"Gang Sentiong","line":11,"station_id":"GST","distance":973,"i_lat":-6.185975},{"is_transit":false,"time":8,"distance":1567,"transit":false,"station_name":"Pasar Senen","station_id":"PSE","i_long":106.84368,"i_lat":-6.174784,"line":11},{"time":4,"distance":1436,"i_long":106.839204,"is_transit":false,"transit":false,"i_lat":-6.161728,"line":11,"station_id":"KMO","station_name":"Kemayoran"},{"station_name":"Rajawali","i_lat":-6.14505,"station_id":"RJW","time":5,"line":11,"i_long":106.836569,"transit":false,"is_transit":false,"distance":1901},{"station_id":"KPB","i_long":106.826365,"line":0,"station_name":"Kampung Bandan","is_transit":true,"transit":true,"time":3,"i_lat":-6.132549,"distance":1444},{"transit":true,"is_transit":true,"line":0,"distance":1364,"i_lat":-6.137569,"station_name":"Jakarta Kota","time":3,"i_long":106.812439,"station_id":"JAKK"},{"station_id":"JAY","i_lat":-6.141205,"distance":1264,"i_long":106.820901,"station_name":"Jayakarta","time":4,"is_transit":false,"transit":false,"line":7},{"distance":1080,"i_lat":-6.149769,"station_id":"MGB","station_name":"Manggabesar","is_transit":false,"time":2,"transit":false,"i_long":106.82482,"line":2},{"station_id":"SW","time":2,"i_lat":-6.160725,"line":2,"distance":906,"is_transit":false,"transit":false,"i_long":106.827103,"station_name":"Sawah Besar"},{"station_id":"JUA","is_transit":false,"line":2,"transit":false,"i_lat":-6.166716,"i_long":106.828284,"station_name":"Juanda","time":2,"distance":1149}]]}