{"data":[[{"i_lat":-6.159876,"line":0,"station_name":"Bojongindah","transit":false,"i_long":106.737035,"distance":0,"is_transit":false,"time":0,"station_id":"BOI"},{"transit":false,"time":2,"is_transit":false,"distance":2334,"station_id":"TKO","line":5,"i_long":106.756522,"station_name":"Taman Kota","i_lat":-6.1587309999999995},{"transit":false,"distance":1614,"i_lat":-6.161433,"i_long":106.771379,"time":2,"station_name":"Pesing","station_id":"PSG","is_transit":false,"line":5},{"station_name":"Grogol","is_transit":false,"time":2,"distance":2036,"transit":false,"station_id":"GGL","i_lat":-6.162021,"line":5,"i_long":106.788277},{"station_id":"DU","i_lat":-6.155215,"i_long":106.800832,"transit":true,"is_transit":true,"distance":1700,"time":3,"station_name":"Duri","line":1},{"is_transit":true,"time":8,"i_long":106.811091,"station_id":"THB","transit":true,"i_lat":-6.185545,"line":1,"station_name":"Tanah Abang","distance":3632},{"station_id":"PLM","transit":false,"i_long":106.79689,"time":6,"distance":3191,"i_lat":-6.207404,"is_transit":false,"station_name":"Palmerah","line":6},{"i_long":106.780334,"i_lat":-6.237242,"transit":false,"time":7,"station_name":"Kebayoran","station_id":"KBY","is_transit":false,"distance":3737,"line":6},{"is_transit":false,"station_name":"Pondokranji","station_id":"PDJ","distance":6218,"i_long":106.74273,"transit":false,"time":8,"line":6,"i_lat":-6.276362},{"station_name":"Jurangmangu","line":6,"time":3,"i_lat":-6.288927,"distance":2179,"i_long":106.728916,"station_id":"JMU","transit":false,"is_transit":false},{"is_transit":false,"time":4,"i_long":106.712277,"transit":false,"line":6,"station_id":"SDM","distance":1994,"i_lat":-6.296963,"station_name":"Sudimara"},{"station_name":"Rawa Buntu","i_long":106.675475,"station_id":"RU","is_transit":false,"transit":false,"time":6,"line":6,"distance":4566,"i_lat":-6.314823},{"transit":false,"line":6,"station_id":"SRP","is_transit":false,"i_long":106.66566,"distance":2413,"i_lat":-6.319871,"station_name":"Serpong","time":4},{"distance":1784,"i_lat":-6.32484,"is_transit":false,"transit":false,"line":0,"station_id":"CSK","station_name":"Cisauk","i_long":106.640411,"time":4},{"distance":2519,"i_lat":-6.329547,"i_long":106.617853,"is_transit":false,"time":4,"line":0,"station_name":"Cicayur","transit":false,"station_id":"CC"},{"transit":false,"i_long":106.568863,"station_id":"PRP","distance":5968,"station_name":"Parung Panjang","line":6,"time":8,"is_transit":false,"i_lat":-6.3441410000000005}],[{"i_lat":-6.159876,"transit":false,"distance":0,"i_long":106.737035,"station_name":"Bojongindah","is_transit":false,"line":0,"station_id":"BOI","time":0},{"i_lat":-6.1587309999999995,"i_long":106.756522,"transit":false,"station_name":"Taman Kota","station_id":"TKO","line":5,"is_transit":false,"time":2,"distance":2334},{"station_name":"Pesing","is_transit":false,"line":5,"i_lat":-6.161433,"distance":1614,"time":2,"station_id":"PSG","transit":false,"i_long":106.771379},{"station_id":"GGL","i_lat":-6.162021,"line":5,"time":2,"distance":2036,"i_long":106.788277,"transit":false,"is_transit":false,"station_name":"Grogol"},{"is_transit":true,"time":3,"distance":1700,"station_name":"Duri","i_long":106.800832,"line":1,"i_lat":-6.155215,"station_id":"DU","transit":true},{"time":4,"line":0,"i_lat":-6.144674,"i_long":106.79867,"distance":1230,"station_id":"AK","station_name":"Angke","transit":false,"is_transit":false},{"i_long":106.826365,"distance":4102,"time":9,"transit":false,"line":0,"is_transit":true,"station_name":"Kampung Bandan","station_id":"KPB","i_lat":-6.132549},{"i_long":106.812439,"is_transit":true,"station_name":"Jakarta Kota","transit":true,"i_lat":-6.137569,"line":0,"distance":1364,"station_id":"JAKK","time":3},{"i_lat":-6.141205,"line":7,"i_long":106.820901,"is_transit":false,"station_id":"JAY","station_name":"Jayakarta","time":4,"distance":1264,"transit":false},{"i_long":106.82482,"is_transit":false,"station_id":"MGB","station_name":"Manggabesar","transit":false,"distance":1080,"line":2,"time":2,"i_lat":-6.149769},{"i_lat":-6.160725,"distance":906,"is_transit":false,"transit":false,"station_name":"Sawah Besar","i_long":106.827103,"station_id":"SW","line":2,"time":2},{"time":2,"i_lat":-6.166716,"station_id":"JUA","is_transit":false,"station_name":"Juanda","i_long":106.828284,"line":2,"transit":false,"distance":1149},{"i_long":106.832183,"station_id":"GDD","line":2,"distance":2015,"i_lat":-6.186295,"station_name":"Gondangdia","time":4,"is_transit":false,"transit":false},{"station_id":"CKI","station_name":"Cikini","distance":1750,"i_long":106.840169,"i_lat":-6.198556,"is_transit":false,"line":0,"transit":false,"time":3},{"line":0,"station_id":"MRI","i_lat":-6.209883,"transit":true,"station_name":"Manggarai","i_long":106.84912,"is_transit":true,"time":4,"distance":1590},{"station_name":"Sudirman","i_long":106.822649,"time":4,"is_transit":false,"distance":3186,"line":1,"transit":false,"i_lat":-6.202263,"station_id":"SUD"},{"station_name":"Sudirman Baru","i_lat":-6.201433,"is_transit":false,"time":1,"station_id":"SUDB","i_long":106.819881,"line":1,"distance":280,"transit":false},{"station_name":"Karet","distance":471,"is_transit":false,"i_long":106.816351,"time":1,"transit":false,"i_lat":-6.20132,"line":1,"station_id":"KAT"},{"station_id":"THB","transit":true,"time":5,"is_transit":true,"i_long":106.811091,"station_name":"Tanah Abang","i_lat":-6.185545,"line":1,"distance":2029},{"time":6,"is_transit":false,"i_lat":-6.207404,"station_id":"PLM","transit":false,"station_name":"Palmerah","i_long":106.79689,"distance":3191,"line":6},{"is_transit":false,"time":7,"i_long":106.780334,"distance":3737,"line":6,"station_name":"Kebayoran","i_lat":-6.237242,"transit":false,"station_id":"KBY"},{"i_lat":-6.276362,"station_name":"Pondokranji","is_transit":false,"station_id":"PDJ","i_long":106.74273,"transit":false,"distance":6218,"line":6,"time":8},{"transit":false,"is_transit":false,"time":3,"station_name":"Jurangmangu","i_long":106.728916,"station_id":"JMU","distance":2179,"i_lat":-6.288927,"line":6},{"distance":1994,"i_lat":-6.296963,"is_transit":false,"line":6,"transit":false,"station_name":"Sudimara","time":4,"i_long":106.712277,"station_id":"SDM"},{"is_transit":false,"time":6,"line":6,"distance":4566,"transit":false,"station_name":"Rawa Buntu","i_lat":-6.314823,"i_long":106.675475,"station_id":"RU"},{"transit":false,"i_long":106.66566,"line":6,"time":4,"station_name":"Serpong","station_id":"SRP","distance":2413,"i_lat":-6.319871,"is_transit":false},{"station_name":"Cisauk","i_lat":-6.32484,"i_long":106.640411,"line":0,"station_id":"CSK","is_transit":false,"time":4,"distance":1784,"transit":false},{"transit":false,"line":0,"distance":2519,"station_name":"Cicayur","is_transit":false,"time":4,"i_long":106.617853,"station_id":"CC","i_lat":-6.329547},{"station_name":"Parung Panjang","station_id":"PRP","time":8,"i_lat":-6.3441410000000005,"i_long":106.568863,"is_transit":false,"distance":5968,"transit":false,"line":6}],[{"distance":0,"i_long":106.737035,"transit":false,"time":0,"station_name":"Bojongindah","i_lat":-6.159876,"line":0,"station_id":"BOI","is_transit":false},{"is_transit":false,"station_name":"Taman Kota","station_id":"TKO","distance":2334,"transit":false,"i_lat":-6.1587309999999995,"i_long":106.756522,"time":2,"line":5},{"transit":false,"is_transit":false,"time":2,"line":5,"i_lat":-6.161433,"station_name":"Pesing","distance":1614,"i_long":106.771379,"station_id":"PSG"},{"line":5,"i_lat":-6.162021,"transit":false,"i_long":106.788277,"station_name":"Grogol","station_id":"GGL","is_transit":false,"time":2,"distance":2036},{"station_name":"Duri","time":3,"transit":true,"line":1,"i_lat":-6.155215,"is_transit":true,"distance":1700,"station_id":"DU","i_long":106.800832},{"transit":false,"i_long":106.79867,"distance":1230,"line":0,"time":4,"i_lat":-6.144674,"station_name":"Angke","is_transit":false,"station_id":"AK"},{"line":0,"is_transit":true,"i_lat":-6.132549,"station_id":"KPB","i_long":106.826365,"transit":true,"time":9,"station_name":"Kampung Bandan","distance":4102},{"time":3,"station_id":"RJW","transit":false,"i_long":106.836569,"distance":1444,"line":11,"is_transit":false,"i_lat":-6.14505,"station_name":"Rajawali"},{"station_id":"KMO","time":5,"transit":false,"i_long":106.839204,"line":11,"station_name":"Kemayoran","i_lat":-6.161728,"distance":1901,"is_transit":false},{"distance":1436,"is_transit":false,"i_lat":-6.174784,"transit":false,"i_long":106.84368,"time":4,"station_name":"Pasar Senen","station_id":"PSE","line":11},{"station_id":"GST","is_transit":false,"distance":1567,"i_lat":-6.185975,"i_long":106.850107,"transit":false,"station_name":"Gang Sentiong","line":11,"time":8},{"distance":973,"station_id":"KMT","station_name":"Kramat","transit":false,"is_transit":false,"i_lat":-6.193792,"time":1,"i_long":106.855437,"line":11},{"i_long":106.861737,"is_transit":false,"i_lat":-6.209188,"line":11,"time":2,"transit":false,"station_name":"Pondok Jati","station_id":"POK","distance":1829},{"i_long":106.86807400000001,"i_lat":-6.215091,"is_transit":true,"time":9,"line":0,"transit":true,"station_name":"Jatinegara","distance":1236,"station_id":"JNG"},{"time":2,"distance":1377,"station_name":"Matraman","i_lat":-6.212485,"is_transit":false,"station_id":"MTR","line":1,"i_long":106.858896,"transit":false},{"distance":1275,"transit":false,"line":0,"station_name":"Manggarai","is_transit":true,"i_lat":-6.209883,"time":2,"i_long":106.84912,"station_id":"MRI"},{"station_id":"SUD","line":1,"distance":3186,"is_transit":false,"time":4,"i_lat":-6.202263,"station_name":"Sudirman","transit":false,"i_long":106.822649},{"time":1,"i_long":106.819881,"i_lat":-6.201433,"line":1,"is_transit":false,"station_name":"Sudirman Baru","station_id":"SUDB","distance":280,"transit":false},{"station_name":"Karet","i_lat":-6.20132,"station_id":"KAT","time":1,"is_transit":false,"i_long":106.816351,"line":1,"distance":471,"transit":false},{"station_name":"Tanah Abang","is_transit":true,"time":5,"transit":true,"line":1,"i_lat":-6.185545,"i_long":106.811091,"station_id":"THB","distance":2029},{"station_name":"Palmerah","distance":3191,"line":6,"is_transit":false,"i_lat":-6.207404,"transit":false,"station_id":"PLM","time":6,"i_long":106.79689},{"line":6,"time":7,"station_id":"KBY","transit":false,"station_name":"Kebayoran","i_lat":-6.237242,"is_transit":false,"i_long":106.780334,"distance":3737},{"time":8,"distance":6218,"i_long":106.74273,"station_name":"Pondokranji","is_transit":false,"transit":false,"line":6,"i_lat":-6.276362,"station_id":"PDJ"},{"is_transit":false,"station_id":"JMU","distance":2179,"time":3,"line":6,"i_lat":-6.288927,"station_name":"Jurangmangu","transit":false,"i_long":106.728916},{"time":4,"line":6,"i_lat":-6.296963,"i_long":106.712277,"is_transit":false,"distance":1994,"transit":false,"station_name":"Sudimara","station_id":"SDM"},{"time":6,"transit":false,"station_name":"Rawa Buntu","station_id":"RU","distance":4566,"i_lat":-6.314823,"i_long":106.675475,"line":6,"is_transit":false},{"transit":false,"i_lat":-6.319871,"distance":2413,"station_name":"Serpong","time":4,"i_long":106.66566,"station_id":"SRP","is_transit":false,"line":6},{"station_id":"CSK","time":4,"i_lat":-6.32484,"i_long":106.640411,"distance":1784,"line":0,"transit":false,"station_name":"Cisauk","is_transit":false},{"i_long":106.617853,"transit":false,"i_lat":-6.329547,"time":4,"station_id":"CC","line":0,"distance":2519,"station_name":"Cicayur","is_transit":false},{"distance":5968,"i_lat":-6.3441410000000005,"station_name":"Parung Panjang","transit":false,"line":6,"is_transit":false,"i_long":106.568863,"time":8,"station_id":"PRP"}]]}