{"data":[[{"i_long":106.737035,"distance":0,"station_id":"BOI","transit":false,"time":0,"i_lat":-6.159876,"line":0,"station_name":"Bojongindah","is_transit":false},{"i_long":106.756522,"distance":2334,"i_lat":-6.1587309999999995,"line":5,"time":2,"station_id":"TKO","station_name":"Taman Kota","is_transit":false,"transit":false},{"station_id":"PSG","is_transit":false,"transit":false,"i_long":106.771379,"i_lat":-6.161433,"time":2,"station_name":"Pesing","distance":1614,"line":5},{"station_name":"Grogol","i_long":106.788277,"distance":2036,"line":5,"time":2,"i_lat":-6.162021,"station_id":"GGL","is_transit":false,"transit":false},{"line":1,"i_lat":-6.155215,"is_transit":true,"distance":1700,"station_name":"Duri","station_id":"DU","transit":true,"time":3,"i_long":106.800832},{"station_id":"THB","i_lat":-6.185545,"i_long":106.811091,"distance":3632,"line":1,"station_name":"Tanah Abang","time":8,"transit":false,"is_transit":true},{"station_id":"KAT","station_name":"Karet","transit":false,"i_long":106.816351,"is_transit":false,"distance":2029,"line":1,"i_lat":-6.20132,"time":5},{"station_name":"Sudirman Baru","i_long":106.819881,"transit":false,"distance":471,"line":1,"station_id":"SUDB","i_lat":-6.201433,"is_transit":false,"time":1},{"station_id":"SUD","i_lat":-6.202263,"i_long":106.822649,"is_transit":false,"station_name":"Sudirman","line":1,"transit":false,"time":1,"distance":280}],[{"transit":false,"i_lat":-6.159876,"station_id":"BOI","distance":0,"time":0,"is_transit":false,"i_long":106.737035,"station_name":"Bojongindah","line":0},{"is_transit":false,"i_lat":-6.1587309999999995,"station_id":"TKO","transit":false,"distance":2334,"line":5,"station_name":"Taman Kota","time":2,"i_long":106.756522},{"line":5,"i_long":106.771379,"transit":false,"is_transit":false,"station_name":"Pesing","time":2,"station_id":"PSG","i_lat":-6.161433,"distance":1614},{"i_long":106.788277,"station_id":"GGL","station_name":"Grogol","i_lat":-6.162021,"is_transit":false,"transit":false,"line":5,"time":2,"distance":2036},{"i_long":106.800832,"i_lat":-6.155215,"station_id":"DU","line":1,"is_transit":true,"station_name":"Duri","transit":true,"time":3,"distance":1700},{"is_transit":false,"distance":1230,"time":4,"i_long":106.79867,"transit":false,"line":0,"station_id":"AK","station_name":"Angke","i_lat":-6.144674},{"distance":4102,"i_lat":-6.132549,"line":0,"transit":false,"i_long":106.826365,"time":9,"station_id":"KPB","station_name":"Kampung Bandan","is_transit":true},{"distance":1364,"i_lat":-6.137569,"is_transit":true,"i_long":106.812439,"transit":true,"line":0,"station_id":"JAKK","time":3,"station_name":"Jakarta Kota"},{"line":7,"is_transit":false,"distance":1264,"i_long":106.820901,"station_name":"Jayakarta","time":4,"i_lat":-6.141205,"station_id":"JAY","transit":false},{"is_transit":false,"station_id":"MGB","line":2,"distance":1080,"i_long":106.82482,"time":2,"i_lat":-6.149769,"station_name":"Manggabesar","transit":false},{"time":2,"station_id":"SW","is_transit":false,"line":2,"station_name":"Sawah Besar","distance":906,"transit":false,"i_lat":-6.160725,"i_long":106.827103},{"station_id":"JUA","transit":false,"i_long":106.828284,"station_name":"Juanda","is_transit":false,"distance":1149,"i_lat":-6.166716,"line":2,"time":2},{"is_transit":false,"distance":2015,"station_name":"Gondangdia","time":4,"transit":false,"i_lat":-6.186295,"station_id":"GDD","i_long":106.832183,"line":2},{"station_name":"Cikini","i_lat":-6.198556,"time":3,"transit":false,"i_long":106.840169,"station_id":"CKI","is_transit":false,"distance":1750,"line":0},{"i_lat":-6.209883,"time":4,"station_name":"Manggarai","is_transit":true,"distance":1590,"line":0,"station_id":"MRI","transit":true,"i_long":106.84912},{"line":1,"distance":3186,"is_transit":false,"station_id":"SUD","transit":false,"time":4,"i_lat":-6.202263,"i_long":106.822649,"station_name":"Sudirman"}],[{"i_long":106.737035,"is_transit":false,"station_id":"BOI","station_name":"Bojongindah","line":0,"distance":0,"time":0,"transit":false,"i_lat":-6.159876},{"line":5,"time":2,"station_id":"TKO","i_long":106.756522,"is_transit":false,"i_lat":-6.1587309999999995,"distance":2334,"transit":false,"station_name":"Taman Kota"},{"station_name":"Pesing","i_long":106.771379,"time":2,"station_id":"PSG","is_transit":false,"i_lat":-6.161433,"line":5,"distance":1614,"transit":false},{"time":2,"transit":false,"i_lat":-6.162021,"line":5,"station_name":"Grogol","station_id":"GGL","is_transit":false,"i_long":106.788277,"distance":2036},{"transit":true,"station_id":"DU","i_lat":-6.155215,"line":1,"is_transit":true,"time":3,"station_name":"Duri","i_long":106.800832,"distance":1700},{"station_name":"Angke","transit":false,"distance":1230,"station_id":"AK","is_transit":false,"i_long":106.79867,"time":4,"line":0,"i_lat":-6.144674},{"station_id":"KPB","station_name":"Kampung Bandan","i_long":106.826365,"distance":4102,"transit":true,"time":9,"i_lat":-6.132549,"is_transit":true,"line":0},{"transit":false,"i_lat":-6.14505,"time":3,"i_long":106.836569,"distance":1444,"line":11,"station_name":"Rajawali","is_transit":false,"station_id":"RJW"},{"transit":false,"distance":1901,"station_id":"KMO","i_lat":-6.161728,"line":11,"is_transit":false,"station_name":"Kemayoran","i_long":106.839204,"time":5},{"time":4,"distance":1436,"transit":false,"is_transit":false,"i_lat":-6.174784,"line":11,"station_name":"Pasar Senen","i_long":106.84368,"station_id":"PSE"},{"is_transit":false,"i_long":106.850107,"station_id":"GST","time":8,"transit":false,"line":11,"station_name":"Gang Sentiong","distance":1567,"i_lat":-6.185975},{"transit":false,"i_lat":-6.193792,"i_long":106.855437,"station_name":"Kramat","distance":973,"time":1,"line":11,"is_transit":false,"station_id":"KMT"},{"line":11,"distance":1829,"station_id":"POK","i_lat":-6.209188,"i_long":106.861737,"station_name":"Pondok Jati","is_transit":false,"time":2,"transit":false},{"line":0,"distance":1236,"time":9,"station_name":"Jatinegara","transit":true,"is_transit":true,"station_id":"JNG","i_lat":-6.215091,"i_long":106.86807400000001},{"is_transit":false,"transit":false,"i_long":106.858896,"time":2,"line":1,"station_name":"Matraman","station_id":"MTR","distance":1377,"i_lat":-6.212485},{"time":2,"i_long":106.84912,"distance":1275,"i_lat":-6.209883,"transit":false,"line":0,"station_name":"Manggarai","station_id":"MRI","is_transit":true},{"is_transit":false,"distance":3186,"station_id":"SUD","station_name":"Sudirman","time":4,"transit":false,"i_long":106.822649,"i_lat":-6.202263,"line":1}]]}