{"data":[[{"distance":0,"station_id":"BOI","line":5,"station_name":"Bojongindah","transit":false,"i_lat":-6.159876,"is_transit":false,"time":0,"i_long":106.737035},{"line":5,"i_long":106.756522,"time":2,"distance":2334,"transit":false,"station_name":"Taman Kota","i_lat":-6.1587309999999995,"is_transit":false,"station_id":"TKO"},{"i_long":106.771379,"distance":1614,"i_lat":-6.161433,"station_name":"Pesing","station_id":"PSG","transit":false,"is_transit":false,"line":5,"time":2},{"station_name":"Grogol","i_long":106.788277,"transit":false,"is_transit":false,"distance":2036,"station_id":"GGL","time":2,"line":5,"i_lat":-6.162021},{"time":3,"distance":1700,"line":1,"i_lat":-6.155215,"station_name":"Duri","station_id":"DU","is_transit":true,"transit":true,"i_long":106.800832},{"transit":false,"station_name":"Tanah Abang","is_transit":false,"i_long":106.811091,"station_id":"THB","distance":3632,"i_lat":-6.185545,"line":1,"time":8},{"line":1,"station_name":"Karet","is_transit":false,"transit":false,"time":5,"i_lat":-6.20132,"station_id":"KAT","i_long":106.816351,"distance":2029},{"time":1,"i_long":106.819881,"distance":471,"station_name":"Sudirman Baru","i_lat":-6.201433,"line":1,"station_id":"SUDB","transit":false,"is_transit":false},{"i_long":106.822649,"station_id":"SUD","station_name":"Sudirman","i_lat":-6.202263,"is_transit":false,"time":1,"transit":false,"distance":280,"line":1},{"station_name":"Manggarai","i_lat":-6.209883,"i_long":106.84912,"time":4,"transit":true,"station_id":"MRI","is_transit":true,"distance":3186,"line":2},{"station_id":"TEB","distance":2610,"i_lat":-6.226659,"station_name":"Tebet","transit":false,"time":4,"is_transit":false,"i_long":106.857948,"line":2}],[{"transit":false,"line":5,"is_transit":false,"i_long":106.737035,"station_name":"Bojongindah","time":0,"i_lat":-6.159876,"station_id":"BOI","distance":0},{"is_transit":false,"i_long":106.756522,"line":5,"station_name":"Taman Kota","time":2,"i_lat":-6.1587309999999995,"station_id":"TKO","transit":false,"distance":2334},{"is_transit":false,"time":2,"station_name":"Pesing","line":5,"station_id":"PSG","transit":false,"i_lat":-6.161433,"i_long":106.771379,"distance":1614},{"time":2,"i_lat":-6.162021,"line":5,"transit":false,"station_id":"GGL","i_long":106.788277,"distance":2036,"station_name":"Grogol","is_transit":false},{"i_lat":-6.155215,"station_id":"DU","transit":true,"station_name":"Duri","line":1,"is_transit":true,"i_long":106.800832,"time":3,"distance":1700},{"station_id":"AK","is_transit":false,"transit":false,"station_name":"Angke","time":4,"i_long":106.79867,"distance":1230,"i_lat":-6.144674,"line":1},{"line":4,"transit":true,"time":9,"station_id":"KPB","is_transit":true,"distance":4102,"station_name":"Kampung Bandan","i_lat":-6.132549,"i_long":106.826365},{"time":3,"station_name":"Jakarta Kota","is_transit":true,"i_long":106.812439,"i_lat":-6.137569,"line":2,"distance":1364,"transit":true,"station_id":"JAKK"},{"is_transit":false,"time":4,"i_lat":-6.141205,"line":2,"transit":false,"station_name":"Jayakarta","distance":1264,"station_id":"JAY","i_long":106.820901},{"is_transit":false,"distance":1080,"transit":false,"time":2,"i_long":106.82482,"station_name":"Manggabesar","i_lat":-6.149769,"line":2,"station_id":"MGB"},{"transit":false,"i_lat":-6.160725,"i_long":106.827103,"is_transit":false,"station_id":"SW","line":2,"time":2,"distance":906,"station_name":"Sawah Besar"},{"time":2,"transit":false,"i_long":106.828284,"i_lat":-6.166716,"station_id":"JUA","is_transit":false,"line":2,"station_name":"Juanda","distance":1149},{"station_id":"GDD","transit":false,"distance":2015,"i_long":106.832183,"time":4,"is_transit":false,"line":2,"i_lat":-6.186295,"station_name":"Gondangdia"},{"time":3,"distance":1750,"i_lat":-6.198556,"transit":false,"line":2,"station_name":"Cikini","i_long":106.840169,"station_id":"CKI","is_transit":false},{"i_lat":-6.209883,"time":4,"station_name":"Manggarai","is_transit":false,"distance":1590,"line":2,"station_id":"MRI","transit":false,"i_long":106.84912},{"i_lat":-6.226659,"line":2,"i_long":106.857948,"distance":2610,"is_transit":false,"station_name":"Tebet","transit":false,"time":4,"station_id":"TEB"}],[{"transit":false,"time":0,"i_lat":-6.159876,"station_id":"BOI","distance":0,"line":5,"is_transit":false,"station_name":"Bojongindah","i_long":106.737035},{"time":2,"station_name":"Taman Kota","line":5,"is_transit":false,"i_long":106.756522,"station_id":"TKO","distance":2334,"transit":false,"i_lat":-6.1587309999999995},{"time":2,"station_name":"Pesing","distance":1614,"i_long":106.771379,"line":5,"transit":false,"station_id":"PSG","is_transit":false,"i_lat":-6.161433},{"station_name":"Grogol","station_id":"GGL","distance":2036,"transit":false,"time":2,"is_transit":false,"i_lat":-6.162021,"i_long":106.788277,"line":5},{"time":3,"station_name":"Duri","station_id":"DU","i_long":106.800832,"line":1,"i_lat":-6.155215,"transit":true,"distance":1700,"is_transit":true},{"transit":false,"station_id":"AK","time":4,"is_transit":false,"distance":1230,"i_lat":-6.144674,"station_name":"Angke","line":1,"i_long":106.79867},{"i_long":106.826365,"transit":true,"line":4,"station_name":"Kampung Bandan","station_id":"KPB","i_lat":-6.132549,"time":9,"distance":4102,"is_transit":true},{"is_transit":false,"distance":1444,"i_lat":-6.14505,"i_long":106.836569,"station_name":"Rajawali","station_id":"RJW","line":11,"transit":false,"time":3},{"station_name":"Kemayoran","is_transit":false,"i_lat":-6.161728,"time":5,"i_long":106.839204,"distance":1901,"transit":false,"station_id":"KMO","line":11},{"time":4,"station_name":"Pasar Senen","distance":1436,"i_long":106.84368,"station_id":"PSE","transit":false,"i_lat":-6.174784,"line":11,"is_transit":false},{"distance":1567,"transit":false,"station_id":"GST","is_transit":false,"time":8,"i_long":106.850107,"station_name":"Gang Sentiong","line":11,"i_lat":-6.185975},{"line":11,"distance":973,"transit":false,"i_lat":-6.193792,"is_transit":false,"station_id":"KMT","i_long":106.855437,"station_name":"Kramat","time":1},{"time":2,"i_long":106.861737,"i_lat":-6.209188,"line":11,"transit":false,"is_transit":false,"station_id":"POK","distance":1829,"station_name":"Pondok Jati"},{"distance":1236,"time":9,"line":1,"station_name":"Jatinegara","station_id":"JNG","is_transit":true,"i_lat":-6.215091,"i_long":106.86807400000001,"transit":true},{"distance":1377,"i_lat":-6.212485,"i_long":106.858896,"is_transit":false,"time":2,"line":1,"transit":false,"station_name":"Matraman","station_id":"MTR"},{"station_name":"Manggarai","time":2,"i_lat":-6.209883,"station_id":"MRI","i_long":106.84912,"is_transit":true,"line":2,"distance":1275,"transit":true},{"distance":2610,"is_transit":false,"i_long":106.857948,"transit":false,"time":4,"i_lat":-6.226659,"line":2,"station_id":"TEB","station_name":"Tebet"}]]}