{"data":[[{"station_id":"BOI","station_name":"Bojongindah","line":5,"time":0,"i_lat":-6.159876,"transit":false,"distance":0,"is_transit":false,"i_long":106.737035},{"distance":2334,"line":5,"station_id":"TKO","time":2,"is_transit":false,"i_long":106.756522,"i_lat":-6.1587309999999995,"station_name":"Taman Kota","transit":false},{"i_long":106.771379,"time":2,"transit":false,"distance":1614,"i_lat":-6.161433,"line":5,"station_id":"PSG","station_name":"Pesing","is_transit":false},{"i_lat":-6.162021,"time":2,"transit":false,"distance":2036,"station_id":"GGL","line":5,"station_name":"Grogol","is_transit":false,"i_long":106.788277},{"station_id":"DU","station_name":"Duri","i_long":106.800832,"distance":1700,"line":1,"is_transit":true,"transit":true,"i_lat":-6.155215,"time":3},{"station_id":"THB","is_transit":false,"i_lat":-6.185545,"time":8,"transit":false,"i_long":106.811091,"line":1,"station_name":"Tanah Abang","distance":3632},{"station_id":"KAT","line":1,"transit":false,"time":5,"is_transit":false,"station_name":"Karet","i_lat":-6.20132,"distance":2029,"i_long":106.816351},{"line":1,"station_name":"Sudirman Baru","station_id":"SUDB","time":1,"i_long":106.819881,"is_transit":false,"distance":471,"transit":false,"i_lat":-6.201433},{"line":1,"station_id":"SUD","station_name":"Sudirman","distance":280,"is_transit":false,"transit":false,"time":1,"i_lat":-6.202263,"i_long":106.822649},{"time":4,"transit":false,"i_long":106.84912,"distance":3186,"is_transit":false,"i_lat":-6.209883,"line":2,"station_id":"MRI","station_name":"Manggarai"},{"distance":1275,"time":2,"is_transit":false,"station_id":"MTR","i_lat":-6.212485,"line":1,"i_long":106.858896,"station_name":"Matraman","transit":false},{"line":1,"is_transit":false,"i_long":106.86807400000001,"station_id":"JNG","time":8,"distance":1377,"transit":false,"i_lat":-6.215091,"station_name":"Jatinegara"},{"i_lat":-6.2135,"station_name":"Klender","transit":false,"i_long":106.899548,"distance":3395,"station_id":"KLD","is_transit":false,"line":1,"time":3},{"distance":3100,"station_id":"BUA","is_transit":false,"time":2,"i_long":106.922662,"line":1,"i_lat":-6.215568,"station_name":"Buaran","transit":false},{"station_name":"Klenderbaru","i_long":106.939679,"transit":false,"distance":1305,"is_transit":false,"line":1,"station_id":"KLDB","time":1,"i_lat":-6.217455},{"line":1,"i_lat":-6.219053,"i_long":106.951283,"station_id":"CUK","distance":1385,"station_name":"Cakung","time":8,"transit":false,"is_transit":false},{"station_name":"Kranji","time":3,"is_transit":false,"line":1,"station_id":"KRI","i_lat":-6.224515,"distance":3097,"i_long":106.977657,"transit":false},{"i_long":106.997013,"station_id":"BKS","transit":false,"station_name":"Bekasi","time":4,"i_lat":-6.236616,"is_transit":false,"distance":2520,"line":1},{"distance":2368,"time":2,"transit":false,"line":1,"i_lat":-6.248029,"station_name":"Bekasi Timur","station_id":"BKST","is_transit":false,"i_long":107.016735}],[{"distance":0,"station_name":"Bojongindah","is_transit":false,"i_long":106.737035,"transit":false,"line":5,"station_id":"BOI","time":0,"i_lat":-6.159876},{"station_name":"Taman Kota","line":5,"i_long":106.756522,"i_lat":-6.1587309999999995,"is_transit":false,"time":2,"distance":2334,"transit":false,"station_id":"TKO"},{"i_long":106.771379,"is_transit":false,"line":5,"station_id":"PSG","time":2,"i_lat":-6.161433,"station_name":"Pesing","transit":false,"distance":1614},{"transit":false,"station_id":"GGL","is_transit":false,"time":2,"i_long":106.788277,"line":5,"station_name":"Grogol","i_lat":-6.162021,"distance":2036},{"station_id":"DU","time":3,"line":1,"distance":1700,"i_long":106.800832,"transit":true,"station_name":"Duri","is_transit":true,"i_lat":-6.155215},{"time":4,"is_transit":false,"station_name":"Angke","transit":false,"i_lat":-6.144674,"i_long":106.79867,"line":1,"station_id":"AK","distance":1230},{"time":9,"line":4,"distance":4102,"i_lat":-6.132549,"station_id":"KPB","i_long":106.826365,"is_transit":true,"station_name":"Kampung Bandan","transit":true},{"line":11,"station_id":"RJW","station_name":"Rajawali","is_transit":false,"distance":1444,"time":3,"transit":false,"i_lat":-6.14505,"i_long":106.836569},{"transit":false,"line":11,"station_id":"KMO","station_name":"Kemayoran","is_transit":false,"i_lat":-6.161728,"distance":1901,"time":5,"i_long":106.839204},{"station_id":"PSE","i_lat":-6.174784,"station_name":"Pasar Senen","transit":false,"time":4,"is_transit":false,"i_long":106.84368,"distance":1436,"line":11},{"time":8,"transit":false,"i_lat":-6.185975,"is_transit":false,"distance":1567,"station_id":"GST","line":11,"i_long":106.850107,"station_name":"Gang Sentiong"},{"i_lat":-6.193792,"station_id":"KMT","transit":false,"is_transit":false,"time":1,"distance":973,"line":11,"station_name":"Kramat","i_long":106.855437},{"time":2,"is_transit":false,"distance":1829,"line":11,"i_lat":-6.209188,"station_id":"POK","i_long":106.861737,"station_name":"Pondok Jati","transit":false},{"time":9,"is_transit":true,"i_long":106.86807400000001,"station_name":"Jatinegara","distance":1236,"transit":true,"station_id":"JNG","line":1,"i_lat":-6.215091},{"is_transit":false,"time":3,"i_lat":-6.2135,"station_id":"KLD","distance":3395,"line":1,"i_long":106.899548,"station_name":"Klender","transit":false},{"transit":false,"is_transit":false,"line":1,"station_name":"Buaran","distance":3100,"i_long":106.922662,"station_id":"BUA","time":2,"i_lat":-6.215568},{"is_transit":false,"distance":1305,"i_lat":-6.217455,"line":1,"station_name":"Klenderbaru","i_long":106.939679,"station_id":"KLDB","time":1,"transit":false},{"transit":false,"i_long":106.951283,"line":1,"station_name":"Cakung","time":8,"is_transit":false,"station_id":"CUK","distance":1385,"i_lat":-6.219053},{"station_id":"KRI","time":3,"is_transit":false,"transit":false,"i_long":106.977657,"line":1,"station_name":"Kranji","distance":3097,"i_lat":-6.224515},{"time":4,"is_transit":false,"distance":2520,"station_name":"Bekasi","line":1,"i_lat":-6.236616,"transit":false,"station_id":"BKS","i_long":106.997013},{"i_lat":-6.248029,"station_id":"BKST","distance":2368,"line":1,"is_transit":false,"transit":false,"station_name":"Bekasi Timur","time":2,"i_long":107.016735}],[{"i_long":106.737035,"is_transit":false,"line":5,"time":0,"station_id":"BOI","distance":0,"station_name":"Bojongindah","transit":false,"i_lat":-6.159876},{"is_transit":false,"station_name":"Taman Kota","distance":2334,"time":2,"i_lat":-6.1587309999999995,"i_long":106.756522,"station_id":"TKO","line":5,"transit":false},{"i_long":106.771379,"transit":false,"station_id":"PSG","distance":1614,"line":5,"is_transit":false,"station_name":"Pesing","i_lat":-6.161433,"time":2},{"transit":false,"is_transit":false,"station_name":"Grogol","i_lat":-6.162021,"line":5,"distance":2036,"station_id":"GGL","time":2,"i_long":106.788277},{"station_id":"DU","station_name":"Duri","is_transit":true,"transit":true,"line":1,"i_long":106.800832,"time":3,"distance":1700,"i_lat":-6.155215},{"station_name":"Angke","line":1,"distance":1230,"time":4,"transit":false,"station_id":"AK","i_lat":-6.144674,"i_long":106.79867,"is_transit":false},{"transit":true,"station_id":"KPB","is_transit":true,"station_name":"Kampung Bandan","i_long":106.826365,"time":9,"line":4,"distance":4102,"i_lat":-6.132549},{"time":3,"i_lat":-6.137569,"station_name":"Jakarta Kota","is_transit":true,"transit":true,"line":2,"i_long":106.812439,"distance":1364,"station_id":"JAKK"},{"station_id":"JAY","i_lat":-6.141205,"is_transit":false,"transit":false,"distance":1264,"station_name":"Jayakarta","time":4,"i_long":106.820901,"line":2},{"i_long":106.82482,"time":2,"transit":false,"line":2,"i_lat":-6.149769,"is_transit":false,"distance":1080,"station_name":"Manggabesar","station_id":"MGB"},{"time":2,"i_long":106.827103,"i_lat":-6.160725,"station_name":"Sawah Besar","transit":false,"station_id":"SW","line":2,"is_transit":false,"distance":906},{"transit":false,"i_lat":-6.166716,"line":2,"station_id":"JUA","i_long":106.828284,"time":2,"station_name":"Juanda","is_transit":false,"distance":1149},{"line":2,"distance":2015,"is_transit":false,"transit":false,"station_name":"Gondangdia","time":4,"i_lat":-6.186295,"station_id":"GDD","i_long":106.832183},{"station_id":"CKI","line":2,"i_long":106.840169,"transit":false,"is_transit":false,"distance":1750,"i_lat":-6.198556,"station_name":"Cikini","time":3},{"is_transit":true,"transit":true,"i_lat":-6.209883,"i_long":106.84912,"line":2,"station_id":"MRI","distance":1590,"time":4,"station_name":"Manggarai"},{"station_name":"Matraman","time":2,"distance":1275,"station_id":"MTR","transit":false,"is_transit":false,"i_lat":-6.212485,"line":1,"i_long":106.858896},{"line":1,"is_transit":false,"time":8,"station_id":"JNG","station_name":"Jatinegara","i_long":106.86807400000001,"transit":false,"distance":1377,"i_lat":-6.215091},{"i_long":106.899548,"time":3,"station_id":"KLD","transit":false,"line":1,"is_transit":false,"station_name":"Klender","distance":3395,"i_lat":-6.2135},{"station_name":"Buaran","line":1,"is_transit":false,"time":2,"distance":3100,"station_id":"BUA","transit":false,"i_long":106.922662,"i_lat":-6.215568},{"i_lat":-6.217455,"station_name":"Klenderbaru","i_long":106.939679,"line":1,"station_id":"KLDB","time":1,"transit":false,"is_transit":false,"distance":1305},{"is_transit":false,"station_name":"Cakung","distance":1385,"i_lat":-6.219053,"time":8,"station_id":"CUK","line":1,"transit":false,"i_long":106.951283},{"time":3,"transit":false,"i_lat":-6.224515,"station_name":"Kranji","station_id":"KRI","i_long":106.977657,"line":1,"distance":3097,"is_transit":false},{"i_lat":-6.236616,"time":4,"is_transit":false,"distance":2520,"transit":false,"i_long":106.997013,"station_name":"Bekasi","line":1,"station_id":"BKS"},{"time":2,"transit":false,"line":1,"i_long":107.016735,"distance":2368,"station_id":"BKST","i_lat":-6.248029,"is_transit":false,"station_name":"Bekasi Timur"}],[{"time":0,"i_lat":-6.159876,"station_name":"Bojongindah","distance":0,"i_long":106.737035,"station_id":"BOI","is_transit":false,"transit":false,"line":5},{"transit":false,"time":2,"i_long":106.756522,"is_transit":false,"distance":2334,"i_lat":-6.1587309999999995,"line":5,"station_id":"TKO","station_name":"Taman Kota"},{"station_name":"Pesing","line":5,"i_long":106.771379,"time":2,"station_id":"PSG","i_lat":-6.161433,"distance":1614,"is_transit":false,"transit":false},{"transit":false,"station_id":"GGL","line":5,"distance":2036,"is_transit":false,"station_name":"Grogol","time":2,"i_lat":-6.162021,"i_long":106.788277},{"transit":true,"station_id":"DU","i_lat":-6.155215,"distance":1700,"i_long":106.800832,"station_name":"Duri","line":1,"time":3,"is_transit":true},{"line":1,"transit":false,"i_lat":-6.185545,"station_name":"Tanah Abang","is_transit":false,"i_long":106.811091,"station_id":"THB","time":8,"distance":3632},{"line":1,"station_id":"KAT","distance":2029,"station_name":"Karet","time":5,"transit":false,"i_lat":-6.20132,"i_long":106.816351,"is_transit":false},{"distance":471,"i_lat":-6.201433,"station_name":"Sudirman Baru","is_transit":false,"station_id":"SUDB","i_long":106.819881,"time":1,"line":1,"transit":false},{"station_name":"Sudirman","distance":280,"transit":false,"line":1,"i_long":106.822649,"time":1,"is_transit":false,"station_id":"SUD","i_lat":-6.202263},{"station_name":"Manggarai","line":2,"is_transit":true,"time":4,"transit":true,"i_lat":-6.209883,"station_id":"MRI","distance":3186,"i_long":106.84912},{"transit":false,"is_transit":false,"i_lat":-6.198556,"station_id":"CKI","station_name":"Cikini","distance":1590,"line":2,"i_long":106.840169,"time":4},{"station_name":"Gondangdia","transit":false,"i_lat":-6.186295,"i_long":106.832183,"line":2,"is_transit":false,"time":3,"distance":1750,"station_id":"GDD"},{"time":4,"station_id":"JUA","i_long":106.828284,"i_lat":-6.166716,"station_name":"Juanda","transit":false,"is_transit":false,"line":2,"distance":2015},{"line":2,"distance":1149,"station_name":"Sawah Besar","time":2,"station_id":"SW","transit":false,"i_lat":-6.160725,"is_transit":false,"i_long":106.827103},{"distance":906,"station_name":"Manggabesar","i_long":106.82482,"transit":false,"time":2,"i_lat":-6.149769,"line":2,"station_id":"MGB","is_transit":false},{"line":2,"distance":1080,"station_name":"Jayakarta","i_long":106.820901,"station_id":"JAY","is_transit":false,"i_lat":-6.141205,"time":2,"transit":false},{"distance":1264,"i_lat":-6.137569,"line":2,"station_name":"Jakarta Kota","station_id":"JAKK","time":4,"transit":true,"i_long":106.812439,"is_transit":true},{"transit":true,"station_name":"Kampung Bandan","distance":1364,"i_long":106.826365,"is_transit":true,"i_lat":-6.132549,"line":4,"station_id":"KPB","time":3},{"is_transit":false,"station_name":"Rajawali","line":11,"distance":1444,"time":3,"transit":false,"i_lat":-6.14505,"station_id":"RJW","i_long":106.836569},{"line":11,"i_lat":-6.161728,"is_transit":false,"station_id":"KMO","station_name":"Kemayoran","i_long":106.839204,"transit":false,"distance":1901,"time":5},{"transit":false,"i_lat":-6.174784,"i_long":106.84368,"line":11,"station_name":"Pasar Senen","station_id":"PSE","is_transit":false,"distance":1436,"time":4},{"distance":1567,"station_name":"Gang Sentiong","station_id":"GST","i_lat":-6.185975,"i_long":106.850107,"is_transit":false,"time":8,"line":11,"transit":false},{"i_long":106.855437,"distance":973,"line":11,"is_transit":false,"i_lat":-6.193792,"transit":false,"time":1,"station_id":"KMT","station_name":"Kramat"},{"transit":false,"distance":1829,"i_lat":-6.209188,"line":11,"station_name":"Pondok Jati","station_id":"POK","time":2,"i_long":106.861737,"is_transit":false},{"distance":1236,"i_lat":-6.215091,"i_long":106.86807400000001,"line":1,"time":9,"transit":true,"is_transit":true,"station_id":"JNG","station_name":"Jatinegara"},{"time":3,"line":1,"distance":3395,"transit":false,"station_id":"KLD","is_transit":false,"i_long":106.899548,"i_lat":-6.2135,"station_name":"Klender"},{"station_name":"Buaran","time":2,"is_transit":false,"transit":false,"distance":3100,"i_lat":-6.215568,"i_long":106.922662,"station_id":"BUA","line":1},{"i_lat":-6.217455,"is_transit":false,"distance":1305,"i_long":106.939679,"line":1,"station_id":"KLDB","station_name":"Klenderbaru","time":1,"transit":false},{"station_name":"Cakung","transit":false,"line":1,"is_transit":false,"distance":1385,"i_lat":-6.219053,"station_id":"CUK","time":8,"i_long":106.951283},{"station_id":"KRI","station_name":"Kranji","distance":3097,"is_transit":false,"transit":false,"i_lat":-6.224515,"i_long":106.977657,"line":1,"time":3},{"transit":false,"i_lat":-6.236616,"time":4,"line":1,"i_long":106.997013,"station_id":"BKS","is_transit":false,"station_name":"Bekasi","distance":2520},{"i_lat":-6.248029,"i_long":107.016735,"line":1,"transit":false,"station_name":"Bekasi Timur","station_id":"BKST","time":2,"is_transit":false,"distance":2368}]]}