{"data":[[{"transit":false,"station_id":"BOI","is_transit":false,"line":5,"i_long":106.737035,"distance":0,"time":0,"station_name":"Bojongindah","i_lat":-6.159876},{"i_lat":-6.1587309999999995,"transit":false,"i_long":106.756522,"distance":2334,"station_name":"Taman Kota","line":5,"time":2,"is_transit":false,"station_id":"TKO"},{"transit":false,"time":2,"line":5,"distance":1614,"i_long":106.771379,"station_id":"PSG","is_transit":false,"i_lat":-6.161433,"station_name":"Pesing"},{"is_transit":false,"line":5,"station_name":"Grogol","transit":false,"i_lat":-6.162021,"time":2,"i_long":106.788277,"distance":2036,"station_id":"GGL"},{"time":3,"transit":true,"is_transit":true,"distance":1700,"i_long":106.800832,"station_name":"Duri","i_lat":-6.155215,"line":1,"station_id":"DU"},{"line":1,"station_id":"THB","is_transit":true,"transit":true,"distance":3632,"i_lat":-6.185545,"station_name":"Tanah Abang","time":8,"i_long":106.811091},{"station_name":"Palmerah","i_long":106.79689,"line":6,"station_id":"PLM","time":6,"transit":false,"is_transit":false,"distance":3191,"i_lat":-6.207404},{"transit":false,"i_long":106.780334,"station_name":"Kebayoran","time":7,"i_lat":-6.237242,"station_id":"KBY","line":6,"distance":3737,"is_transit":false},{"time":8,"i_long":106.74273,"distance":6218,"station_id":"PDJ","i_lat":-6.276362,"line":6,"transit":false,"is_transit":false,"station_name":"Pondokranji"},{"line":6,"time":3,"distance":2179,"transit":false,"station_id":"JMU","station_name":"Jurangmangu","is_transit":false,"i_lat":-6.288927,"i_long":106.728916},{"transit":false,"is_transit":false,"i_lat":-6.296963,"i_long":106.712277,"station_id":"SDM","distance":1994,"line":6,"station_name":"Sudimara","time":4},{"i_lat":-6.314823,"is_transit":false,"distance":4566,"line":6,"transit":false,"station_id":"RU","i_long":106.675475,"station_name":"Rawa Buntu","time":6},{"i_lat":-6.319871,"i_long":106.66566,"line":6,"distance":2413,"is_transit":false,"transit":false,"station_id":"SRP","station_name":"Serpong","time":4},{"station_name":"Cisauk","line":3,"i_lat":-6.32484,"transit":false,"station_id":"CSK","i_long":106.640411,"time":4,"is_transit":false,"distance":1784},{"station_id":"CC","station_name":"Cicayur","i_lat":-6.329547,"distance":2519,"time":4,"i_long":106.617853,"transit":false,"is_transit":false,"line":3},{"station_id":"PRP","line":6,"time":8,"station_name":"Parung Panjang","distance":5968,"is_transit":false,"i_lat":-6.3441410000000005,"transit":false,"i_long":106.568863}],[{"distance":0,"transit":false,"time":0,"i_lat":-6.159876,"station_id":"BOI","line":5,"station_name":"Bojongindah","is_transit":false,"i_long":106.737035},{"i_lat":-6.1587309999999995,"station_id":"TKO","line":5,"transit":false,"i_long":106.756522,"time":2,"distance":2334,"station_name":"Taman Kota","is_transit":false},{"is_transit":false,"distance":1614,"transit":false,"station_id":"PSG","time":2,"i_lat":-6.161433,"i_long":106.771379,"line":5,"station_name":"Pesing"},{"i_lat":-6.162021,"distance":2036,"transit":false,"time":2,"is_transit":false,"i_long":106.788277,"station_id":"GGL","station_name":"Grogol","line":5},{"station_name":"Duri","time":3,"transit":true,"is_transit":true,"station_id":"DU","i_long":106.800832,"line":1,"i_lat":-6.155215,"distance":1700},{"station_id":"AK","i_lat":-6.144674,"transit":false,"i_long":106.79867,"distance":1230,"station_name":"Angke","is_transit":false,"time":4,"line":1},{"is_transit":true,"time":9,"i_long":106.826365,"i_lat":-6.132549,"station_name":"Kampung Bandan","line":4,"station_id":"KPB","transit":true,"distance":4102},{"transit":true,"i_lat":-6.137569,"station_id":"JAKK","station_name":"Jakarta Kota","is_transit":true,"time":3,"distance":1364,"i_long":106.812439,"line":2},{"transit":false,"station_id":"JAY","distance":1264,"i_long":106.820901,"time":4,"i_lat":-6.141205,"station_name":"Jayakarta","line":2,"is_transit":false},{"is_transit":false,"transit":false,"line":2,"time":2,"i_lat":-6.149769,"station_name":"Manggabesar","distance":1080,"i_long":106.82482,"station_id":"MGB"},{"distance":906,"transit":false,"is_transit":false,"station_id":"SW","line":2,"i_lat":-6.160725,"time":2,"i_long":106.827103,"station_name":"Sawah Besar"},{"transit":false,"time":2,"i_long":106.828284,"line":2,"is_transit":false,"station_name":"Juanda","distance":1149,"i_lat":-6.166716,"station_id":"JUA"},{"station_id":"GDD","i_lat":-6.186295,"station_name":"Gondangdia","time":4,"distance":2015,"transit":false,"i_long":106.832183,"line":2,"is_transit":false},{"transit":false,"time":3,"is_transit":false,"distance":1750,"i_lat":-6.198556,"i_long":106.840169,"line":2,"station_id":"CKI","station_name":"Cikini"},{"station_name":"Manggarai","is_transit":true,"time":4,"distance":1590,"station_id":"MRI","i_lat":-6.209883,"transit":true,"i_long":106.84912,"line":2},{"is_transit":false,"station_name":"Sudirman","time":4,"station_id":"SUD","distance":3186,"transit":false,"i_lat":-6.202263,"i_long":106.822649,"line":1},{"distance":280,"station_name":"Sudirman Baru","i_long":106.819881,"transit":false,"line":1,"is_transit":false,"station_id":"SUDB","time":1,"i_lat":-6.201433},{"station_id":"KAT","is_transit":false,"i_long":106.816351,"station_name":"Karet","i_lat":-6.20132,"time":1,"distance":471,"transit":false,"line":1},{"distance":2029,"i_lat":-6.185545,"station_name":"Tanah Abang","station_id":"THB","time":5,"i_long":106.811091,"line":1,"transit":true,"is_transit":true},{"station_id":"PLM","is_transit":false,"distance":3191,"i_long":106.79689,"time":6,"station_name":"Palmerah","line":6,"i_lat":-6.207404,"transit":false},{"i_lat":-6.237242,"distance":3737,"time":7,"i_long":106.780334,"line":6,"transit":false,"station_name":"Kebayoran","station_id":"KBY","is_transit":false},{"i_lat":-6.276362,"transit":false,"distance":6218,"station_id":"PDJ","time":8,"i_long":106.74273,"line":6,"station_name":"Pondokranji","is_transit":false},{"time":3,"line":6,"i_long":106.728916,"transit":false,"distance":2179,"i_lat":-6.288927,"station_id":"JMU","is_transit":false,"station_name":"Jurangmangu"},{"is_transit":false,"i_lat":-6.296963,"i_long":106.712277,"transit":false,"distance":1994,"line":6,"station_id":"SDM","time":4,"station_name":"Sudimara"},{"i_lat":-6.314823,"station_id":"RU","is_transit":false,"time":6,"i_long":106.675475,"line":6,"distance":4566,"station_name":"Rawa Buntu","transit":false},{"transit":false,"station_name":"Serpong","station_id":"SRP","i_lat":-6.319871,"time":4,"line":6,"i_long":106.66566,"is_transit":false,"distance":2413},{"station_id":"CSK","is_transit":false,"i_lat":-6.32484,"i_long":106.640411,"station_name":"Cisauk","distance":1784,"line":3,"transit":false,"time":4},{"transit":false,"is_transit":false,"station_id":"CC","i_lat":-6.329547,"distance":2519,"time":4,"i_long":106.617853,"station_name":"Cicayur","line":3},{"station_id":"PRP","time":8,"station_name":"Parung Panjang","transit":false,"is_transit":false,"distance":5968,"i_lat":-6.3441410000000005,"line":6,"i_long":106.568863}],[{"line":5,"station_name":"Bojongindah","i_lat":-6.159876,"distance":0,"transit":false,"time":0,"i_long":106.737035,"station_id":"BOI","is_transit":false},{"is_transit":false,"line":5,"station_id":"TKO","i_lat":-6.1587309999999995,"i_long":106.756522,"station_name":"Taman Kota","time":2,"transit":false,"distance":2334},{"station_id":"PSG","is_transit":false,"i_lat":-6.161433,"time":2,"station_name":"Pesing","transit":false,"line":5,"distance":1614,"i_long":106.771379},{"distance":2036,"i_lat":-6.162021,"transit":false,"i_long":106.788277,"station_name":"Grogol","is_transit":false,"line":5,"time":2,"station_id":"GGL"},{"station_name":"Duri","time":3,"distance":1700,"is_transit":true,"station_id":"DU","i_lat":-6.155215,"line":1,"i_long":106.800832,"transit":true},{"is_transit":false,"station_name":"Angke","distance":1230,"i_lat":-6.144674,"i_long":106.79867,"line":1,"transit":false,"station_id":"AK","time":4},{"line":4,"station_id":"KPB","transit":true,"time":9,"is_transit":true,"i_long":106.826365,"station_name":"Kampung Bandan","distance":4102,"i_lat":-6.132549},{"station_id":"RJW","is_transit":false,"station_name":"Rajawali","i_lat":-6.14505,"line":11,"time":3,"transit":false,"distance":1444,"i_long":106.836569},{"line":11,"transit":false,"is_transit":false,"station_name":"Kemayoran","station_id":"KMO","i_lat":-6.161728,"time":5,"distance":1901,"i_long":106.839204},{"i_long":106.84368,"is_transit":false,"time":4,"i_lat":-6.174784,"distance":1436,"station_name":"Pasar Senen","transit":false,"station_id":"PSE","line":11},{"transit":false,"station_id":"GST","time":8,"station_name":"Gang Sentiong","distance":1567,"i_lat":-6.185975,"i_long":106.850107,"is_transit":false,"line":11},{"distance":973,"station_name":"Kramat","time":1,"i_lat":-6.193792,"i_long":106.855437,"transit":false,"station_id":"KMT","line":11,"is_transit":false},{"transit":false,"line":11,"station_id":"POK","station_name":"Pondok Jati","distance":1829,"i_long":106.861737,"time":2,"i_lat":-6.209188,"is_transit":false},{"line":1,"i_lat":-6.215091,"transit":true,"distance":1236,"is_transit":true,"station_name":"Jatinegara","time":9,"i_long":106.86807400000001,"station_id":"JNG"},{"transit":false,"line":1,"is_transit":false,"time":2,"station_id":"MTR","station_name":"Matraman","distance":1377,"i_lat":-6.212485,"i_long":106.858896},{"distance":1275,"i_long":106.84912,"time":2,"station_id":"MRI","i_lat":-6.209883,"line":2,"transit":false,"station_name":"Manggarai","is_transit":false},{"i_long":106.822649,"transit":false,"is_transit":false,"station_id":"SUD","station_name":"Sudirman","i_lat":-6.202263,"time":4,"distance":3186,"line":1},{"transit":false,"line":1,"i_lat":-6.201433,"time":1,"station_name":"Sudirman Baru","station_id":"SUDB","distance":280,"is_transit":false,"i_long":106.819881},{"i_long":106.816351,"distance":471,"transit":false,"station_id":"KAT","station_name":"Karet","is_transit":false,"time":1,"i_lat":-6.20132,"line":1},{"i_long":106.811091,"time":5,"is_transit":true,"i_lat":-6.185545,"transit":true,"distance":2029,"station_name":"Tanah Abang","station_id":"THB","line":1},{"is_transit":false,"i_lat":-6.207404,"i_long":106.79689,"transit":false,"station_id":"PLM","distance":3191,"station_name":"Palmerah","line":6,"time":6},{"station_name":"Kebayoran","i_lat":-6.237242,"line":6,"i_long":106.780334,"transit":false,"is_transit":false,"distance":3737,"station_id":"KBY","time":7},{"transit":false,"station_name":"Pondokranji","time":8,"distance":6218,"i_long":106.74273,"station_id":"PDJ","is_transit":false,"i_lat":-6.276362,"line":6},{"time":3,"distance":2179,"i_long":106.728916,"station_id":"JMU","line":6,"is_transit":false,"i_lat":-6.288927,"transit":false,"station_name":"Jurangmangu"},{"line":6,"i_lat":-6.296963,"transit":false,"station_name":"Sudimara","station_id":"SDM","is_transit":false,"time":4,"distance":1994,"i_long":106.712277},{"distance":4566,"is_transit":false,"i_lat":-6.314823,"line":6,"i_long":106.675475,"time":6,"station_name":"Rawa Buntu","transit":false,"station_id":"RU"},{"station_id":"SRP","is_transit":false,"line":6,"transit":false,"time":4,"distance":2413,"station_name":"Serpong","i_lat":-6.319871,"i_long":106.66566},{"i_long":106.640411,"time":4,"i_lat":-6.32484,"transit":false,"station_id":"CSK","station_name":"Cisauk","is_transit":false,"distance":1784,"line":3},{"time":4,"i_long":106.617853,"station_id":"CC","transit":false,"i_lat":-6.329547,"is_transit":false,"line":3,"station_name":"Cicayur","distance":2519},{"station_id":"PRP","distance":5968,"transit":false,"time":8,"i_lat":-6.3441410000000005,"line":6,"is_transit":false,"i_long":106.568863,"station_name":"Parung Panjang"}]]}