{"data":[[{"i_long":106.737035,"distance":0,"line":5,"is_transit":false,"i_lat":-6.159876,"transit":false,"time":0,"station_id":"BOI","station_name":"Bojongindah"},{"transit":false,"distance":2334,"i_lat":-6.1587309999999995,"line":5,"time":2,"station_id":"TKO","station_name":"Taman Kota","i_long":106.756522,"is_transit":false},{"station_name":"Pesing","i_lat":-6.161433,"i_long":106.771379,"line":5,"time":2,"transit":false,"is_transit":false,"distance":1614,"station_id":"PSG"},{"time":2,"line":5,"distance":2036,"transit":false,"station_id":"GGL","is_transit":false,"i_long":106.788277,"i_lat":-6.162021,"station_name":"Grogol"},{"time":3,"station_name":"Duri","is_transit":true,"transit":true,"distance":1700,"i_lat":-6.155215,"i_long":106.800832,"station_id":"DU","line":1},{"i_lat":-6.144674,"is_transit":false,"distance":1230,"i_long":106.79867,"line":1,"station_id":"AK","station_name":"Angke","time":4,"transit":false},{"station_name":"Kampung Bandan","transit":true,"line":4,"distance":4102,"is_transit":true,"i_lat":-6.132549,"time":9,"station_id":"KPB","i_long":106.826365},{"station_id":"JAKK","distance":1364,"station_name":"Jakarta Kota","is_transit":true,"transit":true,"i_lat":-6.137569,"i_long":106.812439,"line":2,"time":3},{"transit":false,"i_lat":-6.141205,"time":4,"line":2,"i_long":106.820901,"distance":1264,"station_id":"JAY","station_name":"Jayakarta","is_transit":false},{"i_lat":-6.149769,"i_long":106.82482,"line":2,"transit":false,"station_name":"Manggabesar","station_id":"MGB","time":2,"is_transit":false,"distance":1080},{"time":2,"i_long":106.827103,"station_id":"SW","distance":906,"i_lat":-6.160725,"line":2,"station_name":"Sawah Besar","is_transit":false,"transit":false}],[{"distance":0,"station_id":"BOI","time":0,"i_lat":-6.159876,"i_long":106.737035,"line":5,"transit":false,"is_transit":false,"station_name":"Bojongindah"},{"line":5,"i_long":106.756522,"transit":false,"time":2,"station_id":"TKO","is_transit":false,"station_name":"Taman Kota","distance":2334,"i_lat":-6.1587309999999995},{"transit":false,"line":5,"distance":1614,"station_id":"PSG","i_lat":-6.161433,"time":2,"is_transit":false,"i_long":106.771379,"station_name":"Pesing"},{"station_id":"GGL","is_transit":false,"time":2,"line":5,"i_long":106.788277,"i_lat":-6.162021,"distance":2036,"transit":false,"station_name":"Grogol"},{"transit":true,"i_lat":-6.155215,"distance":1700,"is_transit":true,"station_name":"Duri","i_long":106.800832,"time":3,"line":1,"station_id":"DU"},{"line":1,"distance":3632,"i_long":106.811091,"time":8,"is_transit":false,"station_id":"THB","transit":false,"i_lat":-6.185545,"station_name":"Tanah Abang"},{"distance":2029,"station_id":"KAT","transit":false,"i_long":106.816351,"line":1,"i_lat":-6.20132,"station_name":"Karet","is_transit":false,"time":5},{"station_id":"SUDB","i_lat":-6.201433,"distance":471,"is_transit":false,"station_name":"Sudirman Baru","i_long":106.819881,"time":1,"line":1,"transit":false},{"station_name":"Sudirman","distance":280,"transit":false,"i_lat":-6.202263,"time":1,"line":1,"station_id":"SUD","i_long":106.822649,"is_transit":false},{"time":4,"distance":3186,"transit":true,"station_name":"Manggarai","line":2,"i_lat":-6.209883,"station_id":"MRI","is_transit":true,"i_long":106.84912},{"i_lat":-6.198556,"transit":false,"time":4,"line":2,"i_long":106.840169,"is_transit":false,"station_name":"Cikini","distance":1590,"station_id":"CKI"},{"time":3,"station_id":"GDD","is_transit":false,"transit":false,"i_long":106.832183,"distance":1750,"line":2,"i_lat":-6.186295,"station_name":"Gondangdia"},{"i_long":106.828284,"time":4,"distance":2015,"transit":false,"station_id":"JUA","station_name":"Juanda","i_lat":-6.166716,"is_transit":false,"line":2},{"transit":false,"distance":1149,"i_long":106.827103,"station_id":"SW","i_lat":-6.160725,"time":2,"is_transit":false,"line":2,"station_name":"Sawah Besar"}],[{"is_transit":false,"distance":0,"line":5,"transit":false,"i_long":106.737035,"i_lat":-6.159876,"station_id":"BOI","station_name":"Bojongindah","time":0},{"station_id":"TKO","station_name":"Taman Kota","is_transit":false,"line":5,"i_lat":-6.1587309999999995,"i_long":106.756522,"distance":2334,"time":2,"transit":false},{"distance":1614,"i_lat":-6.161433,"station_id":"PSG","station_name":"Pesing","is_transit":false,"transit":false,"time":2,"i_long":106.771379,"line":5},{"line":5,"i_long":106.788277,"distance":2036,"transit":false,"i_lat":-6.162021,"time":2,"station_id":"GGL","station_name":"Grogol","is_transit":false},{"is_transit":true,"station_id":"DU","transit":true,"i_long":106.800832,"distance":1700,"station_name":"Duri","line":1,"i_lat":-6.155215,"time":3},{"i_lat":-6.144674,"i_long":106.79867,"is_transit":false,"line":1,"station_id":"AK","distance":1230,"station_name":"Angke","time":4,"transit":false},{"i_lat":-6.132549,"line":4,"distance":4102,"is_transit":true,"transit":true,"i_long":106.826365,"time":9,"station_id":"KPB","station_name":"Kampung Bandan"},{"time":3,"transit":false,"distance":1444,"is_transit":false,"i_lat":-6.14505,"i_long":106.836569,"station_id":"RJW","station_name":"Rajawali","line":11},{"i_long":106.839204,"line":11,"distance":1901,"station_name":"Kemayoran","transit":false,"is_transit":false,"station_id":"KMO","i_lat":-6.161728,"time":5},{"distance":1436,"is_transit":false,"time":4,"station_id":"PSE","station_name":"Pasar Senen","transit":false,"i_lat":-6.174784,"i_long":106.84368,"line":11},{"i_lat":-6.185975,"time":8,"distance":1567,"line":11,"is_transit":false,"transit":false,"i_long":106.850107,"station_name":"Gang Sentiong","station_id":"GST"},{"i_lat":-6.193792,"i_long":106.855437,"transit":false,"time":1,"distance":973,"station_name":"Kramat","is_transit":false,"line":11,"station_id":"KMT"},{"i_lat":-6.209188,"line":11,"station_name":"Pondok Jati","transit":false,"time":2,"station_id":"POK","is_transit":false,"i_long":106.861737,"distance":1829},{"time":9,"distance":1236,"is_transit":true,"transit":true,"station_id":"JNG","i_lat":-6.215091,"station_name":"Jatinegara","i_long":106.86807400000001,"line":1},{"transit":false,"i_long":106.858896,"line":1,"station_name":"Matraman","distance":1377,"station_id":"MTR","is_transit":false,"i_lat":-6.212485,"time":2},{"line":2,"time":2,"i_long":106.84912,"station_id":"MRI","station_name":"Manggarai","is_transit":true,"distance":1275,"i_lat":-6.209883,"transit":true},{"i_long":106.840169,"distance":1590,"is_transit":false,"time":4,"station_name":"Cikini","transit":false,"i_lat":-6.198556,"line":2,"station_id":"CKI"},{"distance":1750,"station_id":"GDD","line":2,"station_name":"Gondangdia","i_lat":-6.186295,"is_transit":false,"transit":false,"i_long":106.832183,"time":3},{"station_name":"Juanda","transit":false,"station_id":"JUA","time":4,"is_transit":false,"line":2,"distance":2015,"i_long":106.828284,"i_lat":-6.166716},{"transit":false,"distance":1149,"is_transit":false,"station_id":"SW","station_name":"Sawah Besar","i_lat":-6.160725,"line":2,"i_long":106.827103,"time":2}],[{"time":0,"is_transit":false,"distance":0,"line":5,"station_id":"BOI","station_name":"Bojongindah","i_long":106.737035,"i_lat":-6.159876,"transit":false},{"station_id":"TKO","i_lat":-6.1587309999999995,"distance":2334,"i_long":106.756522,"line":5,"transit":false,"station_name":"Taman Kota","time":2,"is_transit":false},{"station_id":"PSG","is_transit":false,"transit":false,"time":2,"i_long":106.771379,"station_name":"Pesing","distance":1614,"i_lat":-6.161433,"line":5},{"station_id":"GGL","station_name":"Grogol","i_lat":-6.162021,"is_transit":false,"i_long":106.788277,"line":5,"transit":false,"distance":2036,"time":2},{"i_lat":-6.155215,"distance":1700,"i_long":106.800832,"time":3,"is_transit":true,"station_id":"DU","station_name":"Duri","line":1,"transit":true},{"i_lat":-6.185545,"time":8,"line":1,"distance":3632,"i_long":106.811091,"transit":false,"is_transit":false,"station_id":"THB","station_name":"Tanah Abang"},{"station_id":"KAT","is_transit":false,"station_name":"Karet","i_long":106.816351,"time":5,"distance":2029,"i_lat":-6.20132,"line":1,"transit":false},{"line":1,"distance":471,"i_long":106.819881,"transit":false,"station_name":"Sudirman Baru","i_lat":-6.201433,"station_id":"SUDB","is_transit":false,"time":1},{"i_long":106.822649,"station_name":"Sudirman","distance":280,"is_transit":false,"transit":false,"station_id":"SUD","line":1,"time":1,"i_lat":-6.202263},{"station_name":"Manggarai","distance":3186,"transit":false,"i_lat":-6.209883,"i_long":106.84912,"line":2,"time":4,"station_id":"MRI","is_transit":false},{"station_name":"Matraman","transit":false,"distance":1275,"station_id":"MTR","i_long":106.858896,"line":1,"time":2,"is_transit":false,"i_lat":-6.212485},{"i_long":106.86807400000001,"time":8,"is_transit":true,"transit":true,"station_id":"JNG","station_name":"Jatinegara","distance":1377,"line":1,"i_lat":-6.215091},{"time":2,"station_id":"POK","station_name":"Pondok Jati","i_lat":-6.209188,"is_transit":false,"distance":1236,"i_long":106.861737,"line":11,"transit":false},{"is_transit":false,"i_long":106.855437,"distance":1829,"transit":false,"i_lat":-6.193792,"line":11,"station_id":"KMT","station_name":"Kramat","time":2},{"distance":973,"transit":false,"i_long":106.850107,"station_name":"Gang Sentiong","time":1,"i_lat":-6.185975,"station_id":"GST","is_transit":false,"line":11},{"station_name":"Pasar Senen","i_long":106.84368,"transit":false,"distance":1567,"time":8,"line":11,"is_transit":false,"station_id":"PSE","i_lat":-6.174784},{"transit":false,"i_long":106.839204,"i_lat":-6.161728,"distance":1436,"is_transit":false,"time":4,"station_id":"KMO","station_name":"Kemayoran","line":11},{"line":11,"i_lat":-6.14505,"distance":1901,"transit":false,"time":5,"i_long":106.836569,"station_id":"RJW","station_name":"Rajawali","is_transit":false},{"line":4,"station_id":"KPB","station_name":"Kampung Bandan","i_lat":-6.132549,"i_long":106.826365,"distance":1444,"time":3,"is_transit":true,"transit":true},{"distance":1364,"station_name":"Jakarta Kota","is_transit":true,"transit":true,"line":2,"time":3,"i_long":106.812439,"station_id":"JAKK","i_lat":-6.137569},{"time":4,"is_transit":false,"distance":1264,"i_long":106.820901,"transit":false,"line":2,"i_lat":-6.141205,"station_name":"Jayakarta","station_id":"JAY"},{"distance":1080,"station_id":"MGB","i_lat":-6.149769,"i_long":106.82482,"time":2,"is_transit":false,"line":2,"transit":false,"station_name":"Manggabesar"},{"time":2,"line":2,"station_name":"Sawah Besar","i_long":106.827103,"distance":906,"is_transit":false,"transit":false,"station_id":"SW","i_lat":-6.160725}]]}