{"data":[[{"time":0,"station_name":"Bojongindah","transit":false,"is_transit":false,"distance":0,"i_lat":-6.159876,"i_long":106.737035,"line":5,"station_id":"BOI"},{"is_transit":false,"i_lat":-6.1587309999999995,"distance":2334,"line":5,"transit":false,"station_id":"TKO","time":2,"i_long":106.756522,"station_name":"Taman Kota"},{"distance":1614,"i_long":106.771379,"line":5,"station_name":"Pesing","transit":false,"i_lat":-6.161433,"station_id":"PSG","time":2,"is_transit":false},{"distance":2036,"station_id":"GGL","i_long":106.788277,"is_transit":false,"transit":false,"i_lat":-6.162021,"line":5,"time":2,"station_name":"Grogol"},{"station_name":"Duri","transit":true,"i_lat":-6.155215,"is_transit":true,"time":3,"line":1,"i_long":106.800832,"station_id":"DU","distance":1700},{"line":1,"distance":3632,"is_transit":false,"station_name":"Tanah Abang","station_id":"THB","time":8,"i_lat":-6.185545,"i_long":106.811091,"transit":false},{"station_id":"KAT","station_name":"Karet","i_long":106.816351,"transit":false,"is_transit":false,"line":1,"distance":2029,"time":5,"i_lat":-6.20132},{"station_id":"SUDB","line":1,"transit":false,"i_lat":-6.201433,"i_long":106.819881,"station_name":"Sudirman Baru","distance":471,"is_transit":false,"time":1},{"time":1,"i_lat":-6.202263,"is_transit":false,"i_long":106.822649,"station_name":"Sudirman","distance":280,"transit":false,"station_id":"SUD","line":1},{"is_transit":false,"i_long":106.84912,"line":2,"station_id":"MRI","time":4,"i_lat":-6.209883,"distance":3186,"station_name":"Manggarai","transit":false},{"time":2,"station_name":"Matraman","is_transit":false,"i_long":106.858896,"line":1,"i_lat":-6.212485,"distance":1275,"station_id":"MTR","transit":false},{"distance":1377,"i_long":106.86807400000001,"station_name":"Jatinegara","station_id":"JNG","time":8,"is_transit":false,"i_lat":-6.215091,"line":1,"transit":false},{"time":3,"distance":3395,"is_transit":false,"station_id":"KLD","i_lat":-6.2135,"line":1,"station_name":"Klender","i_long":106.899548,"transit":false},{"is_transit":false,"transit":false,"time":2,"i_lat":-6.215568,"distance":3100,"station_name":"Buaran","station_id":"BUA","i_long":106.922662,"line":1},{"is_transit":false,"time":1,"station_name":"Klenderbaru","i_lat":-6.217455,"distance":1305,"transit":false,"station_id":"KLDB","i_long":106.939679,"line":1},{"is_transit":false,"i_lat":-6.219053,"distance":1385,"station_name":"Cakung","time":8,"i_long":106.951283,"transit":false,"station_id":"CUK","line":1}],[{"i_long":106.737035,"i_lat":-6.159876,"time":0,"line":5,"distance":0,"is_transit":false,"station_name":"Bojongindah","station_id":"BOI","transit":false},{"is_transit":false,"distance":2334,"station_id":"TKO","time":2,"i_lat":-6.1587309999999995,"i_long":106.756522,"transit":false,"station_name":"Taman Kota","line":5},{"line":5,"station_id":"PSG","i_long":106.771379,"distance":1614,"station_name":"Pesing","is_transit":false,"transit":false,"time":2,"i_lat":-6.161433},{"line":5,"i_long":106.788277,"distance":2036,"time":2,"station_id":"GGL","transit":false,"i_lat":-6.162021,"station_name":"Grogol","is_transit":false},{"station_name":"Duri","i_long":106.800832,"is_transit":true,"transit":true,"time":3,"i_lat":-6.155215,"line":1,"distance":1700,"station_id":"DU"},{"time":4,"line":1,"i_lat":-6.144674,"distance":1230,"is_transit":false,"station_name":"Angke","station_id":"AK","i_long":106.79867,"transit":false},{"time":9,"distance":4102,"i_long":106.826365,"line":4,"station_name":"Kampung Bandan","i_lat":-6.132549,"transit":true,"is_transit":true,"station_id":"KPB"},{"distance":1444,"line":11,"station_name":"Rajawali","transit":false,"time":3,"is_transit":false,"station_id":"RJW","i_lat":-6.14505,"i_long":106.836569},{"transit":false,"time":5,"i_lat":-6.161728,"line":11,"distance":1901,"station_id":"KMO","station_name":"Kemayoran","is_transit":false,"i_long":106.839204},{"i_long":106.84368,"transit":false,"station_id":"PSE","line":11,"distance":1436,"station_name":"Pasar Senen","is_transit":false,"i_lat":-6.174784,"time":4},{"distance":1567,"is_transit":false,"transit":false,"station_name":"Gang Sentiong","i_lat":-6.185975,"line":11,"station_id":"GST","time":8,"i_long":106.850107},{"distance":973,"station_name":"Kramat","station_id":"KMT","time":1,"is_transit":false,"i_long":106.855437,"transit":false,"i_lat":-6.193792,"line":11},{"station_name":"Pondok Jati","transit":false,"is_transit":false,"station_id":"POK","i_long":106.861737,"i_lat":-6.209188,"time":2,"distance":1829,"line":11},{"transit":true,"time":9,"station_name":"Jatinegara","line":1,"i_lat":-6.215091,"i_long":106.86807400000001,"is_transit":true,"station_id":"JNG","distance":1236},{"i_long":106.899548,"distance":3395,"station_id":"KLD","line":1,"time":3,"i_lat":-6.2135,"is_transit":false,"transit":false,"station_name":"Klender"},{"time":2,"i_lat":-6.215568,"is_transit":false,"station_name":"Buaran","transit":false,"distance":3100,"i_long":106.922662,"station_id":"BUA","line":1},{"station_id":"KLDB","i_lat":-6.217455,"line":1,"station_name":"Klenderbaru","time":1,"distance":1305,"i_long":106.939679,"transit":false,"is_transit":false},{"i_long":106.951283,"station_id":"CUK","time":8,"distance":1385,"transit":false,"i_lat":-6.219053,"line":1,"is_transit":false,"station_name":"Cakung"}],[{"time":0,"i_lat":-6.159876,"transit":false,"station_id":"BOI","station_name":"Bojongindah","distance":0,"line":5,"is_transit":false,"i_long":106.737035},{"is_transit":false,"time":2,"station_id":"TKO","station_name":"Taman Kota","i_long":106.756522,"line":5,"i_lat":-6.1587309999999995,"transit":false,"distance":2334},{"station_name":"Pesing","is_transit":false,"distance":1614,"time":2,"i_lat":-6.161433,"station_id":"PSG","line":5,"transit":false,"i_long":106.771379},{"station_name":"Grogol","distance":2036,"i_lat":-6.162021,"transit":false,"is_transit":false,"line":5,"station_id":"GGL","i_long":106.788277,"time":2},{"station_name":"Duri","i_long":106.800832,"i_lat":-6.155215,"is_transit":true,"transit":true,"station_id":"DU","distance":1700,"time":3,"line":1},{"station_id":"AK","i_lat":-6.144674,"line":1,"transit":false,"i_long":106.79867,"time":4,"distance":1230,"station_name":"Angke","is_transit":false},{"time":9,"station_id":"KPB","station_name":"Kampung Bandan","distance":4102,"i_long":106.826365,"line":4,"is_transit":true,"transit":true,"i_lat":-6.132549},{"line":2,"is_transit":true,"station_id":"JAKK","i_lat":-6.137569,"transit":true,"station_name":"Jakarta Kota","time":3,"distance":1364,"i_long":106.812439},{"time":4,"i_long":106.820901,"station_name":"Jayakarta","transit":false,"is_transit":false,"distance":1264,"line":2,"station_id":"JAY","i_lat":-6.141205},{"i_long":106.82482,"transit":false,"time":2,"i_lat":-6.149769,"distance":1080,"station_name":"Manggabesar","line":2,"is_transit":false,"station_id":"MGB"},{"i_lat":-6.160725,"i_long":106.827103,"station_id":"SW","is_transit":false,"station_name":"Sawah Besar","line":2,"transit":false,"time":2,"distance":906},{"i_long":106.828284,"distance":1149,"transit":false,"station_name":"Juanda","station_id":"JUA","time":2,"line":2,"i_lat":-6.166716,"is_transit":false},{"station_name":"Gondangdia","line":2,"is_transit":false,"i_long":106.832183,"transit":false,"time":4,"station_id":"GDD","i_lat":-6.186295,"distance":2015},{"station_name":"Cikini","i_long":106.840169,"distance":1750,"i_lat":-6.198556,"is_transit":false,"time":3,"transit":false,"line":2,"station_id":"CKI"},{"station_id":"MRI","time":4,"i_lat":-6.209883,"distance":1590,"is_transit":true,"i_long":106.84912,"station_name":"Manggarai","line":2,"transit":true},{"line":1,"i_lat":-6.212485,"distance":1275,"station_id":"MTR","station_name":"Matraman","time":2,"i_long":106.858896,"transit":false,"is_transit":false},{"transit":false,"line":1,"station_id":"JNG","is_transit":false,"time":8,"i_long":106.86807400000001,"i_lat":-6.215091,"station_name":"Jatinegara","distance":1377},{"line":1,"is_transit":false,"transit":false,"station_id":"KLD","station_name":"Klender","distance":3395,"i_lat":-6.2135,"i_long":106.899548,"time":3},{"station_name":"Buaran","station_id":"BUA","distance":3100,"transit":false,"is_transit":false,"time":2,"i_lat":-6.215568,"line":1,"i_long":106.922662},{"i_long":106.939679,"distance":1305,"line":1,"time":1,"transit":false,"i_lat":-6.217455,"is_transit":false,"station_id":"KLDB","station_name":"Klenderbaru"},{"line":1,"time":8,"distance":1385,"is_transit":false,"i_lat":-6.219053,"station_id":"CUK","transit":false,"station_name":"Cakung","i_long":106.951283}],[{"station_id":"BOI","transit":false,"distance":0,"time":0,"is_transit":false,"i_lat":-6.159876,"i_long":106.737035,"station_name":"Bojongindah","line":5},{"line":5,"station_id":"TKO","is_transit":false,"station_name":"Taman Kota","i_long":106.756522,"distance":2334,"time":2,"transit":false,"i_lat":-6.1587309999999995},{"time":2,"i_lat":-6.161433,"line":5,"is_transit":false,"transit":false,"station_id":"PSG","station_name":"Pesing","distance":1614,"i_long":106.771379},{"i_long":106.788277,"station_id":"GGL","is_transit":false,"time":2,"distance":2036,"station_name":"Grogol","i_lat":-6.162021,"transit":false,"line":5},{"i_lat":-6.155215,"time":3,"line":1,"transit":true,"i_long":106.800832,"station_name":"Duri","station_id":"DU","is_transit":true,"distance":1700},{"distance":3632,"station_id":"THB","transit":false,"time":8,"i_lat":-6.185545,"line":1,"station_name":"Tanah Abang","is_transit":false,"i_long":106.811091},{"distance":2029,"station_name":"Karet","time":5,"i_lat":-6.20132,"i_long":106.816351,"transit":false,"station_id":"KAT","is_transit":false,"line":1},{"station_id":"SUDB","is_transit":false,"time":1,"i_lat":-6.201433,"distance":471,"station_name":"Sudirman Baru","i_long":106.819881,"line":1,"transit":false},{"distance":280,"i_long":106.822649,"station_id":"SUD","time":1,"transit":false,"i_lat":-6.202263,"line":1,"is_transit":false,"station_name":"Sudirman"},{"transit":true,"station_name":"Manggarai","i_long":106.84912,"i_lat":-6.209883,"line":2,"time":4,"is_transit":true,"station_id":"MRI","distance":3186},{"time":4,"i_long":106.840169,"i_lat":-6.198556,"is_transit":false,"station_name":"Cikini","line":2,"transit":false,"distance":1590,"station_id":"CKI"},{"i_long":106.832183,"line":2,"station_name":"Gondangdia","time":3,"is_transit":false,"transit":false,"station_id":"GDD","distance":1750,"i_lat":-6.186295},{"transit":false,"distance":2015,"i_long":106.828284,"station_id":"JUA","is_transit":false,"station_name":"Juanda","time":4,"i_lat":-6.166716,"line":2},{"distance":1149,"time":2,"i_long":106.827103,"line":2,"station_id":"SW","i_lat":-6.160725,"transit":false,"station_name":"Sawah Besar","is_transit":false},{"is_transit":false,"station_id":"MGB","distance":906,"line":2,"i_long":106.82482,"transit":false,"i_lat":-6.149769,"station_name":"Manggabesar","time":2},{"time":2,"distance":1080,"is_transit":false,"line":2,"i_lat":-6.141205,"i_long":106.820901,"transit":false,"station_name":"Jayakarta","station_id":"JAY"},{"i_lat":-6.137569,"station_id":"JAKK","distance":1264,"transit":true,"station_name":"Jakarta Kota","i_long":106.812439,"line":2,"is_transit":true,"time":4},{"i_lat":-6.132549,"line":4,"time":3,"distance":1364,"transit":true,"is_transit":true,"i_long":106.826365,"station_name":"Kampung Bandan","station_id":"KPB"},{"station_name":"Rajawali","i_lat":-6.14505,"i_long":106.836569,"station_id":"RJW","line":11,"time":3,"is_transit":false,"distance":1444,"transit":false},{"line":11,"transit":false,"distance":1901,"station_id":"KMO","i_lat":-6.161728,"station_name":"Kemayoran","is_transit":false,"time":5,"i_long":106.839204},{"time":4,"i_long":106.84368,"i_lat":-6.174784,"distance":1436,"station_name":"Pasar Senen","line":11,"is_transit":false,"transit":false,"station_id":"PSE"},{"time":8,"station_id":"GST","i_long":106.850107,"transit":false,"line":11,"distance":1567,"i_lat":-6.185975,"station_name":"Gang Sentiong","is_transit":false},{"time":1,"transit":false,"station_name":"Kramat","station_id":"KMT","i_lat":-6.193792,"distance":973,"i_long":106.855437,"line":11,"is_transit":false},{"station_id":"POK","i_long":106.861737,"line":11,"distance":1829,"station_name":"Pondok Jati","transit":false,"time":2,"i_lat":-6.209188,"is_transit":false},{"i_long":106.86807400000001,"station_name":"Jatinegara","transit":true,"line":1,"time":9,"is_transit":true,"distance":1236,"i_lat":-6.215091,"station_id":"JNG"},{"time":3,"station_name":"Klender","is_transit":false,"i_lat":-6.2135,"i_long":106.899548,"line":1,"distance":3395,"transit":false,"station_id":"KLD"},{"i_lat":-6.215568,"station_id":"BUA","is_transit":false,"line":1,"transit":false,"station_name":"Buaran","i_long":106.922662,"time":2,"distance":3100},{"transit":false,"time":1,"station_name":"Klenderbaru","distance":1305,"i_lat":-6.217455,"i_long":106.939679,"station_id":"KLDB","line":1,"is_transit":false},{"is_transit":false,"station_id":"CUK","station_name":"Cakung","transit":false,"i_long":106.951283,"line":1,"distance":1385,"i_lat":-6.219053,"time":8}]]}