{"data":[[{"station_id":"BOI","distance":0,"is_transit":false,"i_long":106.737035,"transit":false,"station_name":"Bojongindah","time":0,"line":5,"i_lat":-6.159876},{"station_name":"Taman Kota","i_lat":-6.1587309999999995,"i_long":106.756522,"transit":false,"station_id":"TKO","line":5,"time":2,"distance":2334,"is_transit":false},{"station_name":"Pesing","distance":1614,"station_id":"PSG","line":5,"i_lat":-6.161433,"transit":false,"i_long":106.771379,"time":2,"is_transit":false},{"distance":2036,"line":5,"transit":false,"time":2,"station_name":"Grogol","station_id":"GGL","is_transit":false,"i_lat":-6.162021,"i_long":106.788277},{"is_transit":true,"distance":1700,"i_lat":-6.155215,"i_long":106.800832,"line":1,"station_name":"Duri","station_id":"DU","transit":true,"time":3},{"i_lat":-6.185545,"i_long":106.811091,"distance":3632,"line":1,"transit":false,"is_transit":false,"station_id":"THB","station_name":"Tanah Abang","time":8},{"i_long":106.816351,"line":1,"is_transit":false,"station_name":"Karet","time":5,"distance":2029,"transit":false,"station_id":"KAT","i_lat":-6.20132},{"station_name":"Sudirman Baru","line":1,"i_long":106.819881,"distance":471,"time":1,"station_id":"SUDB","transit":false,"i_lat":-6.201433,"is_transit":false},{"station_name":"Sudirman","i_long":106.822649,"station_id":"SUD","is_transit":false,"distance":280,"line":1,"transit":false,"i_lat":-6.202263,"time":1},{"distance":3186,"i_long":106.84912,"i_lat":-6.209883,"station_name":"Manggarai","transit":false,"is_transit":false,"line":2,"station_id":"MRI","time":4},{"transit":false,"line":1,"station_name":"Matraman","i_long":106.858896,"station_id":"MTR","i_lat":-6.212485,"distance":1275,"is_transit":false,"time":2},{"time":8,"distance":1377,"station_name":"Jatinegara","line":1,"transit":false,"i_lat":-6.215091,"is_transit":false,"station_id":"JNG","i_long":106.86807400000001},{"i_lat":-6.2135,"is_transit":false,"time":3,"station_id":"KLD","i_long":106.899548,"distance":3395,"line":1,"transit":false,"station_name":"Klender"},{"distance":3100,"time":2,"station_id":"BUA","i_lat":-6.215568,"station_name":"Buaran","transit":false,"i_long":106.922662,"line":1,"is_transit":false},{"distance":1305,"station_id":"KLDB","station_name":"Klenderbaru","i_long":106.939679,"is_transit":false,"time":1,"transit":false,"i_lat":-6.217455,"line":1},{"transit":false,"distance":1385,"station_id":"CUK","i_long":106.951283,"line":1,"station_name":"Cakung","time":8,"i_lat":-6.219053,"is_transit":false},{"station_name":"Kranji","distance":3097,"i_long":106.977657,"i_lat":-6.224515,"line":1,"transit":false,"is_transit":false,"station_id":"KRI","time":3},{"is_transit":false,"time":4,"transit":false,"line":1,"i_long":106.997013,"station_name":"Bekasi","i_lat":-6.236616,"distance":2520,"station_id":"BKS"},{"transit":false,"i_lat":-6.248029,"i_long":107.016735,"distance":2368,"station_id":"BKST","is_transit":false,"station_name":"Bekasi Timur","time":2,"line":1}],[{"time":0,"line":5,"transit":false,"distance":0,"station_id":"BOI","is_transit":false,"station_name":"Bojongindah","i_long":106.737035,"i_lat":-6.159876},{"time":2,"transit":false,"distance":2334,"i_long":106.756522,"line":5,"station_name":"Taman Kota","station_id":"TKO","is_transit":false,"i_lat":-6.1587309999999995},{"line":5,"station_name":"Pesing","i_lat":-6.161433,"station_id":"PSG","time":2,"distance":1614,"is_transit":false,"i_long":106.771379,"transit":false},{"distance":2036,"i_long":106.788277,"line":5,"station_id":"GGL","transit":false,"time":2,"station_name":"Grogol","is_transit":false,"i_lat":-6.162021},{"station_name":"Duri","i_lat":-6.155215,"transit":true,"time":3,"i_long":106.800832,"station_id":"DU","line":1,"distance":1700,"is_transit":true},{"transit":false,"time":4,"station_id":"AK","station_name":"Angke","i_lat":-6.144674,"i_long":106.79867,"line":1,"distance":1230,"is_transit":false},{"transit":true,"station_name":"Kampung Bandan","station_id":"KPB","distance":4102,"i_lat":-6.132549,"time":9,"is_transit":true,"line":4,"i_long":106.826365},{"i_lat":-6.14505,"line":11,"is_transit":false,"i_long":106.836569,"station_name":"Rajawali","distance":1444,"time":3,"transit":false,"station_id":"RJW"},{"is_transit":false,"transit":false,"i_lat":-6.161728,"i_long":106.839204,"time":5,"line":11,"station_name":"Kemayoran","station_id":"KMO","distance":1901},{"i_long":106.84368,"station_id":"PSE","i_lat":-6.174784,"time":4,"transit":false,"is_transit":false,"distance":1436,"station_name":"Pasar Senen","line":11},{"distance":1567,"i_long":106.850107,"is_transit":false,"station_id":"GST","i_lat":-6.185975,"time":8,"transit":false,"station_name":"Gang Sentiong","line":11},{"i_long":106.855437,"time":1,"is_transit":false,"i_lat":-6.193792,"line":11,"distance":973,"station_name":"Kramat","transit":false,"station_id":"KMT"},{"station_name":"Pondok Jati","line":11,"station_id":"POK","i_long":106.861737,"distance":1829,"i_lat":-6.209188,"time":2,"transit":false,"is_transit":false},{"is_transit":true,"distance":1236,"line":1,"time":9,"i_long":106.86807400000001,"i_lat":-6.215091,"station_id":"JNG","transit":true,"station_name":"Jatinegara"},{"time":3,"station_id":"KLD","i_lat":-6.2135,"line":1,"station_name":"Klender","i_long":106.899548,"transit":false,"distance":3395,"is_transit":false},{"station_name":"Buaran","time":2,"is_transit":false,"station_id":"BUA","i_lat":-6.215568,"transit":false,"i_long":106.922662,"distance":3100,"line":1},{"transit":false,"time":1,"i_lat":-6.217455,"i_long":106.939679,"line":1,"distance":1305,"station_name":"Klenderbaru","is_transit":false,"station_id":"KLDB"},{"line":1,"distance":1385,"i_long":106.951283,"is_transit":false,"transit":false,"station_id":"CUK","station_name":"Cakung","time":8,"i_lat":-6.219053},{"is_transit":false,"i_long":106.977657,"i_lat":-6.224515,"time":3,"transit":false,"station_name":"Kranji","distance":3097,"station_id":"KRI","line":1},{"is_transit":false,"station_id":"BKS","distance":2520,"i_long":106.997013,"station_name":"Bekasi","line":1,"i_lat":-6.236616,"transit":false,"time":4},{"transit":false,"station_id":"BKST","distance":2368,"line":1,"is_transit":false,"station_name":"Bekasi Timur","time":2,"i_lat":-6.248029,"i_long":107.016735}],[{"i_long":106.737035,"line":5,"is_transit":false,"i_lat":-6.159876,"station_name":"Bojongindah","station_id":"BOI","transit":false,"time":0,"distance":0},{"line":5,"station_name":"Taman Kota","is_transit":false,"time":2,"distance":2334,"transit":false,"station_id":"TKO","i_lat":-6.1587309999999995,"i_long":106.756522},{"transit":false,"time":2,"distance":1614,"station_id":"PSG","station_name":"Pesing","i_lat":-6.161433,"line":5,"i_long":106.771379,"is_transit":false},{"time":2,"station_id":"GGL","i_lat":-6.162021,"line":5,"distance":2036,"station_name":"Grogol","transit":false,"is_transit":false,"i_long":106.788277},{"i_lat":-6.155215,"transit":true,"is_transit":true,"station_name":"Duri","distance":1700,"station_id":"DU","time":3,"i_long":106.800832,"line":1},{"line":1,"station_name":"Angke","transit":false,"station_id":"AK","time":4,"i_lat":-6.144674,"distance":1230,"is_transit":false,"i_long":106.79867},{"line":4,"time":9,"is_transit":true,"distance":4102,"transit":true,"i_lat":-6.132549,"i_long":106.826365,"station_name":"Kampung Bandan","station_id":"KPB"},{"line":2,"transit":true,"station_id":"JAKK","station_name":"Jakarta Kota","is_transit":true,"i_lat":-6.137569,"time":3,"distance":1364,"i_long":106.812439},{"transit":false,"i_lat":-6.141205,"time":4,"distance":1264,"i_long":106.820901,"is_transit":false,"station_id":"JAY","station_name":"Jayakarta","line":2},{"time":2,"station_name":"Manggabesar","distance":1080,"station_id":"MGB","transit":false,"is_transit":false,"i_lat":-6.149769,"i_long":106.82482,"line":2},{"time":2,"distance":906,"i_long":106.827103,"is_transit":false,"station_name":"Sawah Besar","station_id":"SW","line":2,"transit":false,"i_lat":-6.160725},{"is_transit":false,"i_long":106.828284,"time":2,"station_name":"Juanda","line":2,"distance":1149,"transit":false,"station_id":"JUA","i_lat":-6.166716},{"i_lat":-6.186295,"station_name":"Gondangdia","time":4,"is_transit":false,"transit":false,"i_long":106.832183,"line":2,"distance":2015,"station_id":"GDD"},{"time":3,"line":2,"station_name":"Cikini","i_lat":-6.198556,"is_transit":false,"i_long":106.840169,"transit":false,"distance":1750,"station_id":"CKI"},{"is_transit":true,"transit":true,"station_name":"Manggarai","i_long":106.84912,"line":2,"distance":1590,"i_lat":-6.209883,"time":4,"station_id":"MRI"},{"time":2,"transit":false,"distance":1275,"station_id":"MTR","is_transit":false,"i_lat":-6.212485,"station_name":"Matraman","i_long":106.858896,"line":1},{"time":8,"i_lat":-6.215091,"distance":1377,"station_id":"JNG","station_name":"Jatinegara","i_long":106.86807400000001,"is_transit":false,"transit":false,"line":1},{"i_lat":-6.2135,"time":3,"is_transit":false,"station_name":"Klender","transit":false,"station_id":"KLD","line":1,"distance":3395,"i_long":106.899548},{"i_lat":-6.215568,"i_long":106.922662,"station_id":"BUA","time":2,"is_transit":false,"station_name":"Buaran","line":1,"distance":3100,"transit":false},{"time":1,"i_lat":-6.217455,"is_transit":false,"distance":1305,"station_name":"Klenderbaru","line":1,"station_id":"KLDB","transit":false,"i_long":106.939679},{"line":1,"i_long":106.951283,"is_transit":false,"station_id":"CUK","i_lat":-6.219053,"time":8,"transit":false,"station_name":"Cakung","distance":1385},{"time":3,"station_name":"Kranji","i_long":106.977657,"transit":false,"i_lat":-6.224515,"is_transit":false,"station_id":"KRI","line":1,"distance":3097},{"i_long":106.997013,"station_id":"BKS","i_lat":-6.236616,"time":4,"line":1,"is_transit":false,"station_name":"Bekasi","transit":false,"distance":2520},{"station_name":"Bekasi Timur","time":2,"transit":false,"line":1,"i_lat":-6.248029,"station_id":"BKST","i_long":107.016735,"is_transit":false,"distance":2368}],[{"distance":0,"station_id":"BOI","is_transit":false,"line":5,"station_name":"Bojongindah","i_long":106.737035,"transit":false,"i_lat":-6.159876,"time":0},{"i_long":106.756522,"station_id":"TKO","time":2,"transit":false,"distance":2334,"is_transit":false,"station_name":"Taman Kota","i_lat":-6.1587309999999995,"line":5},{"station_name":"Pesing","is_transit":false,"time":2,"transit":false,"i_lat":-6.161433,"station_id":"PSG","i_long":106.771379,"line":5,"distance":1614},{"is_transit":false,"line":5,"i_lat":-6.162021,"transit":false,"station_name":"Grogol","distance":2036,"station_id":"GGL","i_long":106.788277,"time":2},{"time":3,"is_transit":true,"station_id":"DU","station_name":"Duri","transit":true,"distance":1700,"i_long":106.800832,"line":1,"i_lat":-6.155215},{"transit":false,"i_lat":-6.185545,"line":1,"is_transit":false,"i_long":106.811091,"distance":3632,"station_name":"Tanah Abang","station_id":"THB","time":8},{"i_long":106.816351,"time":5,"station_id":"KAT","line":1,"is_transit":false,"station_name":"Karet","transit":false,"distance":2029,"i_lat":-6.20132},{"time":1,"i_lat":-6.201433,"transit":false,"distance":471,"i_long":106.819881,"is_transit":false,"station_name":"Sudirman Baru","line":1,"station_id":"SUDB"},{"distance":280,"is_transit":false,"i_lat":-6.202263,"transit":false,"line":1,"i_long":106.822649,"station_name":"Sudirman","station_id":"SUD","time":1},{"i_lat":-6.209883,"transit":true,"time":4,"line":2,"station_name":"Manggarai","distance":3186,"station_id":"MRI","is_transit":true,"i_long":106.84912},{"station_name":"Cikini","time":4,"station_id":"CKI","i_lat":-6.198556,"i_long":106.840169,"distance":1590,"line":2,"transit":false,"is_transit":false},{"line":2,"station_id":"GDD","station_name":"Gondangdia","i_long":106.832183,"time":3,"distance":1750,"is_transit":false,"i_lat":-6.186295,"transit":false},{"station_name":"Juanda","time":4,"i_long":106.828284,"is_transit":false,"line":2,"distance":2015,"transit":false,"station_id":"JUA","i_lat":-6.166716},{"time":2,"station_name":"Sawah Besar","distance":1149,"i_long":106.827103,"station_id":"SW","is_transit":false,"line":2,"i_lat":-6.160725,"transit":false},{"distance":906,"time":2,"is_transit":false,"transit":false,"i_long":106.82482,"line":2,"station_name":"Manggabesar","station_id":"MGB","i_lat":-6.149769},{"transit":false,"i_long":106.820901,"station_name":"Jayakarta","i_lat":-6.141205,"line":2,"time":2,"distance":1080,"station_id":"JAY","is_transit":false},{"station_name":"Jakarta Kota","is_transit":true,"time":4,"station_id":"JAKK","i_long":106.812439,"transit":true,"distance":1264,"line":2,"i_lat":-6.137569},{"is_transit":true,"distance":1364,"station_id":"KPB","i_long":106.826365,"station_name":"Kampung Bandan","transit":true,"line":4,"time":3,"i_lat":-6.132549},{"transit":false,"distance":1444,"station_name":"Rajawali","is_transit":false,"i_lat":-6.14505,"i_long":106.836569,"line":11,"time":3,"station_id":"RJW"},{"distance":1901,"line":11,"time":5,"i_long":106.839204,"i_lat":-6.161728,"station_id":"KMO","is_transit":false,"transit":false,"station_name":"Kemayoran"},{"station_name":"Pasar Senen","transit":false,"i_lat":-6.174784,"i_long":106.84368,"is_transit":false,"distance":1436,"line":11,"time":4,"station_id":"PSE"},{"is_transit":false,"distance":1567,"time":8,"i_lat":-6.185975,"i_long":106.850107,"transit":false,"line":11,"station_name":"Gang Sentiong","station_id":"GST"},{"distance":973,"time":1,"is_transit":false,"line":11,"station_id":"KMT","i_lat":-6.193792,"transit":false,"i_long":106.855437,"station_name":"Kramat"},{"transit":false,"i_long":106.861737,"line":11,"distance":1829,"is_transit":false,"station_id":"POK","i_lat":-6.209188,"time":2,"station_name":"Pondok Jati"},{"i_long":106.86807400000001,"station_id":"JNG","time":9,"distance":1236,"i_lat":-6.215091,"is_transit":true,"station_name":"Jatinegara","transit":true,"line":1},{"station_name":"Klender","is_transit":false,"transit":false,"i_long":106.899548,"distance":3395,"station_id":"KLD","time":3,"i_lat":-6.2135,"line":1},{"time":2,"station_id":"BUA","i_lat":-6.215568,"station_name":"Buaran","line":1,"transit":false,"distance":3100,"is_transit":false,"i_long":106.922662},{"distance":1305,"i_lat":-6.217455,"line":1,"time":1,"transit":false,"station_id":"KLDB","i_long":106.939679,"is_transit":false,"station_name":"Klenderbaru"},{"station_name":"Cakung","time":8,"line":1,"station_id":"CUK","i_lat":-6.219053,"transit":false,"is_transit":false,"i_long":106.951283,"distance":1385},{"station_name":"Kranji","distance":3097,"time":3,"line":1,"i_lat":-6.224515,"station_id":"KRI","is_transit":false,"i_long":106.977657,"transit":false},{"i_long":106.997013,"station_name":"Bekasi","time":4,"i_lat":-6.236616,"station_id":"BKS","is_transit":false,"transit":false,"line":1,"distance":2520},{"time":2,"distance":2368,"transit":false,"i_long":107.016735,"i_lat":-6.248029,"line":1,"station_name":"Bekasi Timur","is_transit":false,"station_id":"BKST"}]]}