{"data":[[{"station_name":"Bojongindah","transit":false,"station_id":"BOI","line":5,"i_long":106.737035,"i_lat":-6.159876,"time":0,"is_transit":false,"distance":0},{"distance":2334,"transit":false,"time":2,"is_transit":false,"station_name":"Taman Kota","i_long":106.756522,"line":5,"i_lat":-6.1587309999999995,"station_id":"TKO"},{"station_name":"Pesing","line":5,"station_id":"PSG","distance":1614,"transit":false,"i_lat":-6.161433,"i_long":106.771379,"time":2,"is_transit":false},{"distance":2036,"time":2,"station_id":"GGL","i_lat":-6.162021,"station_name":"Grogol","transit":false,"line":5,"is_transit":false,"i_long":106.788277},{"station_id":"DU","i_long":106.800832,"i_lat":-6.155215,"station_name":"Duri","is_transit":true,"distance":1700,"transit":true,"line":1,"time":3},{"i_lat":-6.185545,"distance":3632,"time":8,"line":1,"is_transit":true,"transit":true,"station_id":"THB","i_long":106.811091,"station_name":"Tanah Abang"},{"station_name":"Palmerah","i_lat":-6.207404,"distance":3191,"transit":false,"station_id":"PLM","i_long":106.79689,"line":6,"is_transit":false,"time":6},{"time":7,"distance":3737,"line":6,"station_name":"Kebayoran","station_id":"KBY","i_lat":-6.237242,"is_transit":false,"i_long":106.780334,"transit":false},{"is_transit":false,"i_long":106.74273,"time":8,"transit":false,"i_lat":-6.276362,"station_id":"PDJ","station_name":"Pondokranji","line":6,"distance":6218},{"station_name":"Jurangmangu","transit":false,"i_long":106.728916,"line":6,"station_id":"JMU","i_lat":-6.288927,"distance":2179,"is_transit":false,"time":3},{"i_long":106.712277,"station_id":"SDM","is_transit":false,"station_name":"Sudimara","i_lat":-6.296963,"transit":false,"time":4,"distance":1994,"line":6},{"is_transit":false,"time":6,"distance":4566,"station_name":"Rawa Buntu","i_long":106.675475,"transit":false,"i_lat":-6.314823,"line":6,"station_id":"RU"},{"time":4,"distance":2413,"transit":false,"is_transit":false,"i_lat":-6.319871,"i_long":106.66566,"station_id":"SRP","station_name":"Serpong","line":6},{"station_name":"Cisauk","time":4,"station_id":"CSK","line":3,"i_lat":-6.32484,"is_transit":false,"transit":false,"distance":1784,"i_long":106.640411},{"i_long":106.617853,"station_name":"Cicayur","time":4,"i_lat":-6.329547,"transit":false,"is_transit":false,"distance":2519,"station_id":"CC","line":3},{"line":6,"distance":5968,"time":8,"station_id":"PRP","transit":false,"is_transit":false,"station_name":"Parung Panjang","i_long":106.568863,"i_lat":-6.3441410000000005},{"station_name":"Cilejit","i_lat":-6.354349,"is_transit":false,"distance":7025,"transit":false,"time":9,"station_id":"CJT","i_long":106.508482,"line":3},{"is_transit":false,"i_long":106.491338,"station_id":"DAR","transit":false,"station_name":"Daru","i_lat":-6.338021,"distance":2675,"time":6,"line":0},{"transit":false,"line":6,"i_long":106.460812,"station_name":"Tenjo","station_id":"TEJ","i_lat":-6.327251,"is_transit":false,"time":5,"distance":3902},{"station_name":"Tigaraksa","line":6,"time":5,"distance":2974,"station_id":"TGS","is_transit":false,"transit":false,"i_lat":-6.328533,"i_long":106.425991},{"time":3,"i_long":106.411216,"transit":false,"i_lat":-6.33561,"station_id":"CKY","station_name":"Cikoya","line":3,"distance":2651,"is_transit":false}],[{"i_long":106.737035,"station_name":"Bojongindah","distance":0,"i_lat":-6.159876,"time":0,"station_id":"BOI","line":5,"transit":false,"is_transit":false},{"i_long":106.756522,"is_transit":false,"station_name":"Taman Kota","time":2,"i_lat":-6.1587309999999995,"line":5,"distance":2334,"station_id":"TKO","transit":false},{"station_name":"Pesing","i_lat":-6.161433,"distance":1614,"i_long":106.771379,"transit":false,"line":5,"station_id":"PSG","time":2,"is_transit":false},{"time":2,"is_transit":false,"distance":2036,"transit":false,"i_lat":-6.162021,"i_long":106.788277,"station_name":"Grogol","line":5,"station_id":"GGL"},{"transit":true,"station_id":"DU","is_transit":true,"i_long":106.800832,"distance":1700,"line":1,"time":3,"station_name":"Duri","i_lat":-6.155215},{"transit":false,"time":4,"distance":1230,"station_id":"AK","i_lat":-6.144674,"i_long":106.79867,"is_transit":false,"station_name":"Angke","line":1},{"transit":true,"is_transit":true,"i_lat":-6.132549,"i_long":106.826365,"line":4,"station_id":"KPB","station_name":"Kampung Bandan","distance":4102,"time":9},{"station_name":"Jakarta Kota","i_lat":-6.137569,"time":3,"transit":true,"is_transit":true,"station_id":"JAKK","line":2,"distance":1364,"i_long":106.812439},{"transit":false,"line":2,"time":4,"is_transit":false,"distance":1264,"station_name":"Jayakarta","i_long":106.820901,"station_id":"JAY","i_lat":-6.141205},{"transit":false,"station_id":"MGB","i_long":106.82482,"is_transit":false,"line":2,"time":2,"station_name":"Manggabesar","distance":1080,"i_lat":-6.149769},{"i_long":106.827103,"line":2,"transit":false,"is_transit":false,"station_id":"SW","station_name":"Sawah Besar","distance":906,"i_lat":-6.160725,"time":2},{"i_long":106.828284,"is_transit":false,"distance":1149,"transit":false,"station_id":"JUA","i_lat":-6.166716,"line":2,"station_name":"Juanda","time":2},{"transit":false,"i_lat":-6.186295,"i_long":106.832183,"distance":2015,"time":4,"station_name":"Gondangdia","station_id":"GDD","is_transit":false,"line":2},{"is_transit":false,"time":3,"transit":false,"distance":1750,"station_id":"CKI","station_name":"Cikini","i_lat":-6.198556,"i_long":106.840169,"line":2},{"is_transit":true,"time":4,"distance":1590,"line":2,"station_id":"MRI","transit":true,"station_name":"Manggarai","i_long":106.84912,"i_lat":-6.209883},{"i_long":106.822649,"time":4,"line":1,"station_name":"Sudirman","i_lat":-6.202263,"distance":3186,"is_transit":false,"transit":false,"station_id":"SUD"},{"is_transit":false,"line":1,"i_lat":-6.201433,"i_long":106.819881,"station_name":"Sudirman Baru","time":1,"transit":false,"distance":280,"station_id":"SUDB"},{"is_transit":false,"station_name":"Karet","transit":false,"distance":471,"i_lat":-6.20132,"time":1,"line":1,"station_id":"KAT","i_long":106.816351},{"i_long":106.811091,"i_lat":-6.185545,"station_id":"THB","is_transit":true,"station_name":"Tanah Abang","line":1,"time":5,"distance":2029,"transit":true},{"station_name":"Palmerah","distance":3191,"transit":false,"i_long":106.79689,"is_transit":false,"station_id":"PLM","i_lat":-6.207404,"line":6,"time":6},{"station_id":"KBY","i_long":106.780334,"i_lat":-6.237242,"time":7,"transit":false,"line":6,"station_name":"Kebayoran","is_transit":false,"distance":3737},{"time":8,"station_id":"PDJ","is_transit":false,"transit":false,"station_name":"Pondokranji","i_lat":-6.276362,"i_long":106.74273,"line":6,"distance":6218},{"i_long":106.728916,"station_id":"JMU","distance":2179,"i_lat":-6.288927,"transit":false,"station_name":"Jurangmangu","line":6,"time":3,"is_transit":false},{"distance":1994,"is_transit":false,"i_lat":-6.296963,"transit":false,"i_long":106.712277,"line":6,"station_id":"SDM","time":4,"station_name":"Sudimara"},{"distance":4566,"station_name":"Rawa Buntu","is_transit":false,"transit":false,"line":6,"station_id":"RU","i_lat":-6.314823,"i_long":106.675475,"time":6},{"distance":2413,"station_name":"Serpong","station_id":"SRP","time":4,"i_lat":-6.319871,"transit":false,"is_transit":false,"i_long":106.66566,"line":6},{"i_lat":-6.32484,"time":4,"i_long":106.640411,"station_name":"Cisauk","distance":1784,"transit":false,"station_id":"CSK","line":3,"is_transit":false},{"is_transit":false,"distance":2519,"time":4,"transit":false,"i_lat":-6.329547,"i_long":106.617853,"line":3,"station_id":"CC","station_name":"Cicayur"},{"is_transit":false,"station_name":"Parung Panjang","i_long":106.568863,"transit":false,"distance":5968,"i_lat":-6.3441410000000005,"time":8,"line":6,"station_id":"PRP"},{"is_transit":false,"distance":7025,"transit":false,"station_name":"Cilejit","i_lat":-6.354349,"line":3,"station_id":"CJT","i_long":106.508482,"time":9},{"distance":2675,"station_name":"Daru","i_lat":-6.338021,"time":6,"station_id":"DAR","is_transit":false,"i_long":106.491338,"transit":false,"line":0},{"line":6,"station_name":"Tenjo","time":5,"station_id":"TEJ","is_transit":false,"distance":3902,"transit":false,"i_lat":-6.327251,"i_long":106.460812},{"i_long":106.425991,"transit":false,"is_transit":false,"station_name":"Tigaraksa","time":5,"distance":2974,"i_lat":-6.328533,"station_id":"TGS","line":6},{"time":3,"is_transit":false,"station_id":"CKY","station_name":"Cikoya","distance":2651,"transit":false,"i_long":106.411216,"line":3,"i_lat":-6.33561}],[{"transit":false,"i_lat":-6.159876,"line":5,"is_transit":false,"i_long":106.737035,"distance":0,"station_name":"Bojongindah","station_id":"BOI","time":0},{"i_long":106.756522,"time":2,"station_id":"TKO","line":5,"is_transit":false,"transit":false,"station_name":"Taman Kota","distance":2334,"i_lat":-6.1587309999999995},{"time":2,"i_lat":-6.161433,"transit":false,"distance":1614,"i_long":106.771379,"is_transit":false,"station_name":"Pesing","line":5,"station_id":"PSG"},{"distance":2036,"is_transit":false,"i_lat":-6.162021,"transit":false,"line":5,"i_long":106.788277,"station_id":"GGL","station_name":"Grogol","time":2},{"i_lat":-6.155215,"transit":true,"time":3,"line":1,"station_name":"Duri","distance":1700,"station_id":"DU","is_transit":true,"i_long":106.800832},{"time":4,"station_name":"Angke","station_id":"AK","i_lat":-6.144674,"i_long":106.79867,"distance":1230,"line":1,"transit":false,"is_transit":false},{"line":4,"station_id":"KPB","station_name":"Kampung Bandan","i_long":106.826365,"time":9,"distance":4102,"is_transit":true,"i_lat":-6.132549,"transit":true},{"time":3,"station_name":"Rajawali","i_long":106.836569,"is_transit":false,"line":11,"distance":1444,"transit":false,"station_id":"RJW","i_lat":-6.14505},{"time":5,"station_name":"Kemayoran","distance":1901,"i_long":106.839204,"station_id":"KMO","is_transit":false,"line":11,"i_lat":-6.161728,"transit":false},{"distance":1436,"time":4,"is_transit":false,"transit":false,"i_long":106.84368,"line":11,"station_name":"Pasar Senen","station_id":"PSE","i_lat":-6.174784},{"transit":false,"i_long":106.850107,"station_name":"Gang Sentiong","i_lat":-6.185975,"line":11,"time":8,"distance":1567,"station_id":"GST","is_transit":false},{"station_name":"Kramat","is_transit":false,"time":1,"station_id":"KMT","i_long":106.855437,"transit":false,"distance":973,"line":11,"i_lat":-6.193792},{"station_name":"Pondok Jati","i_lat":-6.209188,"i_long":106.861737,"time":2,"distance":1829,"station_id":"POK","is_transit":false,"transit":false,"line":11},{"i_long":106.86807400000001,"transit":true,"station_id":"JNG","is_transit":true,"i_lat":-6.215091,"station_name":"Jatinegara","distance":1236,"line":1,"time":9},{"is_transit":false,"time":2,"i_long":106.858896,"i_lat":-6.212485,"distance":1377,"transit":false,"station_id":"MTR","line":1,"station_name":"Matraman"},{"distance":1275,"i_long":106.84912,"line":2,"time":2,"transit":false,"station_name":"Manggarai","i_lat":-6.209883,"is_transit":false,"station_id":"MRI"},{"line":1,"is_transit":false,"distance":3186,"i_long":106.822649,"station_id":"SUD","station_name":"Sudirman","transit":false,"i_lat":-6.202263,"time":4},{"time":1,"i_long":106.819881,"line":1,"transit":false,"is_transit":false,"station_name":"Sudirman Baru","station_id":"SUDB","distance":280,"i_lat":-6.201433},{"is_transit":false,"station_id":"KAT","distance":471,"time":1,"transit":false,"i_long":106.816351,"station_name":"Karet","line":1,"i_lat":-6.20132},{"i_lat":-6.185545,"i_long":106.811091,"line":1,"transit":true,"station_name":"Tanah Abang","distance":2029,"station_id":"THB","time":5,"is_transit":true},{"line":6,"time":6,"station_name":"Palmerah","i_lat":-6.207404,"station_id":"PLM","transit":false,"i_long":106.79689,"is_transit":false,"distance":3191},{"distance":3737,"is_transit":false,"transit":false,"station_name":"Kebayoran","i_long":106.780334,"line":6,"i_lat":-6.237242,"station_id":"KBY","time":7},{"is_transit":false,"distance":6218,"time":8,"transit":false,"station_name":"Pondokranji","station_id":"PDJ","i_lat":-6.276362,"i_long":106.74273,"line":6},{"distance":2179,"station_name":"Jurangmangu","transit":false,"time":3,"i_lat":-6.288927,"line":6,"is_transit":false,"station_id":"JMU","i_long":106.728916},{"transit":false,"station_id":"SDM","station_name":"Sudimara","i_lat":-6.296963,"distance":1994,"is_transit":false,"i_long":106.712277,"line":6,"time":4},{"line":6,"transit":false,"station_id":"RU","i_lat":-6.314823,"i_long":106.675475,"time":6,"is_transit":false,"distance":4566,"station_name":"Rawa Buntu"},{"station_name":"Serpong","i_long":106.66566,"i_lat":-6.319871,"distance":2413,"transit":false,"line":6,"time":4,"is_transit":false,"station_id":"SRP"},{"station_id":"CSK","line":3,"transit":false,"i_lat":-6.32484,"station_name":"Cisauk","distance":1784,"time":4,"is_transit":false,"i_long":106.640411},{"line":3,"station_id":"CC","transit":false,"is_transit":false,"station_name":"Cicayur","distance":2519,"i_long":106.617853,"time":4,"i_lat":-6.329547},{"station_id":"PRP","i_long":106.568863,"line":6,"distance":5968,"station_name":"Parung Panjang","time":8,"transit":false,"i_lat":-6.3441410000000005,"is_transit":false},{"i_lat":-6.354349,"time":9,"is_transit":false,"line":3,"distance":7025,"station_id":"CJT","transit":false,"i_long":106.508482,"station_name":"Cilejit"},{"transit":false,"station_id":"DAR","line":0,"i_lat":-6.338021,"i_long":106.491338,"is_transit":false,"station_name":"Daru","time":6,"distance":2675},{"transit":false,"station_name":"Tenjo","distance":3902,"station_id":"TEJ","line":6,"i_long":106.460812,"i_lat":-6.327251,"is_transit":false,"time":5},{"time":5,"distance":2974,"station_name":"Tigaraksa","i_lat":-6.328533,"station_id":"TGS","i_long":106.425991,"line":6,"is_transit":false,"transit":false},{"distance":2651,"i_long":106.411216,"transit":false,"i_lat":-6.33561,"time":3,"line":3,"station_id":"CKY","station_name":"Cikoya","is_transit":false}]]}