{"data":[[{"distance":0,"transit":false,"station_id":"BOO","time":0,"line":2,"i_long":106.790574,"station_name":"Bogor","is_transit":false,"i_lat":-6.594596},{"transit":false,"i_long":106.800016,"line":2,"station_id":"CLT","time":9,"is_transit":false,"i_lat":-6.530544,"distance":7514,"station_name":"Cilebut"},{"i_long":106.792719,"time":5,"distance":4331,"is_transit":false,"transit":false,"line":2,"i_lat":-6.493243,"station_id":"BJD","station_name":"Bojonggede"},{"station_id":"CTA","station_name":"Citayam","line":2,"distance":5197,"time":5,"transit":false,"i_lat":-6.448811,"is_transit":false,"i_long":106.800298},{"is_transit":false,"station_id":"DP","i_lat":-6.405256,"line":2,"transit":false,"station_name":"Depok","distance":5084,"time":6,"i_long":106.816926},{"is_transit":false,"transit":false,"i_long":106.819451,"line":2,"time":3,"distance":1584,"station_id":"DPB","station_name":"Depokbaru","i_lat":-6.391065},{"is_transit":false,"transit":false,"line":2,"distance":2727,"station_id":"POC","i_lat":-6.369073,"i_long":106.831114,"time":4,"station_name":"Pondok Cina"},{"transit":false,"i_lat":-6.360749,"i_long":106.831474,"distance":1109,"line":2,"station_id":"UI","time":2,"station_name":"Univ. Indonesia","is_transit":false},{"line":2,"transit":false,"is_transit":false,"i_lat":-6.339291,"distance":2264,"station_id":"UP","time":3,"station_name":"Univ. Pancasila","i_long":106.834175},{"transit":false,"distance":1029,"station_name":"Lenteng Agung","time":2,"station_id":"LNA","is_transit":false,"i_lat":-6.330363,"line":2,"i_long":106.832616},{"distance":2671,"i_lat":-6.3080680000000005,"station_name":"Tanjung Barat","i_long":106.838896,"station_id":"TNT","is_transit":false,"transit":false,"time":3,"line":2},{"i_long":106.843999,"is_transit":false,"transit":false,"distance":2820,"station_id":"PSM","line":2,"station_name":"Pasar Minggu","time":4,"i_lat":-6.2842400000000005},{"station_id":"PSMB","transit":false,"i_lat":-6.263214,"is_transit":false,"i_long":106.851577,"time":2,"line":2,"station_name":"Pasar Minggu Baru","distance":2380},{"transit":false,"time":2,"distance":824,"station_id":"DRN","station_name":"Duren Kalibata","i_lat":-6.255332,"i_long":106.85449,"line":2,"is_transit":false},{"line":2,"station_name":"Cawang","time":3,"distance":1546,"i_lat":-6.242512,"station_id":"CW","is_transit":false,"transit":false,"i_long":106.856607},{"station_name":"Tebet","distance":1230,"station_id":"TEB","time":2,"is_transit":false,"transit":false,"i_lat":-6.226659,"i_long":106.857948,"line":2},{"station_id":"MRI","i_lat":-6.209883,"time":4,"transit":true,"line":2,"distance":2610,"is_transit":true,"i_long":106.84912,"station_name":"Manggarai"},{"is_transit":false,"distance":3186,"station_id":"SUD","station_name":"Sudirman","time":4,"line":1,"i_lat":-6.202263,"transit":false,"i_long":106.822649},{"station_id":"SUDB","line":1,"station_name":"Sudirman Baru","is_transit":false,"distance":280,"i_lat":-6.201433,"i_long":106.819881,"transit":false,"time":1},{"time":1,"i_long":106.816351,"is_transit":false,"station_id":"KAT","transit":false,"line":1,"distance":471,"i_lat":-6.20132,"station_name":"Karet"},{"distance":2029,"station_id":"THB","i_lat":-6.185545,"is_transit":false,"transit":false,"i_long":106.811091,"line":1,"station_name":"Tanah Abang","time":5},{"is_transit":true,"distance":3632,"transit":true,"station_name":"Duri","time":8,"i_lat":-6.155215,"line":1,"station_id":"DU","i_long":106.800832},{"i_lat":-6.162021,"transit":false,"station_id":"GRG","time":3,"station_name":"Grogol","is_transit":false,"i_long":106.788277,"line":5,"distance":1700},{"i_long":106.771379,"line":5,"station_name":"Pesing","is_transit":false,"station_id":"PSG","transit":false,"time":2,"i_lat":-6.161433,"distance":2036},{"time":2,"line":5,"distance":1614,"station_name":"Taman Kota","i_lat":-6.1587309999999995,"i_long":106.756522,"transit":false,"is_transit":false,"station_id":"TKO"},{"is_transit":false,"transit":false,"station_id":"BOI","time":2,"i_long":106.737035,"station_name":"Bojongindah","line":5,"distance":2334,"i_lat":-6.159876},{"transit":false,"is_transit":false,"time":4,"station_name":"Rawa Buaya","i_lat":-6.162758,"line":5,"distance":1152,"station_id":"RW","i_long":106.723064},{"station_id":"KDS","distance":2504,"transit":false,"is_transit":false,"time":3,"station_name":"Kalideres","i_lat":-6.166068,"i_long":106.701612,"line":5},{"is_transit":false,"time":3,"i_lat":-6.169933,"transit":false,"i_long":106.679458,"line":5,"station_name":"Poris","station_id":"PI","distance":2548},{"transit":false,"time":3,"line":5,"is_transit":false,"i_lat":-6.171811,"station_name":"Batuceper","distance":1834,"i_long":106.665036,"station_id":"BPR"},{"station_id":"THI","i_long":106.64657,"line":5,"station_name":"Tanah Tinggi","distance":2028,"transit":false,"time":3,"is_transit":false,"i_lat":-6.17331},{"is_transit":false,"station_name":"Tangerang","i_lat":-6.176583,"time":3,"i_long":106.632761,"station_id":"TNG","line":5,"distance":1547,"transit":false}],[{"transit":false,"time":0,"i_lat":-6.594596,"i_long":106.790574,"station_id":"BOO","line":2,"is_transit":false,"distance":0,"station_name":"Bogor"},{"is_transit":false,"i_lat":-6.530544,"time":9,"i_long":106.800016,"distance":7514,"station_name":"Cilebut","transit":false,"station_id":"CLT","line":2},{"station_id":"BJD","line":2,"station_name":"Bojonggede","is_transit":false,"distance":4331,"transit":false,"time":5,"i_lat":-6.493243,"i_long":106.792719},{"is_transit":false,"i_lat":-6.448811,"i_long":106.800298,"station_id":"CTA","time":5,"line":2,"transit":false,"station_name":"Citayam","distance":5197},{"distance":5084,"i_long":106.816926,"line":2,"station_name":"Depok","time":6,"transit":false,"is_transit":false,"i_lat":-6.405256,"station_id":"DP"},{"station_name":"Depokbaru","station_id":"DPB","is_transit":false,"line":2,"distance":1584,"transit":false,"i_lat":-6.391065,"time":3,"i_long":106.819451},{"distance":2727,"station_id":"POC","station_name":"Pondok Cina","i_lat":-6.369073,"i_long":106.831114,"transit":false,"line":2,"is_transit":false,"time":4},{"is_transit":false,"time":2,"i_lat":-6.360749,"station_name":"Univ. Indonesia","line":2,"distance":1109,"station_id":"UI","i_long":106.831474,"transit":false},{"i_lat":-6.339291,"station_id":"UP","line":2,"transit":false,"time":3,"distance":2264,"station_name":"Univ. Pancasila","i_long":106.834175,"is_transit":false},{"i_lat":-6.330363,"station_name":"Lenteng Agung","is_transit":false,"line":2,"station_id":"LNA","time":2,"distance":1029,"transit":false,"i_long":106.832616},{"station_id":"TNT","i_long":106.838896,"line":2,"transit":false,"distance":2671,"time":3,"station_name":"Tanjung Barat","is_transit":false,"i_lat":-6.3080680000000005},{"i_lat":-6.2842400000000005,"station_id":"PSM","transit":false,"distance":2820,"time":4,"station_name":"Pasar Minggu","line":2,"i_long":106.843999,"is_transit":false},{"transit":false,"i_long":106.851577,"i_lat":-6.263214,"distance":2380,"station_name":"Pasar Minggu Baru","station_id":"PSMB","line":2,"time":2,"is_transit":false},{"time":2,"i_lat":-6.255332,"is_transit":false,"transit":false,"station_name":"Duren Kalibata","distance":824,"station_id":"DRN","i_long":106.85449,"line":2},{"line":2,"time":3,"i_lat":-6.242512,"transit":false,"is_transit":false,"station_name":"Cawang","i_long":106.856607,"distance":1546,"station_id":"CW"},{"transit":false,"time":2,"distance":1230,"line":2,"is_transit":false,"i_long":106.857948,"i_lat":-6.226659,"station_id":"TEB","station_name":"Tebet"},{"station_id":"MRI","station_name":"Manggarai","i_lat":-6.209883,"time":4,"line":2,"is_transit":false,"i_long":106.84912,"transit":false,"distance":2610},{"station_id":"CKI","i_long":106.840169,"time":4,"transit":false,"distance":1590,"is_transit":false,"i_lat":-6.198556,"station_name":"Cikini","line":2},{"i_lat":-6.186295,"is_transit":false,"transit":false,"time":3,"distance":1750,"station_id":"GDD","station_name":"Gondangdia","i_long":106.832183,"line":2},{"is_transit":false,"station_id":"JUA","time":4,"i_long":106.828284,"i_lat":-6.166716,"transit":false,"station_name":"Juanda","line":2,"distance":2015},{"station_name":"Sawah Besar","line":2,"station_id":"SW","i_lat":-6.160725,"time":2,"i_long":106.827103,"transit":false,"distance":1149,"is_transit":false},{"line":2,"station_id":"MGB","time":2,"station_name":"Manggabesar","transit":false,"i_long":106.82482,"distance":906,"i_lat":-6.149769,"is_transit":false},{"transit":false,"i_long":106.820901,"time":2,"line":2,"distance":1080,"station_id":"JAY","i_lat":-6.141205,"is_transit":false,"station_name":"Jayakarta"},{"time":4,"transit":true,"distance":1264,"station_id":"JAKK","is_transit":true,"i_lat":-6.137569,"station_name":"Jakarta Kota","i_long":106.812439,"line":2},{"line":4,"transit":true,"time":3,"station_name":"Kampung Bandan","station_id":"KPB","distance":1364,"i_lat":-6.132549,"i_long":106.826365,"is_transit":true},{"i_lat":-6.144674,"distance":4102,"station_name":"Angke","station_id":"AK","time":9,"transit":false,"i_long":106.79867,"is_transit":false,"line":1},{"time":4,"is_transit":true,"i_lat":-6.155215,"i_long":106.800832,"station_name":"Duri","station_id":"DU","distance":1230,"transit":true,"line":1},{"i_long":106.788277,"line":5,"station_id":"GRG","i_lat":-6.162021,"distance":1700,"station_name":"Grogol","is_transit":false,"time":3,"transit":false},{"i_lat":-6.161433,"i_long":106.771379,"line":5,"is_transit":false,"transit":false,"distance":2036,"station_name":"Pesing","time":2,"station_id":"PSG"},{"i_lat":-6.1587309999999995,"i_long":106.756522,"is_transit":false,"distance":1614,"station_name":"Taman Kota","transit":false,"station_id":"TKO","time":2,"line":5},{"line":5,"time":2,"transit":false,"station_id":"BOI","i_lat":-6.159876,"distance":2334,"i_long":106.737035,"is_transit":false,"station_name":"Bojongindah"},{"distance":1152,"transit":false,"station_id":"RW","station_name":"Rawa Buaya","time":4,"is_transit":false,"i_long":106.723064,"line":5,"i_lat":-6.162758},{"is_transit":false,"distance":2504,"station_id":"KDS","transit":false,"i_long":106.701612,"line":5,"time":3,"i_lat":-6.166068,"station_name":"Kalideres"},{"station_name":"Poris","transit":false,"time":3,"line":5,"i_long":106.679458,"is_transit":false,"distance":2548,"i_lat":-6.169933,"station_id":"PI"},{"i_lat":-6.171811,"distance":1834,"i_long":106.665036,"line":5,"station_id":"BPR","is_transit":false,"transit":false,"station_name":"Batuceper","time":3},{"is_transit":false,"transit":false,"time":3,"i_long":106.64657,"distance":2028,"station_id":"THI","station_name":"Tanah Tinggi","i_lat":-6.17331,"line":5},{"distance":1547,"line":5,"station_id":"TNG","is_transit":false,"transit":false,"station_name":"Tangerang","time":3,"i_lat":-6.176583,"i_long":106.632761}],[{"i_long":106.790574,"time":0,"distance":0,"i_lat":-6.594596,"transit":false,"station_name":"Bogor","is_transit":false,"station_id":"BOO","line":2},{"time":9,"station_id":"CLT","i_lat":-6.530544,"station_name":"Cilebut","transit":false,"i_long":106.800016,"line":2,"is_transit":false,"distance":7514},{"time":5,"distance":4331,"station_name":"Bojonggede","is_transit":false,"station_id":"BJD","i_long":106.792719,"i_lat":-6.493243,"transit":false,"line":2},{"transit":false,"time":5,"line":2,"i_lat":-6.448811,"i_long":106.800298,"station_name":"Citayam","distance":5197,"is_transit":false,"station_id":"CTA"},{"distance":5084,"transit":false,"station_name":"Depok","time":6,"i_lat":-6.405256,"i_long":106.816926,"station_id":"DP","is_transit":false,"line":2},{"is_transit":false,"station_id":"DPB","transit":false,"time":3,"i_long":106.819451,"station_name":"Depokbaru","i_lat":-6.391065,"distance":1584,"line":2},{"time":4,"station_name":"Pondok Cina","is_transit":false,"transit":false,"i_long":106.831114,"distance":2727,"station_id":"POC","line":2,"i_lat":-6.369073},{"time":2,"i_long":106.831474,"line":2,"station_name":"Univ. Indonesia","i_lat":-6.360749,"distance":1109,"transit":false,"is_transit":false,"station_id":"UI"},{"is_transit":false,"i_lat":-6.339291,"station_name":"Univ. Pancasila","i_long":106.834175,"line":2,"station_id":"UP","transit":false,"time":3,"distance":2264},{"is_transit":false,"distance":1029,"transit":false,"i_long":106.832616,"station_name":"Lenteng Agung","time":2,"station_id":"LNA","line":2,"i_lat":-6.330363},{"i_long":106.838896,"time":3,"distance":2671,"station_name":"Tanjung Barat","i_lat":-6.3080680000000005,"is_transit":false,"transit":false,"station_id":"TNT","line":2},{"transit":false,"station_name":"Pasar Minggu","station_id":"PSM","i_lat":-6.2842400000000005,"time":4,"i_long":106.843999,"is_transit":false,"line":2,"distance":2820},{"station_name":"Pasar Minggu Baru","line":2,"is_transit":false,"station_id":"PSMB","i_lat":-6.263214,"time":2,"i_long":106.851577,"transit":false,"distance":2380},{"is_transit":false,"line":2,"distance":824,"time":2,"transit":false,"i_lat":-6.255332,"station_id":"DRN","i_long":106.85449,"station_name":"Duren Kalibata"},{"transit":false,"distance":1546,"station_id":"CW","time":3,"i_lat":-6.242512,"is_transit":false,"line":2,"i_long":106.856607,"station_name":"Cawang"},{"transit":false,"i_lat":-6.226659,"line":2,"station_id":"TEB","station_name":"Tebet","distance":1230,"i_long":106.857948,"is_transit":false,"time":2},{"i_lat":-6.209883,"distance":2610,"transit":true,"line":2,"station_id":"MRI","station_name":"Manggarai","time":4,"i_long":106.84912,"is_transit":true},{"i_long":106.858896,"transit":false,"is_transit":false,"i_lat":-6.212485,"line":1,"station_name":"Matraman","time":2,"station_id":"MTR","distance":1275},{"station_id":"JNG","i_lat":-6.215091,"transit":true,"is_transit":true,"time":8,"station_name":"Jatinegara","i_long":106.86807400000001,"distance":1377,"line":1},{"station_id":"POK","time":2,"i_long":106.861737,"transit":false,"is_transit":false,"i_lat":-6.209188,"distance":1236,"station_name":"Pondok Jati","line":11},{"station_id":"KMT","distance":1829,"is_transit":false,"line":11,"i_long":106.855437,"station_name":"Kramat","i_lat":-6.193792,"transit":false,"time":2},{"station_id":"GST","distance":973,"line":11,"time":1,"i_lat":-6.185975,"i_long":106.850107,"station_name":"Gang Sentiong","transit":false,"is_transit":false},{"transit":false,"i_lat":-6.174784,"station_name":"Pasar Senen","is_transit":false,"i_long":106.84368,"line":11,"station_id":"PSE","distance":1567,"time":8},{"time":4,"transit":false,"is_transit":false,"station_id":"KMO","station_name":"Kemayoran","i_long":106.839204,"i_lat":-6.161728,"distance":1436,"line":11},{"distance":1901,"is_transit":false,"line":11,"station_name":"Rajawali","station_id":"RJW","transit":false,"time":5,"i_lat":-6.14505,"i_long":106.836569},{"time":3,"station_name":"Kampung Bandan","is_transit":true,"station_id":"KPB","i_long":106.826365,"i_lat":-6.132549,"line":4,"distance":1444,"transit":true},{"line":1,"is_transit":false,"distance":4102,"time":9,"transit":false,"station_name":"Angke","i_lat":-6.144674,"station_id":"AK","i_long":106.79867},{"is_transit":true,"station_id":"DU","station_name":"Duri","line":1,"i_long":106.800832,"distance":1230,"time":4,"i_lat":-6.155215,"transit":true},{"line":5,"i_long":106.788277,"transit":false,"station_name":"Grogol","distance":1700,"i_lat":-6.162021,"time":3,"station_id":"GRG","is_transit":false},{"is_transit":false,"i_lat":-6.161433,"station_name":"Pesing","station_id":"PSG","distance":2036,"line":5,"transit":false,"time":2,"i_long":106.771379},{"transit":false,"is_transit":false,"time":2,"line":5,"station_name":"Taman Kota","i_long":106.756522,"i_lat":-6.1587309999999995,"distance":1614,"station_id":"TKO"},{"i_lat":-6.159876,"station_id":"BOI","is_transit":false,"i_long":106.737035,"time":2,"transit":false,"line":5,"distance":2334,"station_name":"Bojongindah"},{"station_id":"RW","i_lat":-6.162758,"time":4,"transit":false,"i_long":106.723064,"line":5,"station_name":"Rawa Buaya","is_transit":false,"distance":1152},{"is_transit":false,"i_long":106.701612,"distance":2504,"transit":false,"station_name":"Kalideres","time":3,"station_id":"KDS","i_lat":-6.166068,"line":5},{"station_name":"Poris","transit":false,"i_lat":-6.169933,"i_long":106.679458,"distance":2548,"station_id":"PI","time":3,"line":5,"is_transit":false},{"is_transit":false,"i_long":106.665036,"time":3,"i_lat":-6.171811,"station_id":"BPR","transit":false,"line":5,"distance":1834,"station_name":"Batuceper"},{"line":5,"transit":false,"distance":2028,"station_name":"Tanah Tinggi","time":3,"station_id":"THI","is_transit":false,"i_lat":-6.17331,"i_long":106.64657},{"station_id":"TNG","time":3,"distance":1547,"is_transit":false,"i_lat":-6.176583,"i_long":106.632761,"station_name":"Tangerang","line":5,"transit":false}]]}