{"data":[[{"transit":false,"distance":0,"line":2,"is_transit":false,"i_long":106.790574,"station_name":"Bogor","i_lat":-6.594596,"station_id":"BOO","time":0},{"station_name":"Cilebut","transit":false,"is_transit":false,"distance":7514,"i_lat":-6.530544,"i_long":106.800016,"time":9,"station_id":"CLT","line":2},{"station_name":"Bojonggede","transit":false,"time":5,"station_id":"BJD","is_transit":false,"line":2,"distance":4331,"i_long":106.792719,"i_lat":-6.493243},{"i_lat":-6.448811,"i_long":106.800298,"station_name":"Citayam","time":5,"distance":5197,"station_id":"CTA","transit":false,"line":2,"is_transit":false},{"i_long":106.816926,"distance":5084,"station_id":"DP","time":6,"i_lat":-6.405256,"is_transit":false,"station_name":"Depok","line":2,"transit":false},{"station_name":"Depokbaru","i_long":106.819451,"time":3,"distance":1584,"i_lat":-6.391065,"is_transit":false,"station_id":"DPB","line":2,"transit":false},{"time":4,"i_long":106.831114,"line":2,"transit":false,"station_id":"POC","i_lat":-6.369073,"station_name":"Pondok Cina","distance":2727,"is_transit":false},{"is_transit":false,"time":2,"station_name":"Univ. Indonesia","transit":false,"distance":1109,"i_lat":-6.360749,"i_long":106.831474,"line":2,"station_id":"UI"},{"time":3,"i_lat":-6.339291,"i_long":106.834175,"is_transit":false,"line":2,"station_id":"UP","transit":false,"distance":2264,"station_name":"Univ. Pancasila"},{"station_id":"LNA","i_long":106.832616,"distance":1029,"time":2,"is_transit":false,"transit":false,"station_name":"Lenteng Agung","line":2,"i_lat":-6.330363}]]}