{"data":[[{"i_lat":-6.594596,"time":0,"is_transit":false,"station_name":"Bogor","station_id":"BOO","distance":0,"i_long":106.790574,"line":2,"transit":false},{"distance":7514,"line":2,"station_name":"Cilebut","transit":false,"is_transit":false,"station_id":"CLT","i_lat":-6.530544,"time":9,"i_long":106.800016},{"i_long":106.792719,"transit":false,"i_lat":-6.493243,"distance":4331,"station_id":"BJD","line":2,"is_transit":false,"time":5,"station_name":"Bojonggede"},{"time":5,"station_name":"Citayam","is_transit":false,"station_id":"CTA","i_long":106.800298,"transit":false,"distance":5197,"i_lat":-6.448811,"line":2},{"i_lat":-6.405256,"transit":false,"distance":5084,"i_long":106.816926,"line":2,"station_name":"Depok","time":6,"is_transit":false,"station_id":"DP"},{"line":2,"transit":false,"station_id":"DPB","station_name":"Depokbaru","time":3,"i_lat":-6.391065,"i_long":106.819451,"distance":1584,"is_transit":false},{"i_long":106.831114,"i_lat":-6.369073,"station_id":"POC","time":4,"station_name":"Pondok Cina","distance":2727,"transit":false,"is_transit":false,"line":2},{"transit":false,"station_name":"Univ. Indonesia","is_transit":false,"i_long":106.831474,"line":2,"time":2,"distance":1109,"station_id":"UI","i_lat":-6.360749},{"station_name":"Univ. Pancasila","station_id":"UP","i_lat":-6.339291,"distance":2264,"is_transit":false,"i_long":106.834175,"transit":false,"line":2,"time":3},{"line":2,"station_name":"Lenteng Agung","distance":1029,"time":2,"i_lat":-6.330363,"i_long":106.832616,"station_id":"LNA","is_transit":false,"transit":false},{"is_transit":false,"line":2,"station_name":"Tanjung Barat","transit":false,"station_id":"TNT","time":3,"i_long":106.838896,"distance":2671,"i_lat":-6.3080680000000005},{"is_transit":false,"time":4,"distance":2820,"station_id":"PSM","station_name":"Pasar Minggu","i_lat":-6.2842400000000005,"transit":false,"i_long":106.843999,"line":2},{"transit":false,"i_long":106.851577,"distance":2380,"station_name":"Pasar Minggu Baru","station_id":"PSMB","time":2,"is_transit":false,"i_lat":-6.263214,"line":2},{"i_long":106.85449,"i_lat":-6.255332,"is_transit":false,"time":2,"station_id":"DRN","transit":false,"station_name":"Duren Kalibata","distance":824,"line":2}]]}