{"data":[[{"transit":false,"station_name":"Bogor","is_transit":true,"i_lat":-6.594596,"distance":0,"time":0,"i_long":106.790574,"station_id":"BOO","line":1},{"i_lat":-6.530544,"is_transit":false,"station_id":"CLT","i_long":106.800016,"station_name":"Cilebut","time":9,"transit":false,"distance":7514,"line":0},{"line":0,"transit":false,"station_id":"BJD","i_lat":-6.493243,"i_long":106.792719,"distance":4331,"time":5,"station_name":"Bojonggede","is_transit":false},{"station_id":"CTA","time":5,"i_long":106.800298,"i_lat":-6.448811,"is_transit":true,"station_name":"Citayam","distance":5197,"transit":false,"line":1},{"station_name":"Depok","time":6,"station_id":"DP","transit":false,"distance":5084,"i_long":106.816926,"line":0,"is_transit":false,"i_lat":-6.405256},{"i_lat":-6.391065,"distance":1584,"is_transit":false,"station_id":"DPB","time":3,"line":0,"transit":false,"i_long":106.819451,"station_name":"Depokbaru"},{"station_name":"Pondok Cina","distance":2727,"i_lat":-6.369073,"time":4,"is_transit":false,"station_id":"POC","i_long":106.831114,"line":2,"transit":false},{"is_transit":false,"line":2,"i_lat":-6.360749,"time":2,"i_long":106.831474,"station_id":"UI","distance":1109,"transit":false,"station_name":"Univ. Indonesia"},{"station_id":"UP","time":3,"transit":false,"i_lat":-6.339291,"is_transit":false,"line":2,"distance":2264,"i_long":106.834175,"station_name":"Univ. Pancasila"},{"station_name":"Lenteng Agung","station_id":"LNA","i_long":106.832616,"transit":false,"time":2,"line":2,"is_transit":false,"i_lat":-6.330363,"distance":1029},{"transit":false,"is_transit":false,"distance":2671,"i_lat":-6.3080680000000005,"line":2,"i_long":106.838896,"station_name":"Tanjung Barat","station_id":"TNT","time":3},{"i_lat":-6.2842400000000005,"station_name":"Pasar Minggu","time":4,"is_transit":false,"line":2,"station_id":"PSM","distance":2820,"i_long":106.843999,"transit":false},{"station_id":"PSMB","i_long":106.851577,"i_lat":-6.263214,"transit":false,"station_name":"Pasar Minggu Baru","distance":2380,"is_transit":false,"line":2,"time":2},{"i_long":106.85449,"transit":false,"station_name":"Duren Kalibata","line":0,"time":2,"is_transit":false,"distance":824,"station_id":"DRN","i_lat":-6.255332},{"distance":1546,"station_name":"Cawang","i_lat":-6.242512,"is_transit":false,"i_long":106.856607,"line":0,"time":3,"transit":false,"station_id":"CW"},{"time":2,"line":2,"is_transit":false,"i_lat":-6.226659,"i_long":106.857948,"station_name":"Tebet","transit":false,"distance":1230,"station_id":"TEB"},{"i_lat":-6.209883,"station_id":"MRI","distance":2610,"line":0,"transit":true,"time":4,"is_transit":true,"i_long":106.84912,"station_name":"Manggarai"},{"time":4,"station_name":"Sudirman","distance":3186,"station_id":"SUD","transit":false,"i_lat":-6.202263,"is_transit":false,"i_long":106.822649,"line":1},{"i_long":106.819881,"i_lat":-6.201433,"time":1,"station_name":"Sudirman Baru","station_id":"SUDB","line":1,"distance":280,"is_transit":false,"transit":false}],[{"distance":0,"i_lat":-6.594596,"station_name":"Bogor","line":1,"is_transit":true,"i_long":106.790574,"transit":false,"station_id":"BOO","time":0},{"distance":7514,"line":0,"transit":false,"station_name":"Cilebut","i_long":106.800016,"time":9,"station_id":"CLT","i_lat":-6.530544,"is_transit":false},{"station_name":"Bojonggede","transit":false,"time":5,"station_id":"BJD","distance":4331,"is_transit":false,"i_long":106.792719,"line":0,"i_lat":-6.493243},{"transit":false,"station_id":"CTA","is_transit":true,"station_name":"Citayam","time":5,"i_long":106.800298,"line":1,"i_lat":-6.448811,"distance":5197},{"i_long":106.816926,"i_lat":-6.405256,"station_name":"Depok","time":6,"station_id":"DP","distance":5084,"line":0,"is_transit":false,"transit":false},{"line":0,"i_long":106.819451,"transit":false,"station_name":"Depokbaru","distance":1584,"time":3,"i_lat":-6.391065,"is_transit":false,"station_id":"DPB"},{"i_lat":-6.369073,"time":4,"transit":false,"is_transit":false,"distance":2727,"i_long":106.831114,"line":2,"station_id":"POC","station_name":"Pondok Cina"},{"transit":false,"time":2,"is_transit":false,"distance":1109,"station_name":"Univ. Indonesia","station_id":"UI","i_lat":-6.360749,"line":2,"i_long":106.831474},{"line":2,"is_transit":false,"distance":2264,"time":3,"station_name":"Univ. Pancasila","transit":false,"i_lat":-6.339291,"i_long":106.834175,"station_id":"UP"},{"is_transit":false,"i_lat":-6.330363,"transit":false,"station_id":"LNA","i_long":106.832616,"line":2,"time":2,"distance":1029,"station_name":"Lenteng Agung"},{"station_name":"Tanjung Barat","station_id":"TNT","i_long":106.838896,"line":2,"time":3,"distance":2671,"is_transit":false,"transit":false,"i_lat":-6.3080680000000005},{"station_name":"Pasar Minggu","line":2,"transit":false,"i_long":106.843999,"station_id":"PSM","distance":2820,"time":4,"is_transit":false,"i_lat":-6.2842400000000005},{"is_transit":false,"time":2,"distance":2380,"station_name":"Pasar Minggu Baru","i_lat":-6.263214,"station_id":"PSMB","transit":false,"line":2,"i_long":106.851577},{"distance":824,"station_id":"DRN","transit":false,"line":0,"i_lat":-6.255332,"time":2,"i_long":106.85449,"station_name":"Duren Kalibata","is_transit":false},{"i_lat":-6.242512,"distance":1546,"station_id":"CW","is_transit":false,"station_name":"Cawang","transit":false,"line":0,"i_long":106.856607,"time":3},{"transit":false,"station_id":"TEB","distance":1230,"is_transit":false,"i_long":106.857948,"line":2,"station_name":"Tebet","time":2,"i_lat":-6.226659},{"is_transit":true,"time":4,"station_id":"MRI","distance":2610,"i_long":106.84912,"station_name":"Manggarai","i_lat":-6.209883,"line":0,"transit":true},{"station_name":"Cikini","time":4,"station_id":"CKI","line":0,"i_lat":-6.198556,"i_long":106.840169,"transit":false,"is_transit":false,"distance":1590},{"distance":1750,"line":2,"station_id":"GDD","is_transit":false,"station_name":"Gondangdia","i_lat":-6.186295,"i_long":106.832183,"transit":false,"time":3},{"is_transit":false,"time":4,"line":2,"transit":false,"station_name":"Juanda","station_id":"JUA","i_lat":-6.166716,"distance":2015,"i_long":106.828284},{"transit":false,"distance":1149,"i_long":106.827103,"time":2,"station_id":"SW","is_transit":false,"station_name":"Sawah Besar","line":2,"i_lat":-6.160725},{"i_lat":-6.149769,"distance":906,"is_transit":false,"line":2,"transit":false,"station_id":"MGB","station_name":"Manggabesar","i_long":106.82482,"time":2},{"distance":1080,"transit":false,"i_lat":-6.141205,"line":7,"is_transit":false,"station_name":"Jayakarta","i_long":106.820901,"time":2,"station_id":"JAY"},{"i_lat":-6.137569,"station_name":"Jakarta Kota","is_transit":true,"time":4,"station_id":"JAKK","transit":true,"i_long":106.812439,"line":0,"distance":1264},{"i_lat":-6.132549,"station_id":"KPB","line":0,"time":3,"station_name":"Kampung Bandan","transit":false,"is_transit":true,"distance":1364,"i_long":106.826365},{"i_long":106.79867,"line":0,"distance":4102,"time":9,"transit":false,"is_transit":false,"station_id":"AK","station_name":"Angke","i_lat":-6.144674},{"time":4,"i_lat":-6.155215,"i_long":106.800832,"station_name":"Duri","transit":true,"distance":1230,"line":1,"is_transit":true,"station_id":"DU"},{"time":8,"station_name":"Tanah Abang","distance":3632,"station_id":"THB","transit":false,"i_lat":-6.185545,"is_transit":true,"i_long":106.811091,"line":1},{"time":5,"line":1,"is_transit":false,"i_lat":-6.20132,"station_name":"Karet","i_long":106.816351,"distance":2029,"transit":false,"station_id":"KAT"},{"i_long":106.819881,"line":1,"distance":471,"station_id":"SUDB","station_name":"Sudirman Baru","time":1,"is_transit":false,"i_lat":-6.201433,"transit":false}],[{"transit":false,"station_id":"BOO","time":0,"station_name":"Bogor","i_long":106.790574,"line":1,"i_lat":-6.594596,"distance":0,"is_transit":true},{"time":9,"transit":false,"station_name":"Cilebut","station_id":"CLT","is_transit":false,"line":0,"i_lat":-6.530544,"i_long":106.800016,"distance":7514},{"station_id":"BJD","distance":4331,"line":0,"is_transit":false,"station_name":"Bojonggede","time":5,"transit":false,"i_lat":-6.493243,"i_long":106.792719},{"time":5,"transit":false,"i_lat":-6.448811,"i_long":106.800298,"distance":5197,"station_id":"CTA","is_transit":true,"line":1,"station_name":"Citayam"},{"line":0,"i_long":106.816926,"transit":false,"station_name":"Depok","i_lat":-6.405256,"time":6,"distance":5084,"station_id":"DP","is_transit":false},{"time":3,"is_transit":false,"distance":1584,"i_long":106.819451,"transit":false,"i_lat":-6.391065,"station_id":"DPB","station_name":"Depokbaru","line":0},{"line":2,"station_id":"POC","i_long":106.831114,"station_name":"Pondok Cina","time":4,"distance":2727,"transit":false,"is_transit":false,"i_lat":-6.369073},{"line":2,"station_name":"Univ. Indonesia","station_id":"UI","i_long":106.831474,"is_transit":false,"distance":1109,"transit":false,"i_lat":-6.360749,"time":2},{"station_name":"Univ. Pancasila","station_id":"UP","i_long":106.834175,"is_transit":false,"i_lat":-6.339291,"line":2,"transit":false,"time":3,"distance":2264},{"station_name":"Lenteng Agung","time":2,"i_lat":-6.330363,"station_id":"LNA","line":2,"i_long":106.832616,"transit":false,"distance":1029,"is_transit":false},{"is_transit":false,"i_long":106.838896,"transit":false,"station_id":"TNT","time":3,"line":2,"station_name":"Tanjung Barat","i_lat":-6.3080680000000005,"distance":2671},{"time":4,"i_long":106.843999,"transit":false,"i_lat":-6.2842400000000005,"station_name":"Pasar Minggu","station_id":"PSM","is_transit":false,"distance":2820,"line":2},{"station_name":"Pasar Minggu Baru","distance":2380,"transit":false,"time":2,"i_lat":-6.263214,"station_id":"PSMB","is_transit":false,"line":2,"i_long":106.851577},{"station_name":"Duren Kalibata","is_transit":false,"transit":false,"i_long":106.85449,"line":0,"i_lat":-6.255332,"distance":824,"station_id":"DRN","time":2},{"is_transit":false,"i_long":106.856607,"station_name":"Cawang","line":0,"transit":false,"station_id":"CW","time":3,"distance":1546,"i_lat":-6.242512},{"station_id":"TEB","station_name":"Tebet","time":2,"transit":false,"i_lat":-6.226659,"is_transit":false,"distance":1230,"i_long":106.857948,"line":2},{"i_lat":-6.209883,"time":4,"is_transit":true,"i_long":106.84912,"station_id":"MRI","station_name":"Manggarai","distance":2610,"transit":true,"line":0},{"i_lat":-6.212485,"is_transit":false,"line":1,"time":2,"i_long":106.858896,"station_id":"MTR","distance":1275,"station_name":"Matraman","transit":false},{"time":8,"i_lat":-6.215091,"i_long":106.86807400000001,"transit":true,"station_id":"JNG","is_transit":true,"station_name":"Jatinegara","distance":1377,"line":0},{"transit":false,"station_id":"POK","i_lat":-6.209188,"station_name":"Pondok Jati","distance":1236,"i_long":106.861737,"is_transit":false,"line":11,"time":2},{"time":2,"line":11,"i_lat":-6.193792,"station_name":"Kramat","transit":false,"station_id":"KMT","i_long":106.855437,"distance":1829,"is_transit":false},{"time":1,"station_id":"GST","is_transit":false,"distance":973,"transit":false,"i_lat":-6.185975,"i_long":106.850107,"line":11,"station_name":"Gang Sentiong"},{"time":8,"station_id":"PSE","i_lat":-6.174784,"distance":1567,"transit":false,"line":11,"station_name":"Pasar Senen","i_long":106.84368,"is_transit":false},{"is_transit":false,"transit":false,"line":11,"station_id":"KMO","station_name":"Kemayoran","distance":1436,"i_long":106.839204,"time":4,"i_lat":-6.161728},{"i_lat":-6.14505,"time":5,"is_transit":false,"i_long":106.836569,"transit":false,"line":11,"station_id":"RJW","distance":1901,"station_name":"Rajawali"},{"transit":true,"station_name":"Kampung Bandan","i_lat":-6.132549,"time":3,"distance":1444,"station_id":"KPB","i_long":106.826365,"is_transit":true,"line":0},{"time":9,"station_id":"AK","transit":false,"line":0,"i_long":106.79867,"station_name":"Angke","distance":4102,"is_transit":false,"i_lat":-6.144674},{"is_transit":true,"station_name":"Duri","station_id":"DU","distance":1230,"transit":true,"i_lat":-6.155215,"line":1,"time":4,"i_long":106.800832},{"transit":false,"station_id":"THB","i_lat":-6.185545,"i_long":106.811091,"station_name":"Tanah Abang","is_transit":true,"time":8,"line":1,"distance":3632},{"transit":false,"time":5,"station_id":"KAT","is_transit":false,"line":1,"station_name":"Karet","distance":2029,"i_lat":-6.20132,"i_long":106.816351},{"is_transit":false,"i_long":106.819881,"line":1,"station_id":"SUDB","distance":471,"time":1,"transit":false,"i_lat":-6.201433,"station_name":"Sudirman Baru"}]]}