{"data":[[{"i_lat":-6.594596,"is_transit":true,"distance":0,"transit":false,"line":1,"station_id":"BOO","station_name":"Bogor","i_long":106.790574,"time":0},{"i_long":106.800016,"station_name":"Cilebut","line":0,"i_lat":-6.530544,"station_id":"CLT","is_transit":false,"distance":7514,"transit":false,"time":9},{"station_name":"Bojonggede","i_lat":-6.493243,"time":5,"distance":4331,"transit":false,"is_transit":false,"station_id":"BJD","i_long":106.792719,"line":0},{"station_id":"CTA","i_long":106.800298,"time":5,"distance":5197,"station_name":"Citayam","i_lat":-6.448811,"transit":false,"line":1,"is_transit":true},{"is_transit":false,"line":0,"transit":false,"time":6,"station_name":"Depok","station_id":"DP","distance":5084,"i_lat":-6.405256,"i_long":106.816926},{"time":3,"station_id":"DPB","is_transit":false,"distance":1584,"i_long":106.819451,"transit":false,"station_name":"Depokbaru","line":0,"i_lat":-6.391065},{"is_transit":false,"time":4,"transit":false,"i_lat":-6.369073,"i_long":106.831114,"line":2,"station_name":"Pondok Cina","distance":2727,"station_id":"POC"},{"transit":false,"station_id":"UI","is_transit":false,"distance":1109,"i_lat":-6.360749,"station_name":"Univ. Indonesia","time":2,"i_long":106.831474,"line":2},{"is_transit":false,"station_id":"UP","distance":2264,"i_lat":-6.339291,"line":2,"i_long":106.834175,"time":3,"station_name":"Univ. Pancasila","transit":false},{"station_id":"LNA","line":2,"transit":false,"i_lat":-6.330363,"time":2,"station_name":"Lenteng Agung","is_transit":false,"distance":1029,"i_long":106.832616}]]}