{"data":[[{"i_lat":-6.594596,"transit":false,"station_id":"BOO","time":0,"distance":0,"i_long":106.790574,"is_transit":false,"line":2,"station_name":"Bogor"},{"transit":false,"i_lat":-6.530544,"time":9,"is_transit":false,"line":2,"station_name":"Cilebut","i_long":106.800016,"station_id":"CLT","distance":7514},{"time":5,"transit":false,"distance":4331,"line":2,"is_transit":false,"i_lat":-6.493243,"i_long":106.792719,"station_id":"BJD","station_name":"Bojonggede"},{"distance":5197,"i_lat":-6.448811,"i_long":106.800298,"line":2,"transit":false,"station_id":"CTA","station_name":"Citayam","time":5,"is_transit":false},{"i_lat":-6.405256,"station_id":"DP","station_name":"Depok","time":6,"transit":false,"is_transit":false,"distance":5084,"line":2,"i_long":106.816926},{"station_name":"Depokbaru","is_transit":false,"i_lat":-6.391065,"station_id":"DPB","transit":false,"distance":1584,"i_long":106.819451,"line":2,"time":3},{"time":4,"distance":2727,"station_id":"POC","line":2,"transit":false,"is_transit":false,"i_long":106.831114,"station_name":"Pondok Cina","i_lat":-6.369073},{"transit":false,"distance":1109,"station_name":"Univ. Indonesia","station_id":"UI","time":2,"i_lat":-6.360749,"is_transit":false,"i_long":106.831474,"line":2},{"line":2,"transit":false,"time":3,"i_lat":-6.339291,"station_name":"Univ. Pancasila","i_long":106.834175,"is_transit":false,"distance":2264,"station_id":"UP"},{"distance":1029,"i_lat":-6.330363,"i_long":106.832616,"transit":false,"is_transit":false,"line":2,"time":2,"station_name":"Lenteng Agung","station_id":"LNA"},{"i_long":106.838896,"time":3,"distance":2671,"line":2,"is_transit":false,"station_name":"Tanjung Barat","station_id":"TNT","i_lat":-6.3080680000000005,"transit":false},{"transit":false,"station_name":"Pasar Minggu","i_lat":-6.2842400000000005,"time":4,"is_transit":false,"line":2,"station_id":"PSM","i_long":106.843999,"distance":2820},{"line":2,"i_lat":-6.263214,"is_transit":false,"i_long":106.851577,"time":2,"station_id":"PSMB","station_name":"Pasar Minggu Baru","transit":false,"distance":2380},{"time":2,"transit":false,"station_name":"Duren Kalibata","is_transit":false,"station_id":"DRN","i_lat":-6.255332,"distance":824,"i_long":106.85449,"line":2},{"station_id":"CW","transit":false,"is_transit":false,"distance":1546,"i_long":106.856607,"time":3,"line":2,"i_lat":-6.242512,"station_name":"Cawang"},{"i_long":106.857948,"i_lat":-6.226659,"transit":false,"is_transit":false,"distance":1230,"station_name":"Tebet","time":2,"line":2,"station_id":"TEB"},{"time":4,"distance":2610,"i_lat":-6.209883,"line":2,"transit":true,"station_id":"MRI","i_long":106.84912,"is_transit":true,"station_name":"Manggarai"},{"station_name":"Sudirman","transit":false,"i_long":106.822649,"station_id":"SUD","is_transit":false,"time":4,"line":1,"i_lat":-6.202263,"distance":3186},{"transit":false,"line":1,"station_id":"SUDB","time":1,"i_lat":-6.201433,"i_long":106.819881,"distance":280,"station_name":"Sudirman Baru","is_transit":false},{"transit":false,"line":1,"station_name":"Karet","is_transit":false,"time":1,"station_id":"KAT","distance":471,"i_long":106.816351,"i_lat":-6.20132},{"i_lat":-6.185545,"transit":false,"time":5,"is_transit":false,"distance":2029,"station_name":"Tanah Abang","station_id":"THB","i_long":106.811091,"line":1},{"transit":false,"station_id":"DU","station_name":"Duri","is_transit":false,"line":1,"distance":3632,"i_lat":-6.155215,"time":8,"i_long":106.800832}],[{"is_transit":false,"transit":false,"i_long":106.790574,"i_lat":-6.594596,"distance":0,"station_name":"Bogor","time":0,"station_id":"BOO","line":2},{"time":9,"is_transit":false,"distance":7514,"transit":false,"line":2,"i_lat":-6.530544,"i_long":106.800016,"station_name":"Cilebut","station_id":"CLT"},{"i_long":106.792719,"station_name":"Bojonggede","transit":false,"line":2,"i_lat":-6.493243,"station_id":"BJD","time":5,"distance":4331,"is_transit":false},{"time":5,"station_name":"Citayam","distance":5197,"is_transit":false,"transit":false,"i_lat":-6.448811,"line":2,"station_id":"CTA","i_long":106.800298},{"is_transit":false,"time":6,"transit":false,"distance":5084,"line":2,"i_long":106.816926,"i_lat":-6.405256,"station_name":"Depok","station_id":"DP"},{"time":3,"distance":1584,"transit":false,"station_name":"Depokbaru","i_long":106.819451,"i_lat":-6.391065,"line":2,"is_transit":false,"station_id":"DPB"},{"time":4,"station_name":"Pondok Cina","distance":2727,"transit":false,"station_id":"POC","line":2,"is_transit":false,"i_lat":-6.369073,"i_long":106.831114},{"line":2,"i_long":106.831474,"is_transit":false,"station_name":"Univ. Indonesia","distance":1109,"station_id":"UI","transit":false,"time":2,"i_lat":-6.360749},{"distance":2264,"time":3,"line":2,"i_lat":-6.339291,"is_transit":false,"transit":false,"station_id":"UP","station_name":"Univ. Pancasila","i_long":106.834175},{"station_id":"LNA","i_long":106.832616,"is_transit":false,"time":2,"i_lat":-6.330363,"line":2,"station_name":"Lenteng Agung","transit":false,"distance":1029},{"station_name":"Tanjung Barat","station_id":"TNT","distance":2671,"line":2,"i_long":106.838896,"time":3,"transit":false,"is_transit":false,"i_lat":-6.3080680000000005},{"i_lat":-6.2842400000000005,"i_long":106.843999,"line":2,"distance":2820,"transit":false,"is_transit":false,"station_name":"Pasar Minggu","station_id":"PSM","time":4},{"station_name":"Pasar Minggu Baru","i_lat":-6.263214,"transit":false,"distance":2380,"station_id":"PSMB","is_transit":false,"time":2,"i_long":106.851577,"line":2},{"is_transit":false,"i_long":106.85449,"time":2,"station_name":"Duren Kalibata","station_id":"DRN","i_lat":-6.255332,"line":2,"transit":false,"distance":824},{"is_transit":false,"station_name":"Cawang","transit":false,"i_lat":-6.242512,"station_id":"CW","time":3,"distance":1546,"i_long":106.856607,"line":2},{"i_long":106.857948,"is_transit":false,"line":2,"distance":1230,"station_name":"Tebet","i_lat":-6.226659,"transit":false,"station_id":"TEB","time":2},{"distance":2610,"i_lat":-6.209883,"is_transit":false,"i_long":106.84912,"station_id":"MRI","station_name":"Manggarai","line":2,"transit":false,"time":4},{"station_name":"Cikini","distance":1590,"station_id":"CKI","is_transit":false,"line":2,"i_lat":-6.198556,"transit":false,"i_long":106.840169,"time":4},{"is_transit":false,"distance":1750,"transit":false,"station_name":"Gondangdia","station_id":"GDD","time":3,"i_long":106.832183,"i_lat":-6.186295,"line":2},{"i_long":106.828284,"transit":false,"distance":2015,"line":2,"station_name":"Juanda","is_transit":false,"i_lat":-6.166716,"station_id":"JUA","time":4},{"i_lat":-6.160725,"line":2,"station_name":"Sawah Besar","distance":1149,"transit":false,"time":2,"station_id":"SW","is_transit":false,"i_long":106.827103},{"distance":906,"i_lat":-6.149769,"transit":false,"station_name":"Manggabesar","station_id":"MGB","is_transit":false,"i_long":106.82482,"time":2,"line":2},{"time":2,"transit":false,"station_name":"Jayakarta","is_transit":false,"distance":1080,"i_lat":-6.141205,"i_long":106.820901,"line":2,"station_id":"JAY"},{"transit":true,"is_transit":true,"i_lat":-6.137569,"station_id":"JAKK","distance":1264,"line":2,"time":4,"i_long":106.812439,"station_name":"Jakarta Kota"},{"station_name":"Kampung Bandan","is_transit":true,"line":4,"station_id":"KPB","time":3,"distance":1364,"transit":true,"i_lat":-6.132549,"i_long":106.826365},{"i_long":106.79867,"line":1,"i_lat":-6.144674,"time":9,"station_id":"AK","station_name":"Angke","is_transit":false,"transit":false,"distance":4102},{"i_lat":-6.155215,"time":4,"station_name":"Duri","transit":false,"station_id":"DU","i_long":106.800832,"line":1,"distance":1230,"is_transit":false}],[{"i_long":106.790574,"time":0,"station_name":"Bogor","station_id":"BOO","is_transit":false,"transit":false,"line":2,"distance":0,"i_lat":-6.594596},{"station_id":"CLT","time":9,"is_transit":false,"transit":false,"station_name":"Cilebut","i_lat":-6.530544,"distance":7514,"line":2,"i_long":106.800016},{"time":5,"transit":false,"distance":4331,"station_name":"Bojonggede","station_id":"BJD","i_lat":-6.493243,"is_transit":false,"i_long":106.792719,"line":2},{"time":5,"station_name":"Citayam","line":2,"i_long":106.800298,"transit":false,"distance":5197,"i_lat":-6.448811,"station_id":"CTA","is_transit":false},{"time":6,"i_long":106.816926,"distance":5084,"transit":false,"station_id":"DP","is_transit":false,"line":2,"i_lat":-6.405256,"station_name":"Depok"},{"station_name":"Depokbaru","i_long":106.819451,"transit":false,"station_id":"DPB","is_transit":false,"time":3,"distance":1584,"i_lat":-6.391065,"line":2},{"station_name":"Pondok Cina","time":4,"station_id":"POC","i_long":106.831114,"transit":false,"distance":2727,"i_lat":-6.369073,"line":2,"is_transit":false},{"station_name":"Univ. Indonesia","i_lat":-6.360749,"station_id":"UI","distance":1109,"time":2,"i_long":106.831474,"is_transit":false,"line":2,"transit":false},{"time":3,"distance":2264,"i_long":106.834175,"station_name":"Univ. Pancasila","transit":false,"i_lat":-6.339291,"station_id":"UP","is_transit":false,"line":2},{"transit":false,"time":2,"station_id":"LNA","station_name":"Lenteng Agung","i_lat":-6.330363,"is_transit":false,"distance":1029,"line":2,"i_long":106.832616},{"i_lat":-6.3080680000000005,"i_long":106.838896,"distance":2671,"line":2,"station_name":"Tanjung Barat","station_id":"TNT","is_transit":false,"transit":false,"time":3},{"i_lat":-6.2842400000000005,"station_id":"PSM","transit":false,"station_name":"Pasar Minggu","distance":2820,"line":2,"i_long":106.843999,"time":4,"is_transit":false},{"station_name":"Pasar Minggu Baru","line":2,"time":2,"station_id":"PSMB","i_lat":-6.263214,"distance":2380,"i_long":106.851577,"is_transit":false,"transit":false},{"i_long":106.85449,"distance":824,"transit":false,"station_name":"Duren Kalibata","is_transit":false,"line":2,"time":2,"station_id":"DRN","i_lat":-6.255332},{"i_lat":-6.242512,"is_transit":false,"transit":false,"station_id":"CW","station_name":"Cawang","time":3,"distance":1546,"i_long":106.856607,"line":2},{"station_name":"Tebet","is_transit":false,"i_lat":-6.226659,"i_long":106.857948,"transit":false,"line":2,"time":2,"station_id":"TEB","distance":1230},{"distance":2610,"time":4,"i_lat":-6.209883,"is_transit":true,"station_name":"Manggarai","transit":true,"station_id":"MRI","i_long":106.84912,"line":2},{"station_id":"MTR","transit":false,"is_transit":false,"station_name":"Matraman","i_long":106.858896,"i_lat":-6.212485,"time":2,"line":1,"distance":1275},{"time":8,"distance":1377,"station_name":"Jatinegara","i_lat":-6.215091,"i_long":106.86807400000001,"transit":true,"station_id":"JNG","line":1,"is_transit":true},{"is_transit":false,"i_lat":-6.209188,"station_id":"POK","time":2,"i_long":106.861737,"transit":false,"station_name":"Pondok Jati","distance":1236,"line":11},{"station_id":"KMT","line":11,"time":2,"distance":1829,"station_name":"Kramat","i_lat":-6.193792,"is_transit":false,"i_long":106.855437,"transit":false},{"station_id":"GST","time":1,"i_lat":-6.185975,"distance":973,"transit":false,"i_long":106.850107,"line":11,"station_name":"Gang Sentiong","is_transit":false},{"i_long":106.84368,"is_transit":false,"transit":false,"station_name":"Pasar Senen","distance":1567,"line":11,"i_lat":-6.174784,"station_id":"PSE","time":8},{"station_name":"Kemayoran","is_transit":false,"i_long":106.839204,"i_lat":-6.161728,"time":4,"distance":1436,"transit":false,"line":11,"station_id":"KMO"},{"i_lat":-6.14505,"line":11,"station_id":"RJW","time":5,"is_transit":false,"distance":1901,"transit":false,"station_name":"Rajawali","i_long":106.836569},{"time":3,"station_name":"Kampung Bandan","transit":true,"distance":1444,"i_lat":-6.132549,"i_long":106.826365,"line":4,"station_id":"KPB","is_transit":true},{"distance":4102,"i_long":106.79867,"time":9,"station_id":"AK","i_lat":-6.144674,"station_name":"Angke","transit":false,"is_transit":false,"line":1},{"line":1,"distance":1230,"time":4,"i_long":106.800832,"transit":false,"station_name":"Duri","station_id":"DU","i_lat":-6.155215,"is_transit":false}]]}