{"data":[[{"distance":0,"i_long":106.790574,"station_name":"Bogor","i_lat":-6.594596,"transit":false,"line":2,"station_id":"BOO","is_transit":false,"time":0},{"i_lat":-6.530544,"i_long":106.800016,"line":2,"time":9,"distance":7514,"station_id":"CLT","station_name":"Cilebut","is_transit":false,"transit":false},{"distance":4331,"is_transit":false,"transit":false,"i_long":106.792719,"station_name":"Bojonggede","line":2,"i_lat":-6.493243,"station_id":"BJD","time":5},{"i_lat":-6.448811,"time":5,"distance":5197,"station_id":"CTA","transit":false,"is_transit":false,"i_long":106.800298,"station_name":"Citayam","line":2},{"line":2,"time":6,"i_lat":-6.405256,"station_id":"DP","station_name":"Depok","i_long":106.816926,"distance":5084,"is_transit":false,"transit":false},{"distance":1584,"station_id":"DPB","transit":false,"time":3,"is_transit":false,"i_long":106.819451,"station_name":"Depokbaru","line":2,"i_lat":-6.391065},{"station_name":"Pondok Cina","time":4,"station_id":"POC","is_transit":false,"i_lat":-6.369073,"distance":2727,"line":2,"transit":false,"i_long":106.831114},{"i_long":106.831474,"station_id":"UI","time":2,"line":2,"distance":1109,"is_transit":false,"i_lat":-6.360749,"station_name":"Univ. Indonesia","transit":false},{"time":3,"i_lat":-6.339291,"i_long":106.834175,"is_transit":false,"distance":2264,"station_name":"Univ. Pancasila","line":2,"transit":false,"station_id":"UP"},{"station_id":"LNA","i_lat":-6.330363,"i_long":106.832616,"transit":false,"time":2,"distance":1029,"is_transit":false,"line":2,"station_name":"Lenteng Agung"},{"transit":false,"time":3,"i_lat":-6.3080680000000005,"is_transit":false,"station_name":"Tanjung Barat","distance":2671,"station_id":"TNT","i_long":106.838896,"line":2},{"is_transit":false,"time":4,"station_name":"Pasar Minggu","transit":false,"i_long":106.843999,"line":2,"i_lat":-6.2842400000000005,"station_id":"PSM","distance":2820},{"time":2,"is_transit":false,"station_name":"Pasar Minggu Baru","distance":2380,"station_id":"PSMB","i_long":106.851577,"i_lat":-6.263214,"transit":false,"line":2},{"transit":false,"station_name":"Duren Kalibata","i_lat":-6.255332,"distance":824,"i_long":106.85449,"is_transit":false,"line":2,"station_id":"DRN","time":2},{"i_long":106.856607,"line":2,"time":3,"station_name":"Cawang","station_id":"CW","distance":1546,"is_transit":false,"transit":false,"i_lat":-6.242512},{"time":2,"line":2,"station_id":"TEB","transit":false,"distance":1230,"station_name":"Tebet","is_transit":false,"i_lat":-6.226659,"i_long":106.857948},{"transit":true,"station_name":"Manggarai","line":2,"is_transit":true,"i_long":106.84912,"station_id":"MRI","distance":2610,"i_lat":-6.209883,"time":4},{"station_name":"Sudirman","distance":3186,"i_lat":-6.202263,"line":1,"i_long":106.822649,"is_transit":false,"time":4,"station_id":"SUD","transit":false},{"is_transit":false,"station_name":"Sudirman Baru","line":1,"transit":false,"i_long":106.819881,"station_id":"SUDB","distance":280,"i_lat":-6.201433,"time":1},{"transit":false,"station_id":"KAT","station_name":"Karet","line":1,"i_lat":-6.20132,"time":1,"i_long":106.816351,"distance":471,"is_transit":false},{"time":5,"i_lat":-6.185545,"station_id":"THB","distance":2029,"i_long":106.811091,"transit":false,"is_transit":false,"station_name":"Tanah Abang","line":1},{"transit":true,"is_transit":true,"time":8,"distance":3632,"station_name":"Duri","i_long":106.800832,"line":1,"station_id":"DU","i_lat":-6.155215},{"distance":1700,"station_id":"GGL","transit":false,"i_lat":-6.162021,"time":3,"station_name":"Grogol","is_transit":false,"i_long":106.788277,"line":5},{"station_name":"Pesing","i_lat":-6.161433,"line":5,"time":2,"distance":2036,"is_transit":false,"station_id":"PSG","transit":false,"i_long":106.771379},{"transit":false,"i_lat":-6.1587309999999995,"time":2,"distance":1614,"station_id":"TKO","line":5,"is_transit":false,"i_long":106.756522,"station_name":"Taman Kota"},{"time":2,"station_id":"BOI","i_long":106.737035,"is_transit":false,"transit":false,"distance":2334,"i_lat":-6.159876,"line":5,"station_name":"Bojongindah"}],[{"i_lat":-6.594596,"station_id":"BOO","time":0,"line":2,"transit":false,"i_long":106.790574,"station_name":"Bogor","distance":0,"is_transit":false},{"distance":7514,"station_name":"Cilebut","i_lat":-6.530544,"i_long":106.800016,"line":2,"time":9,"transit":false,"is_transit":false,"station_id":"CLT"},{"transit":false,"station_id":"BJD","station_name":"Bojonggede","line":2,"i_long":106.792719,"is_transit":false,"i_lat":-6.493243,"time":5,"distance":4331},{"line":2,"is_transit":false,"time":5,"transit":false,"station_name":"Citayam","i_lat":-6.448811,"distance":5197,"station_id":"CTA","i_long":106.800298},{"transit":false,"i_long":106.816926,"line":2,"time":6,"is_transit":false,"station_name":"Depok","station_id":"DP","distance":5084,"i_lat":-6.405256},{"transit":false,"i_lat":-6.391065,"i_long":106.819451,"is_transit":false,"station_id":"DPB","distance":1584,"station_name":"Depokbaru","line":2,"time":3},{"transit":false,"line":2,"distance":2727,"station_name":"Pondok Cina","i_long":106.831114,"i_lat":-6.369073,"station_id":"POC","is_transit":false,"time":4},{"distance":1109,"station_name":"Univ. Indonesia","station_id":"UI","line":2,"is_transit":false,"i_lat":-6.360749,"transit":false,"i_long":106.831474,"time":2},{"line":2,"is_transit":false,"distance":2264,"station_id":"UP","station_name":"Univ. Pancasila","i_lat":-6.339291,"transit":false,"i_long":106.834175,"time":3},{"i_lat":-6.330363,"distance":1029,"transit":false,"line":2,"time":2,"is_transit":false,"i_long":106.832616,"station_id":"LNA","station_name":"Lenteng Agung"},{"is_transit":false,"station_name":"Tanjung Barat","i_lat":-6.3080680000000005,"i_long":106.838896,"station_id":"TNT","transit":false,"time":3,"line":2,"distance":2671},{"transit":false,"i_long":106.843999,"distance":2820,"time":4,"station_id":"PSM","station_name":"Pasar Minggu","i_lat":-6.2842400000000005,"is_transit":false,"line":2},{"i_lat":-6.263214,"i_long":106.851577,"time":2,"line":2,"is_transit":false,"station_name":"Pasar Minggu Baru","distance":2380,"station_id":"PSMB","transit":false},{"is_transit":false,"distance":824,"time":2,"transit":false,"line":2,"i_long":106.85449,"station_id":"DRN","station_name":"Duren Kalibata","i_lat":-6.255332},{"is_transit":false,"station_id":"CW","distance":1546,"transit":false,"line":2,"time":3,"i_long":106.856607,"i_lat":-6.242512,"station_name":"Cawang"},{"distance":1230,"station_id":"TEB","i_lat":-6.226659,"i_long":106.857948,"time":2,"station_name":"Tebet","is_transit":false,"transit":false,"line":2},{"transit":false,"distance":2610,"station_name":"Manggarai","i_long":106.84912,"line":2,"is_transit":false,"time":4,"i_lat":-6.209883,"station_id":"MRI"},{"i_lat":-6.198556,"is_transit":false,"i_long":106.840169,"line":2,"distance":1590,"transit":false,"station_name":"Cikini","time":4,"station_id":"CKI"},{"time":3,"distance":1750,"station_id":"GDD","station_name":"Gondangdia","transit":false,"i_lat":-6.186295,"i_long":106.832183,"line":2,"is_transit":false},{"station_id":"JUA","distance":2015,"is_transit":false,"station_name":"Juanda","line":2,"i_long":106.828284,"time":4,"transit":false,"i_lat":-6.166716},{"i_lat":-6.160725,"station_name":"Sawah Besar","time":2,"distance":1149,"i_long":106.827103,"station_id":"SW","is_transit":false,"transit":false,"line":2},{"is_transit":false,"time":2,"i_lat":-6.149769,"distance":906,"station_id":"MGB","i_long":106.82482,"station_name":"Manggabesar","transit":false,"line":2},{"i_long":106.820901,"transit":false,"is_transit":false,"line":2,"distance":1080,"time":2,"station_id":"JAY","station_name":"Jayakarta","i_lat":-6.141205},{"distance":1264,"i_long":106.812439,"line":2,"time":4,"station_name":"Jakarta Kota","transit":true,"station_id":"JAKK","is_transit":true,"i_lat":-6.137569},{"distance":1364,"time":3,"station_id":"KPB","transit":true,"station_name":"Kampung Bandan","i_lat":-6.132549,"i_long":106.826365,"line":4,"is_transit":true},{"line":1,"i_lat":-6.144674,"transit":false,"time":9,"i_long":106.79867,"station_name":"Angke","is_transit":false,"distance":4102,"station_id":"AK"},{"i_long":106.800832,"station_name":"Duri","transit":true,"station_id":"DU","is_transit":true,"time":4,"distance":1230,"i_lat":-6.155215,"line":1},{"i_lat":-6.162021,"is_transit":false,"line":5,"time":3,"transit":false,"station_id":"GGL","station_name":"Grogol","distance":1700,"i_long":106.788277},{"i_long":106.771379,"line":5,"time":2,"transit":false,"station_id":"PSG","is_transit":false,"distance":2036,"station_name":"Pesing","i_lat":-6.161433},{"time":2,"station_name":"Taman Kota","station_id":"TKO","i_lat":-6.1587309999999995,"i_long":106.756522,"is_transit":false,"transit":false,"line":5,"distance":1614},{"station_name":"Bojongindah","station_id":"BOI","i_lat":-6.159876,"distance":2334,"is_transit":false,"transit":false,"time":2,"line":5,"i_long":106.737035}],[{"i_long":106.790574,"distance":0,"is_transit":false,"time":0,"station_name":"Bogor","line":2,"station_id":"BOO","transit":false,"i_lat":-6.594596},{"time":9,"is_transit":false,"station_id":"CLT","i_lat":-6.530544,"i_long":106.800016,"line":2,"distance":7514,"transit":false,"station_name":"Cilebut"},{"i_long":106.792719,"station_id":"BJD","i_lat":-6.493243,"transit":false,"station_name":"Bojonggede","distance":4331,"is_transit":false,"line":2,"time":5},{"is_transit":false,"distance":5197,"transit":false,"time":5,"station_name":"Citayam","i_lat":-6.448811,"line":2,"station_id":"CTA","i_long":106.800298},{"station_id":"DP","i_long":106.816926,"transit":false,"line":2,"distance":5084,"is_transit":false,"station_name":"Depok","time":6,"i_lat":-6.405256},{"transit":false,"i_long":106.819451,"station_id":"DPB","distance":1584,"is_transit":false,"station_name":"Depokbaru","i_lat":-6.391065,"line":2,"time":3},{"line":2,"transit":false,"i_long":106.831114,"station_name":"Pondok Cina","i_lat":-6.369073,"is_transit":false,"time":4,"station_id":"POC","distance":2727},{"transit":false,"station_id":"UI","is_transit":false,"i_long":106.831474,"distance":1109,"i_lat":-6.360749,"time":2,"station_name":"Univ. Indonesia","line":2},{"distance":2264,"station_name":"Univ. Pancasila","is_transit":false,"transit":false,"i_long":106.834175,"i_lat":-6.339291,"time":3,"line":2,"station_id":"UP"},{"is_transit":false,"station_id":"LNA","station_name":"Lenteng Agung","time":2,"i_lat":-6.330363,"i_long":106.832616,"distance":1029,"transit":false,"line":2},{"station_name":"Tanjung Barat","is_transit":false,"i_lat":-6.3080680000000005,"transit":false,"i_long":106.838896,"line":2,"distance":2671,"station_id":"TNT","time":3},{"i_long":106.843999,"distance":2820,"i_lat":-6.2842400000000005,"line":2,"station_id":"PSM","transit":false,"station_name":"Pasar Minggu","is_transit":false,"time":4},{"i_long":106.851577,"distance":2380,"time":2,"station_name":"Pasar Minggu Baru","station_id":"PSMB","line":2,"transit":false,"i_lat":-6.263214,"is_transit":false},{"is_transit":false,"transit":false,"station_name":"Duren Kalibata","i_long":106.85449,"distance":824,"station_id":"DRN","line":2,"i_lat":-6.255332,"time":2},{"station_id":"CW","distance":1546,"is_transit":false,"station_name":"Cawang","time":3,"i_lat":-6.242512,"line":2,"transit":false,"i_long":106.856607},{"line":2,"time":2,"is_transit":false,"station_name":"Tebet","i_lat":-6.226659,"i_long":106.857948,"distance":1230,"transit":false,"station_id":"TEB"},{"time":4,"station_name":"Manggarai","i_long":106.84912,"i_lat":-6.209883,"is_transit":true,"line":2,"station_id":"MRI","distance":2610,"transit":true},{"line":1,"time":2,"station_id":"MTR","is_transit":false,"station_name":"Matraman","i_lat":-6.212485,"i_long":106.858896,"distance":1275,"transit":false},{"distance":1377,"is_transit":true,"i_lat":-6.215091,"i_long":106.86807400000001,"transit":true,"station_name":"Jatinegara","station_id":"JNG","line":1,"time":8},{"is_transit":false,"distance":1236,"transit":false,"station_id":"POK","i_lat":-6.209188,"line":11,"time":2,"station_name":"Pondok Jati","i_long":106.861737},{"transit":false,"i_lat":-6.193792,"line":11,"station_id":"KMT","station_name":"Kramat","i_long":106.855437,"distance":1829,"time":2,"is_transit":false},{"station_id":"GST","time":1,"station_name":"Gang Sentiong","line":11,"i_lat":-6.185975,"distance":973,"is_transit":false,"transit":false,"i_long":106.850107},{"transit":false,"station_name":"Pasar Senen","station_id":"PSE","line":11,"i_long":106.84368,"is_transit":false,"time":8,"i_lat":-6.174784,"distance":1567},{"distance":1436,"transit":false,"time":4,"i_long":106.839204,"is_transit":false,"station_id":"KMO","i_lat":-6.161728,"line":11,"station_name":"Kemayoran"},{"i_lat":-6.14505,"is_transit":false,"station_name":"Rajawali","i_long":106.836569,"time":5,"distance":1901,"line":11,"transit":false,"station_id":"RJW"},{"line":4,"station_name":"Kampung Bandan","distance":1444,"station_id":"KPB","is_transit":true,"transit":true,"i_lat":-6.132549,"time":3,"i_long":106.826365},{"distance":4102,"time":9,"station_name":"Angke","transit":false,"i_long":106.79867,"i_lat":-6.144674,"station_id":"AK","is_transit":false,"line":1},{"i_lat":-6.155215,"transit":true,"distance":1230,"station_id":"DU","is_transit":true,"station_name":"Duri","time":4,"i_long":106.800832,"line":1},{"i_lat":-6.162021,"transit":false,"i_long":106.788277,"line":5,"distance":1700,"is_transit":false,"time":3,"station_name":"Grogol","station_id":"GGL"},{"i_long":106.771379,"line":5,"distance":2036,"station_name":"Pesing","i_lat":-6.161433,"time":2,"is_transit":false,"transit":false,"station_id":"PSG"},{"station_id":"TKO","is_transit":false,"transit":false,"station_name":"Taman Kota","i_lat":-6.1587309999999995,"i_long":106.756522,"time":2,"distance":1614,"line":5},{"is_transit":false,"transit":false,"time":2,"station_name":"Bojongindah","distance":2334,"i_long":106.737035,"i_lat":-6.159876,"station_id":"BOI","line":5}]]}