{"data":[[{"line":1,"station_id":"BOO","is_transit":true,"i_long":106.790574,"time":0,"distance":0,"transit":false,"station_name":"Bogor","i_lat":-6.594596},{"station_id":"CLT","i_long":106.800016,"time":9,"distance":7514,"i_lat":-6.530544,"station_name":"Cilebut","is_transit":false,"line":0,"transit":false},{"distance":4331,"time":5,"transit":false,"line":0,"is_transit":false,"i_lat":-6.493243,"i_long":106.792719,"station_id":"BJD","station_name":"Bojonggede"},{"time":5,"is_transit":true,"distance":5197,"transit":false,"station_name":"Citayam","i_lat":-6.448811,"line":1,"station_id":"CTA","i_long":106.800298},{"i_lat":-6.405256,"station_id":"DP","time":6,"distance":5084,"transit":false,"i_long":106.816926,"line":0,"station_name":"Depok","is_transit":false},{"station_name":"Depokbaru","distance":1584,"i_lat":-6.391065,"time":3,"i_long":106.819451,"line":0,"station_id":"DPB","transit":false,"is_transit":false},{"i_lat":-6.369073,"line":2,"transit":false,"station_name":"Pondok Cina","station_id":"POC","distance":2727,"is_transit":false,"i_long":106.831114,"time":4},{"station_name":"Univ. Indonesia","transit":false,"i_long":106.831474,"line":2,"station_id":"UI","time":2,"i_lat":-6.360749,"is_transit":false,"distance":1109},{"transit":false,"i_lat":-6.339291,"distance":2264,"station_id":"UP","is_transit":false,"i_long":106.834175,"time":3,"line":2,"station_name":"Univ. Pancasila"},{"is_transit":false,"i_lat":-6.330363,"station_name":"Lenteng Agung","transit":false,"line":2,"station_id":"LNA","i_long":106.832616,"time":2,"distance":1029},{"station_name":"Tanjung Barat","i_lat":-6.3080680000000005,"transit":false,"i_long":106.838896,"station_id":"TNT","time":3,"distance":2671,"line":2,"is_transit":false},{"station_name":"Pasar Minggu","station_id":"PSM","i_long":106.843999,"transit":false,"time":4,"i_lat":-6.2842400000000005,"is_transit":false,"line":2,"distance":2820},{"station_id":"PSMB","distance":2380,"is_transit":false,"time":2,"station_name":"Pasar Minggu Baru","transit":false,"i_lat":-6.263214,"line":2,"i_long":106.851577},{"time":2,"distance":824,"is_transit":false,"transit":false,"i_long":106.85449,"station_id":"DRN","i_lat":-6.255332,"line":0,"station_name":"Duren Kalibata"}]]}