{"data":[[{"station_name":"Bogor","is_transit":false,"station_id":"BOO","transit":false,"distance":0,"time":0,"i_lat":-6.594596,"i_long":106.790574,"line":2},{"station_id":"CLT","station_name":"Cilebut","i_lat":-6.530544,"is_transit":false,"i_long":106.800016,"line":2,"time":9,"distance":7514,"transit":false},{"i_lat":-6.493243,"distance":4331,"transit":false,"i_long":106.792719,"time":5,"station_id":"BJD","is_transit":false,"station_name":"Bojonggede","line":2},{"station_name":"Citayam","station_id":"CTA","is_transit":false,"transit":false,"time":5,"distance":5197,"line":2,"i_long":106.800298,"i_lat":-6.448811},{"station_id":"DP","line":2,"station_name":"Depok","time":6,"transit":false,"i_lat":-6.405256,"is_transit":false,"i_long":106.816926,"distance":5084},{"distance":1584,"is_transit":false,"transit":false,"station_id":"DPB","station_name":"Depokbaru","i_lat":-6.391065,"i_long":106.819451,"line":2,"time":3},{"distance":2727,"station_name":"Pondok Cina","is_transit":false,"line":2,"transit":false,"time":4,"i_lat":-6.369073,"i_long":106.831114,"station_id":"POC"},{"is_transit":false,"time":2,"i_long":106.831474,"line":2,"station_id":"UI","i_lat":-6.360749,"station_name":"Univ. Indonesia","distance":1109,"transit":false},{"is_transit":false,"time":3,"distance":2264,"station_name":"Univ. Pancasila","i_lat":-6.339291,"station_id":"UP","transit":false,"i_long":106.834175,"line":2},{"time":2,"transit":false,"i_long":106.832616,"distance":1029,"is_transit":false,"station_id":"LNA","i_lat":-6.330363,"line":2,"station_name":"Lenteng Agung"},{"station_id":"TNT","time":3,"line":2,"station_name":"Tanjung Barat","i_long":106.838896,"i_lat":-6.3080680000000005,"is_transit":false,"transit":false,"distance":2671},{"distance":2820,"station_name":"Pasar Minggu","is_transit":false,"time":4,"station_id":"PSM","transit":false,"i_long":106.843999,"line":2,"i_lat":-6.2842400000000005},{"transit":false,"station_name":"Pasar Minggu Baru","station_id":"PSMB","distance":2380,"is_transit":false,"line":2,"i_long":106.851577,"time":2,"i_lat":-6.263214},{"station_id":"DRN","time":2,"is_transit":false,"distance":824,"line":2,"transit":false,"station_name":"Duren Kalibata","i_long":106.85449,"i_lat":-6.255332},{"station_id":"CW","i_long":106.856607,"transit":false,"i_lat":-6.242512,"station_name":"Cawang","time":3,"distance":1546,"is_transit":false,"line":2},{"i_long":106.857948,"line":2,"i_lat":-6.226659,"time":2,"distance":1230,"station_name":"Tebet","station_id":"TEB","transit":false,"is_transit":false},{"line":2,"time":4,"i_lat":-6.209883,"distance":2610,"transit":true,"is_transit":true,"station_id":"MRI","station_name":"Manggarai","i_long":106.84912},{"i_long":106.822649,"station_name":"Sudirman","is_transit":false,"time":4,"i_lat":-6.202263,"distance":3186,"station_id":"SUD","transit":false,"line":1},{"line":1,"i_lat":-6.201433,"is_transit":false,"station_name":"Sudirman Baru","distance":280,"transit":false,"station_id":"SUDB","time":1,"i_long":106.819881},{"is_transit":false,"station_id":"KAT","distance":471,"station_name":"Karet","i_lat":-6.20132,"time":1,"line":1,"transit":false,"i_long":106.816351},{"distance":2029,"i_lat":-6.185545,"line":1,"station_name":"Tanah Abang","transit":true,"is_transit":true,"station_id":"THB","time":5,"i_long":106.811091},{"station_name":"Palmerah","line":6,"time":6,"transit":false,"is_transit":false,"station_id":"PLM","distance":3191,"i_long":106.79689,"i_lat":-6.207404},{"i_lat":-6.237242,"line":6,"distance":3737,"station_id":"KBY","station_name":"Kebayoran","time":7,"is_transit":false,"i_long":106.780334,"transit":false},{"distance":6218,"station_id":"PDJ","line":6,"station_name":"Pondokranji","time":8,"i_long":106.74273,"i_lat":-6.276362,"is_transit":false,"transit":false},{"station_id":"JMU","time":3,"is_transit":false,"station_name":"Jurangmangu","i_lat":-6.288927,"distance":2179,"transit":false,"i_long":106.728916,"line":6},{"station_id":"SDM","i_long":106.712277,"is_transit":false,"transit":false,"distance":1994,"line":6,"time":4,"i_lat":-6.296963,"station_name":"Sudimara"},{"i_long":106.675475,"station_name":"Rawa Buntu","i_lat":-6.314823,"is_transit":false,"time":6,"distance":4566,"station_id":"RU","transit":false,"line":6},{"i_lat":-6.319871,"line":6,"transit":false,"is_transit":false,"i_long":106.66566,"station_name":"Serpong","time":4,"station_id":"SRP","distance":2413},{"transit":false,"station_name":"Cisauk","line":3,"i_long":106.640411,"station_id":"CSK","is_transit":false,"i_lat":-6.32484,"time":4,"distance":1784},{"is_transit":false,"transit":false,"station_id":"CC","time":4,"station_name":"Cicayur","i_lat":-6.329547,"line":3,"distance":2519,"i_long":106.617853},{"i_long":106.568863,"transit":false,"station_id":"PRP","line":6,"station_name":"Parung Panjang","distance":5968,"i_lat":-6.3441410000000005,"time":8,"is_transit":false},{"station_id":"CJT","station_name":"Cilejit","transit":false,"is_transit":false,"time":9,"i_long":106.508482,"line":3,"distance":7025,"i_lat":-6.354349},{"distance":2675,"is_transit":false,"time":6,"i_long":106.491338,"line":0,"station_id":"DAR","transit":false,"station_name":"Daru","i_lat":-6.338021}],[{"station_id":"BOO","i_lat":-6.594596,"i_long":106.790574,"transit":false,"is_transit":false,"station_name":"Bogor","distance":0,"time":0,"line":2},{"distance":7514,"time":9,"is_transit":false,"station_name":"Cilebut","station_id":"CLT","transit":false,"i_lat":-6.530544,"i_long":106.800016,"line":2},{"distance":4331,"station_id":"BJD","i_long":106.792719,"line":2,"time":5,"transit":false,"station_name":"Bojonggede","is_transit":false,"i_lat":-6.493243},{"i_lat":-6.448811,"time":5,"is_transit":false,"distance":5197,"transit":false,"line":2,"station_name":"Citayam","station_id":"CTA","i_long":106.800298},{"is_transit":false,"distance":5084,"i_lat":-6.405256,"transit":false,"time":6,"station_id":"DP","i_long":106.816926,"line":2,"station_name":"Depok"},{"is_transit":false,"station_name":"Depokbaru","time":3,"transit":false,"i_long":106.819451,"line":2,"distance":1584,"i_lat":-6.391065,"station_id":"DPB"},{"station_name":"Pondok Cina","station_id":"POC","transit":false,"distance":2727,"i_lat":-6.369073,"i_long":106.831114,"time":4,"line":2,"is_transit":false},{"station_id":"UI","time":2,"line":2,"distance":1109,"i_long":106.831474,"i_lat":-6.360749,"station_name":"Univ. Indonesia","transit":false,"is_transit":false},{"line":2,"time":3,"i_long":106.834175,"station_id":"UP","distance":2264,"i_lat":-6.339291,"transit":false,"station_name":"Univ. Pancasila","is_transit":false},{"station_id":"LNA","station_name":"Lenteng Agung","transit":false,"line":2,"time":2,"is_transit":false,"i_lat":-6.330363,"i_long":106.832616,"distance":1029},{"distance":2671,"station_name":"Tanjung Barat","i_long":106.838896,"line":2,"is_transit":false,"station_id":"TNT","transit":false,"time":3,"i_lat":-6.3080680000000005},{"line":2,"is_transit":false,"time":4,"transit":false,"station_name":"Pasar Minggu","distance":2820,"station_id":"PSM","i_long":106.843999,"i_lat":-6.2842400000000005},{"is_transit":false,"distance":2380,"station_id":"PSMB","station_name":"Pasar Minggu Baru","line":2,"transit":false,"time":2,"i_long":106.851577,"i_lat":-6.263214},{"station_id":"DRN","station_name":"Duren Kalibata","time":2,"i_long":106.85449,"distance":824,"is_transit":false,"transit":false,"i_lat":-6.255332,"line":2},{"station_id":"CW","transit":false,"is_transit":false,"i_lat":-6.242512,"time":3,"distance":1546,"station_name":"Cawang","i_long":106.856607,"line":2},{"transit":false,"distance":1230,"station_name":"Tebet","station_id":"TEB","is_transit":false,"time":2,"i_lat":-6.226659,"i_long":106.857948,"line":2},{"i_long":106.84912,"line":2,"station_id":"MRI","station_name":"Manggarai","i_lat":-6.209883,"is_transit":false,"distance":2610,"time":4,"transit":false},{"is_transit":false,"distance":1590,"time":4,"transit":false,"station_name":"Cikini","line":2,"i_lat":-6.198556,"i_long":106.840169,"station_id":"CKI"},{"distance":1750,"station_id":"GDD","station_name":"Gondangdia","i_long":106.832183,"is_transit":false,"time":3,"i_lat":-6.186295,"line":2,"transit":false},{"i_lat":-6.166716,"station_id":"JUA","i_long":106.828284,"distance":2015,"station_name":"Juanda","is_transit":false,"time":4,"line":2,"transit":false},{"station_id":"SW","transit":false,"time":2,"station_name":"Sawah Besar","i_lat":-6.160725,"is_transit":false,"i_long":106.827103,"distance":1149,"line":2},{"i_long":106.82482,"transit":false,"station_id":"MGB","time":2,"station_name":"Manggabesar","i_lat":-6.149769,"line":2,"is_transit":false,"distance":906},{"line":2,"distance":1080,"i_lat":-6.141205,"is_transit":false,"station_id":"JAY","i_long":106.820901,"station_name":"Jayakarta","time":2,"transit":false},{"is_transit":true,"station_name":"Jakarta Kota","i_lat":-6.137569,"line":2,"time":4,"transit":true,"distance":1264,"station_id":"JAKK","i_long":106.812439},{"i_long":106.826365,"time":3,"i_lat":-6.132549,"is_transit":true,"distance":1364,"transit":true,"station_id":"KPB","line":4,"station_name":"Kampung Bandan"},{"i_long":106.79867,"i_lat":-6.144674,"is_transit":false,"distance":4102,"station_name":"Angke","station_id":"AK","time":9,"transit":false,"line":1},{"station_name":"Duri","time":4,"i_long":106.800832,"distance":1230,"transit":false,"is_transit":false,"i_lat":-6.155215,"station_id":"DU","line":1},{"i_lat":-6.185545,"i_long":106.811091,"transit":true,"line":1,"distance":3632,"station_id":"THB","time":8,"is_transit":true,"station_name":"Tanah Abang"},{"is_transit":false,"distance":3191,"transit":false,"i_lat":-6.207404,"time":6,"i_long":106.79689,"station_name":"Palmerah","station_id":"PLM","line":6},{"transit":false,"station_id":"KBY","station_name":"Kebayoran","i_lat":-6.237242,"i_long":106.780334,"is_transit":false,"line":6,"time":7,"distance":3737},{"transit":false,"i_long":106.74273,"is_transit":false,"line":6,"distance":6218,"station_name":"Pondokranji","time":8,"i_lat":-6.276362,"station_id":"PDJ"},{"is_transit":false,"time":3,"line":6,"station_id":"JMU","i_long":106.728916,"transit":false,"distance":2179,"i_lat":-6.288927,"station_name":"Jurangmangu"},{"time":4,"transit":false,"distance":1994,"line":6,"is_transit":false,"station_id":"SDM","station_name":"Sudimara","i_lat":-6.296963,"i_long":106.712277},{"i_lat":-6.314823,"transit":false,"distance":4566,"time":6,"i_long":106.675475,"is_transit":false,"station_id":"RU","line":6,"station_name":"Rawa Buntu"},{"i_long":106.66566,"transit":false,"i_lat":-6.319871,"line":6,"time":4,"is_transit":false,"station_id":"SRP","distance":2413,"station_name":"Serpong"},{"station_id":"CSK","station_name":"Cisauk","distance":1784,"time":4,"transit":false,"is_transit":false,"i_lat":-6.32484,"line":3,"i_long":106.640411},{"i_lat":-6.329547,"distance":2519,"transit":false,"station_id":"CC","line":3,"time":4,"station_name":"Cicayur","i_long":106.617853,"is_transit":false},{"i_long":106.568863,"transit":false,"is_transit":false,"line":6,"station_id":"PRP","i_lat":-6.3441410000000005,"station_name":"Parung Panjang","distance":5968,"time":8},{"distance":7025,"time":9,"station_name":"Cilejit","is_transit":false,"i_lat":-6.354349,"station_id":"CJT","i_long":106.508482,"transit":false,"line":3},{"distance":2675,"is_transit":false,"station_name":"Daru","time":6,"i_lat":-6.338021,"station_id":"DAR","i_long":106.491338,"line":0,"transit":false}],[{"i_lat":-6.594596,"distance":0,"station_id":"BOO","time":0,"i_long":106.790574,"transit":false,"station_name":"Bogor","is_transit":false,"line":2},{"station_name":"Cilebut","line":2,"is_transit":false,"i_lat":-6.530544,"i_long":106.800016,"transit":false,"station_id":"CLT","distance":7514,"time":9},{"distance":4331,"station_name":"Bojonggede","transit":false,"station_id":"BJD","time":5,"i_long":106.792719,"i_lat":-6.493243,"line":2,"is_transit":false},{"line":2,"i_lat":-6.448811,"transit":false,"distance":5197,"station_id":"CTA","station_name":"Citayam","is_transit":false,"time":5,"i_long":106.800298},{"is_transit":false,"distance":5084,"station_name":"Depok","i_lat":-6.405256,"i_long":106.816926,"transit":false,"line":2,"time":6,"station_id":"DP"},{"transit":false,"time":3,"station_id":"DPB","i_long":106.819451,"line":2,"station_name":"Depokbaru","is_transit":false,"i_lat":-6.391065,"distance":1584},{"is_transit":false,"station_name":"Pondok Cina","line":2,"distance":2727,"i_long":106.831114,"i_lat":-6.369073,"transit":false,"station_id":"POC","time":4},{"i_long":106.831474,"line":2,"i_lat":-6.360749,"time":2,"distance":1109,"station_name":"Univ. Indonesia","is_transit":false,"station_id":"UI","transit":false},{"i_lat":-6.339291,"distance":2264,"station_name":"Univ. Pancasila","line":2,"is_transit":false,"transit":false,"i_long":106.834175,"station_id":"UP","time":3},{"is_transit":false,"station_id":"LNA","station_name":"Lenteng Agung","line":2,"i_lat":-6.330363,"i_long":106.832616,"distance":1029,"transit":false,"time":2},{"station_name":"Tanjung Barat","is_transit":false,"station_id":"TNT","distance":2671,"i_lat":-6.3080680000000005,"transit":false,"i_long":106.838896,"time":3,"line":2},{"distance":2820,"i_lat":-6.2842400000000005,"i_long":106.843999,"transit":false,"time":4,"station_name":"Pasar Minggu","is_transit":false,"station_id":"PSM","line":2},{"station_name":"Pasar Minggu Baru","distance":2380,"transit":false,"time":2,"is_transit":false,"i_lat":-6.263214,"i_long":106.851577,"line":2,"station_id":"PSMB"},{"transit":false,"is_transit":false,"time":2,"i_long":106.85449,"station_id":"DRN","i_lat":-6.255332,"station_name":"Duren Kalibata","distance":824,"line":2},{"is_transit":false,"distance":1546,"station_id":"CW","i_long":106.856607,"time":3,"station_name":"Cawang","line":2,"transit":false,"i_lat":-6.242512},{"is_transit":false,"station_name":"Tebet","time":2,"transit":false,"station_id":"TEB","line":2,"i_lat":-6.226659,"i_long":106.857948,"distance":1230},{"i_lat":-6.209883,"station_id":"MRI","station_name":"Manggarai","distance":2610,"time":4,"transit":true,"is_transit":true,"i_long":106.84912,"line":2},{"i_lat":-6.212485,"time":2,"distance":1275,"transit":false,"i_long":106.858896,"is_transit":false,"line":1,"station_name":"Matraman","station_id":"MTR"},{"i_long":106.86807400000001,"station_id":"JNG","distance":1377,"station_name":"Jatinegara","i_lat":-6.215091,"line":1,"transit":true,"is_transit":true,"time":8},{"distance":1236,"station_id":"POK","station_name":"Pondok Jati","is_transit":false,"time":2,"i_long":106.861737,"line":11,"transit":false,"i_lat":-6.209188},{"distance":1829,"i_long":106.855437,"is_transit":false,"i_lat":-6.193792,"line":11,"transit":false,"station_name":"Kramat","station_id":"KMT","time":2},{"station_name":"Gang Sentiong","i_long":106.850107,"transit":false,"distance":973,"time":1,"i_lat":-6.185975,"is_transit":false,"line":11,"station_id":"GST"},{"time":8,"i_lat":-6.174784,"transit":false,"station_id":"PSE","is_transit":false,"distance":1567,"i_long":106.84368,"line":11,"station_name":"Pasar Senen"},{"is_transit":false,"i_long":106.839204,"line":11,"transit":false,"station_name":"Kemayoran","time":4,"station_id":"KMO","i_lat":-6.161728,"distance":1436},{"station_id":"RJW","line":11,"station_name":"Rajawali","distance":1901,"i_lat":-6.14505,"i_long":106.836569,"is_transit":false,"time":5,"transit":false},{"transit":true,"station_id":"KPB","station_name":"Kampung Bandan","i_lat":-6.132549,"is_transit":true,"distance":1444,"time":3,"i_long":106.826365,"line":4},{"distance":4102,"i_lat":-6.144674,"station_id":"AK","is_transit":false,"i_long":106.79867,"transit":false,"line":1,"station_name":"Angke","time":9},{"line":1,"distance":1230,"time":4,"is_transit":false,"station_id":"DU","i_lat":-6.155215,"i_long":106.800832,"station_name":"Duri","transit":false},{"station_id":"THB","i_long":106.811091,"time":8,"transit":true,"i_lat":-6.185545,"is_transit":true,"station_name":"Tanah Abang","line":1,"distance":3632},{"is_transit":false,"line":6,"station_name":"Palmerah","distance":3191,"i_lat":-6.207404,"station_id":"PLM","i_long":106.79689,"time":6,"transit":false},{"station_name":"Kebayoran","is_transit":false,"station_id":"KBY","time":7,"i_long":106.780334,"i_lat":-6.237242,"line":6,"distance":3737,"transit":false},{"i_long":106.74273,"line":6,"i_lat":-6.276362,"station_name":"Pondokranji","distance":6218,"station_id":"PDJ","time":8,"transit":false,"is_transit":false},{"station_name":"Jurangmangu","transit":false,"i_long":106.728916,"time":3,"i_lat":-6.288927,"station_id":"JMU","is_transit":false,"distance":2179,"line":6},{"is_transit":false,"line":6,"station_name":"Sudimara","distance":1994,"i_long":106.712277,"station_id":"SDM","transit":false,"time":4,"i_lat":-6.296963},{"station_name":"Rawa Buntu","i_long":106.675475,"transit":false,"distance":4566,"is_transit":false,"time":6,"line":6,"i_lat":-6.314823,"station_id":"RU"},{"transit":false,"distance":2413,"is_transit":false,"station_name":"Serpong","station_id":"SRP","i_lat":-6.319871,"i_long":106.66566,"time":4,"line":6},{"i_long":106.640411,"distance":1784,"time":4,"transit":false,"is_transit":false,"station_id":"CSK","station_name":"Cisauk","i_lat":-6.32484,"line":3},{"station_id":"CC","station_name":"Cicayur","time":4,"is_transit":false,"i_lat":-6.329547,"i_long":106.617853,"transit":false,"distance":2519,"line":3},{"station_name":"Parung Panjang","i_lat":-6.3441410000000005,"time":8,"distance":5968,"is_transit":false,"i_long":106.568863,"transit":false,"line":6,"station_id":"PRP"},{"station_id":"CJT","is_transit":false,"time":9,"station_name":"Cilejit","i_long":106.508482,"line":3,"distance":7025,"transit":false,"i_lat":-6.354349},{"station_id":"DAR","distance":2675,"station_name":"Daru","is_transit":false,"i_long":106.491338,"time":6,"i_lat":-6.338021,"transit":false,"line":0}]]}