{"data":[[{"i_lat":-6.594596,"line":2,"station_id":"BOO","is_transit":false,"time":0,"distance":0,"station_name":"Bogor","transit":false,"i_long":106.790574},{"i_lat":-6.530544,"is_transit":false,"i_long":106.800016,"line":2,"station_id":"CLT","distance":7514,"station_name":"Cilebut","time":9,"transit":false},{"line":2,"station_name":"Bojonggede","time":5,"transit":false,"station_id":"BJD","distance":4331,"is_transit":false,"i_long":106.792719,"i_lat":-6.493243},{"is_transit":false,"i_lat":-6.448811,"station_id":"CTA","line":2,"station_name":"Citayam","time":5,"distance":5197,"transit":false,"i_long":106.800298},{"time":6,"is_transit":false,"station_name":"Depok","i_long":106.816926,"line":2,"distance":5084,"transit":false,"station_id":"DP","i_lat":-6.405256},{"i_lat":-6.391065,"i_long":106.819451,"station_name":"Depokbaru","station_id":"DPB","transit":false,"is_transit":false,"distance":1584,"line":2,"time":3},{"is_transit":false,"i_lat":-6.369073,"distance":2727,"i_long":106.831114,"line":2,"station_name":"Pondok Cina","station_id":"POC","transit":false,"time":4},{"i_lat":-6.360749,"transit":false,"line":2,"time":2,"is_transit":false,"station_id":"UI","i_long":106.831474,"station_name":"Univ. Indonesia","distance":1109},{"is_transit":false,"transit":false,"distance":2264,"station_id":"UP","station_name":"Univ. Pancasila","time":3,"i_lat":-6.339291,"i_long":106.834175,"line":2},{"station_name":"Lenteng Agung","station_id":"LNA","is_transit":false,"i_long":106.832616,"line":2,"distance":1029,"time":2,"i_lat":-6.330363,"transit":false},{"time":3,"station_name":"Tanjung Barat","station_id":"TNT","is_transit":false,"transit":false,"line":2,"distance":2671,"i_lat":-6.3080680000000005,"i_long":106.838896},{"i_lat":-6.2842400000000005,"station_name":"Pasar Minggu","distance":2820,"transit":false,"station_id":"PSM","is_transit":false,"time":4,"i_long":106.843999,"line":2},{"i_lat":-6.263214,"is_transit":false,"i_long":106.851577,"line":2,"station_name":"Pasar Minggu Baru","station_id":"PSMB","time":2,"distance":2380,"transit":false},{"line":2,"station_id":"DRN","distance":824,"time":2,"transit":false,"is_transit":false,"i_lat":-6.255332,"station_name":"Duren Kalibata","i_long":106.85449},{"distance":1546,"station_id":"CW","i_lat":-6.242512,"time":3,"line":2,"i_long":106.856607,"is_transit":false,"transit":false,"station_name":"Cawang"},{"is_transit":false,"line":2,"transit":false,"distance":1230,"time":2,"i_lat":-6.226659,"station_id":"TEB","station_name":"Tebet","i_long":106.857948},{"station_id":"MRI","time":4,"station_name":"Manggarai","i_lat":-6.209883,"line":2,"transit":true,"is_transit":true,"distance":2610,"i_long":106.84912},{"i_long":106.858896,"time":2,"line":1,"i_lat":-6.212485,"is_transit":false,"station_id":"MTR","station_name":"Matraman","distance":1275,"transit":false},{"station_id":"JNG","i_lat":-6.215091,"line":1,"station_name":"Jatinegara","distance":1377,"transit":false,"i_long":106.86807400000001,"time":8,"is_transit":false},{"station_name":"Klender","is_transit":false,"transit":false,"station_id":"KLD","time":3,"i_lat":-6.2135,"line":1,"i_long":106.899548,"distance":3395},{"distance":3100,"i_long":106.922662,"is_transit":false,"line":1,"station_name":"Buaran","i_lat":-6.215568,"time":2,"station_id":"BUA","transit":false},{"time":1,"i_lat":-6.217455,"station_id":"KLDB","transit":false,"is_transit":false,"distance":1305,"i_long":106.939679,"station_name":"Klenderbaru","line":1},{"station_name":"Cakung","line":1,"transit":false,"time":8,"is_transit":false,"station_id":"CUK","distance":1385,"i_long":106.951283,"i_lat":-6.219053},{"i_lat":-6.224515,"station_name":"Kranji","transit":false,"station_id":"KRI","i_long":106.977657,"line":1,"distance":3097,"is_transit":false,"time":3},{"station_id":"BKS","station_name":"Bekasi","i_lat":-6.236616,"distance":2520,"is_transit":false,"i_long":106.997013,"time":4,"line":1,"transit":false},{"transit":false,"station_id":"BKST","is_transit":false,"i_long":107.016735,"line":1,"distance":2368,"time":2,"i_lat":-6.248029,"station_name":"Bekasi Timur"},{"transit":false,"distance":4460,"is_transit":false,"station_name":"Tambun","time":7,"station_id":"TB","i_long":107.055722,"i_lat":-6.258864,"line":1},{"station_id":"CIT","time":3,"station_name":"Cibitung","is_transit":false,"distance":3420,"i_lat":-6.261877,"line":1,"transit":false,"i_long":107.083084},{"line":1,"time":2,"station_id":"TLM","distance":2800,"station_name":"Metland Telaga Murni","i_long":107.093313,"transit":false,"i_lat":-6.262938,"is_transit":false},{"is_transit":false,"station_name":"Cikarang","i_lat":-6.2553149999999995,"i_long":107.144613,"distance":3689,"station_id":"CKR","line":1,"time":4,"transit":false}],[{"station_id":"BOO","i_lat":-6.594596,"line":2,"station_name":"Bogor","distance":0,"is_transit":false,"time":0,"i_long":106.790574,"transit":false},{"station_id":"CLT","i_lat":-6.530544,"transit":false,"station_name":"Cilebut","i_long":106.800016,"time":9,"line":2,"distance":7514,"is_transit":false},{"is_transit":false,"station_id":"BJD","station_name":"Bojonggede","distance":4331,"i_lat":-6.493243,"i_long":106.792719,"line":2,"transit":false,"time":5},{"i_long":106.800298,"distance":5197,"line":2,"time":5,"station_id":"CTA","transit":false,"station_name":"Citayam","is_transit":false,"i_lat":-6.448811},{"station_name":"Depok","distance":5084,"is_transit":false,"i_lat":-6.405256,"transit":false,"station_id":"DP","time":6,"i_long":106.816926,"line":2},{"i_lat":-6.391065,"station_name":"Depokbaru","distance":1584,"is_transit":false,"i_long":106.819451,"transit":false,"line":2,"station_id":"DPB","time":3},{"transit":false,"station_name":"Pondok Cina","distance":2727,"time":4,"is_transit":false,"station_id":"POC","i_lat":-6.369073,"i_long":106.831114,"line":2},{"line":2,"station_name":"Univ. Indonesia","transit":false,"i_lat":-6.360749,"station_id":"UI","time":2,"i_long":106.831474,"is_transit":false,"distance":1109},{"transit":false,"i_lat":-6.339291,"line":2,"time":3,"i_long":106.834175,"distance":2264,"station_name":"Univ. Pancasila","station_id":"UP","is_transit":false},{"distance":1029,"is_transit":false,"transit":false,"i_lat":-6.330363,"station_name":"Lenteng Agung","station_id":"LNA","time":2,"i_long":106.832616,"line":2},{"time":3,"station_name":"Tanjung Barat","i_lat":-6.3080680000000005,"distance":2671,"station_id":"TNT","is_transit":false,"i_long":106.838896,"transit":false,"line":2},{"station_name":"Pasar Minggu","transit":false,"time":4,"distance":2820,"i_lat":-6.2842400000000005,"is_transit":false,"i_long":106.843999,"line":2,"station_id":"PSM"},{"station_id":"PSMB","is_transit":false,"transit":false,"i_long":106.851577,"station_name":"Pasar Minggu Baru","distance":2380,"i_lat":-6.263214,"line":2,"time":2},{"station_id":"DRN","transit":false,"is_transit":false,"i_long":106.85449,"distance":824,"station_name":"Duren Kalibata","i_lat":-6.255332,"line":2,"time":2},{"distance":1546,"time":3,"is_transit":false,"line":2,"station_id":"CW","transit":false,"i_lat":-6.242512,"i_long":106.856607,"station_name":"Cawang"},{"i_lat":-6.226659,"line":2,"is_transit":false,"transit":false,"time":2,"distance":1230,"station_name":"Tebet","i_long":106.857948,"station_id":"TEB"},{"station_name":"Manggarai","station_id":"MRI","line":2,"transit":true,"distance":2610,"i_lat":-6.209883,"i_long":106.84912,"time":4,"is_transit":true},{"station_name":"Sudirman","transit":false,"i_lat":-6.202263,"station_id":"SUD","time":4,"distance":3186,"is_transit":false,"i_long":106.822649,"line":1},{"station_id":"SUDB","i_long":106.819881,"distance":280,"i_lat":-6.201433,"line":1,"transit":false,"is_transit":false,"station_name":"Sudirman Baru","time":1},{"transit":false,"is_transit":false,"station_name":"Karet","time":1,"station_id":"KAT","line":1,"distance":471,"i_lat":-6.20132,"i_long":106.816351},{"station_id":"THB","station_name":"Tanah Abang","time":5,"transit":false,"line":1,"i_lat":-6.185545,"i_long":106.811091,"is_transit":false,"distance":2029},{"station_name":"Duri","distance":3632,"station_id":"DU","is_transit":false,"i_lat":-6.155215,"transit":false,"time":8,"i_long":106.800832,"line":1},{"distance":1230,"transit":false,"station_name":"Angke","station_id":"AK","is_transit":false,"time":4,"i_lat":-6.144674,"i_long":106.79867,"line":1},{"transit":true,"i_lat":-6.132549,"station_id":"KPB","is_transit":true,"line":4,"time":9,"distance":4102,"i_long":106.826365,"station_name":"Kampung Bandan"},{"i_lat":-6.14505,"line":11,"station_id":"RJW","time":3,"is_transit":false,"i_long":106.836569,"station_name":"Rajawali","transit":false,"distance":1444},{"distance":1901,"is_transit":false,"line":11,"i_lat":-6.161728,"i_long":106.839204,"time":5,"station_name":"Kemayoran","transit":false,"station_id":"KMO"},{"i_lat":-6.174784,"transit":false,"distance":1436,"station_name":"Pasar Senen","station_id":"PSE","is_transit":false,"time":4,"line":11,"i_long":106.84368},{"line":11,"transit":false,"is_transit":false,"distance":1567,"station_id":"GST","time":8,"station_name":"Gang Sentiong","i_lat":-6.185975,"i_long":106.850107},{"time":1,"transit":false,"distance":973,"i_lat":-6.193792,"station_name":"Kramat","is_transit":false,"i_long":106.855437,"line":11,"station_id":"KMT"},{"station_id":"POK","i_long":106.861737,"time":2,"i_lat":-6.209188,"is_transit":false,"line":11,"transit":false,"distance":1829,"station_name":"Pondok Jati"},{"distance":1236,"time":9,"line":1,"i_long":106.86807400000001,"is_transit":true,"i_lat":-6.215091,"transit":true,"station_id":"JNG","station_name":"Jatinegara"},{"time":3,"distance":3395,"station_id":"KLD","transit":false,"i_long":106.899548,"station_name":"Klender","is_transit":false,"i_lat":-6.2135,"line":1},{"i_lat":-6.215568,"i_long":106.922662,"is_transit":false,"time":2,"station_name":"Buaran","station_id":"BUA","transit":false,"line":1,"distance":3100},{"is_transit":false,"i_long":106.939679,"distance":1305,"station_id":"KLDB","time":1,"line":1,"i_lat":-6.217455,"transit":false,"station_name":"Klenderbaru"},{"time":8,"station_name":"Cakung","distance":1385,"station_id":"CUK","i_lat":-6.219053,"line":1,"transit":false,"is_transit":false,"i_long":106.951283},{"i_long":106.977657,"i_lat":-6.224515,"line":1,"time":3,"is_transit":false,"transit":false,"distance":3097,"station_name":"Kranji","station_id":"KRI"},{"transit":false,"station_name":"Bekasi","station_id":"BKS","line":1,"time":4,"distance":2520,"i_lat":-6.236616,"is_transit":false,"i_long":106.997013},{"is_transit":false,"i_lat":-6.248029,"station_name":"Bekasi Timur","time":2,"station_id":"BKST","transit":false,"distance":2368,"i_long":107.016735,"line":1},{"time":7,"transit":false,"line":1,"station_name":"Tambun","distance":4460,"is_transit":false,"i_lat":-6.258864,"i_long":107.055722,"station_id":"TB"},{"station_name":"Cibitung","transit":false,"distance":3420,"station_id":"CIT","is_transit":false,"i_lat":-6.261877,"i_long":107.083084,"line":1,"time":3},{"time":2,"station_name":"Metland Telaga Murni","transit":false,"i_lat":-6.262938,"line":1,"i_long":107.093313,"station_id":"TLM","distance":2800,"is_transit":false},{"i_long":107.144613,"station_id":"CKR","time":4,"distance":3689,"is_transit":false,"station_name":"Cikarang","transit":false,"i_lat":-6.2553149999999995,"line":1}],[{"i_lat":-6.594596,"i_long":106.790574,"transit":false,"station_name":"Bogor","is_transit":false,"distance":0,"line":2,"station_id":"BOO","time":0},{"transit":false,"is_transit":false,"line":2,"station_id":"CLT","i_lat":-6.530544,"time":9,"i_long":106.800016,"station_name":"Cilebut","distance":7514},{"station_id":"BJD","is_transit":false,"time":5,"i_long":106.792719,"line":2,"transit":false,"station_name":"Bojonggede","distance":4331,"i_lat":-6.493243},{"distance":5197,"line":2,"time":5,"i_long":106.800298,"transit":false,"station_name":"Citayam","i_lat":-6.448811,"station_id":"CTA","is_transit":false},{"station_id":"DP","is_transit":false,"i_lat":-6.405256,"i_long":106.816926,"station_name":"Depok","line":2,"time":6,"transit":false,"distance":5084},{"station_id":"DPB","transit":false,"time":3,"is_transit":false,"i_long":106.819451,"line":2,"station_name":"Depokbaru","distance":1584,"i_lat":-6.391065},{"line":2,"distance":2727,"time":4,"is_transit":false,"transit":false,"i_long":106.831114,"station_name":"Pondok Cina","i_lat":-6.369073,"station_id":"POC"},{"station_id":"UI","i_long":106.831474,"time":2,"i_lat":-6.360749,"station_name":"Univ. Indonesia","is_transit":false,"transit":false,"distance":1109,"line":2},{"time":3,"is_transit":false,"i_long":106.834175,"i_lat":-6.339291,"transit":false,"distance":2264,"station_name":"Univ. Pancasila","station_id":"UP","line":2},{"is_transit":false,"i_lat":-6.330363,"line":2,"distance":1029,"station_id":"LNA","transit":false,"i_long":106.832616,"time":2,"station_name":"Lenteng Agung"},{"station_id":"TNT","is_transit":false,"time":3,"distance":2671,"i_lat":-6.3080680000000005,"transit":false,"line":2,"i_long":106.838896,"station_name":"Tanjung Barat"},{"time":4,"distance":2820,"station_id":"PSM","is_transit":false,"line":2,"i_long":106.843999,"i_lat":-6.2842400000000005,"transit":false,"station_name":"Pasar Minggu"},{"is_transit":false,"station_name":"Pasar Minggu Baru","line":2,"transit":false,"i_lat":-6.263214,"time":2,"distance":2380,"i_long":106.851577,"station_id":"PSMB"},{"distance":824,"transit":false,"time":2,"i_lat":-6.255332,"i_long":106.85449,"line":2,"station_name":"Duren Kalibata","station_id":"DRN","is_transit":false},{"is_transit":false,"time":3,"line":2,"i_lat":-6.242512,"station_name":"Cawang","distance":1546,"i_long":106.856607,"transit":false,"station_id":"CW"},{"station_name":"Tebet","station_id":"TEB","is_transit":false,"i_lat":-6.226659,"transit":false,"distance":1230,"i_long":106.857948,"line":2,"time":2},{"distance":2610,"station_id":"MRI","i_long":106.84912,"transit":false,"time":4,"line":2,"is_transit":false,"station_name":"Manggarai","i_lat":-6.209883},{"station_id":"CKI","time":4,"station_name":"Cikini","i_long":106.840169,"line":2,"distance":1590,"is_transit":false,"i_lat":-6.198556,"transit":false},{"transit":false,"time":3,"i_lat":-6.186295,"i_long":106.832183,"line":2,"station_name":"Gondangdia","station_id":"GDD","distance":1750,"is_transit":false},{"station_id":"JUA","i_long":106.828284,"i_lat":-6.166716,"time":4,"line":2,"station_name":"Juanda","transit":false,"is_transit":false,"distance":2015},{"is_transit":false,"i_lat":-6.160725,"line":2,"station_name":"Sawah Besar","transit":false,"time":2,"distance":1149,"station_id":"SW","i_long":106.827103},{"station_id":"MGB","distance":906,"line":2,"station_name":"Manggabesar","time":2,"is_transit":false,"i_lat":-6.149769,"transit":false,"i_long":106.82482},{"i_long":106.820901,"line":2,"is_transit":false,"distance":1080,"time":2,"i_lat":-6.141205,"transit":false,"station_name":"Jayakarta","station_id":"JAY"},{"i_long":106.812439,"transit":true,"station_name":"Jakarta Kota","distance":1264,"i_lat":-6.137569,"line":2,"station_id":"JAKK","is_transit":true,"time":4},{"time":3,"station_name":"Kampung Bandan","distance":1364,"i_lat":-6.132549,"station_id":"KPB","is_transit":true,"line":4,"transit":true,"i_long":106.826365},{"is_transit":false,"i_long":106.836569,"station_name":"Rajawali","station_id":"RJW","transit":false,"time":3,"distance":1444,"i_lat":-6.14505,"line":11},{"is_transit":false,"station_name":"Kemayoran","line":11,"distance":1901,"i_long":106.839204,"station_id":"KMO","transit":false,"time":5,"i_lat":-6.161728},{"distance":1436,"time":4,"i_long":106.84368,"line":11,"i_lat":-6.174784,"is_transit":false,"transit":false,"station_name":"Pasar Senen","station_id":"PSE"},{"time":8,"transit":false,"line":11,"i_lat":-6.185975,"station_name":"Gang Sentiong","i_long":106.850107,"distance":1567,"station_id":"GST","is_transit":false},{"transit":false,"is_transit":false,"i_lat":-6.193792,"station_id":"KMT","time":1,"i_long":106.855437,"line":11,"distance":973,"station_name":"Kramat"},{"station_name":"Pondok Jati","distance":1829,"time":2,"i_long":106.861737,"i_lat":-6.209188,"line":11,"station_id":"POK","transit":false,"is_transit":false},{"time":9,"distance":1236,"transit":true,"line":1,"station_id":"JNG","i_lat":-6.215091,"station_name":"Jatinegara","i_long":106.86807400000001,"is_transit":true},{"time":3,"is_transit":false,"i_long":106.899548,"line":1,"station_name":"Klender","distance":3395,"transit":false,"i_lat":-6.2135,"station_id":"KLD"},{"station_id":"BUA","station_name":"Buaran","transit":false,"is_transit":false,"time":2,"i_lat":-6.215568,"i_long":106.922662,"line":1,"distance":3100},{"time":1,"i_lat":-6.217455,"transit":false,"station_name":"Klenderbaru","i_long":106.939679,"distance":1305,"station_id":"KLDB","line":1,"is_transit":false},{"time":8,"transit":false,"station_name":"Cakung","i_lat":-6.219053,"is_transit":false,"line":1,"station_id":"CUK","i_long":106.951283,"distance":1385},{"distance":3097,"is_transit":false,"station_name":"Kranji","time":3,"i_long":106.977657,"line":1,"station_id":"KRI","transit":false,"i_lat":-6.224515},{"distance":2520,"station_id":"BKS","station_name":"Bekasi","time":4,"i_long":106.997013,"is_transit":false,"i_lat":-6.236616,"transit":false,"line":1},{"i_lat":-6.248029,"station_name":"Bekasi Timur","line":1,"distance":2368,"time":2,"station_id":"BKST","is_transit":false,"i_long":107.016735,"transit":false},{"station_name":"Tambun","is_transit":false,"station_id":"TB","i_lat":-6.258864,"i_long":107.055722,"transit":false,"time":7,"distance":4460,"line":1},{"line":1,"transit":false,"is_transit":false,"i_lat":-6.261877,"i_long":107.083084,"station_id":"CIT","station_name":"Cibitung","distance":3420,"time":3},{"station_name":"Metland Telaga Murni","is_transit":false,"distance":2800,"i_long":107.093313,"time":2,"i_lat":-6.262938,"line":1,"transit":false,"station_id":"TLM"},{"station_name":"Cikarang","i_lat":-6.2553149999999995,"i_long":107.144613,"station_id":"CKR","line":1,"transit":false,"distance":3689,"is_transit":false,"time":4}]]}