{"data":[[{"station_id":"BOO","time":0,"i_long":106.790574,"station_name":"Bogor","distance":0,"transit":false,"i_lat":-6.594596,"line":2,"is_transit":false},{"distance":7514,"transit":false,"i_long":106.800016,"line":2,"is_transit":false,"i_lat":-6.530544,"station_name":"Cilebut","time":9,"station_id":"CLT"},{"i_lat":-6.493243,"is_transit":false,"station_name":"Bojonggede","i_long":106.792719,"station_id":"BJD","distance":4331,"transit":false,"line":2,"time":5},{"station_name":"Citayam","time":5,"distance":5197,"line":2,"is_transit":false,"station_id":"CTA","i_long":106.800298,"transit":false,"i_lat":-6.448811},{"time":6,"is_transit":false,"transit":false,"station_name":"Depok","distance":5084,"i_lat":-6.405256,"i_long":106.816926,"station_id":"DP","line":2},{"station_id":"DPB","i_long":106.819451,"time":3,"station_name":"Depokbaru","is_transit":false,"distance":1584,"i_lat":-6.391065,"transit":false,"line":2},{"time":4,"is_transit":false,"line":2,"transit":false,"station_id":"POC","i_lat":-6.369073,"distance":2727,"i_long":106.831114,"station_name":"Pondok Cina"},{"i_long":106.831474,"station_name":"Univ. Indonesia","i_lat":-6.360749,"line":2,"is_transit":false,"transit":false,"station_id":"UI","time":2,"distance":1109},{"station_name":"Univ. Pancasila","time":3,"i_long":106.834175,"i_lat":-6.339291,"is_transit":false,"transit":false,"distance":2264,"line":2,"station_id":"UP"},{"time":2,"transit":false,"i_long":106.832616,"i_lat":-6.330363,"distance":1029,"is_transit":false,"station_id":"LNA","station_name":"Lenteng Agung","line":2},{"station_name":"Tanjung Barat","distance":2671,"is_transit":false,"line":2,"station_id":"TNT","time":3,"i_long":106.838896,"transit":false,"i_lat":-6.3080680000000005},{"station_name":"Pasar Minggu","time":4,"station_id":"PSM","is_transit":false,"transit":false,"i_lat":-6.2842400000000005,"i_long":106.843999,"line":2,"distance":2820},{"station_id":"PSMB","station_name":"Pasar Minggu Baru","i_lat":-6.263214,"i_long":106.851577,"line":2,"transit":false,"time":2,"is_transit":false,"distance":2380},{"transit":false,"station_id":"DRN","is_transit":false,"time":2,"line":2,"i_lat":-6.255332,"i_long":106.85449,"distance":824,"station_name":"Duren Kalibata"},{"station_name":"Cawang","is_transit":false,"distance":1546,"station_id":"CW","time":3,"line":2,"transit":false,"i_long":106.856607,"i_lat":-6.242512},{"station_name":"Tebet","station_id":"TEB","i_lat":-6.226659,"line":2,"transit":false,"i_long":106.857948,"time":2,"is_transit":false,"distance":1230},{"transit":true,"distance":2610,"time":4,"station_name":"Manggarai","line":2,"i_long":106.84912,"is_transit":true,"i_lat":-6.209883,"station_id":"MRI"},{"i_lat":-6.202263,"transit":false,"station_id":"SUD","line":1,"station_name":"Sudirman","i_long":106.822649,"distance":3186,"is_transit":false,"time":4},{"station_name":"Sudirman Baru","time":1,"line":1,"transit":false,"i_long":106.819881,"distance":280,"is_transit":false,"station_id":"SUDB","i_lat":-6.201433},{"is_transit":false,"i_long":106.816351,"transit":false,"station_id":"KAT","distance":471,"time":1,"station_name":"Karet","i_lat":-6.20132,"line":1},{"is_transit":false,"transit":false,"station_name":"Tanah Abang","i_long":106.811091,"time":5,"line":1,"distance":2029,"i_lat":-6.185545,"station_id":"THB"},{"station_name":"Duri","i_lat":-6.155215,"station_id":"DU","distance":3632,"time":8,"transit":true,"i_long":106.800832,"is_transit":true,"line":1},{"transit":false,"station_name":"Grogol","station_id":"GGL","time":3,"i_long":106.788277,"distance":1700,"line":5,"i_lat":-6.162021,"is_transit":false},{"is_transit":false,"distance":2036,"station_name":"Pesing","time":2,"i_lat":-6.161433,"i_long":106.771379,"station_id":"PSG","line":5,"transit":false},{"distance":1614,"time":2,"is_transit":false,"station_id":"TKO","station_name":"Taman Kota","i_lat":-6.1587309999999995,"i_long":106.756522,"transit":false,"line":5}],[{"i_long":106.790574,"transit":false,"station_id":"BOO","line":2,"distance":0,"is_transit":false,"time":0,"i_lat":-6.594596,"station_name":"Bogor"},{"station_name":"Cilebut","distance":7514,"time":9,"line":2,"i_long":106.800016,"i_lat":-6.530544,"station_id":"CLT","transit":false,"is_transit":false},{"line":2,"time":5,"is_transit":false,"transit":false,"i_lat":-6.493243,"i_long":106.792719,"station_id":"BJD","distance":4331,"station_name":"Bojonggede"},{"is_transit":false,"i_lat":-6.448811,"distance":5197,"station_id":"CTA","time":5,"line":2,"transit":false,"station_name":"Citayam","i_long":106.800298},{"is_transit":false,"station_id":"DP","time":6,"distance":5084,"i_long":106.816926,"line":2,"transit":false,"station_name":"Depok","i_lat":-6.405256},{"station_id":"DPB","time":3,"distance":1584,"is_transit":false,"line":2,"station_name":"Depokbaru","transit":false,"i_long":106.819451,"i_lat":-6.391065},{"line":2,"transit":false,"i_lat":-6.369073,"distance":2727,"time":4,"station_id":"POC","i_long":106.831114,"is_transit":false,"station_name":"Pondok Cina"},{"station_id":"UI","distance":1109,"is_transit":false,"i_lat":-6.360749,"time":2,"transit":false,"station_name":"Univ. Indonesia","i_long":106.831474,"line":2},{"transit":false,"station_name":"Univ. Pancasila","line":2,"time":3,"is_transit":false,"i_lat":-6.339291,"station_id":"UP","distance":2264,"i_long":106.834175},{"i_long":106.832616,"distance":1029,"line":2,"station_id":"LNA","is_transit":false,"transit":false,"station_name":"Lenteng Agung","time":2,"i_lat":-6.330363},{"is_transit":false,"distance":2671,"line":2,"i_long":106.838896,"transit":false,"time":3,"station_name":"Tanjung Barat","i_lat":-6.3080680000000005,"station_id":"TNT"},{"is_transit":false,"station_name":"Pasar Minggu","station_id":"PSM","time":4,"i_lat":-6.2842400000000005,"line":2,"i_long":106.843999,"transit":false,"distance":2820},{"distance":2380,"transit":false,"station_name":"Pasar Minggu Baru","i_lat":-6.263214,"i_long":106.851577,"time":2,"station_id":"PSMB","line":2,"is_transit":false},{"line":2,"i_long":106.85449,"is_transit":false,"station_name":"Duren Kalibata","station_id":"DRN","time":2,"i_lat":-6.255332,"distance":824,"transit":false},{"station_name":"Cawang","transit":false,"distance":1546,"line":2,"station_id":"CW","i_lat":-6.242512,"time":3,"i_long":106.856607,"is_transit":false},{"distance":1230,"station_id":"TEB","time":2,"i_long":106.857948,"i_lat":-6.226659,"line":2,"transit":false,"is_transit":false,"station_name":"Tebet"},{"i_long":106.84912,"station_id":"MRI","transit":false,"distance":2610,"line":2,"time":4,"station_name":"Manggarai","i_lat":-6.209883,"is_transit":false},{"is_transit":false,"i_long":106.840169,"line":2,"station_id":"CKI","transit":false,"distance":1590,"station_name":"Cikini","time":4,"i_lat":-6.198556},{"line":2,"time":3,"station_id":"GDD","transit":false,"station_name":"Gondangdia","distance":1750,"i_lat":-6.186295,"is_transit":false,"i_long":106.832183},{"station_id":"JUA","i_long":106.828284,"distance":2015,"line":2,"is_transit":false,"i_lat":-6.166716,"time":4,"station_name":"Juanda","transit":false},{"distance":1149,"i_long":106.827103,"is_transit":false,"time":2,"i_lat":-6.160725,"station_name":"Sawah Besar","line":2,"station_id":"SW","transit":false},{"transit":false,"is_transit":false,"distance":906,"station_id":"MGB","station_name":"Manggabesar","time":2,"i_lat":-6.149769,"i_long":106.82482,"line":2},{"distance":1080,"line":2,"station_id":"JAY","is_transit":false,"i_long":106.820901,"station_name":"Jayakarta","time":2,"i_lat":-6.141205,"transit":false},{"station_id":"JAKK","i_long":106.812439,"time":4,"line":2,"station_name":"Jakarta Kota","distance":1264,"i_lat":-6.137569,"is_transit":true,"transit":true},{"station_id":"KPB","time":3,"distance":1364,"i_long":106.826365,"line":4,"i_lat":-6.132549,"transit":true,"is_transit":true,"station_name":"Kampung Bandan"},{"line":1,"time":9,"i_long":106.79867,"station_id":"AK","station_name":"Angke","distance":4102,"is_transit":false,"transit":false,"i_lat":-6.144674},{"distance":1230,"i_lat":-6.155215,"i_long":106.800832,"station_id":"DU","line":1,"transit":true,"time":4,"is_transit":true,"station_name":"Duri"},{"time":3,"transit":false,"i_lat":-6.162021,"station_name":"Grogol","station_id":"GGL","distance":1700,"line":5,"i_long":106.788277,"is_transit":false},{"is_transit":false,"station_id":"PSG","time":2,"i_long":106.771379,"distance":2036,"transit":false,"station_name":"Pesing","line":5,"i_lat":-6.161433},{"station_name":"Taman Kota","time":2,"station_id":"TKO","transit":false,"is_transit":false,"line":5,"distance":1614,"i_lat":-6.1587309999999995,"i_long":106.756522}],[{"line":2,"time":0,"i_long":106.790574,"transit":false,"distance":0,"is_transit":false,"i_lat":-6.594596,"station_id":"BOO","station_name":"Bogor"},{"transit":false,"is_transit":false,"station_id":"CLT","time":9,"i_lat":-6.530544,"line":2,"i_long":106.800016,"station_name":"Cilebut","distance":7514},{"transit":false,"line":2,"time":5,"i_long":106.792719,"is_transit":false,"station_id":"BJD","station_name":"Bojonggede","distance":4331,"i_lat":-6.493243},{"i_long":106.800298,"transit":false,"distance":5197,"is_transit":false,"line":2,"station_name":"Citayam","i_lat":-6.448811,"time":5,"station_id":"CTA"},{"station_id":"DP","line":2,"distance":5084,"is_transit":false,"transit":false,"station_name":"Depok","i_long":106.816926,"time":6,"i_lat":-6.405256},{"is_transit":false,"transit":false,"distance":1584,"station_id":"DPB","time":3,"station_name":"Depokbaru","i_lat":-6.391065,"i_long":106.819451,"line":2},{"station_id":"POC","station_name":"Pondok Cina","time":4,"distance":2727,"i_long":106.831114,"transit":false,"line":2,"is_transit":false,"i_lat":-6.369073},{"distance":1109,"is_transit":false,"time":2,"line":2,"i_long":106.831474,"station_id":"UI","transit":false,"station_name":"Univ. Indonesia","i_lat":-6.360749},{"time":3,"station_name":"Univ. Pancasila","line":2,"i_long":106.834175,"transit":false,"is_transit":false,"i_lat":-6.339291,"station_id":"UP","distance":2264},{"i_lat":-6.330363,"time":2,"distance":1029,"station_id":"LNA","transit":false,"station_name":"Lenteng Agung","line":2,"is_transit":false,"i_long":106.832616},{"i_long":106.838896,"i_lat":-6.3080680000000005,"distance":2671,"is_transit":false,"transit":false,"time":3,"line":2,"station_name":"Tanjung Barat","station_id":"TNT"},{"station_id":"PSM","time":4,"line":2,"i_lat":-6.2842400000000005,"i_long":106.843999,"station_name":"Pasar Minggu","transit":false,"is_transit":false,"distance":2820},{"i_lat":-6.263214,"time":2,"station_id":"PSMB","transit":false,"distance":2380,"i_long":106.851577,"line":2,"is_transit":false,"station_name":"Pasar Minggu Baru"},{"distance":824,"time":2,"i_lat":-6.255332,"is_transit":false,"station_id":"DRN","station_name":"Duren Kalibata","i_long":106.85449,"transit":false,"line":2},{"station_name":"Cawang","i_long":106.856607,"i_lat":-6.242512,"line":2,"station_id":"CW","time":3,"transit":false,"distance":1546,"is_transit":false},{"time":2,"transit":false,"station_name":"Tebet","i_lat":-6.226659,"station_id":"TEB","i_long":106.857948,"is_transit":false,"distance":1230,"line":2},{"is_transit":true,"station_name":"Manggarai","station_id":"MRI","i_long":106.84912,"time":4,"distance":2610,"i_lat":-6.209883,"transit":true,"line":2},{"transit":false,"station_name":"Matraman","is_transit":false,"time":2,"distance":1275,"i_lat":-6.212485,"i_long":106.858896,"station_id":"MTR","line":1},{"is_transit":true,"station_id":"JNG","i_lat":-6.215091,"station_name":"Jatinegara","distance":1377,"time":8,"i_long":106.86807400000001,"transit":true,"line":1},{"time":2,"distance":1236,"station_name":"Pondok Jati","i_lat":-6.209188,"i_long":106.861737,"station_id":"POK","line":11,"transit":false,"is_transit":false},{"station_id":"KMT","i_lat":-6.193792,"time":2,"station_name":"Kramat","transit":false,"distance":1829,"i_long":106.855437,"line":11,"is_transit":false},{"is_transit":false,"i_long":106.850107,"distance":973,"transit":false,"station_id":"GST","station_name":"Gang Sentiong","i_lat":-6.185975,"time":1,"line":11},{"i_lat":-6.174784,"line":11,"time":8,"i_long":106.84368,"station_id":"PSE","station_name":"Pasar Senen","distance":1567,"is_transit":false,"transit":false},{"distance":1436,"line":11,"is_transit":false,"transit":false,"station_name":"Kemayoran","i_lat":-6.161728,"time":4,"station_id":"KMO","i_long":106.839204},{"i_long":106.836569,"is_transit":false,"distance":1901,"time":5,"line":11,"station_id":"RJW","station_name":"Rajawali","i_lat":-6.14505,"transit":false},{"transit":true,"station_name":"Kampung Bandan","distance":1444,"time":3,"i_lat":-6.132549,"line":4,"is_transit":true,"i_long":106.826365,"station_id":"KPB"},{"i_long":106.79867,"time":9,"is_transit":false,"line":1,"distance":4102,"station_id":"AK","i_lat":-6.144674,"station_name":"Angke","transit":false},{"station_name":"Duri","is_transit":true,"time":4,"i_long":106.800832,"line":1,"i_lat":-6.155215,"transit":true,"distance":1230,"station_id":"DU"},{"time":3,"station_id":"GGL","line":5,"station_name":"Grogol","i_long":106.788277,"is_transit":false,"distance":1700,"i_lat":-6.162021,"transit":false},{"time":2,"station_name":"Pesing","i_long":106.771379,"line":5,"is_transit":false,"transit":false,"station_id":"PSG","distance":2036,"i_lat":-6.161433},{"i_long":106.756522,"i_lat":-6.1587309999999995,"is_transit":false,"distance":1614,"transit":false,"station_name":"Taman Kota","time":2,"line":5,"station_id":"TKO"}]]}