{"data":[[{"i_lat":-6.594596,"is_transit":true,"time":0,"i_long":106.790574,"distance":0,"transit":false,"station_name":"Bogor","station_id":"BOO","line":1},{"station_id":"CLT","line":0,"time":9,"station_name":"Cilebut","i_lat":-6.530544,"is_transit":false,"transit":false,"i_long":106.800016,"distance":7514},{"time":5,"station_name":"Bojonggede","i_lat":-6.493243,"distance":4331,"i_long":106.792719,"line":0,"station_id":"BJD","transit":false,"is_transit":false},{"i_long":106.800298,"transit":false,"is_transit":true,"station_id":"CTA","distance":5197,"station_name":"Citayam","line":1,"time":5,"i_lat":-6.448811},{"line":0,"i_long":106.816926,"distance":5084,"station_name":"Depok","transit":false,"station_id":"DP","time":6,"is_transit":false,"i_lat":-6.405256},{"time":3,"line":0,"i_lat":-6.391065,"station_id":"DPB","is_transit":false,"i_long":106.819451,"transit":false,"distance":1584,"station_name":"Depokbaru"},{"transit":false,"station_id":"POC","time":4,"i_long":106.831114,"distance":2727,"is_transit":false,"station_name":"Pondok Cina","i_lat":-6.369073,"line":2},{"is_transit":false,"time":2,"station_name":"Univ. Indonesia","transit":false,"distance":1109,"i_lat":-6.360749,"line":2,"i_long":106.831474,"station_id":"UI"},{"i_lat":-6.339291,"line":2,"time":3,"is_transit":false,"distance":2264,"i_long":106.834175,"station_name":"Univ. Pancasila","transit":false,"station_id":"UP"},{"station_id":"LNA","is_transit":false,"transit":false,"distance":1029,"station_name":"Lenteng Agung","i_lat":-6.330363,"time":2,"i_long":106.832616,"line":2},{"station_name":"Tanjung Barat","time":3,"i_lat":-6.3080680000000005,"transit":false,"line":2,"station_id":"TNT","i_long":106.838896,"is_transit":false,"distance":2671},{"distance":2820,"line":2,"station_name":"Pasar Minggu","station_id":"PSM","i_lat":-6.2842400000000005,"i_long":106.843999,"is_transit":false,"transit":false,"time":4},{"time":2,"station_name":"Pasar Minggu Baru","is_transit":false,"i_lat":-6.263214,"i_long":106.851577,"transit":false,"line":2,"distance":2380,"station_id":"PSMB"},{"time":2,"line":0,"station_name":"Duren Kalibata","i_lat":-6.255332,"is_transit":false,"station_id":"DRN","transit":false,"i_long":106.85449,"distance":824},{"i_long":106.856607,"distance":1546,"time":3,"transit":false,"line":0,"station_id":"CW","is_transit":false,"i_lat":-6.242512,"station_name":"Cawang"},{"station_id":"TEB","station_name":"Tebet","transit":false,"line":2,"is_transit":false,"distance":1230,"i_long":106.857948,"i_lat":-6.226659,"time":2},{"station_id":"MRI","line":0,"time":4,"station_name":"Manggarai","i_lat":-6.209883,"is_transit":true,"i_long":106.84912,"transit":true,"distance":2610},{"i_lat":-6.202263,"station_id":"SUD","time":4,"transit":false,"i_long":106.822649,"distance":3186,"is_transit":false,"station_name":"Sudirman","line":1},{"i_long":106.819881,"time":1,"distance":280,"transit":false,"is_transit":false,"line":1,"station_id":"SUDB","station_name":"Sudirman Baru","i_lat":-6.201433},{"station_name":"Karet","is_transit":false,"line":1,"distance":471,"transit":false,"station_id":"KAT","i_lat":-6.20132,"i_long":106.816351,"time":1},{"station_name":"Tanah Abang","distance":2029,"i_lat":-6.185545,"is_transit":true,"time":5,"i_long":106.811091,"line":1,"transit":false,"station_id":"THB"},{"distance":3632,"line":1,"station_name":"Duri","is_transit":true,"i_lat":-6.155215,"station_id":"DU","transit":true,"time":8,"i_long":106.800832},{"time":3,"distance":1700,"line":5,"transit":false,"i_long":106.788277,"station_id":"GGL","is_transit":false,"station_name":"Grogol","i_lat":-6.162021},{"line":5,"transit":false,"station_id":"PSG","i_long":106.771379,"i_lat":-6.161433,"distance":2036,"time":2,"is_transit":false,"station_name":"Pesing"},{"distance":1614,"i_lat":-6.1587309999999995,"line":5,"station_id":"TKO","transit":false,"is_transit":false,"station_name":"Taman Kota","i_long":106.756522,"time":2},{"i_lat":-6.159876,"i_long":106.737035,"distance":2334,"station_id":"BOI","time":2,"station_name":"Bojongindah","transit":false,"line":0,"is_transit":false},{"i_long":106.723064,"transit":false,"i_lat":-6.162758,"line":5,"distance":1152,"is_transit":false,"station_id":"RW","station_name":"Rawa Buaya","time":4}],[{"station_id":"BOO","transit":false,"line":1,"i_long":106.790574,"is_transit":true,"time":0,"i_lat":-6.594596,"distance":0,"station_name":"Bogor"},{"station_name":"Cilebut","i_lat":-6.530544,"is_transit":false,"time":9,"station_id":"CLT","distance":7514,"i_long":106.800016,"line":0,"transit":false},{"i_long":106.792719,"transit":false,"i_lat":-6.493243,"is_transit":false,"line":0,"station_id":"BJD","time":5,"distance":4331,"station_name":"Bojonggede"},{"station_name":"Citayam","time":5,"i_long":106.800298,"line":1,"is_transit":true,"distance":5197,"i_lat":-6.448811,"transit":false,"station_id":"CTA"},{"line":0,"distance":5084,"station_name":"Depok","time":6,"station_id":"DP","transit":false,"i_lat":-6.405256,"is_transit":false,"i_long":106.816926},{"line":0,"distance":1584,"time":3,"transit":false,"station_id":"DPB","is_transit":false,"i_lat":-6.391065,"station_name":"Depokbaru","i_long":106.819451},{"is_transit":false,"station_name":"Pondok Cina","transit":false,"distance":2727,"station_id":"POC","i_lat":-6.369073,"line":2,"i_long":106.831114,"time":4},{"i_lat":-6.360749,"station_id":"UI","is_transit":false,"station_name":"Univ. Indonesia","distance":1109,"transit":false,"i_long":106.831474,"line":2,"time":2},{"time":3,"station_id":"UP","distance":2264,"station_name":"Univ. Pancasila","transit":false,"i_lat":-6.339291,"is_transit":false,"i_long":106.834175,"line":2},{"station_name":"Lenteng Agung","time":2,"is_transit":false,"transit":false,"line":2,"station_id":"LNA","i_long":106.832616,"distance":1029,"i_lat":-6.330363},{"time":3,"distance":2671,"i_long":106.838896,"line":2,"is_transit":false,"station_id":"TNT","station_name":"Tanjung Barat","transit":false,"i_lat":-6.3080680000000005},{"station_id":"PSM","line":2,"i_lat":-6.2842400000000005,"i_long":106.843999,"transit":false,"distance":2820,"is_transit":false,"time":4,"station_name":"Pasar Minggu"},{"station_id":"PSMB","i_lat":-6.263214,"transit":false,"time":2,"i_long":106.851577,"is_transit":false,"line":2,"distance":2380,"station_name":"Pasar Minggu Baru"},{"distance":824,"station_name":"Duren Kalibata","i_lat":-6.255332,"line":0,"transit":false,"time":2,"i_long":106.85449,"station_id":"DRN","is_transit":false},{"distance":1546,"station_id":"CW","is_transit":false,"station_name":"Cawang","i_long":106.856607,"i_lat":-6.242512,"line":0,"time":3,"transit":false},{"station_id":"TEB","transit":false,"distance":1230,"time":2,"i_lat":-6.226659,"line":2,"is_transit":false,"i_long":106.857948,"station_name":"Tebet"},{"transit":true,"i_lat":-6.209883,"i_long":106.84912,"station_id":"MRI","is_transit":true,"line":0,"distance":2610,"station_name":"Manggarai","time":4},{"station_id":"CKI","transit":false,"is_transit":false,"station_name":"Cikini","line":0,"time":4,"distance":1590,"i_long":106.840169,"i_lat":-6.198556},{"is_transit":false,"station_name":"Gondangdia","i_long":106.832183,"transit":false,"time":3,"i_lat":-6.186295,"line":2,"distance":1750,"station_id":"GDD"},{"transit":false,"station_name":"Juanda","line":2,"station_id":"JUA","is_transit":false,"time":4,"i_lat":-6.166716,"i_long":106.828284,"distance":2015},{"station_name":"Sawah Besar","i_long":106.827103,"transit":false,"station_id":"SW","time":2,"i_lat":-6.160725,"line":2,"is_transit":false,"distance":1149},{"time":2,"distance":906,"i_lat":-6.149769,"transit":false,"line":2,"i_long":106.82482,"is_transit":false,"station_name":"Manggabesar","station_id":"MGB"},{"is_transit":false,"station_name":"Jayakarta","distance":1080,"transit":false,"time":2,"line":7,"i_lat":-6.141205,"i_long":106.820901,"station_id":"JAY"},{"distance":1264,"station_name":"Jakarta Kota","time":4,"station_id":"JAKK","transit":true,"i_lat":-6.137569,"is_transit":true,"i_long":106.812439,"line":0},{"i_long":106.826365,"time":3,"distance":1364,"transit":false,"station_name":"Kampung Bandan","station_id":"KPB","is_transit":true,"i_lat":-6.132549,"line":0},{"line":0,"is_transit":false,"station_id":"AK","i_long":106.79867,"transit":false,"i_lat":-6.144674,"station_name":"Angke","time":9,"distance":4102},{"line":1,"station_name":"Duri","is_transit":true,"station_id":"DU","transit":true,"i_lat":-6.155215,"distance":1230,"time":4,"i_long":106.800832},{"station_id":"GGL","distance":1700,"i_long":106.788277,"station_name":"Grogol","is_transit":false,"time":3,"transit":false,"i_lat":-6.162021,"line":5},{"distance":2036,"station_id":"PSG","i_lat":-6.161433,"time":2,"station_name":"Pesing","is_transit":false,"transit":false,"i_long":106.771379,"line":5},{"i_long":106.756522,"station_id":"TKO","line":5,"time":2,"is_transit":false,"distance":1614,"station_name":"Taman Kota","i_lat":-6.1587309999999995,"transit":false},{"is_transit":false,"i_lat":-6.159876,"time":2,"distance":2334,"transit":false,"i_long":106.737035,"line":0,"station_id":"BOI","station_name":"Bojongindah"},{"station_id":"RW","time":4,"i_lat":-6.162758,"transit":false,"i_long":106.723064,"distance":1152,"line":5,"is_transit":false,"station_name":"Rawa Buaya"}],[{"i_lat":-6.594596,"i_long":106.790574,"time":0,"line":1,"station_id":"BOO","station_name":"Bogor","is_transit":true,"distance":0,"transit":false},{"transit":false,"station_id":"CLT","i_lat":-6.530544,"is_transit":false,"time":9,"distance":7514,"line":0,"i_long":106.800016,"station_name":"Cilebut"},{"line":0,"i_long":106.792719,"distance":4331,"i_lat":-6.493243,"station_id":"BJD","time":5,"station_name":"Bojonggede","is_transit":false,"transit":false},{"station_name":"Citayam","is_transit":true,"line":1,"distance":5197,"i_long":106.800298,"transit":false,"station_id":"CTA","time":5,"i_lat":-6.448811},{"time":6,"station_id":"DP","distance":5084,"station_name":"Depok","transit":false,"is_transit":false,"line":0,"i_long":106.816926,"i_lat":-6.405256},{"i_lat":-6.391065,"line":0,"distance":1584,"transit":false,"is_transit":false,"station_name":"Depokbaru","station_id":"DPB","time":3,"i_long":106.819451},{"i_long":106.831114,"station_name":"Pondok Cina","is_transit":false,"transit":false,"line":2,"i_lat":-6.369073,"station_id":"POC","distance":2727,"time":4},{"i_lat":-6.360749,"line":2,"is_transit":false,"distance":1109,"time":2,"transit":false,"i_long":106.831474,"station_id":"UI","station_name":"Univ. Indonesia"},{"i_lat":-6.339291,"distance":2264,"station_name":"Univ. Pancasila","i_long":106.834175,"line":2,"time":3,"is_transit":false,"transit":false,"station_id":"UP"},{"station_id":"LNA","distance":1029,"is_transit":false,"transit":false,"station_name":"Lenteng Agung","i_long":106.832616,"time":2,"line":2,"i_lat":-6.330363},{"distance":2671,"i_long":106.838896,"station_id":"TNT","time":3,"line":2,"is_transit":false,"transit":false,"station_name":"Tanjung Barat","i_lat":-6.3080680000000005},{"is_transit":false,"line":2,"station_id":"PSM","station_name":"Pasar Minggu","i_lat":-6.2842400000000005,"distance":2820,"time":4,"transit":false,"i_long":106.843999},{"distance":2380,"i_long":106.851577,"is_transit":false,"transit":false,"i_lat":-6.263214,"line":2,"station_name":"Pasar Minggu Baru","station_id":"PSMB","time":2},{"time":2,"i_long":106.85449,"station_name":"Duren Kalibata","line":0,"transit":false,"i_lat":-6.255332,"is_transit":false,"distance":824,"station_id":"DRN"},{"distance":1546,"line":0,"is_transit":false,"i_long":106.856607,"station_id":"CW","time":3,"transit":false,"station_name":"Cawang","i_lat":-6.242512},{"station_id":"TEB","transit":false,"i_lat":-6.226659,"line":2,"time":2,"is_transit":false,"station_name":"Tebet","distance":1230,"i_long":106.857948},{"i_lat":-6.209883,"is_transit":true,"time":4,"distance":2610,"line":0,"station_name":"Manggarai","station_id":"MRI","transit":true,"i_long":106.84912},{"i_long":106.858896,"is_transit":false,"distance":1275,"station_name":"Matraman","transit":false,"line":1,"station_id":"MTR","time":2,"i_lat":-6.212485},{"time":8,"line":0,"distance":1377,"station_id":"JNG","i_lat":-6.215091,"i_long":106.86807400000001,"is_transit":true,"transit":true,"station_name":"Jatinegara"},{"time":2,"distance":1236,"i_lat":-6.209188,"transit":false,"is_transit":false,"station_id":"POK","station_name":"Pondok Jati","i_long":106.861737,"line":11},{"i_long":106.855437,"line":11,"distance":1829,"i_lat":-6.193792,"station_id":"KMT","station_name":"Kramat","transit":false,"is_transit":false,"time":2},{"i_long":106.850107,"station_name":"Gang Sentiong","distance":973,"line":11,"station_id":"GST","is_transit":false,"transit":false,"i_lat":-6.185975,"time":1},{"transit":false,"distance":1567,"time":8,"station_id":"PSE","i_long":106.84368,"is_transit":false,"i_lat":-6.174784,"line":11,"station_name":"Pasar Senen"},{"distance":1436,"i_long":106.839204,"time":4,"is_transit":false,"transit":false,"line":11,"station_id":"KMO","station_name":"Kemayoran","i_lat":-6.161728},{"station_id":"RJW","time":5,"i_lat":-6.14505,"station_name":"Rajawali","is_transit":false,"distance":1901,"i_long":106.836569,"line":11,"transit":false},{"station_id":"KPB","distance":1444,"transit":true,"i_long":106.826365,"station_name":"Kampung Bandan","i_lat":-6.132549,"line":0,"time":3,"is_transit":true},{"i_long":106.79867,"time":9,"distance":4102,"station_id":"AK","line":0,"i_lat":-6.144674,"is_transit":false,"station_name":"Angke","transit":false},{"distance":1230,"is_transit":true,"station_name":"Duri","line":1,"transit":true,"i_lat":-6.155215,"i_long":106.800832,"time":4,"station_id":"DU"},{"line":5,"is_transit":false,"time":3,"station_name":"Grogol","station_id":"GGL","distance":1700,"transit":false,"i_lat":-6.162021,"i_long":106.788277},{"i_lat":-6.161433,"i_long":106.771379,"distance":2036,"station_id":"PSG","is_transit":false,"transit":false,"time":2,"station_name":"Pesing","line":5},{"station_name":"Taman Kota","i_lat":-6.1587309999999995,"distance":1614,"transit":false,"time":2,"is_transit":false,"i_long":106.756522,"line":5,"station_id":"TKO"},{"transit":false,"time":2,"is_transit":false,"distance":2334,"station_name":"Bojongindah","line":0,"station_id":"BOI","i_lat":-6.159876,"i_long":106.737035},{"transit":false,"i_lat":-6.162758,"station_id":"RW","i_long":106.723064,"is_transit":false,"distance":1152,"station_name":"Rawa Buaya","line":5,"time":4}]]}