{"data":[[{"distance":0,"is_transit":false,"station_name":"Bogor","time":0,"line":2,"transit":false,"i_long":106.790574,"i_lat":-6.594596,"station_id":"BOO"},{"transit":false,"i_long":106.800016,"distance":7514,"is_transit":false,"station_id":"CLT","i_lat":-6.530544,"line":2,"station_name":"Cilebut","time":9},{"time":5,"station_name":"Bojonggede","i_long":106.792719,"distance":4331,"station_id":"BJD","line":2,"is_transit":false,"transit":false,"i_lat":-6.493243},{"station_id":"CTA","distance":5197,"station_name":"Citayam","i_lat":-6.448811,"i_long":106.800298,"transit":false,"time":5,"line":2,"is_transit":false},{"i_long":106.816926,"time":6,"station_id":"DP","distance":5084,"transit":false,"is_transit":false,"i_lat":-6.405256,"station_name":"Depok","line":2},{"time":3,"i_lat":-6.391065,"station_name":"Depokbaru","station_id":"DPB","distance":1584,"transit":false,"i_long":106.819451,"is_transit":false,"line":2},{"i_lat":-6.369073,"i_long":106.831114,"distance":2727,"station_name":"Pondok Cina","line":2,"station_id":"POC","transit":false,"is_transit":false,"time":4},{"i_long":106.831474,"time":2,"line":2,"is_transit":false,"station_name":"Univ. Indonesia","transit":false,"station_id":"UI","i_lat":-6.360749,"distance":1109},{"station_name":"Univ. Pancasila","time":3,"i_lat":-6.339291,"transit":false,"station_id":"UP","is_transit":false,"distance":2264,"i_long":106.834175,"line":2},{"distance":1029,"station_id":"LNA","time":2,"i_long":106.832616,"i_lat":-6.330363,"is_transit":false,"line":2,"station_name":"Lenteng Agung","transit":false},{"station_name":"Tanjung Barat","i_lat":-6.3080680000000005,"i_long":106.838896,"station_id":"TNT","transit":false,"is_transit":false,"distance":2671,"time":3,"line":2},{"i_lat":-6.2842400000000005,"line":2,"i_long":106.843999,"transit":false,"station_name":"Pasar Minggu","station_id":"PSM","is_transit":false,"time":4,"distance":2820},{"time":2,"distance":2380,"station_id":"PSMB","transit":false,"i_long":106.851577,"station_name":"Pasar Minggu Baru","is_transit":false,"i_lat":-6.263214,"line":2},{"station_id":"DRN","distance":824,"station_name":"Duren Kalibata","is_transit":false,"i_lat":-6.255332,"i_long":106.85449,"line":2,"transit":false,"time":2},{"station_name":"Cawang","is_transit":false,"time":3,"i_lat":-6.242512,"transit":false,"line":2,"i_long":106.856607,"station_id":"CW","distance":1546},{"station_id":"TEB","time":2,"distance":1230,"line":2,"i_lat":-6.226659,"station_name":"Tebet","transit":false,"is_transit":false,"i_long":106.857948},{"station_name":"Manggarai","is_transit":true,"time":4,"transit":true,"station_id":"MRI","distance":2610,"i_lat":-6.209883,"i_long":106.84912,"line":2},{"station_id":"SUD","i_long":106.822649,"distance":3186,"time":4,"i_lat":-6.202263,"line":1,"is_transit":false,"transit":false,"station_name":"Sudirman"},{"station_name":"Sudirman Baru","is_transit":false,"distance":280,"time":1,"i_long":106.819881,"line":1,"station_id":"SUDB","transit":false,"i_lat":-6.201433}],[{"transit":false,"station_name":"Bogor","is_transit":false,"time":0,"i_long":106.790574,"line":2,"distance":0,"i_lat":-6.594596,"station_id":"BOO"},{"time":9,"line":2,"station_name":"Cilebut","station_id":"CLT","is_transit":false,"i_long":106.800016,"distance":7514,"i_lat":-6.530544,"transit":false},{"i_long":106.792719,"line":2,"station_name":"Bojonggede","transit":false,"time":5,"station_id":"BJD","distance":4331,"is_transit":false,"i_lat":-6.493243},{"i_lat":-6.448811,"station_name":"Citayam","station_id":"CTA","is_transit":false,"time":5,"transit":false,"i_long":106.800298,"line":2,"distance":5197},{"station_id":"DP","transit":false,"is_transit":false,"station_name":"Depok","time":6,"distance":5084,"i_long":106.816926,"line":2,"i_lat":-6.405256},{"line":2,"time":3,"station_name":"Depokbaru","station_id":"DPB","i_long":106.819451,"transit":false,"distance":1584,"i_lat":-6.391065,"is_transit":false},{"line":2,"i_long":106.831114,"station_name":"Pondok Cina","transit":false,"is_transit":false,"distance":2727,"time":4,"i_lat":-6.369073,"station_id":"POC"},{"i_lat":-6.360749,"line":2,"i_long":106.831474,"transit":false,"is_transit":false,"distance":1109,"station_name":"Univ. Indonesia","time":2,"station_id":"UI"},{"time":3,"distance":2264,"i_long":106.834175,"station_id":"UP","i_lat":-6.339291,"transit":false,"station_name":"Univ. Pancasila","is_transit":false,"line":2},{"i_long":106.832616,"station_name":"Lenteng Agung","is_transit":false,"distance":1029,"station_id":"LNA","time":2,"i_lat":-6.330363,"transit":false,"line":2},{"station_id":"TNT","station_name":"Tanjung Barat","line":2,"transit":false,"time":3,"is_transit":false,"i_long":106.838896,"i_lat":-6.3080680000000005,"distance":2671},{"is_transit":false,"line":2,"station_name":"Pasar Minggu","time":4,"transit":false,"station_id":"PSM","distance":2820,"i_lat":-6.2842400000000005,"i_long":106.843999},{"transit":false,"is_transit":false,"i_lat":-6.263214,"station_name":"Pasar Minggu Baru","i_long":106.851577,"line":2,"station_id":"PSMB","time":2,"distance":2380},{"transit":false,"is_transit":false,"i_lat":-6.255332,"station_id":"DRN","distance":824,"line":2,"i_long":106.85449,"time":2,"station_name":"Duren Kalibata"},{"station_id":"CW","is_transit":false,"i_lat":-6.242512,"distance":1546,"transit":false,"i_long":106.856607,"line":2,"time":3,"station_name":"Cawang"},{"i_lat":-6.226659,"station_name":"Tebet","is_transit":false,"distance":1230,"line":2,"i_long":106.857948,"transit":false,"station_id":"TEB","time":2},{"i_long":106.84912,"is_transit":false,"transit":false,"i_lat":-6.209883,"distance":2610,"station_id":"MRI","station_name":"Manggarai","time":4,"line":2},{"line":2,"station_name":"Cikini","station_id":"CKI","transit":false,"distance":1590,"time":4,"i_long":106.840169,"is_transit":false,"i_lat":-6.198556},{"i_long":106.832183,"line":2,"time":3,"transit":false,"station_id":"GDD","station_name":"Gondangdia","is_transit":false,"distance":1750,"i_lat":-6.186295},{"station_id":"JUA","is_transit":false,"i_lat":-6.166716,"distance":2015,"time":4,"i_long":106.828284,"line":2,"transit":false,"station_name":"Juanda"},{"station_name":"Sawah Besar","station_id":"SW","i_lat":-6.160725,"time":2,"is_transit":false,"line":2,"distance":1149,"i_long":106.827103,"transit":false},{"is_transit":false,"time":2,"i_long":106.82482,"distance":906,"station_name":"Manggabesar","transit":false,"i_lat":-6.149769,"line":2,"station_id":"MGB"},{"transit":false,"i_lat":-6.141205,"line":2,"i_long":106.820901,"distance":1080,"is_transit":false,"time":2,"station_name":"Jayakarta","station_id":"JAY"},{"distance":1264,"time":4,"transit":true,"is_transit":true,"station_name":"Jakarta Kota","station_id":"JAKK","i_long":106.812439,"line":2,"i_lat":-6.137569},{"distance":1364,"i_long":106.826365,"time":3,"i_lat":-6.132549,"transit":true,"station_name":"Kampung Bandan","station_id":"KPB","line":4,"is_transit":true},{"distance":4102,"transit":false,"time":9,"station_name":"Angke","station_id":"AK","i_lat":-6.144674,"i_long":106.79867,"line":1,"is_transit":false},{"time":4,"distance":1230,"i_lat":-6.155215,"transit":false,"station_name":"Duri","station_id":"DU","line":1,"is_transit":false,"i_long":106.800832},{"station_name":"Tanah Abang","distance":3632,"i_lat":-6.185545,"is_transit":false,"time":8,"station_id":"THB","transit":false,"i_long":106.811091,"line":1},{"i_long":106.816351,"line":1,"i_lat":-6.20132,"is_transit":false,"transit":false,"distance":2029,"time":5,"station_name":"Karet","station_id":"KAT"},{"i_lat":-6.201433,"is_transit":false,"transit":false,"time":1,"station_id":"SUDB","line":1,"distance":471,"station_name":"Sudirman Baru","i_long":106.819881}],[{"is_transit":false,"station_name":"Bogor","time":0,"transit":false,"distance":0,"i_lat":-6.594596,"i_long":106.790574,"line":2,"station_id":"BOO"},{"distance":7514,"i_long":106.800016,"i_lat":-6.530544,"line":2,"station_name":"Cilebut","transit":false,"is_transit":false,"time":9,"station_id":"CLT"},{"distance":4331,"transit":false,"station_id":"BJD","i_long":106.792719,"is_transit":false,"time":5,"i_lat":-6.493243,"line":2,"station_name":"Bojonggede"},{"station_id":"CTA","time":5,"i_lat":-6.448811,"is_transit":false,"distance":5197,"line":2,"transit":false,"station_name":"Citayam","i_long":106.800298},{"distance":5084,"i_lat":-6.405256,"i_long":106.816926,"line":2,"station_id":"DP","transit":false,"station_name":"Depok","time":6,"is_transit":false},{"is_transit":false,"i_lat":-6.391065,"i_long":106.819451,"station_name":"Depokbaru","time":3,"line":2,"distance":1584,"transit":false,"station_id":"DPB"},{"station_id":"POC","distance":2727,"line":2,"i_lat":-6.369073,"i_long":106.831114,"station_name":"Pondok Cina","is_transit":false,"time":4,"transit":false},{"station_name":"Univ. Indonesia","is_transit":false,"station_id":"UI","distance":1109,"i_long":106.831474,"line":2,"transit":false,"time":2,"i_lat":-6.360749},{"i_lat":-6.339291,"time":3,"distance":2264,"i_long":106.834175,"station_name":"Univ. Pancasila","is_transit":false,"transit":false,"line":2,"station_id":"UP"},{"is_transit":false,"distance":1029,"transit":false,"time":2,"line":2,"station_name":"Lenteng Agung","i_long":106.832616,"station_id":"LNA","i_lat":-6.330363},{"distance":2671,"line":2,"station_id":"TNT","transit":false,"station_name":"Tanjung Barat","i_lat":-6.3080680000000005,"is_transit":false,"time":3,"i_long":106.838896},{"station_id":"PSM","i_long":106.843999,"station_name":"Pasar Minggu","i_lat":-6.2842400000000005,"time":4,"line":2,"distance":2820,"is_transit":false,"transit":false},{"station_name":"Pasar Minggu Baru","distance":2380,"i_lat":-6.263214,"is_transit":false,"line":2,"station_id":"PSMB","time":2,"i_long":106.851577,"transit":false},{"distance":824,"station_id":"DRN","station_name":"Duren Kalibata","line":2,"is_transit":false,"transit":false,"time":2,"i_long":106.85449,"i_lat":-6.255332},{"time":3,"is_transit":false,"i_long":106.856607,"i_lat":-6.242512,"transit":false,"station_id":"CW","line":2,"station_name":"Cawang","distance":1546},{"i_long":106.857948,"station_id":"TEB","i_lat":-6.226659,"transit":false,"is_transit":false,"station_name":"Tebet","time":2,"distance":1230,"line":2},{"distance":2610,"i_long":106.84912,"transit":true,"is_transit":true,"station_name":"Manggarai","i_lat":-6.209883,"station_id":"MRI","line":2,"time":4},{"line":1,"distance":1275,"transit":false,"is_transit":false,"station_name":"Matraman","station_id":"MTR","i_lat":-6.212485,"i_long":106.858896,"time":2},{"time":8,"distance":1377,"station_id":"JNG","is_transit":true,"line":1,"transit":true,"i_lat":-6.215091,"station_name":"Jatinegara","i_long":106.86807400000001},{"station_name":"Pondok Jati","i_long":106.861737,"distance":1236,"transit":false,"line":11,"station_id":"POK","is_transit":false,"time":2,"i_lat":-6.209188},{"station_name":"Kramat","time":2,"is_transit":false,"i_long":106.855437,"line":11,"distance":1829,"transit":false,"i_lat":-6.193792,"station_id":"KMT"},{"distance":973,"station_name":"Gang Sentiong","time":1,"i_lat":-6.185975,"transit":false,"line":11,"station_id":"GST","is_transit":false,"i_long":106.850107},{"station_id":"PSE","line":11,"is_transit":false,"i_long":106.84368,"distance":1567,"transit":false,"station_name":"Pasar Senen","time":8,"i_lat":-6.174784},{"is_transit":false,"i_long":106.839204,"transit":false,"time":4,"station_name":"Kemayoran","distance":1436,"station_id":"KMO","i_lat":-6.161728,"line":11},{"is_transit":false,"line":11,"i_long":106.836569,"time":5,"transit":false,"i_lat":-6.14505,"station_id":"RJW","station_name":"Rajawali","distance":1901},{"i_long":106.826365,"station_id":"KPB","station_name":"Kampung Bandan","transit":true,"time":3,"distance":1444,"i_lat":-6.132549,"line":4,"is_transit":true},{"i_lat":-6.144674,"distance":4102,"station_name":"Angke","time":9,"transit":false,"line":1,"i_long":106.79867,"station_id":"AK","is_transit":false},{"transit":false,"line":1,"i_lat":-6.155215,"is_transit":false,"distance":1230,"station_id":"DU","time":4,"station_name":"Duri","i_long":106.800832},{"distance":3632,"time":8,"transit":false,"is_transit":false,"i_lat":-6.185545,"i_long":106.811091,"line":1,"station_id":"THB","station_name":"Tanah Abang"},{"is_transit":false,"station_id":"KAT","i_long":106.816351,"transit":false,"distance":2029,"station_name":"Karet","i_lat":-6.20132,"line":1,"time":5},{"i_long":106.819881,"station_id":"SUDB","i_lat":-6.201433,"time":1,"distance":471,"is_transit":false,"line":1,"transit":false,"station_name":"Sudirman Baru"}]]}