{"data":[[{"time":0,"i_long":106.790574,"station_id":"BOO","station_name":"Bogor","distance":0,"line":2,"i_lat":-6.594596,"transit":false,"is_transit":false},{"transit":false,"station_name":"Cilebut","station_id":"CLT","time":9,"i_lat":-6.530544,"is_transit":false,"i_long":106.800016,"line":2,"distance":7514},{"line":2,"transit":false,"time":5,"station_id":"BJD","i_lat":-6.493243,"station_name":"Bojonggede","is_transit":false,"distance":4331,"i_long":106.792719},{"i_long":106.800298,"line":2,"station_name":"Citayam","is_transit":false,"station_id":"CTA","transit":false,"time":5,"i_lat":-6.448811,"distance":5197},{"station_id":"DP","is_transit":false,"transit":false,"time":6,"i_lat":-6.405256,"distance":5084,"i_long":106.816926,"line":2,"station_name":"Depok"},{"i_lat":-6.391065,"i_long":106.819451,"distance":1584,"line":2,"station_name":"Depokbaru","transit":false,"station_id":"DPB","is_transit":false,"time":3},{"i_lat":-6.369073,"transit":false,"distance":2727,"time":4,"station_name":"Pondok Cina","i_long":106.831114,"station_id":"POC","line":2,"is_transit":false},{"time":2,"i_long":106.831474,"station_name":"Univ. Indonesia","i_lat":-6.360749,"transit":false,"station_id":"UI","distance":1109,"line":2,"is_transit":false},{"station_id":"UP","station_name":"Univ. Pancasila","time":3,"line":2,"is_transit":false,"i_long":106.834175,"i_lat":-6.339291,"transit":false,"distance":2264},{"transit":false,"distance":1029,"is_transit":false,"i_lat":-6.330363,"time":2,"station_id":"LNA","i_long":106.832616,"line":2,"station_name":"Lenteng Agung"},{"i_lat":-6.3080680000000005,"transit":false,"is_transit":false,"time":3,"i_long":106.838896,"station_name":"Tanjung Barat","station_id":"TNT","line":2,"distance":2671},{"transit":false,"line":2,"time":4,"distance":2820,"is_transit":false,"i_lat":-6.2842400000000005,"station_id":"PSM","i_long":106.843999,"station_name":"Pasar Minggu"},{"i_lat":-6.263214,"transit":false,"i_long":106.851577,"station_id":"PSMB","station_name":"Pasar Minggu Baru","distance":2380,"line":2,"is_transit":false,"time":2},{"transit":false,"station_id":"DRN","is_transit":false,"distance":824,"i_lat":-6.255332,"i_long":106.85449,"station_name":"Duren Kalibata","line":2,"time":2},{"i_lat":-6.242512,"line":2,"station_name":"Cawang","transit":false,"is_transit":false,"i_long":106.856607,"time":3,"distance":1546,"station_id":"CW"},{"transit":false,"i_lat":-6.226659,"line":2,"station_id":"TEB","is_transit":false,"distance":1230,"i_long":106.857948,"time":2,"station_name":"Tebet"},{"distance":2610,"time":4,"i_lat":-6.209883,"i_long":106.84912,"line":2,"transit":true,"is_transit":true,"station_name":"Manggarai","station_id":"MRI"},{"distance":3186,"station_id":"SUD","line":1,"transit":false,"station_name":"Sudirman","time":4,"i_lat":-6.202263,"is_transit":false,"i_long":106.822649},{"line":1,"transit":false,"station_name":"Sudirman Baru","distance":280,"station_id":"SUDB","i_lat":-6.201433,"i_long":106.819881,"time":1,"is_transit":false},{"distance":471,"station_id":"KAT","time":1,"station_name":"Karet","i_long":106.816351,"line":1,"transit":false,"is_transit":false,"i_lat":-6.20132},{"time":5,"station_id":"THB","i_long":106.811091,"i_lat":-6.185545,"line":1,"transit":true,"station_name":"Tanah Abang","is_transit":true,"distance":2029},{"transit":false,"is_transit":false,"station_id":"PLM","i_long":106.79689,"station_name":"Palmerah","time":6,"i_lat":-6.207404,"line":6,"distance":3191},{"is_transit":false,"i_lat":-6.237242,"line":6,"transit":false,"station_name":"Kebayoran","station_id":"KBY","time":7,"distance":3737,"i_long":106.780334},{"line":6,"transit":false,"is_transit":false,"time":8,"distance":6218,"i_long":106.74273,"station_id":"PDJ","station_name":"Pondokranji","i_lat":-6.276362},{"time":3,"i_lat":-6.288927,"distance":2179,"station_name":"Jurangmangu","line":6,"i_long":106.728916,"transit":false,"station_id":"JMU","is_transit":false},{"transit":false,"is_transit":false,"station_name":"Sudimara","i_lat":-6.296963,"station_id":"SDM","line":6,"time":4,"i_long":106.712277,"distance":1994},{"i_long":106.675475,"station_id":"RU","is_transit":false,"time":6,"i_lat":-6.314823,"station_name":"Rawa Buntu","transit":false,"distance":4566,"line":6},{"i_long":106.66566,"is_transit":false,"station_name":"Serpong","transit":false,"distance":2413,"time":4,"i_lat":-6.319871,"line":6,"station_id":"SRP"},{"distance":1784,"i_long":106.640411,"is_transit":false,"transit":false,"station_id":"CSK","i_lat":-6.32484,"line":3,"time":4,"station_name":"Cisauk"},{"distance":2519,"station_id":"CC","time":4,"station_name":"Cicayur","i_lat":-6.329547,"transit":false,"is_transit":false,"i_long":106.617853,"line":3},{"i_lat":-6.3441410000000005,"transit":false,"is_transit":false,"i_long":106.568863,"line":6,"time":8,"distance":5968,"station_id":"PRP","station_name":"Parung Panjang"},{"i_long":106.508482,"is_transit":false,"transit":false,"station_id":"CJT","time":9,"station_name":"Cilejit","i_lat":-6.354349,"line":3,"distance":7025},{"station_id":"DAR","i_lat":-6.338021,"i_long":106.491338,"is_transit":false,"line":0,"transit":false,"station_name":"Daru","time":6,"distance":2675},{"is_transit":false,"distance":3902,"i_lat":-6.327251,"time":5,"line":6,"transit":false,"station_name":"Tenjo","i_long":106.460812,"station_id":"TEJ"},{"time":5,"i_long":106.425991,"i_lat":-6.328533,"station_id":"TGS","is_transit":false,"line":6,"distance":2974,"transit":false,"station_name":"Tigaraksa"},{"station_id":"CKY","transit":false,"is_transit":false,"i_lat":-6.33561,"time":3,"line":3,"station_name":"Cikoya","distance":2651,"i_long":106.411216},{"time":4,"i_lat":-6.332307,"transit":false,"station_id":"MJ","distance":1853,"is_transit":false,"i_long":106.394373,"station_name":"Maja","line":6}],[{"time":0,"is_transit":false,"i_long":106.790574,"transit":false,"station_name":"Bogor","i_lat":-6.594596,"station_id":"BOO","distance":0,"line":2},{"i_lat":-6.530544,"line":2,"station_id":"CLT","transit":false,"distance":7514,"station_name":"Cilebut","time":9,"i_long":106.800016,"is_transit":false},{"distance":4331,"i_long":106.792719,"i_lat":-6.493243,"station_name":"Bojonggede","line":2,"is_transit":false,"transit":false,"time":5,"station_id":"BJD"},{"i_lat":-6.448811,"station_id":"CTA","distance":5197,"line":2,"is_transit":false,"transit":false,"time":5,"station_name":"Citayam","i_long":106.800298},{"i_long":106.816926,"station_name":"Depok","time":6,"i_lat":-6.405256,"transit":false,"is_transit":false,"line":2,"distance":5084,"station_id":"DP"},{"station_name":"Depokbaru","i_lat":-6.391065,"i_long":106.819451,"line":2,"transit":false,"is_transit":false,"distance":1584,"station_id":"DPB","time":3},{"i_lat":-6.369073,"transit":false,"i_long":106.831114,"station_id":"POC","distance":2727,"is_transit":false,"line":2,"station_name":"Pondok Cina","time":4},{"time":2,"i_long":106.831474,"is_transit":false,"station_id":"UI","line":2,"distance":1109,"transit":false,"station_name":"Univ. Indonesia","i_lat":-6.360749},{"station_name":"Univ. Pancasila","time":3,"i_lat":-6.339291,"distance":2264,"i_long":106.834175,"transit":false,"is_transit":false,"line":2,"station_id":"UP"},{"station_id":"LNA","station_name":"Lenteng Agung","distance":1029,"line":2,"is_transit":false,"i_lat":-6.330363,"transit":false,"i_long":106.832616,"time":2},{"distance":2671,"i_lat":-6.3080680000000005,"station_id":"TNT","line":2,"is_transit":false,"time":3,"i_long":106.838896,"transit":false,"station_name":"Tanjung Barat"},{"i_long":106.843999,"station_name":"Pasar Minggu","distance":2820,"time":4,"line":2,"transit":false,"is_transit":false,"i_lat":-6.2842400000000005,"station_id":"PSM"},{"distance":2380,"station_name":"Pasar Minggu Baru","station_id":"PSMB","i_lat":-6.263214,"line":2,"transit":false,"time":2,"is_transit":false,"i_long":106.851577},{"i_lat":-6.255332,"line":2,"is_transit":false,"station_name":"Duren Kalibata","transit":false,"time":2,"distance":824,"station_id":"DRN","i_long":106.85449},{"station_id":"CW","distance":1546,"is_transit":false,"station_name":"Cawang","i_lat":-6.242512,"time":3,"i_long":106.856607,"transit":false,"line":2},{"transit":false,"time":2,"i_lat":-6.226659,"station_id":"TEB","station_name":"Tebet","distance":1230,"i_long":106.857948,"line":2,"is_transit":false},{"is_transit":false,"station_name":"Manggarai","time":4,"station_id":"MRI","i_long":106.84912,"transit":false,"distance":2610,"i_lat":-6.209883,"line":2},{"station_id":"CKI","i_long":106.840169,"i_lat":-6.198556,"time":4,"line":2,"distance":1590,"station_name":"Cikini","transit":false,"is_transit":false},{"i_long":106.832183,"distance":1750,"station_id":"GDD","is_transit":false,"transit":false,"i_lat":-6.186295,"line":2,"time":3,"station_name":"Gondangdia"},{"transit":false,"station_name":"Juanda","distance":2015,"is_transit":false,"i_lat":-6.166716,"i_long":106.828284,"line":2,"time":4,"station_id":"JUA"},{"transit":false,"station_name":"Sawah Besar","distance":1149,"i_lat":-6.160725,"station_id":"SW","is_transit":false,"i_long":106.827103,"time":2,"line":2},{"is_transit":false,"station_id":"MGB","time":2,"line":2,"station_name":"Manggabesar","transit":false,"distance":906,"i_lat":-6.149769,"i_long":106.82482},{"i_long":106.820901,"transit":false,"station_name":"Jayakarta","time":2,"is_transit":false,"distance":1080,"i_lat":-6.141205,"line":2,"station_id":"JAY"},{"distance":1264,"i_long":106.812439,"station_id":"JAKK","line":2,"i_lat":-6.137569,"is_transit":true,"time":4,"station_name":"Jakarta Kota","transit":true},{"line":4,"time":3,"distance":1364,"transit":true,"i_long":106.826365,"station_id":"KPB","is_transit":true,"station_name":"Kampung Bandan","i_lat":-6.132549},{"i_lat":-6.144674,"i_long":106.79867,"transit":false,"station_name":"Angke","station_id":"AK","is_transit":false,"distance":4102,"time":9,"line":1},{"line":1,"station_name":"Duri","time":4,"distance":1230,"transit":false,"is_transit":false,"i_lat":-6.155215,"station_id":"DU","i_long":106.800832},{"station_name":"Tanah Abang","is_transit":true,"i_long":106.811091,"i_lat":-6.185545,"transit":true,"station_id":"THB","time":8,"distance":3632,"line":1},{"transit":false,"time":6,"i_long":106.79689,"line":6,"station_name":"Palmerah","is_transit":false,"i_lat":-6.207404,"distance":3191,"station_id":"PLM"},{"time":7,"distance":3737,"station_name":"Kebayoran","i_lat":-6.237242,"i_long":106.780334,"transit":false,"line":6,"station_id":"KBY","is_transit":false},{"i_lat":-6.276362,"is_transit":false,"line":6,"station_id":"PDJ","transit":false,"i_long":106.74273,"time":8,"station_name":"Pondokranji","distance":6218},{"transit":false,"distance":2179,"is_transit":false,"i_lat":-6.288927,"station_name":"Jurangmangu","i_long":106.728916,"time":3,"station_id":"JMU","line":6},{"line":6,"transit":false,"is_transit":false,"distance":1994,"station_name":"Sudimara","station_id":"SDM","time":4,"i_lat":-6.296963,"i_long":106.712277},{"station_id":"RU","time":6,"i_lat":-6.314823,"station_name":"Rawa Buntu","line":6,"is_transit":false,"distance":4566,"i_long":106.675475,"transit":false},{"distance":2413,"i_long":106.66566,"station_id":"SRP","is_transit":false,"i_lat":-6.319871,"station_name":"Serpong","transit":false,"line":6,"time":4},{"station_id":"CSK","station_name":"Cisauk","time":4,"transit":false,"distance":1784,"i_lat":-6.32484,"i_long":106.640411,"line":3,"is_transit":false},{"i_lat":-6.329547,"i_long":106.617853,"time":4,"station_id":"CC","line":3,"transit":false,"is_transit":false,"distance":2519,"station_name":"Cicayur"},{"i_long":106.568863,"station_id":"PRP","station_name":"Parung Panjang","time":8,"is_transit":false,"distance":5968,"transit":false,"line":6,"i_lat":-6.3441410000000005},{"line":3,"station_name":"Cilejit","i_lat":-6.354349,"station_id":"CJT","distance":7025,"i_long":106.508482,"is_transit":false,"time":9,"transit":false},{"station_id":"DAR","station_name":"Daru","line":0,"distance":2675,"time":6,"i_long":106.491338,"transit":false,"i_lat":-6.338021,"is_transit":false},{"line":6,"station_id":"TEJ","distance":3902,"i_long":106.460812,"station_name":"Tenjo","i_lat":-6.327251,"time":5,"transit":false,"is_transit":false},{"transit":false,"station_id":"TGS","is_transit":false,"time":5,"line":6,"i_lat":-6.328533,"i_long":106.425991,"station_name":"Tigaraksa","distance":2974},{"station_id":"CKY","station_name":"Cikoya","line":3,"is_transit":false,"time":3,"distance":2651,"transit":false,"i_lat":-6.33561,"i_long":106.411216},{"i_lat":-6.332307,"time":4,"i_long":106.394373,"line":6,"station_id":"MJ","station_name":"Maja","transit":false,"distance":1853,"is_transit":false}],[{"station_id":"BOO","distance":0,"is_transit":false,"time":0,"i_lat":-6.594596,"station_name":"Bogor","line":2,"i_long":106.790574,"transit":false},{"i_long":106.800016,"station_name":"Cilebut","distance":7514,"is_transit":false,"line":2,"i_lat":-6.530544,"time":9,"station_id":"CLT","transit":false},{"transit":false,"distance":4331,"i_long":106.792719,"i_lat":-6.493243,"line":2,"station_id":"BJD","station_name":"Bojonggede","time":5,"is_transit":false},{"is_transit":false,"line":2,"station_name":"Citayam","time":5,"i_lat":-6.448811,"station_id":"CTA","distance":5197,"transit":false,"i_long":106.800298},{"i_lat":-6.405256,"distance":5084,"i_long":106.816926,"line":2,"time":6,"station_id":"DP","transit":false,"station_name":"Depok","is_transit":false},{"time":3,"distance":1584,"station_id":"DPB","line":2,"i_lat":-6.391065,"is_transit":false,"station_name":"Depokbaru","transit":false,"i_long":106.819451},{"distance":2727,"station_id":"POC","i_lat":-6.369073,"is_transit":false,"i_long":106.831114,"station_name":"Pondok Cina","line":2,"time":4,"transit":false},{"i_long":106.831474,"station_name":"Univ. Indonesia","transit":false,"distance":1109,"i_lat":-6.360749,"time":2,"line":2,"station_id":"UI","is_transit":false},{"line":2,"station_name":"Univ. Pancasila","transit":false,"distance":2264,"i_lat":-6.339291,"i_long":106.834175,"station_id":"UP","time":3,"is_transit":false},{"transit":false,"station_id":"LNA","time":2,"station_name":"Lenteng Agung","line":2,"is_transit":false,"i_lat":-6.330363,"distance":1029,"i_long":106.832616},{"i_long":106.838896,"station_name":"Tanjung Barat","transit":false,"is_transit":false,"station_id":"TNT","time":3,"distance":2671,"line":2,"i_lat":-6.3080680000000005},{"i_lat":-6.2842400000000005,"station_id":"PSM","i_long":106.843999,"distance":2820,"transit":false,"is_transit":false,"line":2,"time":4,"station_name":"Pasar Minggu"},{"i_long":106.851577,"transit":false,"line":2,"i_lat":-6.263214,"station_id":"PSMB","station_name":"Pasar Minggu Baru","is_transit":false,"time":2,"distance":2380},{"distance":824,"transit":false,"line":2,"station_name":"Duren Kalibata","i_long":106.85449,"station_id":"DRN","is_transit":false,"i_lat":-6.255332,"time":2},{"line":2,"transit":false,"station_name":"Cawang","is_transit":false,"i_lat":-6.242512,"i_long":106.856607,"station_id":"CW","distance":1546,"time":3},{"station_name":"Tebet","is_transit":false,"station_id":"TEB","i_lat":-6.226659,"i_long":106.857948,"line":2,"time":2,"transit":false,"distance":1230},{"line":2,"is_transit":true,"time":4,"station_id":"MRI","i_lat":-6.209883,"i_long":106.84912,"transit":true,"station_name":"Manggarai","distance":2610},{"i_lat":-6.212485,"line":1,"transit":false,"station_name":"Matraman","is_transit":false,"distance":1275,"time":2,"i_long":106.858896,"station_id":"MTR"},{"is_transit":true,"transit":true,"station_id":"JNG","time":8,"line":1,"i_long":106.86807400000001,"distance":1377,"i_lat":-6.215091,"station_name":"Jatinegara"},{"station_id":"POK","line":11,"distance":1236,"i_long":106.861737,"station_name":"Pondok Jati","time":2,"is_transit":false,"transit":false,"i_lat":-6.209188},{"station_name":"Kramat","transit":false,"station_id":"KMT","i_long":106.855437,"distance":1829,"time":2,"line":11,"is_transit":false,"i_lat":-6.193792},{"line":11,"i_long":106.850107,"i_lat":-6.185975,"time":1,"transit":false,"station_name":"Gang Sentiong","distance":973,"station_id":"GST","is_transit":false},{"time":8,"station_name":"Pasar Senen","is_transit":false,"i_long":106.84368,"station_id":"PSE","distance":1567,"i_lat":-6.174784,"line":11,"transit":false},{"distance":1436,"time":4,"i_long":106.839204,"station_name":"Kemayoran","i_lat":-6.161728,"transit":false,"station_id":"KMO","is_transit":false,"line":11},{"time":5,"distance":1901,"i_long":106.836569,"line":11,"transit":false,"station_name":"Rajawali","station_id":"RJW","i_lat":-6.14505,"is_transit":false},{"time":3,"transit":true,"is_transit":true,"i_lat":-6.132549,"i_long":106.826365,"line":4,"station_name":"Kampung Bandan","station_id":"KPB","distance":1444},{"line":1,"station_name":"Angke","time":9,"distance":4102,"i_lat":-6.144674,"station_id":"AK","transit":false,"is_transit":false,"i_long":106.79867},{"i_lat":-6.155215,"station_name":"Duri","line":1,"distance":1230,"i_long":106.800832,"station_id":"DU","transit":false,"time":4,"is_transit":false},{"transit":true,"i_long":106.811091,"station_id":"THB","distance":3632,"time":8,"line":1,"i_lat":-6.185545,"is_transit":true,"station_name":"Tanah Abang"},{"time":6,"transit":false,"is_transit":false,"distance":3191,"i_long":106.79689,"line":6,"i_lat":-6.207404,"station_name":"Palmerah","station_id":"PLM"},{"i_long":106.780334,"is_transit":false,"transit":false,"station_name":"Kebayoran","i_lat":-6.237242,"line":6,"time":7,"distance":3737,"station_id":"KBY"},{"distance":6218,"station_name":"Pondokranji","station_id":"PDJ","time":8,"line":6,"i_lat":-6.276362,"transit":false,"i_long":106.74273,"is_transit":false},{"line":6,"distance":2179,"transit":false,"is_transit":false,"station_name":"Jurangmangu","station_id":"JMU","i_lat":-6.288927,"i_long":106.728916,"time":3},{"station_name":"Sudimara","station_id":"SDM","is_transit":false,"line":6,"time":4,"transit":false,"i_long":106.712277,"i_lat":-6.296963,"distance":1994},{"station_id":"RU","station_name":"Rawa Buntu","line":6,"is_transit":false,"time":6,"i_lat":-6.314823,"i_long":106.675475,"transit":false,"distance":4566},{"station_id":"SRP","is_transit":false,"time":4,"distance":2413,"line":6,"transit":false,"i_long":106.66566,"station_name":"Serpong","i_lat":-6.319871},{"station_id":"CSK","distance":1784,"i_long":106.640411,"station_name":"Cisauk","transit":false,"time":4,"is_transit":false,"i_lat":-6.32484,"line":3},{"transit":false,"i_lat":-6.329547,"time":4,"is_transit":false,"i_long":106.617853,"line":3,"station_id":"CC","distance":2519,"station_name":"Cicayur"},{"is_transit":false,"distance":5968,"time":8,"line":6,"transit":false,"i_lat":-6.3441410000000005,"i_long":106.568863,"station_name":"Parung Panjang","station_id":"PRP"},{"transit":false,"station_name":"Cilejit","is_transit":false,"line":3,"i_long":106.508482,"time":9,"station_id":"CJT","i_lat":-6.354349,"distance":7025},{"transit":false,"is_transit":false,"time":6,"i_lat":-6.338021,"station_id":"DAR","distance":2675,"i_long":106.491338,"line":0,"station_name":"Daru"},{"station_name":"Tenjo","is_transit":false,"line":6,"station_id":"TEJ","i_lat":-6.327251,"transit":false,"i_long":106.460812,"time":5,"distance":3902},{"transit":false,"i_lat":-6.328533,"station_name":"Tigaraksa","i_long":106.425991,"line":6,"station_id":"TGS","is_transit":false,"time":5,"distance":2974},{"time":3,"i_long":106.411216,"transit":false,"line":3,"station_id":"CKY","is_transit":false,"distance":2651,"station_name":"Cikoya","i_lat":-6.33561},{"transit":false,"is_transit":false,"time":4,"station_id":"MJ","station_name":"Maja","distance":1853,"i_lat":-6.332307,"i_long":106.394373,"line":6}]]}