{"data":[[{"i_lat":-6.594596,"time":0,"i_long":106.790574,"transit":false,"distance":0,"line":2,"station_id":"BOO","is_transit":false,"station_name":"Bogor"},{"time":9,"i_lat":-6.530544,"station_id":"CLT","i_long":106.800016,"distance":7514,"is_transit":false,"line":2,"transit":false,"station_name":"Cilebut"},{"is_transit":false,"transit":false,"time":5,"i_long":106.792719,"line":2,"station_name":"Bojonggede","distance":4331,"i_lat":-6.493243,"station_id":"BJD"},{"transit":false,"station_name":"Citayam","is_transit":false,"line":2,"i_long":106.800298,"i_lat":-6.448811,"distance":5197,"time":5,"station_id":"CTA"},{"i_lat":-6.405256,"time":6,"station_id":"DP","line":2,"transit":false,"distance":5084,"i_long":106.816926,"station_name":"Depok","is_transit":false},{"i_long":106.819451,"station_name":"Depokbaru","is_transit":false,"distance":1584,"transit":false,"station_id":"DPB","time":3,"line":2,"i_lat":-6.391065},{"transit":false,"station_id":"POC","i_long":106.831114,"line":2,"time":4,"is_transit":false,"station_name":"Pondok Cina","distance":2727,"i_lat":-6.369073},{"station_name":"Univ. Indonesia","station_id":"UI","distance":1109,"i_long":106.831474,"transit":false,"i_lat":-6.360749,"is_transit":false,"line":2,"time":2},{"i_lat":-6.339291,"distance":2264,"station_id":"UP","transit":false,"is_transit":false,"time":3,"i_long":106.834175,"line":2,"station_name":"Univ. Pancasila"},{"i_lat":-6.330363,"is_transit":false,"i_long":106.832616,"line":2,"station_name":"Lenteng Agung","time":2,"distance":1029,"transit":false,"station_id":"LNA"},{"distance":2671,"line":2,"station_id":"TNT","i_lat":-6.3080680000000005,"transit":false,"i_long":106.838896,"station_name":"Tanjung Barat","is_transit":false,"time":3},{"station_name":"Pasar Minggu","line":2,"distance":2820,"time":4,"i_lat":-6.2842400000000005,"is_transit":false,"transit":false,"station_id":"PSM","i_long":106.843999},{"transit":false,"i_long":106.851577,"station_name":"Pasar Minggu Baru","distance":2380,"i_lat":-6.263214,"station_id":"PSMB","time":2,"is_transit":false,"line":2},{"station_name":"Duren Kalibata","i_lat":-6.255332,"line":2,"is_transit":false,"transit":false,"station_id":"DRN","i_long":106.85449,"time":2,"distance":824},{"i_lat":-6.242512,"i_long":106.856607,"station_name":"Cawang","time":3,"is_transit":false,"distance":1546,"line":2,"transit":false,"station_id":"CW"},{"time":2,"station_id":"TEB","i_lat":-6.226659,"i_long":106.857948,"transit":false,"line":2,"distance":1230,"station_name":"Tebet","is_transit":false},{"is_transit":true,"distance":2610,"station_id":"MRI","transit":true,"i_long":106.84912,"station_name":"Manggarai","time":4,"line":2,"i_lat":-6.209883},{"station_id":"MTR","line":1,"station_name":"Matraman","is_transit":false,"transit":false,"distance":1275,"i_lat":-6.212485,"i_long":106.858896,"time":2},{"distance":1377,"line":1,"i_long":106.86807400000001,"station_id":"JNG","is_transit":false,"transit":false,"station_name":"Jatinegara","time":8,"i_lat":-6.215091},{"transit":false,"i_long":106.899548,"line":1,"is_transit":false,"time":3,"station_id":"KLD","distance":3395,"station_name":"Klender","i_lat":-6.2135},{"is_transit":false,"time":2,"i_lat":-6.215568,"station_id":"BUA","distance":3100,"station_name":"Buaran","transit":false,"i_long":106.922662,"line":1},{"station_id":"KLDB","is_transit":false,"transit":false,"distance":1305,"station_name":"Klenderbaru","i_lat":-6.217455,"i_long":106.939679,"line":1,"time":1},{"station_id":"CUK","time":8,"i_lat":-6.219053,"station_name":"Cakung","distance":1385,"i_long":106.951283,"is_transit":false,"line":1,"transit":false},{"station_name":"Kranji","distance":3097,"transit":false,"station_id":"KRI","time":3,"i_long":106.977657,"i_lat":-6.224515,"is_transit":false,"line":1}],[{"station_name":"Bogor","distance":0,"time":0,"is_transit":false,"transit":false,"station_id":"BOO","i_lat":-6.594596,"i_long":106.790574,"line":2},{"station_id":"CLT","transit":false,"station_name":"Cilebut","time":9,"i_lat":-6.530544,"distance":7514,"i_long":106.800016,"line":2,"is_transit":false},{"transit":false,"time":5,"station_id":"BJD","i_long":106.792719,"i_lat":-6.493243,"line":2,"station_name":"Bojonggede","is_transit":false,"distance":4331},{"i_lat":-6.448811,"transit":false,"station_name":"Citayam","time":5,"is_transit":false,"station_id":"CTA","i_long":106.800298,"distance":5197,"line":2},{"transit":false,"is_transit":false,"station_name":"Depok","time":6,"distance":5084,"i_long":106.816926,"i_lat":-6.405256,"line":2,"station_id":"DP"},{"is_transit":false,"time":3,"station_id":"DPB","distance":1584,"station_name":"Depokbaru","i_lat":-6.391065,"i_long":106.819451,"line":2,"transit":false},{"i_long":106.831114,"distance":2727,"transit":false,"is_transit":false,"i_lat":-6.369073,"station_id":"POC","time":4,"line":2,"station_name":"Pondok Cina"},{"time":2,"is_transit":false,"line":2,"i_lat":-6.360749,"station_id":"UI","i_long":106.831474,"distance":1109,"transit":false,"station_name":"Univ. Indonesia"},{"station_id":"UP","i_long":106.834175,"i_lat":-6.339291,"station_name":"Univ. Pancasila","time":3,"line":2,"is_transit":false,"distance":2264,"transit":false},{"is_transit":false,"time":2,"transit":false,"i_lat":-6.330363,"i_long":106.832616,"line":2,"station_id":"LNA","distance":1029,"station_name":"Lenteng Agung"},{"distance":2671,"i_long":106.838896,"station_id":"TNT","line":2,"i_lat":-6.3080680000000005,"transit":false,"time":3,"is_transit":false,"station_name":"Tanjung Barat"},{"distance":2820,"is_transit":false,"transit":false,"station_id":"PSM","time":4,"i_lat":-6.2842400000000005,"i_long":106.843999,"line":2,"station_name":"Pasar Minggu"},{"time":2,"line":2,"station_name":"Pasar Minggu Baru","station_id":"PSMB","distance":2380,"i_long":106.851577,"transit":false,"is_transit":false,"i_lat":-6.263214},{"i_lat":-6.255332,"transit":false,"time":2,"station_name":"Duren Kalibata","distance":824,"line":2,"is_transit":false,"station_id":"DRN","i_long":106.85449},{"time":3,"is_transit":false,"distance":1546,"i_lat":-6.242512,"line":2,"i_long":106.856607,"transit":false,"station_id":"CW","station_name":"Cawang"},{"i_lat":-6.226659,"line":2,"time":2,"station_id":"TEB","is_transit":false,"distance":1230,"i_long":106.857948,"station_name":"Tebet","transit":false},{"i_lat":-6.209883,"transit":true,"station_name":"Manggarai","i_long":106.84912,"distance":2610,"is_transit":true,"time":4,"line":2,"station_id":"MRI"},{"i_long":106.822649,"station_id":"SUD","is_transit":false,"distance":3186,"station_name":"Sudirman","transit":false,"i_lat":-6.202263,"line":1,"time":4},{"line":1,"i_lat":-6.201433,"time":1,"transit":false,"is_transit":false,"station_id":"SUDB","distance":280,"i_long":106.819881,"station_name":"Sudirman Baru"},{"line":1,"i_long":106.816351,"station_name":"Karet","time":1,"transit":false,"is_transit":false,"i_lat":-6.20132,"station_id":"KAT","distance":471},{"transit":false,"i_lat":-6.185545,"station_id":"THB","time":5,"line":1,"station_name":"Tanah Abang","is_transit":false,"distance":2029,"i_long":106.811091},{"is_transit":false,"transit":false,"i_lat":-6.155215,"distance":3632,"i_long":106.800832,"station_id":"DU","line":1,"time":8,"station_name":"Duri"},{"station_name":"Angke","station_id":"AK","transit":false,"distance":1230,"line":1,"is_transit":false,"i_lat":-6.144674,"i_long":106.79867,"time":4},{"i_lat":-6.132549,"station_name":"Kampung Bandan","time":9,"transit":true,"station_id":"KPB","i_long":106.826365,"line":4,"distance":4102,"is_transit":true},{"i_long":106.836569,"is_transit":false,"transit":false,"time":3,"station_name":"Rajawali","distance":1444,"i_lat":-6.14505,"station_id":"RJW","line":11},{"time":5,"i_lat":-6.161728,"station_name":"Kemayoran","line":11,"distance":1901,"is_transit":false,"i_long":106.839204,"station_id":"KMO","transit":false},{"transit":false,"line":11,"station_name":"Pasar Senen","time":4,"station_id":"PSE","is_transit":false,"i_lat":-6.174784,"distance":1436,"i_long":106.84368},{"station_id":"GST","station_name":"Gang Sentiong","distance":1567,"time":8,"is_transit":false,"transit":false,"i_long":106.850107,"i_lat":-6.185975,"line":11},{"transit":false,"time":1,"station_name":"Kramat","distance":973,"i_long":106.855437,"line":11,"station_id":"KMT","is_transit":false,"i_lat":-6.193792},{"line":11,"is_transit":false,"station_id":"POK","i_lat":-6.209188,"transit":false,"time":2,"distance":1829,"station_name":"Pondok Jati","i_long":106.861737},{"i_long":106.86807400000001,"station_name":"Jatinegara","transit":true,"station_id":"JNG","is_transit":true,"distance":1236,"time":9,"i_lat":-6.215091,"line":1},{"station_name":"Klender","i_lat":-6.2135,"transit":false,"is_transit":false,"time":3,"distance":3395,"i_long":106.899548,"line":1,"station_id":"KLD"},{"time":2,"distance":3100,"transit":false,"i_lat":-6.215568,"line":1,"station_id":"BUA","is_transit":false,"station_name":"Buaran","i_long":106.922662},{"time":1,"line":1,"is_transit":false,"i_lat":-6.217455,"station_id":"KLDB","distance":1305,"i_long":106.939679,"station_name":"Klenderbaru","transit":false},{"time":8,"i_lat":-6.219053,"i_long":106.951283,"distance":1385,"station_name":"Cakung","transit":false,"is_transit":false,"line":1,"station_id":"CUK"},{"line":1,"transit":false,"station_name":"Kranji","i_lat":-6.224515,"time":3,"distance":3097,"station_id":"KRI","is_transit":false,"i_long":106.977657}],[{"is_transit":false,"distance":0,"i_lat":-6.594596,"i_long":106.790574,"transit":false,"station_id":"BOO","line":2,"station_name":"Bogor","time":0},{"transit":false,"line":2,"station_id":"CLT","time":9,"station_name":"Cilebut","i_long":106.800016,"is_transit":false,"i_lat":-6.530544,"distance":7514},{"station_id":"BJD","distance":4331,"transit":false,"line":2,"station_name":"Bojonggede","is_transit":false,"time":5,"i_long":106.792719,"i_lat":-6.493243},{"i_long":106.800298,"line":2,"time":5,"i_lat":-6.448811,"station_name":"Citayam","station_id":"CTA","transit":false,"is_transit":false,"distance":5197},{"line":2,"is_transit":false,"time":6,"i_long":106.816926,"transit":false,"station_name":"Depok","distance":5084,"i_lat":-6.405256,"station_id":"DP"},{"time":3,"distance":1584,"transit":false,"line":2,"is_transit":false,"station_name":"Depokbaru","i_lat":-6.391065,"station_id":"DPB","i_long":106.819451},{"transit":false,"station_name":"Pondok Cina","distance":2727,"time":4,"i_long":106.831114,"is_transit":false,"i_lat":-6.369073,"line":2,"station_id":"POC"},{"i_long":106.831474,"time":2,"line":2,"is_transit":false,"i_lat":-6.360749,"transit":false,"station_name":"Univ. Indonesia","station_id":"UI","distance":1109},{"transit":false,"time":3,"station_name":"Univ. Pancasila","distance":2264,"i_long":106.834175,"i_lat":-6.339291,"is_transit":false,"station_id":"UP","line":2},{"station_name":"Lenteng Agung","distance":1029,"transit":false,"time":2,"i_lat":-6.330363,"station_id":"LNA","i_long":106.832616,"line":2,"is_transit":false},{"time":3,"i_lat":-6.3080680000000005,"is_transit":false,"station_id":"TNT","distance":2671,"transit":false,"i_long":106.838896,"station_name":"Tanjung Barat","line":2},{"is_transit":false,"distance":2820,"station_name":"Pasar Minggu","i_long":106.843999,"station_id":"PSM","time":4,"transit":false,"line":2,"i_lat":-6.2842400000000005},{"station_name":"Pasar Minggu Baru","station_id":"PSMB","distance":2380,"line":2,"time":2,"transit":false,"is_transit":false,"i_long":106.851577,"i_lat":-6.263214},{"station_name":"Duren Kalibata","time":2,"station_id":"DRN","i_long":106.85449,"transit":false,"is_transit":false,"distance":824,"i_lat":-6.255332,"line":2},{"time":3,"transit":false,"i_long":106.856607,"line":2,"distance":1546,"station_name":"Cawang","i_lat":-6.242512,"is_transit":false,"station_id":"CW"},{"transit":false,"station_id":"TEB","i_long":106.857948,"line":2,"distance":1230,"station_name":"Tebet","time":2,"is_transit":false,"i_lat":-6.226659},{"is_transit":false,"distance":2610,"i_lat":-6.209883,"time":4,"i_long":106.84912,"transit":false,"line":2,"station_name":"Manggarai","station_id":"MRI"},{"distance":1590,"transit":false,"station_id":"CKI","is_transit":false,"station_name":"Cikini","i_lat":-6.198556,"line":2,"time":4,"i_long":106.840169},{"time":3,"i_lat":-6.186295,"line":2,"distance":1750,"station_id":"GDD","transit":false,"is_transit":false,"i_long":106.832183,"station_name":"Gondangdia"},{"station_id":"JUA","distance":2015,"is_transit":false,"i_lat":-6.166716,"i_long":106.828284,"transit":false,"station_name":"Juanda","time":4,"line":2},{"distance":1149,"time":2,"station_id":"SW","i_long":106.827103,"line":2,"transit":false,"station_name":"Sawah Besar","is_transit":false,"i_lat":-6.160725},{"distance":906,"is_transit":false,"time":2,"i_long":106.82482,"i_lat":-6.149769,"transit":false,"station_id":"MGB","station_name":"Manggabesar","line":2},{"station_name":"Jayakarta","station_id":"JAY","distance":1080,"time":2,"i_lat":-6.141205,"i_long":106.820901,"line":2,"transit":false,"is_transit":false},{"transit":true,"station_id":"JAKK","time":4,"distance":1264,"station_name":"Jakarta Kota","is_transit":true,"i_lat":-6.137569,"i_long":106.812439,"line":2},{"station_name":"Kampung Bandan","station_id":"KPB","distance":1364,"is_transit":true,"i_long":106.826365,"line":4,"i_lat":-6.132549,"transit":true,"time":3},{"distance":1444,"i_lat":-6.14505,"station_id":"RJW","i_long":106.836569,"time":3,"line":11,"transit":false,"is_transit":false,"station_name":"Rajawali"},{"line":11,"transit":false,"i_lat":-6.161728,"station_name":"Kemayoran","distance":1901,"i_long":106.839204,"is_transit":false,"time":5,"station_id":"KMO"},{"transit":false,"distance":1436,"time":4,"is_transit":false,"i_long":106.84368,"i_lat":-6.174784,"station_id":"PSE","station_name":"Pasar Senen","line":11},{"line":11,"transit":false,"station_id":"GST","is_transit":false,"distance":1567,"time":8,"i_long":106.850107,"i_lat":-6.185975,"station_name":"Gang Sentiong"},{"distance":973,"i_lat":-6.193792,"i_long":106.855437,"is_transit":false,"station_name":"Kramat","line":11,"transit":false,"time":1,"station_id":"KMT"},{"transit":false,"is_transit":false,"time":2,"distance":1829,"i_lat":-6.209188,"station_name":"Pondok Jati","line":11,"station_id":"POK","i_long":106.861737},{"station_name":"Jatinegara","station_id":"JNG","time":9,"i_lat":-6.215091,"is_transit":true,"i_long":106.86807400000001,"distance":1236,"transit":true,"line":1},{"transit":false,"line":1,"distance":3395,"i_lat":-6.2135,"station_name":"Klender","station_id":"KLD","is_transit":false,"time":3,"i_long":106.899548},{"distance":3100,"line":1,"transit":false,"station_name":"Buaran","i_long":106.922662,"station_id":"BUA","time":2,"i_lat":-6.215568,"is_transit":false},{"is_transit":false,"station_name":"Klenderbaru","time":1,"transit":false,"distance":1305,"station_id":"KLDB","i_lat":-6.217455,"i_long":106.939679,"line":1},{"line":1,"station_name":"Cakung","time":8,"i_long":106.951283,"transit":false,"is_transit":false,"distance":1385,"station_id":"CUK","i_lat":-6.219053},{"line":1,"station_name":"Kranji","is_transit":false,"i_lat":-6.224515,"i_long":106.977657,"time":3,"transit":false,"station_id":"KRI","distance":3097}]]}