{"data":[[{"station_id":"BOO","station_name":"Bogor","distance":0,"transit":false,"is_transit":false,"line":2,"time":0,"i_long":106.790574,"i_lat":-6.594596},{"time":9,"station_name":"Cilebut","i_long":106.800016,"transit":false,"distance":7514,"line":2,"i_lat":-6.530544,"is_transit":false,"station_id":"CLT"},{"distance":4331,"station_id":"BJD","station_name":"Bojonggede","i_lat":-6.493243,"line":2,"i_long":106.792719,"time":5,"transit":false,"is_transit":false},{"i_long":106.800298,"time":5,"distance":5197,"station_id":"CTA","transit":false,"line":2,"is_transit":false,"station_name":"Citayam","i_lat":-6.448811},{"i_lat":-6.405256,"is_transit":false,"transit":false,"line":2,"station_id":"DP","distance":5084,"station_name":"Depok","time":6,"i_long":106.816926},{"is_transit":false,"i_lat":-6.391065,"time":3,"i_long":106.819451,"station_id":"DPB","transit":false,"line":2,"distance":1584,"station_name":"Depokbaru"},{"station_name":"Pondok Cina","is_transit":false,"transit":false,"station_id":"POC","i_long":106.831114,"time":4,"distance":2727,"line":2,"i_lat":-6.369073},{"line":2,"time":2,"station_name":"Univ. Indonesia","station_id":"UI","i_lat":-6.360749,"distance":1109,"is_transit":false,"transit":false,"i_long":106.831474},{"line":2,"time":3,"station_name":"Univ. Pancasila","is_transit":false,"i_long":106.834175,"station_id":"UP","distance":2264,"transit":false,"i_lat":-6.339291},{"station_name":"Lenteng Agung","is_transit":false,"i_lat":-6.330363,"line":2,"station_id":"LNA","transit":false,"i_long":106.832616,"time":2,"distance":1029},{"station_id":"TNT","is_transit":false,"transit":false,"time":3,"station_name":"Tanjung Barat","i_lat":-6.3080680000000005,"i_long":106.838896,"distance":2671,"line":2},{"distance":2820,"station_name":"Pasar Minggu","time":4,"transit":false,"i_long":106.843999,"is_transit":false,"i_lat":-6.2842400000000005,"line":2,"station_id":"PSM"},{"i_long":106.851577,"line":2,"time":2,"station_name":"Pasar Minggu Baru","i_lat":-6.263214,"transit":false,"is_transit":false,"station_id":"PSMB","distance":2380},{"station_id":"DRN","i_long":106.85449,"station_name":"Duren Kalibata","distance":824,"is_transit":false,"transit":false,"time":2,"i_lat":-6.255332,"line":2}]]}