{"data":[[{"time":0,"distance":0,"transit":false,"station_id":"BOO","station_name":"Bogor","is_transit":false,"i_long":106.790574,"line":2,"i_lat":-6.594596},{"distance":7514,"time":9,"station_id":"CLT","is_transit":false,"i_lat":-6.530544,"station_name":"Cilebut","transit":false,"i_long":106.800016,"line":2},{"time":5,"transit":false,"station_id":"BJD","i_long":106.792719,"station_name":"Bojonggede","is_transit":false,"distance":4331,"i_lat":-6.493243,"line":2},{"distance":5197,"station_id":"CTA","i_lat":-6.448811,"line":2,"i_long":106.800298,"transit":false,"time":5,"station_name":"Citayam","is_transit":false},{"station_id":"DP","station_name":"Depok","i_lat":-6.405256,"transit":false,"distance":5084,"i_long":106.816926,"time":6,"line":2,"is_transit":false},{"distance":1584,"station_name":"Depokbaru","i_long":106.819451,"is_transit":false,"line":2,"time":3,"i_lat":-6.391065,"station_id":"DPB","transit":false},{"station_name":"Pondok Cina","distance":2727,"is_transit":false,"transit":false,"time":4,"station_id":"POC","line":2,"i_lat":-6.369073,"i_long":106.831114},{"time":2,"is_transit":false,"i_lat":-6.360749,"station_id":"UI","station_name":"Univ. Indonesia","line":2,"i_long":106.831474,"transit":false,"distance":1109},{"station_id":"UP","transit":false,"i_long":106.834175,"i_lat":-6.339291,"is_transit":false,"station_name":"Univ. Pancasila","time":3,"distance":2264,"line":2},{"i_lat":-6.330363,"station_id":"LNA","line":2,"distance":1029,"is_transit":false,"station_name":"Lenteng Agung","time":2,"i_long":106.832616,"transit":false},{"time":3,"station_name":"Tanjung Barat","i_lat":-6.3080680000000005,"line":2,"distance":2671,"i_long":106.838896,"station_id":"TNT","is_transit":false,"transit":false},{"transit":false,"station_id":"PSM","distance":2820,"i_long":106.843999,"time":4,"i_lat":-6.2842400000000005,"is_transit":false,"line":2,"station_name":"Pasar Minggu"},{"is_transit":false,"transit":false,"line":2,"distance":2380,"station_id":"PSMB","i_lat":-6.263214,"station_name":"Pasar Minggu Baru","time":2,"i_long":106.851577},{"is_transit":false,"i_long":106.85449,"distance":824,"station_id":"DRN","station_name":"Duren Kalibata","i_lat":-6.255332,"time":2,"line":2,"transit":false},{"station_id":"CW","distance":1546,"i_lat":-6.242512,"station_name":"Cawang","line":2,"i_long":106.856607,"is_transit":false,"transit":false,"time":3},{"station_id":"TEB","station_name":"Tebet","time":2,"distance":1230,"is_transit":false,"transit":false,"i_long":106.857948,"line":2,"i_lat":-6.226659},{"i_long":106.84912,"line":2,"time":4,"transit":true,"is_transit":true,"station_name":"Manggarai","station_id":"MRI","i_lat":-6.209883,"distance":2610},{"is_transit":false,"i_lat":-6.202263,"i_long":106.822649,"line":1,"station_name":"Sudirman","time":4,"distance":3186,"transit":false,"station_id":"SUD"},{"i_long":106.819881,"i_lat":-6.201433,"transit":false,"distance":280,"station_id":"SUDB","station_name":"Sudirman Baru","line":1,"is_transit":false,"time":1},{"i_long":106.816351,"is_transit":false,"station_name":"Karet","distance":471,"station_id":"KAT","i_lat":-6.20132,"transit":false,"line":1,"time":1},{"station_name":"Tanah Abang","line":1,"transit":true,"i_lat":-6.185545,"distance":2029,"i_long":106.811091,"station_id":"THB","is_transit":true,"time":5},{"is_transit":false,"distance":3191,"i_lat":-6.207404,"i_long":106.79689,"station_name":"Palmerah","line":6,"time":6,"station_id":"PLM","transit":false},{"time":7,"station_name":"Kebayoran","distance":3737,"is_transit":false,"i_lat":-6.237242,"station_id":"KBY","line":6,"i_long":106.780334,"transit":false},{"i_long":106.74273,"time":8,"is_transit":false,"i_lat":-6.276362,"station_name":"Pondokranji","line":6,"station_id":"PDJ","distance":6218,"transit":false},{"distance":2179,"i_long":106.728916,"station_id":"JMU","i_lat":-6.288927,"time":3,"is_transit":false,"transit":false,"line":6,"station_name":"Jurangmangu"},{"line":6,"station_name":"Sudimara","time":4,"transit":false,"i_lat":-6.296963,"station_id":"SDM","i_long":106.712277,"distance":1994,"is_transit":false},{"distance":4566,"time":6,"i_lat":-6.314823,"is_transit":false,"line":6,"i_long":106.675475,"transit":false,"station_name":"Rawa Buntu","station_id":"RU"},{"i_long":106.66566,"transit":false,"i_lat":-6.319871,"line":6,"is_transit":false,"time":4,"station_id":"SRP","station_name":"Serpong","distance":2413},{"i_lat":-6.32484,"is_transit":false,"line":3,"i_long":106.640411,"time":4,"station_id":"CSK","station_name":"Cisauk","distance":1784,"transit":false},{"i_lat":-6.329547,"time":4,"station_id":"CC","station_name":"Cicayur","i_long":106.617853,"is_transit":false,"line":3,"distance":2519,"transit":false},{"station_name":"Parung Panjang","line":6,"distance":5968,"i_lat":-6.3441410000000005,"is_transit":false,"transit":false,"i_long":106.568863,"station_id":"PRP","time":8},{"distance":7025,"i_lat":-6.354349,"station_name":"Cilejit","is_transit":false,"transit":false,"i_long":106.508482,"time":9,"line":3,"station_id":"CJT"},{"time":6,"i_lat":-6.338021,"transit":false,"station_name":"Daru","distance":2675,"i_long":106.491338,"is_transit":false,"line":0,"station_id":"DAR"},{"time":5,"is_transit":false,"distance":3902,"transit":false,"line":6,"i_long":106.460812,"station_id":"TEJ","station_name":"Tenjo","i_lat":-6.327251},{"is_transit":false,"time":5,"i_long":106.425991,"line":6,"distance":2974,"i_lat":-6.328533,"station_name":"Tigaraksa","transit":false,"station_id":"TGS"},{"time":3,"distance":2651,"transit":false,"station_id":"CKY","i_long":106.411216,"station_name":"Cikoya","i_lat":-6.33561,"is_transit":false,"line":3},{"line":6,"station_name":"Maja","i_lat":-6.332307,"is_transit":false,"distance":1853,"time":4,"i_long":106.394373,"station_id":"MJ","transit":false}],[{"line":2,"transit":false,"time":0,"distance":0,"i_lat":-6.594596,"i_long":106.790574,"is_transit":false,"station_name":"Bogor","station_id":"BOO"},{"is_transit":false,"station_name":"Cilebut","transit":false,"station_id":"CLT","line":2,"distance":7514,"i_long":106.800016,"time":9,"i_lat":-6.530544},{"station_id":"BJD","distance":4331,"transit":false,"i_lat":-6.493243,"station_name":"Bojonggede","is_transit":false,"time":5,"line":2,"i_long":106.792719},{"is_transit":false,"time":5,"distance":5197,"i_lat":-6.448811,"transit":false,"station_id":"CTA","station_name":"Citayam","i_long":106.800298,"line":2},{"distance":5084,"line":2,"station_name":"Depok","transit":false,"time":6,"i_long":106.816926,"station_id":"DP","i_lat":-6.405256,"is_transit":false},{"i_long":106.819451,"station_id":"DPB","is_transit":false,"transit":false,"station_name":"Depokbaru","time":3,"distance":1584,"i_lat":-6.391065,"line":2},{"station_name":"Pondok Cina","distance":2727,"i_lat":-6.369073,"i_long":106.831114,"station_id":"POC","is_transit":false,"line":2,"transit":false,"time":4},{"i_long":106.831474,"i_lat":-6.360749,"station_name":"Univ. Indonesia","transit":false,"line":2,"station_id":"UI","distance":1109,"is_transit":false,"time":2},{"i_long":106.834175,"time":3,"station_name":"Univ. Pancasila","is_transit":false,"line":2,"station_id":"UP","i_lat":-6.339291,"transit":false,"distance":2264},{"is_transit":false,"station_name":"Lenteng Agung","station_id":"LNA","i_long":106.832616,"distance":1029,"i_lat":-6.330363,"line":2,"time":2,"transit":false},{"line":2,"station_id":"TNT","time":3,"transit":false,"i_long":106.838896,"i_lat":-6.3080680000000005,"is_transit":false,"distance":2671,"station_name":"Tanjung Barat"},{"time":4,"i_lat":-6.2842400000000005,"distance":2820,"station_id":"PSM","i_long":106.843999,"line":2,"station_name":"Pasar Minggu","is_transit":false,"transit":false},{"station_name":"Pasar Minggu Baru","line":2,"time":2,"is_transit":false,"station_id":"PSMB","transit":false,"distance":2380,"i_lat":-6.263214,"i_long":106.851577},{"station_name":"Duren Kalibata","transit":false,"i_lat":-6.255332,"line":2,"distance":824,"is_transit":false,"station_id":"DRN","i_long":106.85449,"time":2},{"distance":1546,"line":2,"station_id":"CW","station_name":"Cawang","time":3,"i_lat":-6.242512,"is_transit":false,"transit":false,"i_long":106.856607},{"station_name":"Tebet","is_transit":false,"transit":false,"station_id":"TEB","time":2,"distance":1230,"i_long":106.857948,"line":2,"i_lat":-6.226659},{"is_transit":false,"i_long":106.84912,"time":4,"station_id":"MRI","distance":2610,"transit":false,"line":2,"i_lat":-6.209883,"station_name":"Manggarai"},{"line":2,"distance":1590,"i_lat":-6.198556,"time":4,"station_name":"Cikini","i_long":106.840169,"is_transit":false,"station_id":"CKI","transit":false},{"transit":false,"line":2,"i_long":106.832183,"is_transit":false,"distance":1750,"station_id":"GDD","i_lat":-6.186295,"station_name":"Gondangdia","time":3},{"transit":false,"i_long":106.828284,"distance":2015,"is_transit":false,"station_id":"JUA","i_lat":-6.166716,"line":2,"station_name":"Juanda","time":4},{"distance":1149,"time":2,"is_transit":false,"line":2,"station_id":"SW","station_name":"Sawah Besar","transit":false,"i_lat":-6.160725,"i_long":106.827103},{"is_transit":false,"time":2,"station_id":"MGB","transit":false,"i_long":106.82482,"distance":906,"line":2,"i_lat":-6.149769,"station_name":"Manggabesar"},{"distance":1080,"transit":false,"i_lat":-6.141205,"is_transit":false,"station_id":"JAY","i_long":106.820901,"station_name":"Jayakarta","line":2,"time":2},{"is_transit":true,"time":4,"station_name":"Jakarta Kota","distance":1264,"i_long":106.812439,"station_id":"JAKK","line":2,"i_lat":-6.137569,"transit":true},{"transit":true,"station_id":"KPB","line":4,"i_lat":-6.132549,"station_name":"Kampung Bandan","i_long":106.826365,"time":3,"is_transit":true,"distance":1364},{"station_id":"AK","i_lat":-6.144674,"distance":4102,"line":1,"station_name":"Angke","transit":false,"is_transit":false,"time":9,"i_long":106.79867},{"line":1,"distance":1230,"is_transit":false,"station_name":"Duri","station_id":"DU","i_lat":-6.155215,"transit":false,"time":4,"i_long":106.800832},{"station_id":"THB","line":1,"distance":3632,"transit":true,"station_name":"Tanah Abang","is_transit":true,"i_long":106.811091,"time":8,"i_lat":-6.185545},{"i_lat":-6.207404,"station_name":"Palmerah","line":6,"is_transit":false,"time":6,"transit":false,"station_id":"PLM","distance":3191,"i_long":106.79689},{"transit":false,"station_id":"KBY","i_lat":-6.237242,"line":6,"i_long":106.780334,"time":7,"is_transit":false,"station_name":"Kebayoran","distance":3737},{"is_transit":false,"distance":6218,"line":6,"transit":false,"station_name":"Pondokranji","station_id":"PDJ","i_lat":-6.276362,"i_long":106.74273,"time":8},{"i_long":106.728916,"time":3,"transit":false,"is_transit":false,"distance":2179,"station_id":"JMU","i_lat":-6.288927,"line":6,"station_name":"Jurangmangu"},{"station_name":"Sudimara","is_transit":false,"transit":false,"station_id":"SDM","i_lat":-6.296963,"distance":1994,"i_long":106.712277,"line":6,"time":4},{"station_id":"RU","transit":false,"station_name":"Rawa Buntu","i_lat":-6.314823,"is_transit":false,"distance":4566,"i_long":106.675475,"time":6,"line":6},{"transit":false,"station_name":"Serpong","distance":2413,"is_transit":false,"i_lat":-6.319871,"line":6,"time":4,"i_long":106.66566,"station_id":"SRP"},{"station_id":"CSK","i_lat":-6.32484,"i_long":106.640411,"transit":false,"time":4,"distance":1784,"is_transit":false,"line":3,"station_name":"Cisauk"},{"distance":2519,"time":4,"is_transit":false,"i_long":106.617853,"transit":false,"station_name":"Cicayur","station_id":"CC","i_lat":-6.329547,"line":3},{"station_name":"Parung Panjang","is_transit":false,"time":8,"distance":5968,"transit":false,"station_id":"PRP","line":6,"i_lat":-6.3441410000000005,"i_long":106.568863},{"i_lat":-6.354349,"is_transit":false,"station_id":"CJT","transit":false,"station_name":"Cilejit","distance":7025,"i_long":106.508482,"time":9,"line":3},{"line":0,"station_name":"Daru","is_transit":false,"time":6,"station_id":"DAR","distance":2675,"transit":false,"i_long":106.491338,"i_lat":-6.338021},{"is_transit":false,"station_id":"TEJ","i_lat":-6.327251,"time":5,"station_name":"Tenjo","i_long":106.460812,"distance":3902,"transit":false,"line":6},{"transit":false,"time":5,"distance":2974,"station_id":"TGS","station_name":"Tigaraksa","i_long":106.425991,"is_transit":false,"line":6,"i_lat":-6.328533},{"transit":false,"i_lat":-6.33561,"line":3,"distance":2651,"is_transit":false,"station_id":"CKY","i_long":106.411216,"station_name":"Cikoya","time":3},{"distance":1853,"i_lat":-6.332307,"transit":false,"station_id":"MJ","line":6,"is_transit":false,"time":4,"station_name":"Maja","i_long":106.394373}],[{"i_long":106.790574,"distance":0,"line":2,"station_id":"BOO","is_transit":false,"transit":false,"i_lat":-6.594596,"time":0,"station_name":"Bogor"},{"i_lat":-6.530544,"station_name":"Cilebut","station_id":"CLT","transit":false,"line":2,"is_transit":false,"time":9,"distance":7514,"i_long":106.800016},{"is_transit":false,"i_lat":-6.493243,"station_name":"Bojonggede","transit":false,"i_long":106.792719,"distance":4331,"line":2,"time":5,"station_id":"BJD"},{"distance":5197,"station_id":"CTA","time":5,"i_lat":-6.448811,"is_transit":false,"transit":false,"line":2,"i_long":106.800298,"station_name":"Citayam"},{"i_lat":-6.405256,"line":2,"distance":5084,"time":6,"station_id":"DP","i_long":106.816926,"is_transit":false,"station_name":"Depok","transit":false},{"line":2,"is_transit":false,"station_id":"DPB","time":3,"transit":false,"distance":1584,"station_name":"Depokbaru","i_lat":-6.391065,"i_long":106.819451},{"line":2,"distance":2727,"time":4,"station_name":"Pondok Cina","transit":false,"i_long":106.831114,"is_transit":false,"i_lat":-6.369073,"station_id":"POC"},{"time":2,"i_lat":-6.360749,"i_long":106.831474,"is_transit":false,"transit":false,"line":2,"distance":1109,"station_name":"Univ. Indonesia","station_id":"UI"},{"is_transit":false,"line":2,"station_name":"Univ. Pancasila","station_id":"UP","time":3,"transit":false,"i_lat":-6.339291,"i_long":106.834175,"distance":2264},{"is_transit":false,"distance":1029,"station_name":"Lenteng Agung","station_id":"LNA","transit":false,"i_lat":-6.330363,"line":2,"time":2,"i_long":106.832616},{"is_transit":false,"station_id":"TNT","line":2,"i_lat":-6.3080680000000005,"time":3,"distance":2671,"transit":false,"i_long":106.838896,"station_name":"Tanjung Barat"},{"i_lat":-6.2842400000000005,"transit":false,"is_transit":false,"time":4,"distance":2820,"station_id":"PSM","i_long":106.843999,"line":2,"station_name":"Pasar Minggu"},{"i_lat":-6.263214,"i_long":106.851577,"distance":2380,"is_transit":false,"transit":false,"time":2,"station_id":"PSMB","line":2,"station_name":"Pasar Minggu Baru"},{"line":2,"station_name":"Duren Kalibata","i_lat":-6.255332,"i_long":106.85449,"is_transit":false,"transit":false,"distance":824,"time":2,"station_id":"DRN"},{"station_id":"CW","is_transit":false,"time":3,"line":2,"station_name":"Cawang","i_lat":-6.242512,"transit":false,"distance":1546,"i_long":106.856607},{"station_name":"Tebet","distance":1230,"transit":false,"i_lat":-6.226659,"station_id":"TEB","time":2,"line":2,"i_long":106.857948,"is_transit":false},{"i_long":106.84912,"station_name":"Manggarai","transit":true,"time":4,"station_id":"MRI","distance":2610,"i_lat":-6.209883,"is_transit":true,"line":2},{"station_id":"MTR","station_name":"Matraman","is_transit":false,"distance":1275,"i_lat":-6.212485,"i_long":106.858896,"line":1,"time":2,"transit":false},{"i_long":106.86807400000001,"transit":true,"station_id":"JNG","distance":1377,"i_lat":-6.215091,"time":8,"line":1,"station_name":"Jatinegara","is_transit":true},{"transit":false,"i_lat":-6.209188,"i_long":106.861737,"line":11,"time":2,"station_name":"Pondok Jati","station_id":"POK","is_transit":false,"distance":1236},{"time":2,"i_long":106.855437,"transit":false,"station_name":"Kramat","distance":1829,"is_transit":false,"station_id":"KMT","i_lat":-6.193792,"line":11},{"line":11,"station_id":"GST","is_transit":false,"station_name":"Gang Sentiong","distance":973,"transit":false,"i_lat":-6.185975,"time":1,"i_long":106.850107},{"station_name":"Pasar Senen","is_transit":false,"time":8,"transit":false,"distance":1567,"i_lat":-6.174784,"station_id":"PSE","i_long":106.84368,"line":11},{"i_long":106.839204,"station_id":"KMO","time":4,"i_lat":-6.161728,"line":11,"distance":1436,"transit":false,"is_transit":false,"station_name":"Kemayoran"},{"transit":false,"i_lat":-6.14505,"i_long":106.836569,"line":11,"time":5,"station_id":"RJW","is_transit":false,"station_name":"Rajawali","distance":1901},{"line":4,"time":3,"station_name":"Kampung Bandan","station_id":"KPB","distance":1444,"i_long":106.826365,"i_lat":-6.132549,"transit":true,"is_transit":true},{"time":9,"line":1,"is_transit":false,"transit":false,"i_lat":-6.144674,"i_long":106.79867,"station_id":"AK","distance":4102,"station_name":"Angke"},{"i_lat":-6.155215,"i_long":106.800832,"line":1,"transit":false,"is_transit":false,"distance":1230,"time":4,"station_id":"DU","station_name":"Duri"},{"station_name":"Tanah Abang","i_lat":-6.185545,"line":1,"transit":true,"station_id":"THB","distance":3632,"time":8,"i_long":106.811091,"is_transit":true},{"time":6,"transit":false,"i_lat":-6.207404,"distance":3191,"station_id":"PLM","i_long":106.79689,"line":6,"is_transit":false,"station_name":"Palmerah"},{"time":7,"transit":false,"i_lat":-6.237242,"i_long":106.780334,"line":6,"station_name":"Kebayoran","is_transit":false,"distance":3737,"station_id":"KBY"},{"time":8,"distance":6218,"station_id":"PDJ","transit":false,"i_lat":-6.276362,"i_long":106.74273,"line":6,"station_name":"Pondokranji","is_transit":false},{"is_transit":false,"transit":false,"i_long":106.728916,"station_id":"JMU","station_name":"Jurangmangu","distance":2179,"line":6,"i_lat":-6.288927,"time":3},{"station_name":"Sudimara","station_id":"SDM","is_transit":false,"i_lat":-6.296963,"i_long":106.712277,"distance":1994,"transit":false,"line":6,"time":4},{"time":6,"i_lat":-6.314823,"station_id":"RU","transit":false,"station_name":"Rawa Buntu","line":6,"i_long":106.675475,"is_transit":false,"distance":4566},{"time":4,"distance":2413,"i_long":106.66566,"transit":false,"is_transit":false,"i_lat":-6.319871,"station_id":"SRP","line":6,"station_name":"Serpong"},{"i_lat":-6.32484,"line":3,"time":4,"station_name":"Cisauk","is_transit":false,"distance":1784,"transit":false,"station_id":"CSK","i_long":106.640411},{"is_transit":false,"station_id":"CC","station_name":"Cicayur","i_lat":-6.329547,"line":3,"time":4,"distance":2519,"transit":false,"i_long":106.617853},{"station_id":"PRP","i_lat":-6.3441410000000005,"line":6,"station_name":"Parung Panjang","i_long":106.568863,"distance":5968,"time":8,"transit":false,"is_transit":false},{"distance":7025,"station_id":"CJT","line":3,"station_name":"Cilejit","transit":false,"i_long":106.508482,"time":9,"is_transit":false,"i_lat":-6.354349},{"time":6,"distance":2675,"transit":false,"station_name":"Daru","i_lat":-6.338021,"is_transit":false,"station_id":"DAR","i_long":106.491338,"line":0},{"station_name":"Tenjo","line":6,"transit":false,"station_id":"TEJ","is_transit":false,"i_long":106.460812,"distance":3902,"time":5,"i_lat":-6.327251},{"station_name":"Tigaraksa","transit":false,"i_lat":-6.328533,"time":5,"station_id":"TGS","line":6,"distance":2974,"i_long":106.425991,"is_transit":false},{"transit":false,"distance":2651,"i_long":106.411216,"line":3,"i_lat":-6.33561,"is_transit":false,"station_id":"CKY","time":3,"station_name":"Cikoya"},{"station_name":"Maja","distance":1853,"line":6,"is_transit":false,"time":4,"transit":false,"station_id":"MJ","i_lat":-6.332307,"i_long":106.394373}]]}