{"data":[[{"transit":false,"station_name":"Bogor","is_transit":true,"i_lat":-6.594596,"time":0,"i_long":106.790574,"line":1,"station_id":"BOO","distance":0},{"is_transit":false,"station_id":"CLT","i_lat":-6.530544,"distance":7514,"i_long":106.800016,"station_name":"Cilebut","time":9,"transit":false,"line":0},{"line":0,"is_transit":false,"distance":4331,"transit":false,"i_long":106.792719,"i_lat":-6.493243,"time":5,"station_name":"Bojonggede","station_id":"BJD"},{"i_lat":-6.448811,"i_long":106.800298,"time":5,"distance":5197,"line":1,"station_id":"CTA","station_name":"Citayam","is_transit":true,"transit":false},{"station_name":"Depok","transit":false,"i_long":106.816926,"i_lat":-6.405256,"distance":5084,"is_transit":false,"time":6,"station_id":"DP","line":0},{"line":0,"time":3,"distance":1584,"i_lat":-6.391065,"transit":false,"station_name":"Depokbaru","station_id":"DPB","is_transit":false,"i_long":106.819451},{"transit":false,"i_long":106.831114,"line":2,"time":4,"station_id":"POC","is_transit":false,"station_name":"Pondok Cina","i_lat":-6.369073,"distance":2727},{"i_lat":-6.360749,"time":2,"is_transit":false,"station_id":"UI","distance":1109,"transit":false,"station_name":"Univ. Indonesia","i_long":106.831474,"line":2},{"station_name":"Univ. Pancasila","time":3,"i_long":106.834175,"i_lat":-6.339291,"is_transit":false,"transit":false,"distance":2264,"line":2,"station_id":"UP"}]]}