{"data":[[{"station_name":"Bogor","i_lat":-6.594596,"distance":0,"line":2,"time":0,"transit":false,"i_long":106.790574,"station_id":"BOO","is_transit":false},{"i_long":106.800016,"distance":7514,"time":9,"line":2,"station_name":"Cilebut","station_id":"CLT","transit":false,"i_lat":-6.530544,"is_transit":false},{"time":5,"i_long":106.792719,"station_name":"Bojonggede","is_transit":false,"i_lat":-6.493243,"station_id":"BJD","line":2,"distance":4331,"transit":false},{"station_id":"CTA","line":2,"transit":false,"time":5,"station_name":"Citayam","is_transit":false,"i_long":106.800298,"i_lat":-6.448811,"distance":5197},{"is_transit":false,"i_long":106.816926,"line":2,"time":6,"station_name":"Depok","transit":false,"i_lat":-6.405256,"distance":5084,"station_id":"DP"},{"distance":1584,"is_transit":false,"station_id":"DPB","time":3,"line":2,"transit":false,"station_name":"Depokbaru","i_lat":-6.391065,"i_long":106.819451},{"i_long":106.831114,"line":2,"is_transit":false,"time":4,"distance":2727,"station_id":"POC","transit":false,"i_lat":-6.369073,"station_name":"Pondok Cina"},{"i_lat":-6.360749,"time":2,"distance":1109,"station_name":"Univ. Indonesia","transit":false,"i_long":106.831474,"station_id":"UI","is_transit":false,"line":2},{"transit":false,"i_long":106.834175,"line":2,"i_lat":-6.339291,"is_transit":false,"distance":2264,"time":3,"station_id":"UP","station_name":"Univ. Pancasila"},{"i_long":106.832616,"i_lat":-6.330363,"line":2,"station_id":"LNA","station_name":"Lenteng Agung","is_transit":false,"time":2,"distance":1029,"transit":false},{"transit":false,"time":3,"station_name":"Tanjung Barat","distance":2671,"station_id":"TNT","i_lat":-6.3080680000000005,"line":2,"is_transit":false,"i_long":106.838896},{"time":4,"transit":false,"station_name":"Pasar Minggu","distance":2820,"station_id":"PSM","i_lat":-6.2842400000000005,"line":2,"is_transit":false,"i_long":106.843999},{"station_name":"Pasar Minggu Baru","transit":false,"distance":2380,"i_lat":-6.263214,"is_transit":false,"station_id":"PSMB","time":2,"i_long":106.851577,"line":2},{"station_id":"DRN","is_transit":false,"station_name":"Duren Kalibata","i_long":106.85449,"time":2,"distance":824,"i_lat":-6.255332,"transit":false,"line":2},{"station_name":"Cawang","time":3,"is_transit":false,"distance":1546,"i_long":106.856607,"i_lat":-6.242512,"line":2,"station_id":"CW","transit":false},{"station_id":"TEB","line":2,"station_name":"Tebet","distance":1230,"i_long":106.857948,"i_lat":-6.226659,"time":2,"transit":false,"is_transit":false},{"station_name":"Manggarai","is_transit":true,"i_lat":-6.209883,"station_id":"MRI","i_long":106.84912,"line":2,"transit":true,"time":4,"distance":2610},{"station_id":"SUD","i_lat":-6.202263,"is_transit":false,"distance":3186,"time":4,"i_long":106.822649,"line":1,"transit":false,"station_name":"Sudirman"},{"station_name":"Sudirman Baru","transit":false,"distance":280,"i_lat":-6.201433,"station_id":"SUDB","time":1,"is_transit":false,"i_long":106.819881,"line":1},{"line":1,"i_lat":-6.20132,"station_name":"Karet","transit":false,"i_long":106.816351,"distance":471,"station_id":"KAT","time":1,"is_transit":false},{"station_id":"THB","is_transit":false,"line":1,"distance":2029,"i_lat":-6.185545,"station_name":"Tanah Abang","i_long":106.811091,"transit":false,"time":5},{"time":8,"distance":3632,"i_lat":-6.155215,"line":1,"is_transit":true,"i_long":106.800832,"transit":true,"station_name":"Duri","station_id":"DU"},{"line":5,"distance":1700,"station_name":"Grogol","i_long":106.788277,"i_lat":-6.162021,"time":3,"station_id":"GGL","transit":false,"is_transit":false},{"station_name":"Pesing","i_lat":-6.161433,"station_id":"PSG","i_long":106.771379,"transit":false,"time":2,"is_transit":false,"line":5,"distance":2036},{"distance":1614,"transit":false,"station_name":"Taman Kota","i_lat":-6.1587309999999995,"line":5,"i_long":106.756522,"is_transit":false,"station_id":"TKO","time":2},{"transit":false,"line":5,"station_id":"BOI","is_transit":false,"time":2,"i_lat":-6.159876,"i_long":106.737035,"distance":2334,"station_name":"Bojongindah"}],[{"line":2,"station_id":"BOO","station_name":"Bogor","i_lat":-6.594596,"is_transit":false,"i_long":106.790574,"distance":0,"transit":false,"time":0},{"i_long":106.800016,"station_name":"Cilebut","time":9,"is_transit":false,"i_lat":-6.530544,"station_id":"CLT","line":2,"distance":7514,"transit":false},{"station_name":"Bojonggede","distance":4331,"station_id":"BJD","i_lat":-6.493243,"line":2,"i_long":106.792719,"transit":false,"time":5,"is_transit":false},{"i_long":106.800298,"station_name":"Citayam","station_id":"CTA","distance":5197,"is_transit":false,"time":5,"i_lat":-6.448811,"line":2,"transit":false},{"distance":5084,"is_transit":false,"transit":false,"time":6,"i_long":106.816926,"line":2,"station_id":"DP","station_name":"Depok","i_lat":-6.405256},{"distance":1584,"i_lat":-6.391065,"station_id":"DPB","time":3,"i_long":106.819451,"transit":false,"station_name":"Depokbaru","is_transit":false,"line":2},{"transit":false,"is_transit":false,"time":4,"station_id":"POC","distance":2727,"station_name":"Pondok Cina","i_lat":-6.369073,"i_long":106.831114,"line":2},{"i_lat":-6.360749,"is_transit":false,"transit":false,"station_name":"Univ. Indonesia","distance":1109,"time":2,"i_long":106.831474,"station_id":"UI","line":2},{"is_transit":false,"station_name":"Univ. Pancasila","i_long":106.834175,"station_id":"UP","time":3,"i_lat":-6.339291,"transit":false,"line":2,"distance":2264},{"i_lat":-6.330363,"transit":false,"i_long":106.832616,"station_id":"LNA","time":2,"line":2,"is_transit":false,"distance":1029,"station_name":"Lenteng Agung"},{"line":2,"i_long":106.838896,"is_transit":false,"time":3,"distance":2671,"station_name":"Tanjung Barat","transit":false,"station_id":"TNT","i_lat":-6.3080680000000005},{"is_transit":false,"distance":2820,"i_long":106.843999,"line":2,"station_name":"Pasar Minggu","time":4,"transit":false,"i_lat":-6.2842400000000005,"station_id":"PSM"},{"station_name":"Pasar Minggu Baru","is_transit":false,"time":2,"station_id":"PSMB","distance":2380,"transit":false,"i_lat":-6.263214,"line":2,"i_long":106.851577},{"i_long":106.85449,"station_name":"Duren Kalibata","station_id":"DRN","is_transit":false,"distance":824,"i_lat":-6.255332,"line":2,"transit":false,"time":2},{"station_id":"CW","distance":1546,"i_lat":-6.242512,"time":3,"station_name":"Cawang","line":2,"transit":false,"i_long":106.856607,"is_transit":false},{"is_transit":false,"i_lat":-6.226659,"station_id":"TEB","station_name":"Tebet","distance":1230,"time":2,"i_long":106.857948,"line":2,"transit":false},{"is_transit":false,"distance":2610,"station_name":"Manggarai","station_id":"MRI","time":4,"i_long":106.84912,"i_lat":-6.209883,"line":2,"transit":false},{"i_lat":-6.198556,"transit":false,"time":4,"i_long":106.840169,"station_name":"Cikini","is_transit":false,"distance":1590,"line":2,"station_id":"CKI"},{"station_id":"GDD","is_transit":false,"time":3,"distance":1750,"line":2,"i_lat":-6.186295,"i_long":106.832183,"transit":false,"station_name":"Gondangdia"},{"distance":2015,"line":2,"transit":false,"i_lat":-6.166716,"station_name":"Juanda","is_transit":false,"i_long":106.828284,"time":4,"station_id":"JUA"},{"station_id":"SW","transit":false,"i_long":106.827103,"station_name":"Sawah Besar","is_transit":false,"time":2,"distance":1149,"i_lat":-6.160725,"line":2},{"station_name":"Manggabesar","time":2,"distance":906,"i_long":106.82482,"station_id":"MGB","transit":false,"i_lat":-6.149769,"is_transit":false,"line":2},{"transit":false,"line":2,"station_id":"JAY","is_transit":false,"station_name":"Jayakarta","time":2,"distance":1080,"i_lat":-6.141205,"i_long":106.820901},{"i_lat":-6.137569,"time":4,"i_long":106.812439,"line":2,"station_name":"Jakarta Kota","is_transit":true,"transit":true,"distance":1264,"station_id":"JAKK"},{"distance":1364,"station_name":"Kampung Bandan","i_lat":-6.132549,"time":3,"i_long":106.826365,"station_id":"KPB","line":4,"is_transit":true,"transit":true},{"is_transit":false,"i_long":106.79867,"transit":false,"time":9,"station_name":"Angke","line":1,"station_id":"AK","i_lat":-6.144674,"distance":4102},{"i_long":106.800832,"station_id":"DU","station_name":"Duri","time":4,"distance":1230,"i_lat":-6.155215,"line":1,"transit":true,"is_transit":true},{"line":5,"time":3,"i_lat":-6.162021,"station_name":"Grogol","distance":1700,"is_transit":false,"i_long":106.788277,"transit":false,"station_id":"GGL"},{"station_name":"Pesing","is_transit":false,"i_lat":-6.161433,"time":2,"i_long":106.771379,"transit":false,"distance":2036,"line":5,"station_id":"PSG"},{"line":5,"station_name":"Taman Kota","station_id":"TKO","transit":false,"time":2,"i_lat":-6.1587309999999995,"is_transit":false,"i_long":106.756522,"distance":1614},{"is_transit":false,"line":5,"station_name":"Bojongindah","time":2,"station_id":"BOI","transit":false,"distance":2334,"i_long":106.737035,"i_lat":-6.159876}],[{"i_long":106.790574,"time":0,"distance":0,"station_name":"Bogor","station_id":"BOO","i_lat":-6.594596,"line":2,"transit":false,"is_transit":false},{"line":2,"is_transit":false,"station_id":"CLT","transit":false,"time":9,"i_long":106.800016,"station_name":"Cilebut","distance":7514,"i_lat":-6.530544},{"is_transit":false,"transit":false,"station_name":"Bojonggede","station_id":"BJD","time":5,"line":2,"i_lat":-6.493243,"i_long":106.792719,"distance":4331},{"is_transit":false,"line":2,"time":5,"i_lat":-6.448811,"transit":false,"station_name":"Citayam","distance":5197,"i_long":106.800298,"station_id":"CTA"},{"is_transit":false,"time":6,"i_lat":-6.405256,"station_id":"DP","station_name":"Depok","line":2,"distance":5084,"i_long":106.816926,"transit":false},{"i_long":106.819451,"is_transit":false,"station_name":"Depokbaru","i_lat":-6.391065,"transit":false,"station_id":"DPB","time":3,"line":2,"distance":1584},{"transit":false,"time":4,"station_id":"POC","station_name":"Pondok Cina","is_transit":false,"distance":2727,"i_lat":-6.369073,"i_long":106.831114,"line":2},{"is_transit":false,"i_lat":-6.360749,"distance":1109,"station_id":"UI","transit":false,"time":2,"station_name":"Univ. Indonesia","i_long":106.831474,"line":2},{"i_lat":-6.339291,"i_long":106.834175,"transit":false,"time":3,"distance":2264,"station_name":"Univ. Pancasila","station_id":"UP","is_transit":false,"line":2},{"is_transit":false,"station_name":"Lenteng Agung","i_lat":-6.330363,"station_id":"LNA","distance":1029,"time":2,"i_long":106.832616,"line":2,"transit":false},{"transit":false,"station_name":"Tanjung Barat","station_id":"TNT","i_lat":-6.3080680000000005,"is_transit":false,"time":3,"distance":2671,"i_long":106.838896,"line":2},{"transit":false,"i_long":106.843999,"time":4,"i_lat":-6.2842400000000005,"distance":2820,"line":2,"station_name":"Pasar Minggu","is_transit":false,"station_id":"PSM"},{"transit":false,"i_long":106.851577,"is_transit":false,"i_lat":-6.263214,"station_name":"Pasar Minggu Baru","distance":2380,"line":2,"time":2,"station_id":"PSMB"},{"i_long":106.85449,"station_name":"Duren Kalibata","transit":false,"station_id":"DRN","i_lat":-6.255332,"line":2,"is_transit":false,"distance":824,"time":2},{"i_long":106.856607,"line":2,"transit":false,"distance":1546,"i_lat":-6.242512,"is_transit":false,"station_id":"CW","station_name":"Cawang","time":3},{"i_lat":-6.226659,"station_id":"TEB","is_transit":false,"station_name":"Tebet","time":2,"i_long":106.857948,"line":2,"transit":false,"distance":1230},{"i_lat":-6.209883,"station_name":"Manggarai","is_transit":true,"station_id":"MRI","transit":true,"i_long":106.84912,"line":2,"time":4,"distance":2610},{"station_name":"Matraman","distance":1275,"transit":false,"i_long":106.858896,"i_lat":-6.212485,"station_id":"MTR","is_transit":false,"line":1,"time":2},{"i_lat":-6.215091,"is_transit":true,"station_name":"Jatinegara","distance":1377,"time":8,"station_id":"JNG","i_long":106.86807400000001,"line":1,"transit":true},{"transit":false,"line":11,"time":2,"station_name":"Pondok Jati","station_id":"POK","is_transit":false,"distance":1236,"i_lat":-6.209188,"i_long":106.861737},{"i_lat":-6.193792,"i_long":106.855437,"line":11,"station_id":"KMT","distance":1829,"station_name":"Kramat","transit":false,"time":2,"is_transit":false},{"station_id":"GST","is_transit":false,"line":11,"transit":false,"distance":973,"i_long":106.850107,"i_lat":-6.185975,"station_name":"Gang Sentiong","time":1},{"distance":1567,"station_id":"PSE","i_lat":-6.174784,"transit":false,"i_long":106.84368,"is_transit":false,"time":8,"line":11,"station_name":"Pasar Senen"},{"is_transit":false,"line":11,"time":4,"distance":1436,"transit":false,"station_id":"KMO","i_lat":-6.161728,"i_long":106.839204,"station_name":"Kemayoran"},{"time":5,"i_long":106.836569,"station_name":"Rajawali","station_id":"RJW","is_transit":false,"i_lat":-6.14505,"distance":1901,"line":11,"transit":false},{"i_long":106.826365,"distance":1444,"transit":true,"station_name":"Kampung Bandan","is_transit":true,"i_lat":-6.132549,"line":4,"station_id":"KPB","time":3},{"i_long":106.79867,"time":9,"is_transit":false,"station_id":"AK","transit":false,"distance":4102,"line":1,"i_lat":-6.144674,"station_name":"Angke"},{"station_name":"Duri","line":1,"is_transit":true,"transit":true,"distance":1230,"i_lat":-6.155215,"time":4,"i_long":106.800832,"station_id":"DU"},{"transit":false,"station_id":"GGL","i_lat":-6.162021,"i_long":106.788277,"time":3,"station_name":"Grogol","is_transit":false,"distance":1700,"line":5},{"is_transit":false,"i_lat":-6.161433,"distance":2036,"i_long":106.771379,"line":5,"transit":false,"time":2,"station_name":"Pesing","station_id":"PSG"},{"i_lat":-6.1587309999999995,"time":2,"transit":false,"station_name":"Taman Kota","distance":1614,"line":5,"is_transit":false,"station_id":"TKO","i_long":106.756522},{"time":2,"station_name":"Bojongindah","i_lat":-6.159876,"station_id":"BOI","transit":false,"line":5,"i_long":106.737035,"is_transit":false,"distance":2334}]]}