{"data":[[{"i_long":106.790574,"time":0,"station_name":"Bogor","station_id":"BOO","i_lat":-6.594596,"line":2,"transit":false,"is_transit":false,"distance":0},{"line":2,"is_transit":false,"distance":7514,"station_name":"Cilebut","transit":false,"i_long":106.800016,"time":9,"i_lat":-6.530544,"station_id":"CLT"},{"station_id":"BJD","distance":4331,"i_long":106.792719,"is_transit":false,"time":5,"transit":false,"station_name":"Bojonggede","line":2,"i_lat":-6.493243},{"is_transit":false,"i_lat":-6.448811,"line":2,"station_id":"CTA","transit":false,"distance":5197,"station_name":"Citayam","i_long":106.800298,"time":5},{"transit":false,"is_transit":false,"i_long":106.816926,"i_lat":-6.405256,"time":6,"station_id":"DP","station_name":"Depok","distance":5084,"line":2},{"transit":false,"distance":1584,"i_long":106.819451,"line":2,"i_lat":-6.391065,"is_transit":false,"station_name":"Depokbaru","time":3,"station_id":"DPB"},{"time":4,"line":2,"i_long":106.831114,"i_lat":-6.369073,"is_transit":false,"transit":false,"distance":2727,"station_name":"Pondok Cina","station_id":"POC"},{"is_transit":false,"transit":false,"station_name":"Univ. Indonesia","i_lat":-6.360749,"i_long":106.831474,"station_id":"UI","line":2,"time":2,"distance":1109},{"is_transit":false,"distance":2264,"station_id":"UP","station_name":"Univ. Pancasila","i_lat":-6.339291,"time":3,"i_long":106.834175,"line":2,"transit":false},{"distance":1029,"station_id":"LNA","station_name":"Lenteng Agung","is_transit":false,"i_long":106.832616,"line":2,"time":2,"i_lat":-6.330363,"transit":false},{"i_long":106.838896,"distance":2671,"station_id":"TNT","transit":false,"i_lat":-6.3080680000000005,"is_transit":false,"time":3,"station_name":"Tanjung Barat","line":2},{"station_name":"Pasar Minggu","i_lat":-6.2842400000000005,"is_transit":false,"distance":2820,"transit":false,"i_long":106.843999,"line":2,"station_id":"PSM","time":4},{"time":2,"station_id":"PSMB","i_long":106.851577,"line":2,"is_transit":false,"station_name":"Pasar Minggu Baru","transit":false,"distance":2380,"i_lat":-6.263214},{"transit":false,"station_id":"DRN","distance":824,"station_name":"Duren Kalibata","time":2,"i_long":106.85449,"i_lat":-6.255332,"line":2,"is_transit":false},{"time":3,"transit":false,"station_name":"Cawang","i_lat":-6.242512,"distance":1546,"line":2,"station_id":"CW","i_long":106.856607,"is_transit":false},{"station_name":"Tebet","i_long":106.857948,"line":2,"distance":1230,"transit":false,"is_transit":false,"i_lat":-6.226659,"time":2,"station_id":"TEB"},{"transit":true,"station_id":"MRI","distance":2610,"i_lat":-6.209883,"station_name":"Manggarai","i_long":106.84912,"line":2,"time":4,"is_transit":true},{"line":1,"station_name":"Sudirman","time":4,"is_transit":false,"distance":3186,"station_id":"SUD","transit":false,"i_lat":-6.202263,"i_long":106.822649},{"is_transit":false,"transit":false,"i_long":106.819881,"distance":280,"line":1,"i_lat":-6.201433,"time":1,"station_id":"SUDB","station_name":"Sudirman Baru"},{"line":1,"distance":471,"station_name":"Karet","i_long":106.816351,"station_id":"KAT","transit":false,"is_transit":false,"time":1,"i_lat":-6.20132},{"i_lat":-6.185545,"i_long":106.811091,"station_name":"Tanah Abang","time":5,"transit":false,"station_id":"THB","is_transit":false,"distance":2029,"line":1},{"station_id":"DU","i_long":106.800832,"is_transit":false,"distance":3632,"line":1,"transit":false,"time":8,"i_lat":-6.155215,"station_name":"Duri"}],[{"is_transit":false,"station_name":"Bogor","i_long":106.790574,"line":2,"transit":false,"i_lat":-6.594596,"distance":0,"time":0,"station_id":"BOO"},{"station_name":"Cilebut","transit":false,"is_transit":false,"i_lat":-6.530544,"i_long":106.800016,"distance":7514,"time":9,"station_id":"CLT","line":2},{"is_transit":false,"i_lat":-6.493243,"line":2,"time":5,"station_name":"Bojonggede","i_long":106.792719,"station_id":"BJD","distance":4331,"transit":false},{"time":5,"station_id":"CTA","transit":false,"i_long":106.800298,"line":2,"is_transit":false,"station_name":"Citayam","i_lat":-6.448811,"distance":5197},{"station_id":"DP","distance":5084,"transit":false,"station_name":"Depok","i_lat":-6.405256,"line":2,"time":6,"i_long":106.816926,"is_transit":false},{"station_id":"DPB","time":3,"distance":1584,"transit":false,"station_name":"Depokbaru","i_lat":-6.391065,"i_long":106.819451,"is_transit":false,"line":2},{"time":4,"line":2,"station_name":"Pondok Cina","is_transit":false,"i_lat":-6.369073,"i_long":106.831114,"distance":2727,"station_id":"POC","transit":false},{"station_name":"Univ. Indonesia","line":2,"transit":false,"station_id":"UI","i_long":106.831474,"time":2,"distance":1109,"i_lat":-6.360749,"is_transit":false},{"station_name":"Univ. Pancasila","distance":2264,"i_lat":-6.339291,"is_transit":false,"line":2,"transit":false,"time":3,"i_long":106.834175,"station_id":"UP"},{"i_long":106.832616,"i_lat":-6.330363,"time":2,"station_id":"LNA","transit":false,"is_transit":false,"station_name":"Lenteng Agung","distance":1029,"line":2},{"time":3,"i_lat":-6.3080680000000005,"i_long":106.838896,"line":2,"station_id":"TNT","is_transit":false,"transit":false,"station_name":"Tanjung Barat","distance":2671},{"transit":false,"line":2,"distance":2820,"station_name":"Pasar Minggu","i_lat":-6.2842400000000005,"station_id":"PSM","i_long":106.843999,"is_transit":false,"time":4},{"transit":false,"i_lat":-6.263214,"time":2,"i_long":106.851577,"line":2,"station_id":"PSMB","distance":2380,"station_name":"Pasar Minggu Baru","is_transit":false},{"i_long":106.85449,"station_id":"DRN","line":2,"is_transit":false,"transit":false,"time":2,"station_name":"Duren Kalibata","i_lat":-6.255332,"distance":824},{"transit":false,"distance":1546,"i_lat":-6.242512,"station_id":"CW","station_name":"Cawang","is_transit":false,"line":2,"time":3,"i_long":106.856607},{"distance":1230,"time":2,"transit":false,"line":2,"station_name":"Tebet","i_long":106.857948,"is_transit":false,"station_id":"TEB","i_lat":-6.226659},{"time":4,"distance":2610,"i_lat":-6.209883,"station_id":"MRI","is_transit":false,"transit":false,"station_name":"Manggarai","i_long":106.84912,"line":2},{"time":4,"i_lat":-6.198556,"transit":false,"station_id":"CKI","is_transit":false,"station_name":"Cikini","line":2,"i_long":106.840169,"distance":1590},{"transit":false,"distance":1750,"is_transit":false,"i_lat":-6.186295,"line":2,"i_long":106.832183,"station_id":"GDD","station_name":"Gondangdia","time":3},{"transit":false,"line":2,"is_transit":false,"i_lat":-6.166716,"i_long":106.828284,"station_name":"Juanda","time":4,"distance":2015,"station_id":"JUA"},{"is_transit":false,"i_long":106.827103,"time":2,"distance":1149,"line":2,"station_id":"SW","transit":false,"i_lat":-6.160725,"station_name":"Sawah Besar"},{"station_id":"MGB","line":2,"transit":false,"time":2,"i_lat":-6.149769,"distance":906,"i_long":106.82482,"station_name":"Manggabesar","is_transit":false},{"i_long":106.820901,"i_lat":-6.141205,"station_name":"Jayakarta","transit":false,"distance":1080,"line":2,"is_transit":false,"station_id":"JAY","time":2},{"distance":1264,"i_lat":-6.137569,"i_long":106.812439,"line":2,"transit":true,"time":4,"is_transit":true,"station_name":"Jakarta Kota","station_id":"JAKK"},{"station_id":"KPB","is_transit":true,"transit":true,"i_long":106.826365,"distance":1364,"i_lat":-6.132549,"line":4,"time":3,"station_name":"Kampung Bandan"},{"transit":false,"station_name":"Angke","station_id":"AK","i_long":106.79867,"line":1,"distance":4102,"is_transit":false,"i_lat":-6.144674,"time":9},{"is_transit":false,"station_id":"DU","station_name":"Duri","distance":1230,"i_lat":-6.155215,"line":1,"time":4,"i_long":106.800832,"transit":false}],[{"is_transit":false,"distance":0,"station_name":"Bogor","station_id":"BOO","i_lat":-6.594596,"i_long":106.790574,"line":2,"transit":false,"time":0},{"line":2,"i_lat":-6.530544,"transit":false,"is_transit":false,"time":9,"station_id":"CLT","i_long":106.800016,"distance":7514,"station_name":"Cilebut"},{"line":2,"is_transit":false,"i_long":106.792719,"time":5,"distance":4331,"i_lat":-6.493243,"station_name":"Bojonggede","transit":false,"station_id":"BJD"},{"station_id":"CTA","is_transit":false,"station_name":"Citayam","i_long":106.800298,"transit":false,"i_lat":-6.448811,"line":2,"distance":5197,"time":5},{"i_lat":-6.405256,"line":2,"is_transit":false,"i_long":106.816926,"station_id":"DP","distance":5084,"station_name":"Depok","transit":false,"time":6},{"transit":false,"time":3,"station_name":"Depokbaru","station_id":"DPB","i_long":106.819451,"is_transit":false,"i_lat":-6.391065,"distance":1584,"line":2},{"is_transit":false,"distance":2727,"i_long":106.831114,"station_name":"Pondok Cina","station_id":"POC","i_lat":-6.369073,"line":2,"transit":false,"time":4},{"i_lat":-6.360749,"transit":false,"station_name":"Univ. Indonesia","station_id":"UI","i_long":106.831474,"line":2,"distance":1109,"is_transit":false,"time":2},{"transit":false,"i_lat":-6.339291,"line":2,"is_transit":false,"distance":2264,"i_long":106.834175,"station_name":"Univ. Pancasila","station_id":"UP","time":3},{"time":2,"transit":false,"is_transit":false,"distance":1029,"station_name":"Lenteng Agung","i_long":106.832616,"station_id":"LNA","i_lat":-6.330363,"line":2},{"transit":false,"line":2,"i_lat":-6.3080680000000005,"i_long":106.838896,"station_id":"TNT","distance":2671,"station_name":"Tanjung Barat","time":3,"is_transit":false},{"i_lat":-6.2842400000000005,"line":2,"transit":false,"station_name":"Pasar Minggu","time":4,"i_long":106.843999,"is_transit":false,"station_id":"PSM","distance":2820},{"station_id":"PSMB","distance":2380,"is_transit":false,"line":2,"station_name":"Pasar Minggu Baru","i_long":106.851577,"i_lat":-6.263214,"time":2,"transit":false},{"i_lat":-6.255332,"distance":824,"station_name":"Duren Kalibata","station_id":"DRN","i_long":106.85449,"time":2,"line":2,"is_transit":false,"transit":false},{"station_id":"CW","is_transit":false,"station_name":"Cawang","i_long":106.856607,"i_lat":-6.242512,"time":3,"distance":1546,"transit":false,"line":2},{"distance":1230,"transit":false,"i_lat":-6.226659,"i_long":106.857948,"is_transit":false,"station_name":"Tebet","time":2,"line":2,"station_id":"TEB"},{"i_long":106.84912,"line":2,"time":4,"distance":2610,"station_name":"Manggarai","is_transit":true,"i_lat":-6.209883,"station_id":"MRI","transit":true},{"station_name":"Matraman","station_id":"MTR","is_transit":false,"time":2,"transit":false,"distance":1275,"i_long":106.858896,"i_lat":-6.212485,"line":1},{"time":8,"station_id":"JNG","i_long":106.86807400000001,"line":1,"i_lat":-6.215091,"is_transit":true,"distance":1377,"transit":true,"station_name":"Jatinegara"},{"station_id":"POK","i_lat":-6.209188,"is_transit":false,"time":2,"i_long":106.861737,"line":11,"distance":1236,"transit":false,"station_name":"Pondok Jati"},{"i_lat":-6.193792,"station_id":"KMT","i_long":106.855437,"line":11,"time":2,"distance":1829,"transit":false,"station_name":"Kramat","is_transit":false},{"i_long":106.850107,"line":11,"distance":973,"transit":false,"station_name":"Gang Sentiong","i_lat":-6.185975,"station_id":"GST","is_transit":false,"time":1},{"i_long":106.84368,"i_lat":-6.174784,"station_id":"PSE","transit":false,"station_name":"Pasar Senen","time":8,"is_transit":false,"line":11,"distance":1567},{"station_name":"Kemayoran","station_id":"KMO","distance":1436,"is_transit":false,"line":11,"transit":false,"i_long":106.839204,"i_lat":-6.161728,"time":4},{"station_id":"RJW","time":5,"i_lat":-6.14505,"is_transit":false,"station_name":"Rajawali","i_long":106.836569,"distance":1901,"transit":false,"line":11},{"station_id":"KPB","is_transit":true,"distance":1444,"time":3,"station_name":"Kampung Bandan","i_long":106.826365,"i_lat":-6.132549,"line":4,"transit":true},{"time":9,"station_id":"AK","distance":4102,"transit":false,"i_long":106.79867,"station_name":"Angke","is_transit":false,"i_lat":-6.144674,"line":1},{"time":4,"line":1,"is_transit":false,"station_name":"Duri","i_lat":-6.155215,"i_long":106.800832,"station_id":"DU","distance":1230,"transit":false}]]}