{"data":[[{"station_name":"Bogor","transit":false,"distance":0,"i_lat":-6.594596,"time":0,"station_id":"BOO","is_transit":false,"i_long":106.790574,"line":2},{"line":2,"i_lat":-6.530544,"station_name":"Cilebut","transit":false,"i_long":106.800016,"distance":7514,"station_id":"CLT","time":9,"is_transit":false},{"station_id":"BJD","is_transit":false,"line":2,"distance":4331,"i_lat":-6.493243,"station_name":"Bojonggede","i_long":106.792719,"transit":false,"time":5},{"time":5,"distance":5197,"i_lat":-6.448811,"line":2,"is_transit":false,"i_long":106.800298,"transit":false,"station_name":"Citayam","station_id":"CTA"},{"line":2,"distance":5084,"station_name":"Depok","i_long":106.816926,"i_lat":-6.405256,"time":6,"station_id":"DP","transit":false,"is_transit":false},{"station_name":"Depokbaru","i_lat":-6.391065,"station_id":"DPB","i_long":106.819451,"transit":false,"time":3,"is_transit":false,"line":2,"distance":1584},{"station_id":"POC","transit":false,"station_name":"Pondok Cina","i_lat":-6.369073,"line":2,"i_long":106.831114,"is_transit":false,"distance":2727,"time":4},{"transit":false,"line":2,"station_id":"UI","is_transit":false,"time":2,"i_lat":-6.360749,"i_long":106.831474,"distance":1109,"station_name":"Univ. Indonesia"},{"line":2,"station_name":"Univ. Pancasila","station_id":"UP","i_lat":-6.339291,"is_transit":false,"i_long":106.834175,"distance":2264,"transit":false,"time":3},{"i_long":106.832616,"station_name":"Lenteng Agung","time":2,"is_transit":false,"i_lat":-6.330363,"station_id":"LNA","line":2,"distance":1029,"transit":false},{"station_name":"Tanjung Barat","distance":2671,"station_id":"TNT","i_lat":-6.3080680000000005,"line":2,"i_long":106.838896,"transit":false,"time":3,"is_transit":false},{"i_long":106.843999,"station_name":"Pasar Minggu","distance":2820,"station_id":"PSM","time":4,"is_transit":false,"i_lat":-6.2842400000000005,"line":2,"transit":false},{"distance":2380,"is_transit":false,"transit":false,"time":2,"i_long":106.851577,"line":2,"station_name":"Pasar Minggu Baru","station_id":"PSMB","i_lat":-6.263214},{"distance":824,"i_lat":-6.255332,"station_id":"DRN","time":2,"i_long":106.85449,"transit":false,"station_name":"Duren Kalibata","is_transit":false,"line":2},{"transit":false,"is_transit":false,"time":3,"station_id":"CW","distance":1546,"station_name":"Cawang","i_lat":-6.242512,"i_long":106.856607,"line":2},{"i_lat":-6.226659,"is_transit":false,"transit":false,"station_name":"Tebet","distance":1230,"time":2,"i_long":106.857948,"station_id":"TEB","line":2},{"is_transit":false,"station_name":"Manggarai","i_long":106.84912,"time":4,"station_id":"MRI","i_lat":-6.209883,"transit":false,"line":2,"distance":2610},{"time":4,"i_long":106.840169,"is_transit":false,"i_lat":-6.198556,"station_name":"Cikini","station_id":"CKI","transit":false,"line":2,"distance":1590},{"station_id":"GDD","distance":1750,"line":2,"time":3,"i_lat":-6.186295,"station_name":"Gondangdia","is_transit":false,"i_long":106.832183,"transit":false},{"i_lat":-6.166716,"i_long":106.828284,"line":2,"station_name":"Juanda","distance":2015,"transit":false,"station_id":"JUA","is_transit":false,"time":4}],[{"i_lat":-6.594596,"line":2,"transit":false,"station_id":"BOO","is_transit":false,"i_long":106.790574,"time":0,"station_name":"Bogor","distance":0},{"distance":7514,"i_long":106.800016,"line":2,"station_id":"CLT","transit":false,"is_transit":false,"i_lat":-6.530544,"station_name":"Cilebut","time":9},{"time":5,"station_id":"BJD","transit":false,"distance":4331,"i_lat":-6.493243,"i_long":106.792719,"line":2,"is_transit":false,"station_name":"Bojonggede"},{"is_transit":false,"station_name":"Citayam","time":5,"station_id":"CTA","transit":false,"i_long":106.800298,"i_lat":-6.448811,"line":2,"distance":5197},{"i_lat":-6.405256,"i_long":106.816926,"distance":5084,"transit":false,"station_id":"DP","station_name":"Depok","time":6,"is_transit":false,"line":2},{"i_lat":-6.391065,"transit":false,"time":3,"i_long":106.819451,"station_name":"Depokbaru","is_transit":false,"distance":1584,"line":2,"station_id":"DPB"},{"station_id":"POC","distance":2727,"time":4,"is_transit":false,"line":2,"i_lat":-6.369073,"i_long":106.831114,"transit":false,"station_name":"Pondok Cina"},{"station_id":"UI","line":2,"transit":false,"i_lat":-6.360749,"station_name":"Univ. Indonesia","is_transit":false,"i_long":106.831474,"time":2,"distance":1109},{"station_id":"UP","transit":false,"i_long":106.834175,"station_name":"Univ. Pancasila","is_transit":false,"time":3,"distance":2264,"i_lat":-6.339291,"line":2},{"station_name":"Lenteng Agung","time":2,"distance":1029,"i_long":106.832616,"station_id":"LNA","transit":false,"i_lat":-6.330363,"is_transit":false,"line":2},{"transit":false,"line":2,"time":3,"station_id":"TNT","station_name":"Tanjung Barat","is_transit":false,"distance":2671,"i_lat":-6.3080680000000005,"i_long":106.838896},{"i_lat":-6.2842400000000005,"time":4,"i_long":106.843999,"line":2,"station_name":"Pasar Minggu","is_transit":false,"transit":false,"distance":2820,"station_id":"PSM"},{"distance":2380,"station_name":"Pasar Minggu Baru","i_lat":-6.263214,"time":2,"i_long":106.851577,"station_id":"PSMB","line":2,"is_transit":false,"transit":false},{"is_transit":false,"i_long":106.85449,"transit":false,"time":2,"station_name":"Duren Kalibata","line":2,"station_id":"DRN","i_lat":-6.255332,"distance":824},{"i_long":106.856607,"station_id":"CW","station_name":"Cawang","time":3,"distance":1546,"i_lat":-6.242512,"line":2,"transit":false,"is_transit":false},{"line":2,"time":2,"i_lat":-6.226659,"station_name":"Tebet","distance":1230,"is_transit":false,"i_long":106.857948,"transit":false,"station_id":"TEB"},{"station_name":"Manggarai","is_transit":true,"i_lat":-6.209883,"time":4,"i_long":106.84912,"transit":true,"distance":2610,"line":2,"station_id":"MRI"},{"station_id":"SUD","time":4,"i_long":106.822649,"distance":3186,"line":1,"transit":false,"station_name":"Sudirman","is_transit":false,"i_lat":-6.202263},{"i_long":106.819881,"distance":280,"line":1,"is_transit":false,"transit":false,"station_name":"Sudirman Baru","time":1,"station_id":"SUDB","i_lat":-6.201433},{"i_lat":-6.20132,"distance":471,"line":1,"station_name":"Karet","transit":false,"time":1,"station_id":"KAT","is_transit":false,"i_long":106.816351},{"transit":false,"time":5,"is_transit":false,"distance":2029,"line":1,"station_id":"THB","station_name":"Tanah Abang","i_long":106.811091,"i_lat":-6.185545},{"i_long":106.800832,"station_name":"Duri","i_lat":-6.155215,"station_id":"DU","is_transit":false,"distance":3632,"time":8,"transit":false,"line":1},{"distance":1230,"station_name":"Angke","station_id":"AK","is_transit":false,"i_long":106.79867,"line":1,"time":4,"transit":false,"i_lat":-6.144674},{"station_id":"KPB","transit":true,"time":9,"i_lat":-6.132549,"distance":4102,"i_long":106.826365,"line":4,"station_name":"Kampung Bandan","is_transit":true},{"is_transit":true,"i_long":106.812439,"line":2,"time":3,"station_name":"Jakarta Kota","distance":1364,"station_id":"JAKK","i_lat":-6.137569,"transit":true},{"i_long":106.820901,"distance":1264,"station_name":"Jayakarta","i_lat":-6.141205,"line":2,"is_transit":false,"transit":false,"station_id":"JAY","time":4},{"station_id":"MGB","is_transit":false,"line":2,"i_long":106.82482,"i_lat":-6.149769,"transit":false,"distance":1080,"station_name":"Manggabesar","time":2},{"transit":false,"station_name":"Sawah Besar","station_id":"SW","time":2,"distance":906,"is_transit":false,"i_lat":-6.160725,"line":2,"i_long":106.827103},{"station_name":"Juanda","line":2,"transit":false,"distance":1149,"station_id":"JUA","is_transit":false,"i_lat":-6.166716,"i_long":106.828284,"time":2}],[{"transit":false,"distance":0,"i_lat":-6.594596,"i_long":106.790574,"is_transit":false,"station_id":"BOO","time":0,"station_name":"Bogor","line":2},{"i_lat":-6.530544,"is_transit":false,"station_name":"Cilebut","distance":7514,"time":9,"line":2,"i_long":106.800016,"station_id":"CLT","transit":false},{"time":5,"distance":4331,"station_name":"Bojonggede","station_id":"BJD","is_transit":false,"transit":false,"i_lat":-6.493243,"i_long":106.792719,"line":2},{"line":2,"transit":false,"time":5,"station_name":"Citayam","distance":5197,"station_id":"CTA","is_transit":false,"i_long":106.800298,"i_lat":-6.448811},{"distance":5084,"transit":false,"i_lat":-6.405256,"is_transit":false,"line":2,"i_long":106.816926,"station_name":"Depok","time":6,"station_id":"DP"},{"i_long":106.819451,"station_id":"DPB","transit":false,"is_transit":false,"time":3,"station_name":"Depokbaru","distance":1584,"line":2,"i_lat":-6.391065},{"distance":2727,"is_transit":false,"transit":false,"i_long":106.831114,"line":2,"station_id":"POC","i_lat":-6.369073,"time":4,"station_name":"Pondok Cina"},{"station_name":"Univ. Indonesia","distance":1109,"transit":false,"i_long":106.831474,"i_lat":-6.360749,"station_id":"UI","is_transit":false,"line":2,"time":2},{"i_lat":-6.339291,"is_transit":false,"station_name":"Univ. Pancasila","distance":2264,"time":3,"station_id":"UP","i_long":106.834175,"line":2,"transit":false},{"transit":false,"line":2,"time":2,"station_name":"Lenteng Agung","station_id":"LNA","distance":1029,"is_transit":false,"i_lat":-6.330363,"i_long":106.832616},{"i_lat":-6.3080680000000005,"i_long":106.838896,"line":2,"station_id":"TNT","distance":2671,"station_name":"Tanjung Barat","transit":false,"time":3,"is_transit":false},{"station_id":"PSM","is_transit":false,"line":2,"transit":false,"distance":2820,"i_long":106.843999,"i_lat":-6.2842400000000005,"station_name":"Pasar Minggu","time":4},{"distance":2380,"station_id":"PSMB","i_lat":-6.263214,"transit":false,"i_long":106.851577,"is_transit":false,"time":2,"line":2,"station_name":"Pasar Minggu Baru"},{"is_transit":false,"line":2,"time":2,"distance":824,"transit":false,"station_id":"DRN","i_lat":-6.255332,"i_long":106.85449,"station_name":"Duren Kalibata"},{"time":3,"i_long":106.856607,"station_name":"Cawang","station_id":"CW","is_transit":false,"i_lat":-6.242512,"distance":1546,"line":2,"transit":false},{"i_long":106.857948,"distance":1230,"transit":false,"station_name":"Tebet","is_transit":false,"i_lat":-6.226659,"line":2,"station_id":"TEB","time":2},{"i_long":106.84912,"time":4,"is_transit":true,"station_id":"MRI","transit":true,"distance":2610,"line":2,"i_lat":-6.209883,"station_name":"Manggarai"},{"is_transit":false,"station_name":"Matraman","time":2,"station_id":"MTR","i_long":106.858896,"transit":false,"distance":1275,"i_lat":-6.212485,"line":1},{"line":1,"station_name":"Jatinegara","distance":1377,"station_id":"JNG","i_lat":-6.215091,"i_long":106.86807400000001,"is_transit":true,"time":8,"transit":true},{"distance":1236,"transit":false,"station_id":"POK","i_long":106.861737,"line":11,"time":2,"is_transit":false,"i_lat":-6.209188,"station_name":"Pondok Jati"},{"i_long":106.855437,"transit":false,"station_name":"Kramat","line":11,"time":2,"i_lat":-6.193792,"is_transit":false,"distance":1829,"station_id":"KMT"},{"transit":false,"is_transit":false,"i_long":106.850107,"station_name":"Gang Sentiong","station_id":"GST","distance":973,"i_lat":-6.185975,"line":11,"time":1},{"transit":false,"distance":1567,"i_long":106.84368,"time":8,"station_id":"PSE","is_transit":false,"i_lat":-6.174784,"line":11,"station_name":"Pasar Senen"},{"time":4,"transit":false,"i_long":106.839204,"is_transit":false,"line":11,"station_name":"Kemayoran","i_lat":-6.161728,"distance":1436,"station_id":"KMO"},{"transit":false,"station_name":"Rajawali","i_long":106.836569,"is_transit":false,"line":11,"station_id":"RJW","distance":1901,"time":5,"i_lat":-6.14505},{"transit":true,"line":4,"is_transit":true,"time":3,"i_lat":-6.132549,"i_long":106.826365,"station_name":"Kampung Bandan","distance":1444,"station_id":"KPB"},{"time":3,"distance":1364,"transit":true,"is_transit":true,"i_lat":-6.137569,"station_name":"Jakarta Kota","line":2,"i_long":106.812439,"station_id":"JAKK"},{"transit":false,"i_lat":-6.141205,"is_transit":false,"i_long":106.820901,"distance":1264,"station_name":"Jayakarta","line":2,"time":4,"station_id":"JAY"},{"transit":false,"time":2,"is_transit":false,"i_lat":-6.149769,"line":2,"distance":1080,"station_name":"Manggabesar","i_long":106.82482,"station_id":"MGB"},{"i_lat":-6.160725,"time":2,"line":2,"station_name":"Sawah Besar","distance":906,"is_transit":false,"transit":false,"station_id":"SW","i_long":106.827103},{"is_transit":false,"time":2,"station_name":"Juanda","station_id":"JUA","i_lat":-6.166716,"line":2,"distance":1149,"i_long":106.828284,"transit":false}]]}