{"data":[[{"is_transit":false,"transit":false,"station_id":"BOO","distance":0,"time":0,"i_lat":-6.594596,"station_name":"Bogor","i_long":106.790574,"line":2},{"station_id":"CLT","i_lat":-6.530544,"line":2,"i_long":106.800016,"distance":7514,"time":9,"transit":false,"is_transit":false,"station_name":"Cilebut"},{"transit":false,"i_long":106.792719,"i_lat":-6.493243,"time":5,"station_name":"Bojonggede","station_id":"BJD","distance":4331,"is_transit":false,"line":2},{"is_transit":false,"transit":false,"time":5,"station_name":"Citayam","i_long":106.800298,"station_id":"CTA","i_lat":-6.448811,"line":2,"distance":5197},{"line":2,"i_lat":-6.405256,"i_long":106.816926,"transit":false,"distance":5084,"station_id":"DP","is_transit":false,"station_name":"Depok","time":6},{"line":2,"station_id":"DPB","distance":1584,"transit":false,"i_lat":-6.391065,"station_name":"Depokbaru","is_transit":false,"i_long":106.819451,"time":3},{"i_long":106.831114,"line":2,"time":4,"station_name":"Pondok Cina","station_id":"POC","i_lat":-6.369073,"distance":2727,"transit":false,"is_transit":false},{"transit":false,"i_long":106.831474,"time":2,"station_name":"Univ. Indonesia","is_transit":false,"station_id":"UI","distance":1109,"i_lat":-6.360749,"line":2},{"line":2,"station_id":"UP","station_name":"Univ. Pancasila","i_lat":-6.339291,"transit":false,"time":3,"distance":2264,"is_transit":false,"i_long":106.834175},{"line":2,"transit":false,"i_lat":-6.330363,"station_name":"Lenteng Agung","station_id":"LNA","time":2,"is_transit":false,"distance":1029,"i_long":106.832616},{"station_name":"Tanjung Barat","is_transit":false,"i_long":106.838896,"distance":2671,"time":3,"station_id":"TNT","i_lat":-6.3080680000000005,"line":2,"transit":false},{"time":4,"station_name":"Pasar Minggu","transit":false,"is_transit":false,"station_id":"PSM","i_lat":-6.2842400000000005,"i_long":106.843999,"distance":2820,"line":2},{"i_long":106.851577,"time":2,"is_transit":false,"station_id":"PSMB","station_name":"Pasar Minggu Baru","distance":2380,"transit":false,"i_lat":-6.263214,"line":2},{"time":2,"station_id":"DRN","station_name":"Duren Kalibata","i_long":106.85449,"i_lat":-6.255332,"distance":824,"transit":false,"line":2,"is_transit":false},{"station_id":"CW","station_name":"Cawang","i_lat":-6.242512,"i_long":106.856607,"distance":1546,"transit":false,"line":2,"time":3,"is_transit":false},{"station_id":"TEB","line":2,"station_name":"Tebet","is_transit":false,"i_lat":-6.226659,"distance":1230,"transit":false,"i_long":106.857948,"time":2},{"time":4,"line":2,"i_long":106.84912,"station_id":"MRI","is_transit":true,"distance":2610,"i_lat":-6.209883,"transit":true,"station_name":"Manggarai"},{"time":4,"station_name":"Sudirman","station_id":"SUD","distance":3186,"i_lat":-6.202263,"transit":false,"i_long":106.822649,"is_transit":false,"line":1},{"time":1,"is_transit":false,"station_name":"Sudirman Baru","i_lat":-6.201433,"station_id":"SUDB","i_long":106.819881,"distance":280,"transit":false,"line":1},{"transit":false,"distance":471,"station_name":"Karet","i_lat":-6.20132,"time":1,"line":1,"station_id":"KAT","is_transit":false,"i_long":106.816351},{"distance":2029,"i_long":106.811091,"station_id":"THB","i_lat":-6.185545,"time":5,"line":1,"is_transit":false,"transit":false,"station_name":"Tanah Abang"},{"distance":3632,"transit":true,"station_name":"Duri","line":1,"station_id":"DU","time":8,"is_transit":true,"i_lat":-6.155215,"i_long":106.800832},{"station_name":"Grogol","is_transit":false,"i_long":106.788277,"distance":1700,"line":5,"time":3,"station_id":"GGL","i_lat":-6.162021,"transit":false},{"i_long":106.771379,"line":5,"transit":false,"station_id":"PSG","station_name":"Pesing","i_lat":-6.161433,"distance":2036,"time":2,"is_transit":false},{"is_transit":false,"transit":false,"i_lat":-6.1587309999999995,"distance":1614,"station_id":"TKO","station_name":"Taman Kota","time":2,"i_long":106.756522,"line":5},{"i_lat":-6.159876,"i_long":106.737035,"line":5,"station_name":"Bojongindah","time":2,"is_transit":false,"transit":false,"station_id":"BOI","distance":2334},{"i_lat":-6.162758,"station_name":"Rawa Buaya","distance":1152,"transit":false,"line":5,"station_id":"RW","is_transit":false,"time":4,"i_long":106.723064},{"i_long":106.701612,"time":3,"distance":2504,"i_lat":-6.166068,"transit":false,"line":5,"station_name":"Kalideres","is_transit":false,"station_id":"KDS"},{"transit":false,"i_long":106.679458,"line":5,"station_name":"Poris","is_transit":false,"station_id":"PI","distance":2548,"i_lat":-6.169933,"time":3}],[{"transit":false,"station_id":"BOO","station_name":"Bogor","line":2,"distance":0,"is_transit":false,"i_lat":-6.594596,"time":0,"i_long":106.790574},{"i_long":106.800016,"distance":7514,"i_lat":-6.530544,"time":9,"station_id":"CLT","transit":false,"is_transit":false,"station_name":"Cilebut","line":2},{"station_id":"BJD","i_long":106.792719,"is_transit":false,"transit":false,"distance":4331,"station_name":"Bojonggede","line":2,"i_lat":-6.493243,"time":5},{"line":2,"i_lat":-6.448811,"distance":5197,"station_name":"Citayam","time":5,"i_long":106.800298,"is_transit":false,"transit":false,"station_id":"CTA"},{"time":6,"station_name":"Depok","i_long":106.816926,"is_transit":false,"station_id":"DP","distance":5084,"transit":false,"line":2,"i_lat":-6.405256},{"transit":false,"i_lat":-6.391065,"distance":1584,"is_transit":false,"time":3,"line":2,"station_id":"DPB","station_name":"Depokbaru","i_long":106.819451},{"line":2,"station_id":"POC","i_lat":-6.369073,"transit":false,"is_transit":false,"time":4,"station_name":"Pondok Cina","i_long":106.831114,"distance":2727},{"station_id":"UI","line":2,"i_lat":-6.360749,"transit":false,"station_name":"Univ. Indonesia","distance":1109,"time":2,"is_transit":false,"i_long":106.831474},{"i_lat":-6.339291,"station_id":"UP","distance":2264,"line":2,"i_long":106.834175,"time":3,"transit":false,"station_name":"Univ. Pancasila","is_transit":false},{"station_id":"LNA","is_transit":false,"i_lat":-6.330363,"line":2,"i_long":106.832616,"transit":false,"time":2,"station_name":"Lenteng Agung","distance":1029},{"line":2,"transit":false,"time":3,"i_long":106.838896,"station_id":"TNT","is_transit":false,"distance":2671,"i_lat":-6.3080680000000005,"station_name":"Tanjung Barat"},{"station_id":"PSM","station_name":"Pasar Minggu","line":2,"distance":2820,"i_lat":-6.2842400000000005,"transit":false,"time":4,"i_long":106.843999,"is_transit":false},{"i_long":106.851577,"time":2,"transit":false,"distance":2380,"line":2,"i_lat":-6.263214,"is_transit":false,"station_name":"Pasar Minggu Baru","station_id":"PSMB"},{"station_id":"DRN","i_long":106.85449,"is_transit":false,"time":2,"transit":false,"station_name":"Duren Kalibata","i_lat":-6.255332,"line":2,"distance":824},{"station_name":"Cawang","i_lat":-6.242512,"line":2,"time":3,"distance":1546,"i_long":106.856607,"is_transit":false,"transit":false,"station_id":"CW"},{"line":2,"station_id":"TEB","time":2,"station_name":"Tebet","i_lat":-6.226659,"is_transit":false,"distance":1230,"i_long":106.857948,"transit":false},{"is_transit":false,"transit":false,"i_long":106.84912,"station_name":"Manggarai","line":2,"station_id":"MRI","time":4,"distance":2610,"i_lat":-6.209883},{"distance":1590,"station_id":"CKI","line":2,"time":4,"is_transit":false,"transit":false,"i_lat":-6.198556,"i_long":106.840169,"station_name":"Cikini"},{"i_long":106.832183,"distance":1750,"time":3,"line":2,"is_transit":false,"transit":false,"i_lat":-6.186295,"station_id":"GDD","station_name":"Gondangdia"},{"i_lat":-6.166716,"station_id":"JUA","station_name":"Juanda","transit":false,"distance":2015,"i_long":106.828284,"line":2,"is_transit":false,"time":4},{"is_transit":false,"distance":1149,"station_id":"SW","i_long":106.827103,"line":2,"i_lat":-6.160725,"transit":false,"time":2,"station_name":"Sawah Besar"},{"i_long":106.82482,"is_transit":false,"transit":false,"station_name":"Manggabesar","time":2,"distance":906,"station_id":"MGB","i_lat":-6.149769,"line":2},{"i_long":106.820901,"time":2,"is_transit":false,"line":2,"distance":1080,"transit":false,"station_id":"JAY","station_name":"Jayakarta","i_lat":-6.141205},{"station_id":"JAKK","i_lat":-6.137569,"line":2,"station_name":"Jakarta Kota","distance":1264,"is_transit":true,"transit":true,"time":4,"i_long":106.812439},{"transit":true,"station_name":"Kampung Bandan","i_long":106.826365,"i_lat":-6.132549,"time":3,"line":4,"is_transit":true,"station_id":"KPB","distance":1364},{"is_transit":false,"station_id":"AK","time":9,"i_lat":-6.144674,"line":1,"distance":4102,"station_name":"Angke","i_long":106.79867,"transit":false},{"station_name":"Duri","time":4,"station_id":"DU","transit":true,"is_transit":true,"i_lat":-6.155215,"line":1,"i_long":106.800832,"distance":1230},{"is_transit":false,"i_lat":-6.162021,"i_long":106.788277,"line":5,"station_id":"GGL","transit":false,"distance":1700,"station_name":"Grogol","time":3},{"transit":false,"station_id":"PSG","station_name":"Pesing","is_transit":false,"distance":2036,"i_lat":-6.161433,"i_long":106.771379,"time":2,"line":5},{"i_long":106.756522,"transit":false,"line":5,"distance":1614,"i_lat":-6.1587309999999995,"station_id":"TKO","time":2,"is_transit":false,"station_name":"Taman Kota"},{"station_id":"BOI","distance":2334,"i_lat":-6.159876,"station_name":"Bojongindah","line":5,"time":2,"is_transit":false,"transit":false,"i_long":106.737035},{"line":5,"distance":1152,"time":4,"i_long":106.723064,"station_id":"RW","station_name":"Rawa Buaya","transit":false,"i_lat":-6.162758,"is_transit":false},{"i_long":106.701612,"time":3,"station_id":"KDS","line":5,"distance":2504,"station_name":"Kalideres","transit":false,"i_lat":-6.166068,"is_transit":false},{"station_name":"Poris","station_id":"PI","i_long":106.679458,"distance":2548,"line":5,"i_lat":-6.169933,"transit":false,"time":3,"is_transit":false}],[{"station_name":"Bogor","distance":0,"is_transit":false,"time":0,"line":2,"i_long":106.790574,"i_lat":-6.594596,"transit":false,"station_id":"BOO"},{"is_transit":false,"station_id":"CLT","time":9,"station_name":"Cilebut","i_lat":-6.530544,"i_long":106.800016,"line":2,"distance":7514,"transit":false},{"transit":false,"line":2,"station_id":"BJD","i_lat":-6.493243,"station_name":"Bojonggede","distance":4331,"i_long":106.792719,"is_transit":false,"time":5},{"i_long":106.800298,"time":5,"is_transit":false,"line":2,"i_lat":-6.448811,"transit":false,"distance":5197,"station_id":"CTA","station_name":"Citayam"},{"i_lat":-6.405256,"is_transit":false,"time":6,"station_name":"Depok","distance":5084,"i_long":106.816926,"line":2,"transit":false,"station_id":"DP"},{"i_lat":-6.391065,"time":3,"station_name":"Depokbaru","i_long":106.819451,"is_transit":false,"transit":false,"station_id":"DPB","distance":1584,"line":2},{"time":4,"line":2,"distance":2727,"transit":false,"i_lat":-6.369073,"station_id":"POC","i_long":106.831114,"station_name":"Pondok Cina","is_transit":false},{"station_id":"UI","station_name":"Univ. Indonesia","i_lat":-6.360749,"time":2,"i_long":106.831474,"distance":1109,"transit":false,"line":2,"is_transit":false},{"time":3,"station_id":"UP","i_lat":-6.339291,"station_name":"Univ. Pancasila","is_transit":false,"transit":false,"distance":2264,"line":2,"i_long":106.834175},{"station_id":"LNA","station_name":"Lenteng Agung","i_lat":-6.330363,"i_long":106.832616,"distance":1029,"is_transit":false,"line":2,"time":2,"transit":false},{"station_id":"TNT","distance":2671,"i_long":106.838896,"station_name":"Tanjung Barat","time":3,"is_transit":false,"i_lat":-6.3080680000000005,"line":2,"transit":false},{"time":4,"is_transit":false,"distance":2820,"transit":false,"i_long":106.843999,"station_id":"PSM","station_name":"Pasar Minggu","line":2,"i_lat":-6.2842400000000005},{"time":2,"station_name":"Pasar Minggu Baru","distance":2380,"i_long":106.851577,"station_id":"PSMB","i_lat":-6.263214,"line":2,"transit":false,"is_transit":false},{"transit":false,"station_name":"Duren Kalibata","line":2,"is_transit":false,"i_lat":-6.255332,"i_long":106.85449,"station_id":"DRN","time":2,"distance":824},{"i_long":106.856607,"station_id":"CW","is_transit":false,"transit":false,"station_name":"Cawang","time":3,"i_lat":-6.242512,"line":2,"distance":1546},{"time":2,"i_lat":-6.226659,"is_transit":false,"i_long":106.857948,"transit":false,"distance":1230,"station_name":"Tebet","station_id":"TEB","line":2},{"station_id":"MRI","is_transit":true,"i_lat":-6.209883,"distance":2610,"station_name":"Manggarai","transit":true,"time":4,"line":2,"i_long":106.84912},{"i_long":106.858896,"station_id":"MTR","line":1,"i_lat":-6.212485,"transit":false,"time":2,"station_name":"Matraman","distance":1275,"is_transit":false},{"station_id":"JNG","i_long":106.86807400000001,"i_lat":-6.215091,"line":1,"time":8,"is_transit":true,"transit":true,"station_name":"Jatinegara","distance":1377},{"i_long":106.861737,"time":2,"is_transit":false,"station_name":"Pondok Jati","station_id":"POK","transit":false,"distance":1236,"i_lat":-6.209188,"line":11},{"distance":1829,"i_lat":-6.193792,"is_transit":false,"station_id":"KMT","i_long":106.855437,"transit":false,"station_name":"Kramat","time":2,"line":11},{"station_id":"GST","line":11,"time":1,"is_transit":false,"i_lat":-6.185975,"distance":973,"transit":false,"i_long":106.850107,"station_name":"Gang Sentiong"},{"station_name":"Pasar Senen","i_long":106.84368,"i_lat":-6.174784,"station_id":"PSE","is_transit":false,"distance":1567,"line":11,"time":8,"transit":false},{"time":4,"station_id":"KMO","i_long":106.839204,"line":11,"distance":1436,"is_transit":false,"station_name":"Kemayoran","transit":false,"i_lat":-6.161728},{"time":5,"transit":false,"i_lat":-6.14505,"line":11,"station_id":"RJW","is_transit":false,"i_long":106.836569,"station_name":"Rajawali","distance":1901},{"i_long":106.826365,"transit":true,"time":3,"line":4,"i_lat":-6.132549,"is_transit":true,"station_id":"KPB","station_name":"Kampung Bandan","distance":1444},{"station_id":"AK","is_transit":false,"time":9,"i_lat":-6.144674,"transit":false,"station_name":"Angke","line":1,"i_long":106.79867,"distance":4102},{"i_lat":-6.155215,"is_transit":true,"transit":true,"time":4,"distance":1230,"i_long":106.800832,"station_name":"Duri","station_id":"DU","line":1},{"time":3,"station_name":"Grogol","station_id":"GGL","is_transit":false,"line":5,"i_long":106.788277,"distance":1700,"transit":false,"i_lat":-6.162021},{"is_transit":false,"transit":false,"station_id":"PSG","distance":2036,"i_lat":-6.161433,"i_long":106.771379,"line":5,"time":2,"station_name":"Pesing"},{"line":5,"distance":1614,"i_long":106.756522,"transit":false,"station_name":"Taman Kota","time":2,"station_id":"TKO","i_lat":-6.1587309999999995,"is_transit":false},{"i_long":106.737035,"distance":2334,"time":2,"line":5,"station_id":"BOI","station_name":"Bojongindah","transit":false,"i_lat":-6.159876,"is_transit":false},{"station_id":"RW","i_lat":-6.162758,"station_name":"Rawa Buaya","i_long":106.723064,"is_transit":false,"transit":false,"time":4,"distance":1152,"line":5},{"transit":false,"station_name":"Kalideres","i_lat":-6.166068,"station_id":"KDS","i_long":106.701612,"is_transit":false,"distance":2504,"line":5,"time":3},{"is_transit":false,"line":5,"distance":2548,"station_name":"Poris","transit":false,"station_id":"PI","i_lat":-6.169933,"time":3,"i_long":106.679458}]]}