{"data":[[{"distance":0,"time":0,"is_transit":false,"i_long":106.790574,"line":2,"station_id":"BOO","transit":false,"station_name":"Bogor","i_lat":-6.594596},{"is_transit":false,"station_name":"Cilebut","i_lat":-6.530544,"time":9,"distance":7514,"station_id":"CLT","transit":false,"line":2,"i_long":106.800016},{"station_id":"BJD","station_name":"Bojonggede","line":2,"is_transit":false,"distance":4331,"transit":false,"time":5,"i_lat":-6.493243,"i_long":106.792719},{"transit":false,"distance":5197,"time":5,"station_id":"CTA","station_name":"Citayam","is_transit":false,"i_lat":-6.448811,"i_long":106.800298,"line":2},{"station_name":"Depok","i_lat":-6.405256,"is_transit":false,"i_long":106.816926,"transit":false,"line":2,"station_id":"DP","time":6,"distance":5084},{"distance":1584,"time":3,"transit":false,"station_id":"DPB","i_long":106.819451,"i_lat":-6.391065,"station_name":"Depokbaru","line":2,"is_transit":false},{"station_id":"POC","time":4,"station_name":"Pondok Cina","distance":2727,"is_transit":false,"i_long":106.831114,"line":2,"transit":false,"i_lat":-6.369073},{"i_long":106.831474,"transit":false,"station_name":"Univ. Indonesia","is_transit":false,"station_id":"UI","time":2,"line":2,"distance":1109,"i_lat":-6.360749},{"i_long":106.834175,"station_name":"Univ. Pancasila","time":3,"distance":2264,"station_id":"UP","is_transit":false,"line":2,"transit":false,"i_lat":-6.339291},{"transit":false,"time":2,"station_name":"Lenteng Agung","station_id":"LNA","is_transit":false,"i_lat":-6.330363,"distance":1029,"i_long":106.832616,"line":2}]]}