{"data":[[{"time":0,"is_transit":false,"i_long":106.790574,"line":2,"station_id":"BOO","transit":false,"station_name":"Bogor","distance":0,"i_lat":-6.594596},{"i_lat":-6.530544,"station_name":"Cilebut","time":9,"transit":false,"line":2,"station_id":"CLT","distance":7514,"i_long":106.800016,"is_transit":false},{"line":2,"station_id":"BJD","time":5,"transit":false,"station_name":"Bojonggede","is_transit":false,"distance":4331,"i_long":106.792719,"i_lat":-6.493243},{"distance":5197,"is_transit":false,"station_id":"CTA","line":2,"time":5,"i_lat":-6.448811,"station_name":"Citayam","i_long":106.800298,"transit":false},{"station_name":"Depok","transit":false,"line":2,"time":6,"is_transit":false,"distance":5084,"i_lat":-6.405256,"station_id":"DP","i_long":106.816926},{"distance":1584,"i_lat":-6.391065,"station_id":"DPB","station_name":"Depokbaru","transit":false,"is_transit":false,"time":3,"i_long":106.819451,"line":2},{"distance":2727,"i_long":106.831114,"is_transit":false,"i_lat":-6.369073,"line":2,"station_id":"POC","transit":false,"time":4,"station_name":"Pondok Cina"},{"distance":1109,"is_transit":false,"time":2,"i_long":106.831474,"station_id":"UI","i_lat":-6.360749,"line":2,"transit":false,"station_name":"Univ. Indonesia"},{"station_id":"UP","station_name":"Univ. Pancasila","time":3,"is_transit":false,"line":2,"transit":false,"i_lat":-6.339291,"i_long":106.834175,"distance":2264},{"i_lat":-6.330363,"time":2,"transit":false,"distance":1029,"station_id":"LNA","station_name":"Lenteng Agung","i_long":106.832616,"is_transit":false,"line":2},{"is_transit":false,"line":2,"station_name":"Tanjung Barat","i_long":106.838896,"distance":2671,"time":3,"station_id":"TNT","i_lat":-6.3080680000000005,"transit":false},{"i_long":106.843999,"station_name":"Pasar Minggu","time":4,"i_lat":-6.2842400000000005,"is_transit":false,"distance":2820,"station_id":"PSM","line":2,"transit":false},{"transit":false,"station_id":"PSMB","line":2,"distance":2380,"is_transit":false,"i_lat":-6.263214,"station_name":"Pasar Minggu Baru","time":2,"i_long":106.851577},{"time":2,"transit":false,"station_id":"DRN","station_name":"Duren Kalibata","i_long":106.85449,"i_lat":-6.255332,"is_transit":false,"line":2,"distance":824},{"line":2,"time":3,"i_lat":-6.242512,"station_name":"Cawang","distance":1546,"i_long":106.856607,"station_id":"CW","transit":false,"is_transit":false},{"station_name":"Tebet","i_lat":-6.226659,"i_long":106.857948,"time":2,"transit":false,"distance":1230,"line":2,"station_id":"TEB","is_transit":false},{"transit":true,"i_long":106.84912,"distance":2610,"line":2,"station_id":"MRI","is_transit":true,"time":4,"i_lat":-6.209883,"station_name":"Manggarai"},{"is_transit":false,"time":4,"i_long":106.822649,"i_lat":-6.202263,"transit":false,"distance":3186,"station_id":"SUD","line":1,"station_name":"Sudirman"},{"distance":280,"i_long":106.819881,"line":1,"time":1,"transit":false,"station_name":"Sudirman Baru","i_lat":-6.201433,"station_id":"SUDB","is_transit":false},{"line":1,"is_transit":false,"distance":471,"i_long":106.816351,"station_id":"KAT","station_name":"Karet","transit":false,"i_lat":-6.20132,"time":1},{"time":5,"i_long":106.811091,"line":1,"transit":true,"is_transit":true,"station_name":"Tanah Abang","station_id":"THB","distance":2029,"i_lat":-6.185545},{"is_transit":false,"station_id":"PLM","transit":false,"time":6,"distance":3191,"i_long":106.79689,"station_name":"Palmerah","line":6,"i_lat":-6.207404},{"i_lat":-6.237242,"i_long":106.780334,"line":6,"transit":false,"station_name":"Kebayoran","distance":3737,"station_id":"KBY","time":7,"is_transit":false},{"line":6,"time":8,"station_name":"Pondokranji","i_lat":-6.276362,"station_id":"PDJ","transit":false,"i_long":106.74273,"is_transit":false,"distance":6218},{"distance":2179,"is_transit":false,"transit":false,"station_name":"Jurangmangu","i_long":106.728916,"line":6,"i_lat":-6.288927,"station_id":"JMU","time":3},{"is_transit":false,"distance":1994,"time":4,"station_name":"Sudimara","transit":false,"station_id":"SDM","i_lat":-6.296963,"i_long":106.712277,"line":6},{"station_name":"Rawa Buntu","distance":4566,"transit":false,"time":6,"i_lat":-6.314823,"line":6,"station_id":"RU","is_transit":false,"i_long":106.675475},{"transit":false,"station_id":"SRP","station_name":"Serpong","i_lat":-6.319871,"distance":2413,"is_transit":false,"i_long":106.66566,"line":6,"time":4},{"line":3,"transit":false,"station_id":"CSK","i_lat":-6.32484,"i_long":106.640411,"time":4,"is_transit":false,"distance":1784,"station_name":"Cisauk"},{"station_name":"Cicayur","i_long":106.617853,"i_lat":-6.329547,"transit":false,"distance":2519,"line":3,"time":4,"station_id":"CC","is_transit":false},{"station_id":"PRP","line":6,"transit":false,"i_lat":-6.3441410000000005,"station_name":"Parung Panjang","distance":5968,"time":8,"is_transit":false,"i_long":106.568863},{"line":3,"station_id":"CJT","transit":false,"is_transit":false,"station_name":"Cilejit","distance":7025,"i_long":106.508482,"time":9,"i_lat":-6.354349},{"station_id":"DAR","i_long":106.491338,"line":0,"distance":2675,"station_name":"Daru","time":6,"transit":false,"i_lat":-6.338021,"is_transit":false}],[{"i_long":106.790574,"station_id":"BOO","i_lat":-6.594596,"transit":false,"is_transit":false,"time":0,"distance":0,"line":2,"station_name":"Bogor"},{"i_lat":-6.530544,"is_transit":false,"station_name":"Cilebut","i_long":106.800016,"line":2,"transit":false,"station_id":"CLT","time":9,"distance":7514},{"time":5,"is_transit":false,"transit":false,"station_name":"Bojonggede","station_id":"BJD","i_lat":-6.493243,"i_long":106.792719,"line":2,"distance":4331},{"station_name":"Citayam","time":5,"distance":5197,"i_lat":-6.448811,"station_id":"CTA","i_long":106.800298,"line":2,"is_transit":false,"transit":false},{"distance":5084,"i_long":106.816926,"transit":false,"i_lat":-6.405256,"time":6,"line":2,"station_id":"DP","station_name":"Depok","is_transit":false},{"station_id":"DPB","is_transit":false,"distance":1584,"i_long":106.819451,"station_name":"Depokbaru","time":3,"line":2,"transit":false,"i_lat":-6.391065},{"line":2,"time":4,"station_name":"Pondok Cina","transit":false,"station_id":"POC","i_lat":-6.369073,"is_transit":false,"distance":2727,"i_long":106.831114},{"i_long":106.831474,"time":2,"station_id":"UI","is_transit":false,"line":2,"distance":1109,"station_name":"Univ. Indonesia","transit":false,"i_lat":-6.360749},{"i_lat":-6.339291,"distance":2264,"time":3,"line":2,"is_transit":false,"transit":false,"station_name":"Univ. Pancasila","i_long":106.834175,"station_id":"UP"},{"is_transit":false,"station_name":"Lenteng Agung","i_lat":-6.330363,"i_long":106.832616,"time":2,"line":2,"station_id":"LNA","distance":1029,"transit":false},{"transit":false,"i_lat":-6.3080680000000005,"station_name":"Tanjung Barat","i_long":106.838896,"line":2,"time":3,"distance":2671,"is_transit":false,"station_id":"TNT"},{"i_lat":-6.2842400000000005,"transit":false,"i_long":106.843999,"station_id":"PSM","line":2,"time":4,"is_transit":false,"distance":2820,"station_name":"Pasar Minggu"},{"station_name":"Pasar Minggu Baru","is_transit":false,"i_long":106.851577,"distance":2380,"i_lat":-6.263214,"station_id":"PSMB","time":2,"line":2,"transit":false},{"distance":824,"is_transit":false,"line":2,"time":2,"i_lat":-6.255332,"station_name":"Duren Kalibata","transit":false,"i_long":106.85449,"station_id":"DRN"},{"station_id":"CW","line":2,"time":3,"is_transit":false,"transit":false,"distance":1546,"i_lat":-6.242512,"i_long":106.856607,"station_name":"Cawang"},{"i_lat":-6.226659,"transit":false,"station_name":"Tebet","time":2,"is_transit":false,"station_id":"TEB","line":2,"i_long":106.857948,"distance":1230},{"i_lat":-6.209883,"time":4,"station_name":"Manggarai","i_long":106.84912,"is_transit":false,"line":2,"station_id":"MRI","transit":false,"distance":2610},{"line":2,"station_name":"Cikini","station_id":"CKI","transit":false,"i_lat":-6.198556,"time":4,"is_transit":false,"distance":1590,"i_long":106.840169},{"transit":false,"time":3,"line":2,"station_id":"GDD","i_lat":-6.186295,"is_transit":false,"i_long":106.832183,"station_name":"Gondangdia","distance":1750},{"time":4,"i_long":106.828284,"station_id":"JUA","station_name":"Juanda","distance":2015,"is_transit":false,"i_lat":-6.166716,"transit":false,"line":2},{"transit":false,"i_lat":-6.160725,"station_id":"SW","line":2,"is_transit":false,"station_name":"Sawah Besar","time":2,"distance":1149,"i_long":106.827103},{"time":2,"i_lat":-6.149769,"is_transit":false,"station_name":"Manggabesar","station_id":"MGB","transit":false,"i_long":106.82482,"line":2,"distance":906},{"distance":1080,"i_lat":-6.141205,"i_long":106.820901,"line":2,"station_name":"Jayakarta","time":2,"transit":false,"station_id":"JAY","is_transit":false},{"i_lat":-6.137569,"line":2,"time":4,"i_long":106.812439,"station_name":"Jakarta Kota","station_id":"JAKK","is_transit":true,"transit":true,"distance":1264},{"station_name":"Kampung Bandan","time":3,"distance":1364,"i_long":106.826365,"line":4,"is_transit":true,"i_lat":-6.132549,"transit":true,"station_id":"KPB"},{"i_lat":-6.144674,"station_name":"Angke","line":1,"distance":4102,"time":9,"i_long":106.79867,"station_id":"AK","is_transit":false,"transit":false},{"distance":1230,"station_name":"Duri","i_lat":-6.155215,"line":1,"time":4,"is_transit":false,"transit":false,"station_id":"DU","i_long":106.800832},{"station_id":"THB","distance":3632,"station_name":"Tanah Abang","i_lat":-6.185545,"time":8,"transit":true,"is_transit":true,"i_long":106.811091,"line":1},{"i_long":106.79689,"is_transit":false,"transit":false,"distance":3191,"i_lat":-6.207404,"line":6,"station_name":"Palmerah","time":6,"station_id":"PLM"},{"is_transit":false,"time":7,"i_lat":-6.237242,"i_long":106.780334,"distance":3737,"transit":false,"station_name":"Kebayoran","line":6,"station_id":"KBY"},{"i_long":106.74273,"station_name":"Pondokranji","distance":6218,"time":8,"transit":false,"i_lat":-6.276362,"is_transit":false,"line":6,"station_id":"PDJ"},{"station_name":"Jurangmangu","station_id":"JMU","is_transit":false,"i_lat":-6.288927,"i_long":106.728916,"time":3,"transit":false,"distance":2179,"line":6},{"i_lat":-6.296963,"station_name":"Sudimara","transit":false,"time":4,"i_long":106.712277,"station_id":"SDM","distance":1994,"line":6,"is_transit":false},{"station_name":"Rawa Buntu","distance":4566,"transit":false,"time":6,"i_long":106.675475,"line":6,"is_transit":false,"station_id":"RU","i_lat":-6.314823},{"i_long":106.66566,"transit":false,"i_lat":-6.319871,"station_id":"SRP","is_transit":false,"station_name":"Serpong","distance":2413,"line":6,"time":4},{"i_long":106.640411,"line":3,"station_name":"Cisauk","distance":1784,"time":4,"station_id":"CSK","transit":false,"is_transit":false,"i_lat":-6.32484},{"time":4,"transit":false,"i_long":106.617853,"i_lat":-6.329547,"station_id":"CC","distance":2519,"is_transit":false,"station_name":"Cicayur","line":3},{"station_name":"Parung Panjang","i_long":106.568863,"i_lat":-6.3441410000000005,"line":6,"distance":5968,"transit":false,"is_transit":false,"station_id":"PRP","time":8},{"distance":7025,"time":9,"station_id":"CJT","station_name":"Cilejit","is_transit":false,"transit":false,"i_lat":-6.354349,"line":3,"i_long":106.508482},{"i_long":106.491338,"is_transit":false,"i_lat":-6.338021,"transit":false,"station_name":"Daru","station_id":"DAR","time":6,"line":0,"distance":2675}],[{"line":2,"is_transit":false,"i_long":106.790574,"transit":false,"i_lat":-6.594596,"station_id":"BOO","station_name":"Bogor","time":0,"distance":0},{"distance":7514,"is_transit":false,"transit":false,"i_long":106.800016,"time":9,"i_lat":-6.530544,"line":2,"station_id":"CLT","station_name":"Cilebut"},{"i_long":106.792719,"distance":4331,"is_transit":false,"transit":false,"line":2,"time":5,"i_lat":-6.493243,"station_id":"BJD","station_name":"Bojonggede"},{"station_name":"Citayam","is_transit":false,"time":5,"i_lat":-6.448811,"station_id":"CTA","i_long":106.800298,"line":2,"transit":false,"distance":5197},{"i_long":106.816926,"line":2,"is_transit":false,"transit":false,"distance":5084,"i_lat":-6.405256,"station_name":"Depok","station_id":"DP","time":6},{"i_long":106.819451,"station_id":"DPB","station_name":"Depokbaru","is_transit":false,"line":2,"i_lat":-6.391065,"transit":false,"distance":1584,"time":3},{"time":4,"i_long":106.831114,"is_transit":false,"transit":false,"distance":2727,"station_id":"POC","station_name":"Pondok Cina","i_lat":-6.369073,"line":2},{"station_id":"UI","station_name":"Univ. Indonesia","distance":1109,"i_long":106.831474,"time":2,"transit":false,"is_transit":false,"i_lat":-6.360749,"line":2},{"is_transit":false,"i_lat":-6.339291,"distance":2264,"i_long":106.834175,"time":3,"transit":false,"line":2,"station_id":"UP","station_name":"Univ. Pancasila"},{"i_lat":-6.330363,"line":2,"time":2,"station_id":"LNA","i_long":106.832616,"is_transit":false,"transit":false,"station_name":"Lenteng Agung","distance":1029},{"transit":false,"distance":2671,"station_id":"TNT","line":2,"i_long":106.838896,"station_name":"Tanjung Barat","time":3,"i_lat":-6.3080680000000005,"is_transit":false},{"line":2,"transit":false,"i_lat":-6.2842400000000005,"station_name":"Pasar Minggu","station_id":"PSM","is_transit":false,"i_long":106.843999,"time":4,"distance":2820},{"is_transit":false,"distance":2380,"time":2,"i_lat":-6.263214,"line":2,"i_long":106.851577,"station_name":"Pasar Minggu Baru","station_id":"PSMB","transit":false},{"station_name":"Duren Kalibata","is_transit":false,"i_long":106.85449,"transit":false,"line":2,"time":2,"station_id":"DRN","distance":824,"i_lat":-6.255332},{"station_name":"Cawang","station_id":"CW","is_transit":false,"time":3,"transit":false,"distance":1546,"i_lat":-6.242512,"line":2,"i_long":106.856607},{"i_long":106.857948,"is_transit":false,"station_name":"Tebet","distance":1230,"station_id":"TEB","time":2,"transit":false,"i_lat":-6.226659,"line":2},{"station_id":"MRI","station_name":"Manggarai","i_long":106.84912,"line":2,"i_lat":-6.209883,"time":4,"is_transit":true,"transit":true,"distance":2610},{"is_transit":false,"line":1,"station_id":"MTR","distance":1275,"transit":false,"i_long":106.858896,"station_name":"Matraman","time":2,"i_lat":-6.212485},{"i_lat":-6.215091,"station_id":"JNG","station_name":"Jatinegara","distance":1377,"time":8,"i_long":106.86807400000001,"transit":true,"line":1,"is_transit":true},{"distance":1236,"i_long":106.861737,"station_id":"POK","is_transit":false,"transit":false,"i_lat":-6.209188,"station_name":"Pondok Jati","time":2,"line":11},{"station_id":"KMT","station_name":"Kramat","transit":false,"line":11,"time":2,"is_transit":false,"distance":1829,"i_lat":-6.193792,"i_long":106.855437},{"station_id":"GST","time":1,"line":11,"is_transit":false,"i_lat":-6.185975,"station_name":"Gang Sentiong","transit":false,"distance":973,"i_long":106.850107},{"i_long":106.84368,"station_id":"PSE","time":8,"transit":false,"is_transit":false,"distance":1567,"i_lat":-6.174784,"line":11,"station_name":"Pasar Senen"},{"distance":1436,"station_id":"KMO","is_transit":false,"station_name":"Kemayoran","i_lat":-6.161728,"time":4,"line":11,"transit":false,"i_long":106.839204},{"station_name":"Rajawali","is_transit":false,"i_lat":-6.14505,"line":11,"transit":false,"i_long":106.836569,"station_id":"RJW","distance":1901,"time":5},{"i_long":106.826365,"distance":1444,"line":4,"station_name":"Kampung Bandan","transit":true,"i_lat":-6.132549,"station_id":"KPB","time":3,"is_transit":true},{"station_id":"AK","station_name":"Angke","time":9,"i_lat":-6.144674,"i_long":106.79867,"line":1,"distance":4102,"transit":false,"is_transit":false},{"station_name":"Duri","is_transit":false,"i_lat":-6.155215,"time":4,"i_long":106.800832,"station_id":"DU","distance":1230,"line":1,"transit":false},{"i_long":106.811091,"station_name":"Tanah Abang","is_transit":true,"time":8,"station_id":"THB","transit":true,"line":1,"distance":3632,"i_lat":-6.185545},{"station_name":"Palmerah","time":6,"i_long":106.79689,"station_id":"PLM","is_transit":false,"transit":false,"distance":3191,"line":6,"i_lat":-6.207404},{"station_name":"Kebayoran","i_lat":-6.237242,"distance":3737,"time":7,"transit":false,"is_transit":false,"line":6,"i_long":106.780334,"station_id":"KBY"},{"distance":6218,"i_long":106.74273,"station_id":"PDJ","transit":false,"i_lat":-6.276362,"is_transit":false,"line":6,"station_name":"Pondokranji","time":8},{"line":6,"transit":false,"station_name":"Jurangmangu","i_lat":-6.288927,"distance":2179,"i_long":106.728916,"station_id":"JMU","time":3,"is_transit":false},{"is_transit":false,"transit":false,"line":6,"time":4,"station_name":"Sudimara","distance":1994,"i_lat":-6.296963,"i_long":106.712277,"station_id":"SDM"},{"station_id":"RU","distance":4566,"i_lat":-6.314823,"line":6,"station_name":"Rawa Buntu","time":6,"is_transit":false,"i_long":106.675475,"transit":false},{"transit":false,"is_transit":false,"i_lat":-6.319871,"line":6,"station_name":"Serpong","station_id":"SRP","distance":2413,"i_long":106.66566,"time":4},{"distance":1784,"station_id":"CSK","transit":false,"i_lat":-6.32484,"is_transit":false,"time":4,"line":3,"station_name":"Cisauk","i_long":106.640411},{"distance":2519,"time":4,"is_transit":false,"line":3,"station_name":"Cicayur","i_lat":-6.329547,"transit":false,"i_long":106.617853,"station_id":"CC"},{"is_transit":false,"distance":5968,"i_long":106.568863,"line":6,"station_name":"Parung Panjang","time":8,"transit":false,"i_lat":-6.3441410000000005,"station_id":"PRP"},{"distance":7025,"station_id":"CJT","is_transit":false,"transit":false,"line":3,"station_name":"Cilejit","i_long":106.508482,"i_lat":-6.354349,"time":9},{"i_lat":-6.338021,"transit":false,"distance":2675,"i_long":106.491338,"station_name":"Daru","station_id":"DAR","line":0,"is_transit":false,"time":6}]]}