{"data":[[{"line":2,"i_lat":-6.594596,"transit":false,"station_name":"Bogor","station_id":"BOO","is_transit":false,"time":0,"distance":0,"i_long":106.790574},{"time":9,"distance":7514,"station_name":"Cilebut","is_transit":false,"i_lat":-6.530544,"transit":false,"station_id":"CLT","line":2,"i_long":106.800016},{"station_id":"BJD","transit":false,"is_transit":false,"distance":4331,"i_long":106.792719,"time":5,"station_name":"Bojonggede","i_lat":-6.493243,"line":2},{"is_transit":true,"time":5,"distance":5197,"i_lat":-6.448811,"i_long":106.800298,"line":2,"transit":true,"station_name":"Citayam","station_id":"CTA"},{"station_name":"Pondok Rajeg","time":0,"distance":0,"station_id":"PDRG","transit":false,"line":21,"is_transit":false,"i_long":106.824374,"i_lat":-6.460735},{"i_long":106.851978,"station_id":"CBN","i_lat":-6.46424,"transit":false,"station_name":"Cibinong","line":21,"distance":0,"is_transit":false,"time":0},{"station_id":"NMO","distance":6527,"i_lat":-6.466285,"is_transit":false,"line":21,"time":10,"i_long":106.905196,"station_name":"Nambo","transit":false}]]}