{"data":[[{"time":0,"station_id":"BOO","i_long":106.790574,"transit":false,"is_transit":false,"distance":0,"line":2,"i_lat":-6.594596,"station_name":"Bogor"},{"transit":false,"i_long":106.800016,"station_name":"Cilebut","i_lat":-6.530544,"station_id":"CLT","time":9,"is_transit":false,"distance":7514,"line":2},{"station_id":"BJD","is_transit":false,"time":5,"distance":4331,"station_name":"Bojonggede","i_lat":-6.493243,"transit":false,"line":2,"i_long":106.792719},{"i_lat":-6.448811,"station_id":"CTA","station_name":"Citayam","distance":5197,"line":2,"is_transit":false,"i_long":106.800298,"time":5,"transit":false},{"transit":false,"is_transit":false,"distance":5084,"station_name":"Depok","station_id":"DP","i_long":106.816926,"time":6,"i_lat":-6.405256,"line":2},{"i_lat":-6.391065,"i_long":106.819451,"line":2,"time":3,"is_transit":false,"station_id":"DPB","transit":false,"station_name":"Depokbaru","distance":1584},{"line":2,"transit":false,"i_long":106.831114,"is_transit":false,"time":4,"station_name":"Pondok Cina","distance":2727,"station_id":"POC","i_lat":-6.369073},{"station_name":"Univ. Indonesia","distance":1109,"is_transit":false,"transit":false,"i_lat":-6.360749,"line":2,"i_long":106.831474,"station_id":"UI","time":2},{"station_name":"Univ. Pancasila","transit":false,"station_id":"UP","time":3,"distance":2264,"i_lat":-6.339291,"is_transit":false,"i_long":106.834175,"line":2},{"line":2,"distance":1029,"i_long":106.832616,"transit":false,"station_id":"LNA","is_transit":false,"i_lat":-6.330363,"station_name":"Lenteng Agung","time":2},{"line":2,"distance":2671,"time":3,"station_name":"Tanjung Barat","i_lat":-6.3080680000000005,"transit":false,"i_long":106.838896,"station_id":"TNT","is_transit":false},{"transit":false,"is_transit":false,"time":4,"station_id":"PSM","line":2,"distance":2820,"i_long":106.843999,"station_name":"Pasar Minggu","i_lat":-6.2842400000000005},{"i_long":106.851577,"station_id":"PSMB","station_name":"Pasar Minggu Baru","i_lat":-6.263214,"is_transit":false,"time":2,"distance":2380,"transit":false,"line":2},{"i_long":106.85449,"transit":false,"time":2,"station_name":"Duren Kalibata","is_transit":false,"line":2,"station_id":"DRN","i_lat":-6.255332,"distance":824},{"i_lat":-6.242512,"line":2,"time":3,"is_transit":false,"station_id":"CW","i_long":106.856607,"station_name":"Cawang","distance":1546,"transit":false},{"time":2,"transit":false,"i_lat":-6.226659,"line":2,"is_transit":false,"station_id":"TEB","i_long":106.857948,"station_name":"Tebet","distance":1230},{"transit":true,"i_long":106.84912,"is_transit":true,"i_lat":-6.209883,"distance":2610,"station_name":"Manggarai","time":4,"line":2,"station_id":"MRI"},{"is_transit":false,"station_id":"SUD","time":4,"i_lat":-6.202263,"i_long":106.822649,"line":1,"station_name":"Sudirman","transit":false,"distance":3186},{"line":1,"distance":280,"i_long":106.819881,"station_name":"Sudirman Baru","transit":false,"station_id":"SUDB","is_transit":false,"i_lat":-6.201433,"time":1}],[{"line":2,"i_lat":-6.594596,"transit":false,"station_name":"Bogor","i_long":106.790574,"is_transit":false,"time":0,"distance":0,"station_id":"BOO"},{"station_name":"Cilebut","time":9,"distance":7514,"line":2,"is_transit":false,"i_long":106.800016,"station_id":"CLT","transit":false,"i_lat":-6.530544},{"line":2,"is_transit":false,"i_long":106.792719,"station_id":"BJD","transit":false,"time":5,"distance":4331,"i_lat":-6.493243,"station_name":"Bojonggede"},{"distance":5197,"line":2,"is_transit":false,"station_id":"CTA","time":5,"station_name":"Citayam","i_long":106.800298,"transit":false,"i_lat":-6.448811},{"time":6,"station_name":"Depok","distance":5084,"transit":false,"station_id":"DP","i_lat":-6.405256,"i_long":106.816926,"is_transit":false,"line":2},{"transit":false,"is_transit":false,"station_name":"Depokbaru","station_id":"DPB","time":3,"distance":1584,"i_lat":-6.391065,"line":2,"i_long":106.819451},{"i_lat":-6.369073,"distance":2727,"is_transit":false,"line":2,"station_name":"Pondok Cina","i_long":106.831114,"transit":false,"station_id":"POC","time":4},{"transit":false,"is_transit":false,"distance":1109,"time":2,"station_id":"UI","station_name":"Univ. Indonesia","i_long":106.831474,"line":2,"i_lat":-6.360749},{"distance":2264,"is_transit":false,"time":3,"i_long":106.834175,"station_name":"Univ. Pancasila","line":2,"transit":false,"i_lat":-6.339291,"station_id":"UP"},{"i_lat":-6.330363,"time":2,"station_id":"LNA","is_transit":false,"i_long":106.832616,"station_name":"Lenteng Agung","distance":1029,"line":2,"transit":false},{"transit":false,"i_lat":-6.3080680000000005,"station_id":"TNT","time":3,"is_transit":false,"station_name":"Tanjung Barat","distance":2671,"i_long":106.838896,"line":2},{"station_id":"PSM","i_lat":-6.2842400000000005,"is_transit":false,"distance":2820,"time":4,"i_long":106.843999,"transit":false,"station_name":"Pasar Minggu","line":2},{"distance":2380,"transit":false,"time":2,"station_name":"Pasar Minggu Baru","i_lat":-6.263214,"station_id":"PSMB","is_transit":false,"i_long":106.851577,"line":2},{"is_transit":false,"i_long":106.85449,"station_id":"DRN","distance":824,"transit":false,"time":2,"station_name":"Duren Kalibata","line":2,"i_lat":-6.255332},{"station_name":"Cawang","transit":false,"i_lat":-6.242512,"is_transit":false,"line":2,"i_long":106.856607,"time":3,"station_id":"CW","distance":1546},{"station_name":"Tebet","time":2,"i_long":106.857948,"line":2,"transit":false,"station_id":"TEB","distance":1230,"i_lat":-6.226659,"is_transit":false},{"is_transit":false,"station_id":"MRI","transit":false,"line":2,"station_name":"Manggarai","i_lat":-6.209883,"time":4,"distance":2610,"i_long":106.84912},{"is_transit":false,"station_id":"CKI","station_name":"Cikini","distance":1590,"i_long":106.840169,"transit":false,"i_lat":-6.198556,"line":2,"time":4},{"is_transit":false,"line":2,"transit":false,"station_name":"Gondangdia","time":3,"i_lat":-6.186295,"distance":1750,"i_long":106.832183,"station_id":"GDD"},{"distance":2015,"time":4,"i_long":106.828284,"station_name":"Juanda","is_transit":false,"i_lat":-6.166716,"station_id":"JUA","line":2,"transit":false},{"time":2,"i_long":106.827103,"transit":false,"is_transit":false,"i_lat":-6.160725,"station_id":"SW","station_name":"Sawah Besar","line":2,"distance":1149},{"station_id":"MGB","i_long":106.82482,"transit":false,"time":2,"i_lat":-6.149769,"station_name":"Manggabesar","distance":906,"is_transit":false,"line":2},{"time":2,"is_transit":false,"distance":1080,"station_id":"JAY","i_lat":-6.141205,"transit":false,"line":2,"station_name":"Jayakarta","i_long":106.820901},{"distance":1264,"i_long":106.812439,"i_lat":-6.137569,"transit":true,"time":4,"station_id":"JAKK","line":2,"station_name":"Jakarta Kota","is_transit":true},{"is_transit":true,"line":4,"distance":1364,"transit":true,"station_id":"KPB","i_lat":-6.132549,"station_name":"Kampung Bandan","time":3,"i_long":106.826365},{"transit":false,"time":9,"station_id":"AK","line":1,"is_transit":false,"distance":4102,"i_long":106.79867,"station_name":"Angke","i_lat":-6.144674},{"is_transit":false,"distance":1230,"i_long":106.800832,"i_lat":-6.155215,"transit":false,"line":1,"station_id":"DU","time":4,"station_name":"Duri"},{"is_transit":false,"line":1,"i_lat":-6.185545,"time":8,"i_long":106.811091,"station_name":"Tanah Abang","distance":3632,"transit":false,"station_id":"THB"},{"station_id":"KAT","time":5,"line":1,"is_transit":false,"transit":false,"station_name":"Karet","distance":2029,"i_lat":-6.20132,"i_long":106.816351},{"i_lat":-6.201433,"line":1,"distance":471,"is_transit":false,"i_long":106.819881,"station_id":"SUDB","transit":false,"time":1,"station_name":"Sudirman Baru"}],[{"time":0,"station_id":"BOO","is_transit":false,"station_name":"Bogor","distance":0,"transit":false,"i_long":106.790574,"i_lat":-6.594596,"line":2},{"is_transit":false,"station_id":"CLT","time":9,"line":2,"transit":false,"station_name":"Cilebut","i_lat":-6.530544,"distance":7514,"i_long":106.800016},{"station_name":"Bojonggede","i_lat":-6.493243,"i_long":106.792719,"is_transit":false,"station_id":"BJD","distance":4331,"line":2,"time":5,"transit":false},{"station_name":"Citayam","transit":false,"is_transit":false,"station_id":"CTA","distance":5197,"line":2,"time":5,"i_lat":-6.448811,"i_long":106.800298},{"time":6,"station_name":"Depok","line":2,"transit":false,"is_transit":false,"distance":5084,"station_id":"DP","i_long":106.816926,"i_lat":-6.405256},{"station_id":"DPB","station_name":"Depokbaru","distance":1584,"is_transit":false,"time":3,"i_long":106.819451,"transit":false,"line":2,"i_lat":-6.391065},{"is_transit":false,"i_lat":-6.369073,"station_name":"Pondok Cina","time":4,"transit":false,"i_long":106.831114,"line":2,"distance":2727,"station_id":"POC"},{"i_long":106.831474,"distance":1109,"station_name":"Univ. Indonesia","station_id":"UI","time":2,"line":2,"is_transit":false,"i_lat":-6.360749,"transit":false},{"is_transit":false,"distance":2264,"station_name":"Univ. Pancasila","transit":false,"station_id":"UP","time":3,"i_long":106.834175,"i_lat":-6.339291,"line":2},{"i_lat":-6.330363,"line":2,"station_name":"Lenteng Agung","i_long":106.832616,"transit":false,"is_transit":false,"time":2,"distance":1029,"station_id":"LNA"},{"is_transit":false,"station_id":"TNT","distance":2671,"transit":false,"station_name":"Tanjung Barat","i_lat":-6.3080680000000005,"time":3,"i_long":106.838896,"line":2},{"transit":false,"time":4,"i_long":106.843999,"line":2,"station_id":"PSM","i_lat":-6.2842400000000005,"station_name":"Pasar Minggu","distance":2820,"is_transit":false},{"station_id":"PSMB","transit":false,"time":2,"i_long":106.851577,"station_name":"Pasar Minggu Baru","is_transit":false,"distance":2380,"i_lat":-6.263214,"line":2},{"line":2,"distance":824,"time":2,"is_transit":false,"station_name":"Duren Kalibata","transit":false,"station_id":"DRN","i_long":106.85449,"i_lat":-6.255332},{"line":2,"station_id":"CW","distance":1546,"transit":false,"i_lat":-6.242512,"is_transit":false,"time":3,"station_name":"Cawang","i_long":106.856607},{"i_lat":-6.226659,"distance":1230,"i_long":106.857948,"station_name":"Tebet","station_id":"TEB","time":2,"line":2,"is_transit":false,"transit":false},{"is_transit":true,"time":4,"distance":2610,"transit":true,"station_name":"Manggarai","station_id":"MRI","i_long":106.84912,"i_lat":-6.209883,"line":2},{"is_transit":false,"time":2,"distance":1275,"line":1,"transit":false,"station_id":"MTR","station_name":"Matraman","i_lat":-6.212485,"i_long":106.858896},{"transit":true,"station_name":"Jatinegara","time":8,"distance":1377,"i_long":106.86807400000001,"i_lat":-6.215091,"station_id":"JNG","line":1,"is_transit":true},{"i_lat":-6.209188,"line":11,"station_name":"Pondok Jati","i_long":106.861737,"distance":1236,"transit":false,"is_transit":false,"time":2,"station_id":"POK"},{"i_lat":-6.193792,"i_long":106.855437,"transit":false,"time":2,"station_id":"KMT","line":11,"distance":1829,"is_transit":false,"station_name":"Kramat"},{"i_lat":-6.185975,"i_long":106.850107,"transit":false,"line":11,"distance":973,"station_id":"GST","station_name":"Gang Sentiong","time":1,"is_transit":false},{"station_id":"PSE","time":8,"is_transit":false,"i_lat":-6.174784,"i_long":106.84368,"line":11,"distance":1567,"transit":false,"station_name":"Pasar Senen"},{"time":4,"station_id":"KMO","is_transit":false,"i_lat":-6.161728,"i_long":106.839204,"line":11,"station_name":"Kemayoran","transit":false,"distance":1436},{"station_id":"RJW","station_name":"Rajawali","transit":false,"time":5,"distance":1901,"i_lat":-6.14505,"line":11,"is_transit":false,"i_long":106.836569},{"distance":1444,"station_id":"KPB","time":3,"is_transit":true,"i_lat":-6.132549,"transit":true,"station_name":"Kampung Bandan","i_long":106.826365,"line":4},{"distance":4102,"i_lat":-6.144674,"i_long":106.79867,"station_id":"AK","time":9,"is_transit":false,"station_name":"Angke","line":1,"transit":false},{"is_transit":false,"station_id":"DU","transit":false,"time":4,"station_name":"Duri","line":1,"distance":1230,"i_lat":-6.155215,"i_long":106.800832},{"time":8,"i_long":106.811091,"transit":false,"distance":3632,"i_lat":-6.185545,"is_transit":false,"station_name":"Tanah Abang","line":1,"station_id":"THB"},{"distance":2029,"is_transit":false,"i_lat":-6.20132,"station_id":"KAT","transit":false,"station_name":"Karet","line":1,"time":5,"i_long":106.816351},{"i_lat":-6.201433,"line":1,"i_long":106.819881,"distance":471,"station_name":"Sudirman Baru","station_id":"SUDB","transit":false,"is_transit":false,"time":1}]]}