{"data":[[{"distance":0,"is_transit":false,"station_name":"Bogor","i_long":106.790574,"time":0,"line":2,"transit":false,"station_id":"BOO","i_lat":-6.594596},{"line":2,"time":9,"transit":false,"i_lat":-6.530544,"distance":7514,"station_name":"Cilebut","i_long":106.800016,"is_transit":false,"station_id":"CLT"},{"station_name":"Bojonggede","is_transit":false,"transit":false,"time":5,"line":2,"i_lat":-6.493243,"distance":4331,"station_id":"BJD","i_long":106.792719},{"is_transit":false,"distance":5197,"station_id":"CTA","i_long":106.800298,"transit":false,"i_lat":-6.448811,"line":2,"station_name":"Citayam","time":5},{"i_long":106.816926,"transit":false,"station_name":"Depok","distance":5084,"is_transit":false,"station_id":"DP","time":6,"line":2,"i_lat":-6.405256},{"station_id":"DPB","line":2,"is_transit":false,"transit":false,"distance":1584,"station_name":"Depokbaru","i_lat":-6.391065,"i_long":106.819451,"time":3},{"is_transit":false,"time":4,"i_lat":-6.369073,"line":2,"i_long":106.831114,"distance":2727,"station_id":"POC","transit":false,"station_name":"Pondok Cina"},{"station_id":"UI","is_transit":false,"transit":false,"distance":1109,"time":2,"i_long":106.831474,"station_name":"Univ. Indonesia","line":2,"i_lat":-6.360749},{"i_lat":-6.339291,"distance":2264,"is_transit":false,"station_name":"Univ. Pancasila","i_long":106.834175,"transit":false,"station_id":"UP","time":3,"line":2},{"transit":false,"i_long":106.832616,"is_transit":false,"line":2,"time":2,"station_name":"Lenteng Agung","distance":1029,"station_id":"LNA","i_lat":-6.330363},{"i_lat":-6.3080680000000005,"station_name":"Tanjung Barat","time":3,"station_id":"TNT","distance":2671,"line":2,"i_long":106.838896,"transit":false,"is_transit":false},{"i_long":106.843999,"time":4,"is_transit":false,"station_id":"PSM","distance":2820,"line":2,"transit":false,"station_name":"Pasar Minggu","i_lat":-6.2842400000000005},{"time":2,"transit":false,"line":2,"i_long":106.851577,"i_lat":-6.263214,"station_id":"PSMB","station_name":"Pasar Minggu Baru","is_transit":false,"distance":2380},{"i_long":106.85449,"i_lat":-6.255332,"time":2,"station_name":"Duren Kalibata","station_id":"DRN","distance":824,"transit":false,"line":2,"is_transit":false},{"distance":1546,"transit":false,"time":3,"is_transit":false,"station_id":"CW","i_lat":-6.242512,"station_name":"Cawang","i_long":106.856607,"line":2},{"i_lat":-6.226659,"station_id":"TEB","transit":false,"line":2,"distance":1230,"station_name":"Tebet","i_long":106.857948,"time":2,"is_transit":false},{"distance":2610,"transit":true,"i_long":106.84912,"is_transit":true,"station_id":"MRI","i_lat":-6.209883,"time":4,"station_name":"Manggarai","line":2},{"line":1,"transit":false,"i_lat":-6.212485,"is_transit":false,"station_id":"MTR","time":2,"i_long":106.858896,"distance":1275,"station_name":"Matraman"},{"transit":false,"station_name":"Jatinegara","station_id":"JNG","i_lat":-6.215091,"line":1,"time":8,"i_long":106.86807400000001,"is_transit":false,"distance":1377},{"i_long":106.899548,"time":3,"line":1,"transit":false,"station_name":"Klender","distance":3395,"is_transit":false,"station_id":"KLD","i_lat":-6.2135},{"line":1,"distance":3100,"time":2,"i_long":106.922662,"is_transit":false,"station_name":"Buaran","station_id":"BUA","i_lat":-6.215568,"transit":false},{"i_lat":-6.217455,"time":1,"line":1,"distance":1305,"station_id":"KLDB","i_long":106.939679,"is_transit":false,"transit":false,"station_name":"Klenderbaru"}],[{"transit":false,"time":0,"is_transit":false,"station_name":"Bogor","i_long":106.790574,"line":2,"station_id":"BOO","distance":0,"i_lat":-6.594596},{"station_name":"Cilebut","station_id":"CLT","transit":false,"time":9,"distance":7514,"i_lat":-6.530544,"line":2,"is_transit":false,"i_long":106.800016},{"is_transit":false,"time":5,"station_id":"BJD","i_lat":-6.493243,"i_long":106.792719,"line":2,"transit":false,"distance":4331,"station_name":"Bojonggede"},{"station_name":"Citayam","transit":false,"i_long":106.800298,"time":5,"line":2,"distance":5197,"is_transit":false,"station_id":"CTA","i_lat":-6.448811},{"station_id":"DP","time":6,"line":2,"distance":5084,"transit":false,"is_transit":false,"i_lat":-6.405256,"i_long":106.816926,"station_name":"Depok"},{"station_id":"DPB","is_transit":false,"time":3,"transit":false,"station_name":"Depokbaru","i_long":106.819451,"line":2,"i_lat":-6.391065,"distance":1584},{"i_lat":-6.369073,"station_name":"Pondok Cina","time":4,"station_id":"POC","transit":false,"is_transit":false,"distance":2727,"line":2,"i_long":106.831114},{"is_transit":false,"i_lat":-6.360749,"line":2,"station_name":"Univ. Indonesia","time":2,"i_long":106.831474,"station_id":"UI","transit":false,"distance":1109},{"station_name":"Univ. Pancasila","i_lat":-6.339291,"station_id":"UP","is_transit":false,"transit":false,"line":2,"distance":2264,"time":3,"i_long":106.834175},{"station_id":"LNA","is_transit":false,"transit":false,"time":2,"i_lat":-6.330363,"distance":1029,"i_long":106.832616,"line":2,"station_name":"Lenteng Agung"},{"i_lat":-6.3080680000000005,"station_id":"TNT","time":3,"is_transit":false,"line":2,"i_long":106.838896,"station_name":"Tanjung Barat","distance":2671,"transit":false},{"line":2,"station_id":"PSM","i_long":106.843999,"transit":false,"station_name":"Pasar Minggu","is_transit":false,"time":4,"distance":2820,"i_lat":-6.2842400000000005},{"is_transit":false,"i_long":106.851577,"transit":false,"line":2,"station_id":"PSMB","time":2,"i_lat":-6.263214,"distance":2380,"station_name":"Pasar Minggu Baru"},{"station_name":"Duren Kalibata","i_lat":-6.255332,"station_id":"DRN","line":2,"time":2,"i_long":106.85449,"distance":824,"is_transit":false,"transit":false},{"time":3,"distance":1546,"station_name":"Cawang","i_long":106.856607,"transit":false,"i_lat":-6.242512,"line":2,"station_id":"CW","is_transit":false},{"time":2,"i_long":106.857948,"distance":1230,"i_lat":-6.226659,"line":2,"is_transit":false,"transit":false,"station_name":"Tebet","station_id":"TEB"},{"is_transit":true,"distance":2610,"station_id":"MRI","i_long":106.84912,"station_name":"Manggarai","time":4,"transit":true,"i_lat":-6.209883,"line":2},{"is_transit":false,"i_lat":-6.202263,"i_long":106.822649,"station_name":"Sudirman","distance":3186,"time":4,"station_id":"SUD","transit":false,"line":1},{"i_long":106.819881,"transit":false,"station_id":"SUDB","time":1,"is_transit":false,"station_name":"Sudirman Baru","i_lat":-6.201433,"line":1,"distance":280},{"i_lat":-6.20132,"line":1,"station_id":"KAT","is_transit":false,"transit":false,"distance":471,"i_long":106.816351,"station_name":"Karet","time":1},{"is_transit":false,"transit":false,"station_id":"THB","time":5,"i_lat":-6.185545,"line":1,"distance":2029,"station_name":"Tanah Abang","i_long":106.811091},{"station_id":"DU","station_name":"Duri","line":1,"time":8,"transit":false,"i_lat":-6.155215,"is_transit":false,"i_long":106.800832,"distance":3632},{"station_id":"AK","is_transit":false,"distance":1230,"transit":false,"line":1,"station_name":"Angke","i_long":106.79867,"i_lat":-6.144674,"time":4},{"station_name":"Kampung Bandan","is_transit":true,"i_long":106.826365,"transit":true,"station_id":"KPB","line":4,"distance":4102,"i_lat":-6.132549,"time":9},{"is_transit":false,"station_name":"Rajawali","station_id":"RJW","i_lat":-6.14505,"transit":false,"time":3,"i_long":106.836569,"distance":1444,"line":11},{"station_name":"Kemayoran","i_lat":-6.161728,"is_transit":false,"time":5,"distance":1901,"i_long":106.839204,"transit":false,"line":11,"station_id":"KMO"},{"is_transit":false,"station_id":"PSE","station_name":"Pasar Senen","i_long":106.84368,"i_lat":-6.174784,"time":4,"distance":1436,"line":11,"transit":false},{"time":8,"is_transit":false,"station_name":"Gang Sentiong","transit":false,"i_long":106.850107,"i_lat":-6.185975,"station_id":"GST","line":11,"distance":1567},{"i_lat":-6.193792,"station_id":"KMT","time":1,"is_transit":false,"station_name":"Kramat","line":11,"transit":false,"i_long":106.855437,"distance":973},{"time":2,"station_name":"Pondok Jati","i_lat":-6.209188,"transit":false,"line":11,"is_transit":false,"distance":1829,"station_id":"POK","i_long":106.861737},{"transit":true,"is_transit":true,"distance":1236,"time":9,"i_long":106.86807400000001,"line":1,"station_name":"Jatinegara","i_lat":-6.215091,"station_id":"JNG"},{"transit":false,"distance":3395,"is_transit":false,"i_long":106.899548,"i_lat":-6.2135,"line":1,"time":3,"station_name":"Klender","station_id":"KLD"},{"time":2,"i_lat":-6.215568,"distance":3100,"station_name":"Buaran","transit":false,"i_long":106.922662,"is_transit":false,"line":1,"station_id":"BUA"},{"transit":false,"is_transit":false,"station_id":"KLDB","i_long":106.939679,"station_name":"Klenderbaru","distance":1305,"line":1,"time":1,"i_lat":-6.217455}],[{"i_long":106.790574,"time":0,"station_id":"BOO","distance":0,"line":2,"transit":false,"is_transit":false,"station_name":"Bogor","i_lat":-6.594596},{"i_lat":-6.530544,"i_long":106.800016,"station_name":"Cilebut","time":9,"is_transit":false,"line":2,"transit":false,"station_id":"CLT","distance":7514},{"time":5,"is_transit":false,"transit":false,"i_long":106.792719,"line":2,"station_id":"BJD","i_lat":-6.493243,"station_name":"Bojonggede","distance":4331},{"i_long":106.800298,"station_id":"CTA","time":5,"station_name":"Citayam","line":2,"is_transit":false,"distance":5197,"i_lat":-6.448811,"transit":false},{"is_transit":false,"i_long":106.816926,"i_lat":-6.405256,"time":6,"transit":false,"station_name":"Depok","distance":5084,"station_id":"DP","line":2},{"time":3,"station_id":"DPB","is_transit":false,"distance":1584,"station_name":"Depokbaru","transit":false,"i_lat":-6.391065,"line":2,"i_long":106.819451},{"time":4,"station_name":"Pondok Cina","i_long":106.831114,"line":2,"transit":false,"station_id":"POC","i_lat":-6.369073,"distance":2727,"is_transit":false},{"distance":1109,"time":2,"transit":false,"station_id":"UI","is_transit":false,"i_long":106.831474,"line":2,"station_name":"Univ. Indonesia","i_lat":-6.360749},{"time":3,"transit":false,"i_long":106.834175,"station_name":"Univ. Pancasila","station_id":"UP","distance":2264,"line":2,"is_transit":false,"i_lat":-6.339291},{"distance":1029,"station_name":"Lenteng Agung","station_id":"LNA","is_transit":false,"i_lat":-6.330363,"i_long":106.832616,"line":2,"time":2,"transit":false},{"is_transit":false,"transit":false,"distance":2671,"i_lat":-6.3080680000000005,"station_id":"TNT","time":3,"i_long":106.838896,"station_name":"Tanjung Barat","line":2},{"station_id":"PSM","is_transit":false,"i_lat":-6.2842400000000005,"i_long":106.843999,"distance":2820,"time":4,"line":2,"station_name":"Pasar Minggu","transit":false},{"is_transit":false,"transit":false,"distance":2380,"station_id":"PSMB","line":2,"station_name":"Pasar Minggu Baru","i_long":106.851577,"i_lat":-6.263214,"time":2},{"station_id":"DRN","transit":false,"station_name":"Duren Kalibata","time":2,"i_lat":-6.255332,"i_long":106.85449,"distance":824,"line":2,"is_transit":false},{"transit":false,"station_name":"Cawang","i_lat":-6.242512,"line":2,"i_long":106.856607,"station_id":"CW","is_transit":false,"distance":1546,"time":3},{"is_transit":false,"station_name":"Tebet","distance":1230,"time":2,"i_lat":-6.226659,"transit":false,"i_long":106.857948,"line":2,"station_id":"TEB"},{"i_long":106.84912,"station_name":"Manggarai","time":4,"line":2,"distance":2610,"station_id":"MRI","i_lat":-6.209883,"is_transit":false,"transit":false},{"line":2,"i_long":106.840169,"is_transit":false,"transit":false,"i_lat":-6.198556,"station_name":"Cikini","distance":1590,"station_id":"CKI","time":4},{"is_transit":false,"i_lat":-6.186295,"station_id":"GDD","line":2,"i_long":106.832183,"station_name":"Gondangdia","distance":1750,"transit":false,"time":3},{"i_long":106.828284,"i_lat":-6.166716,"station_id":"JUA","station_name":"Juanda","transit":false,"distance":2015,"time":4,"line":2,"is_transit":false},{"transit":false,"is_transit":false,"i_lat":-6.160725,"i_long":106.827103,"station_id":"SW","line":2,"station_name":"Sawah Besar","distance":1149,"time":2},{"i_lat":-6.149769,"station_name":"Manggabesar","transit":false,"distance":906,"is_transit":false,"station_id":"MGB","time":2,"i_long":106.82482,"line":2},{"line":2,"station_id":"JAY","transit":false,"distance":1080,"time":2,"is_transit":false,"i_lat":-6.141205,"station_name":"Jayakarta","i_long":106.820901},{"is_transit":true,"line":2,"time":4,"i_long":106.812439,"station_id":"JAKK","distance":1264,"station_name":"Jakarta Kota","transit":true,"i_lat":-6.137569},{"is_transit":true,"station_name":"Kampung Bandan","time":3,"distance":1364,"i_lat":-6.132549,"line":4,"transit":true,"station_id":"KPB","i_long":106.826365},{"transit":false,"i_lat":-6.14505,"distance":1444,"station_name":"Rajawali","time":3,"is_transit":false,"i_long":106.836569,"station_id":"RJW","line":11},{"i_lat":-6.161728,"distance":1901,"line":11,"station_name":"Kemayoran","time":5,"is_transit":false,"station_id":"KMO","i_long":106.839204,"transit":false},{"i_long":106.84368,"transit":false,"is_transit":false,"line":11,"station_name":"Pasar Senen","time":4,"distance":1436,"station_id":"PSE","i_lat":-6.174784},{"i_lat":-6.185975,"distance":1567,"transit":false,"station_name":"Gang Sentiong","station_id":"GST","i_long":106.850107,"time":8,"line":11,"is_transit":false},{"distance":973,"station_name":"Kramat","is_transit":false,"line":11,"time":1,"station_id":"KMT","transit":false,"i_lat":-6.193792,"i_long":106.855437},{"transit":false,"station_name":"Pondok Jati","time":2,"is_transit":false,"station_id":"POK","i_long":106.861737,"line":11,"distance":1829,"i_lat":-6.209188},{"is_transit":true,"transit":true,"i_lat":-6.215091,"station_name":"Jatinegara","time":9,"i_long":106.86807400000001,"distance":1236,"station_id":"JNG","line":1},{"station_id":"KLD","is_transit":false,"distance":3395,"i_lat":-6.2135,"time":3,"i_long":106.899548,"station_name":"Klender","line":1,"transit":false},{"i_lat":-6.215568,"i_long":106.922662,"station_name":"Buaran","transit":false,"line":1,"station_id":"BUA","is_transit":false,"distance":3100,"time":2},{"station_id":"KLDB","i_long":106.939679,"distance":1305,"line":1,"transit":false,"i_lat":-6.217455,"station_name":"Klenderbaru","time":1,"is_transit":false}]]}