{"data":[[{"time":0,"station_id":"BOO","transit":false,"is_transit":false,"station_name":"Bogor","distance":0,"i_lat":-6.594596,"line":2,"i_long":106.790574},{"station_id":"CLT","is_transit":false,"time":9,"i_lat":-6.530544,"i_long":106.800016,"station_name":"Cilebut","distance":7514,"line":2,"transit":false},{"station_id":"BJD","distance":4331,"i_lat":-6.493243,"station_name":"Bojonggede","i_long":106.792719,"time":5,"line":2,"transit":false,"is_transit":false},{"i_long":106.800298,"i_lat":-6.448811,"distance":5197,"station_name":"Citayam","time":5,"station_id":"CTA","transit":false,"is_transit":false,"line":2},{"i_long":106.816926,"i_lat":-6.405256,"station_id":"DP","distance":5084,"is_transit":false,"station_name":"Depok","transit":false,"line":2,"time":6},{"time":3,"line":2,"station_name":"Depokbaru","distance":1584,"is_transit":false,"station_id":"DPB","i_lat":-6.391065,"transit":false,"i_long":106.819451},{"distance":2727,"i_long":106.831114,"line":2,"is_transit":false,"time":4,"station_id":"POC","station_name":"Pondok Cina","transit":false,"i_lat":-6.369073},{"i_lat":-6.360749,"line":2,"distance":1109,"station_id":"UI","transit":false,"station_name":"Univ. Indonesia","time":2,"i_long":106.831474,"is_transit":false},{"i_lat":-6.339291,"i_long":106.834175,"distance":2264,"transit":false,"station_id":"UP","is_transit":false,"line":2,"time":3,"station_name":"Univ. Pancasila"},{"station_name":"Lenteng Agung","i_long":106.832616,"time":2,"station_id":"LNA","i_lat":-6.330363,"transit":false,"distance":1029,"is_transit":false,"line":2},{"transit":false,"station_id":"TNT","i_lat":-6.3080680000000005,"i_long":106.838896,"station_name":"Tanjung Barat","line":2,"time":3,"distance":2671,"is_transit":false},{"is_transit":false,"station_id":"PSM","transit":false,"line":2,"i_long":106.843999,"distance":2820,"i_lat":-6.2842400000000005,"station_name":"Pasar Minggu","time":4},{"is_transit":false,"i_lat":-6.263214,"station_name":"Pasar Minggu Baru","time":2,"i_long":106.851577,"distance":2380,"line":2,"transit":false,"station_id":"PSMB"},{"distance":824,"i_lat":-6.255332,"i_long":106.85449,"transit":false,"station_id":"DRN","station_name":"Duren Kalibata","line":2,"is_transit":false,"time":2},{"time":3,"line":2,"station_id":"CW","distance":1546,"i_long":106.856607,"i_lat":-6.242512,"station_name":"Cawang","transit":false,"is_transit":false},{"distance":1230,"line":2,"transit":false,"is_transit":false,"i_lat":-6.226659,"station_name":"Tebet","i_long":106.857948,"time":2,"station_id":"TEB"},{"distance":2610,"line":2,"i_lat":-6.209883,"transit":true,"is_transit":true,"station_id":"MRI","time":4,"station_name":"Manggarai","i_long":106.84912},{"time":4,"i_long":106.822649,"station_id":"SUD","transit":false,"station_name":"Sudirman","line":1,"i_lat":-6.202263,"is_transit":false,"distance":3186},{"line":1,"i_lat":-6.201433,"station_name":"Sudirman Baru","transit":false,"station_id":"SUDB","is_transit":false,"i_long":106.819881,"distance":280,"time":1},{"station_name":"Karet","distance":471,"i_long":106.816351,"line":1,"time":1,"transit":false,"is_transit":false,"station_id":"KAT","i_lat":-6.20132},{"station_id":"THB","transit":true,"station_name":"Tanah Abang","distance":2029,"i_lat":-6.185545,"i_long":106.811091,"is_transit":true,"line":1,"time":5},{"station_id":"PLM","i_long":106.79689,"distance":3191,"transit":false,"line":6,"is_transit":false,"station_name":"Palmerah","i_lat":-6.207404,"time":6},{"time":7,"is_transit":false,"i_long":106.780334,"line":6,"transit":false,"distance":3737,"station_id":"KBY","station_name":"Kebayoran","i_lat":-6.237242},{"station_name":"Pondokranji","station_id":"PDJ","i_lat":-6.276362,"distance":6218,"line":6,"i_long":106.74273,"is_transit":false,"time":8,"transit":false},{"is_transit":false,"station_name":"Jurangmangu","i_lat":-6.288927,"i_long":106.728916,"transit":false,"station_id":"JMU","line":6,"time":3,"distance":2179},{"transit":false,"time":4,"distance":1994,"line":6,"station_name":"Sudimara","station_id":"SDM","i_long":106.712277,"is_transit":false,"i_lat":-6.296963},{"station_name":"Rawa Buntu","station_id":"RU","i_long":106.675475,"line":6,"is_transit":false,"time":6,"i_lat":-6.314823,"transit":false,"distance":4566},{"i_lat":-6.319871,"i_long":106.66566,"station_id":"SRP","time":4,"distance":2413,"line":6,"is_transit":false,"transit":false,"station_name":"Serpong"},{"station_name":"Cisauk","station_id":"CSK","time":4,"distance":1784,"i_long":106.640411,"line":3,"is_transit":false,"i_lat":-6.32484,"transit":false},{"transit":false,"time":4,"station_name":"Cicayur","distance":2519,"i_lat":-6.329547,"line":3,"station_id":"CC","is_transit":false,"i_long":106.617853},{"station_name":"Parung Panjang","distance":5968,"line":6,"time":8,"station_id":"PRP","is_transit":false,"i_long":106.568863,"transit":false,"i_lat":-6.3441410000000005},{"station_name":"Cilejit","time":9,"is_transit":false,"transit":false,"i_long":106.508482,"i_lat":-6.354349,"distance":7025,"line":3,"station_id":"CJT"},{"i_long":106.491338,"transit":false,"station_name":"Daru","line":0,"time":6,"distance":2675,"station_id":"DAR","i_lat":-6.338021,"is_transit":false}],[{"time":0,"station_id":"BOO","station_name":"Bogor","is_transit":false,"distance":0,"i_lat":-6.594596,"i_long":106.790574,"line":2,"transit":false},{"station_id":"CLT","time":9,"i_long":106.800016,"transit":false,"station_name":"Cilebut","distance":7514,"i_lat":-6.530544,"line":2,"is_transit":false},{"distance":4331,"station_id":"BJD","is_transit":false,"time":5,"i_long":106.792719,"station_name":"Bojonggede","transit":false,"i_lat":-6.493243,"line":2},{"i_lat":-6.448811,"distance":5197,"is_transit":false,"station_name":"Citayam","time":5,"station_id":"CTA","i_long":106.800298,"transit":false,"line":2},{"station_name":"Depok","transit":false,"i_lat":-6.405256,"i_long":106.816926,"line":2,"time":6,"distance":5084,"station_id":"DP","is_transit":false},{"station_name":"Depokbaru","station_id":"DPB","distance":1584,"is_transit":false,"transit":false,"line":2,"i_lat":-6.391065,"time":3,"i_long":106.819451},{"i_long":106.831114,"station_name":"Pondok Cina","transit":false,"line":2,"distance":2727,"i_lat":-6.369073,"is_transit":false,"station_id":"POC","time":4},{"i_lat":-6.360749,"is_transit":false,"line":2,"i_long":106.831474,"distance":1109,"station_id":"UI","transit":false,"station_name":"Univ. Indonesia","time":2},{"distance":2264,"transit":false,"is_transit":false,"time":3,"i_long":106.834175,"i_lat":-6.339291,"line":2,"station_id":"UP","station_name":"Univ. Pancasila"},{"is_transit":false,"station_name":"Lenteng Agung","i_long":106.832616,"distance":1029,"i_lat":-6.330363,"station_id":"LNA","time":2,"line":2,"transit":false},{"transit":false,"station_id":"TNT","i_long":106.838896,"is_transit":false,"time":3,"distance":2671,"station_name":"Tanjung Barat","i_lat":-6.3080680000000005,"line":2},{"station_id":"PSM","time":4,"is_transit":false,"i_long":106.843999,"i_lat":-6.2842400000000005,"line":2,"distance":2820,"transit":false,"station_name":"Pasar Minggu"},{"i_lat":-6.263214,"station_name":"Pasar Minggu Baru","station_id":"PSMB","is_transit":false,"line":2,"i_long":106.851577,"distance":2380,"transit":false,"time":2},{"i_lat":-6.255332,"line":2,"time":2,"station_name":"Duren Kalibata","transit":false,"station_id":"DRN","distance":824,"is_transit":false,"i_long":106.85449},{"time":3,"transit":false,"station_name":"Cawang","i_lat":-6.242512,"is_transit":false,"line":2,"i_long":106.856607,"distance":1546,"station_id":"CW"},{"i_long":106.857948,"line":2,"is_transit":false,"time":2,"station_name":"Tebet","station_id":"TEB","transit":false,"distance":1230,"i_lat":-6.226659},{"station_id":"MRI","distance":2610,"is_transit":false,"transit":false,"station_name":"Manggarai","time":4,"i_long":106.84912,"line":2,"i_lat":-6.209883},{"station_id":"CKI","is_transit":false,"transit":false,"i_lat":-6.198556,"line":2,"time":4,"i_long":106.840169,"station_name":"Cikini","distance":1590},{"distance":1750,"station_name":"Gondangdia","i_lat":-6.186295,"station_id":"GDD","i_long":106.832183,"time":3,"is_transit":false,"line":2,"transit":false},{"i_long":106.828284,"time":4,"station_name":"Juanda","distance":2015,"line":2,"station_id":"JUA","is_transit":false,"i_lat":-6.166716,"transit":false},{"is_transit":false,"transit":false,"station_name":"Sawah Besar","time":2,"line":2,"i_lat":-6.160725,"station_id":"SW","distance":1149,"i_long":106.827103},{"i_lat":-6.149769,"distance":906,"line":2,"transit":false,"station_id":"MGB","time":2,"station_name":"Manggabesar","is_transit":false,"i_long":106.82482},{"station_name":"Jayakarta","transit":false,"time":2,"distance":1080,"is_transit":false,"i_lat":-6.141205,"i_long":106.820901,"line":2,"station_id":"JAY"},{"i_lat":-6.137569,"station_name":"Jakarta Kota","station_id":"JAKK","i_long":106.812439,"time":4,"line":2,"transit":true,"distance":1264,"is_transit":true},{"is_transit":true,"i_long":106.826365,"transit":true,"i_lat":-6.132549,"line":4,"station_id":"KPB","time":3,"distance":1364,"station_name":"Kampung Bandan"},{"transit":false,"station_id":"AK","time":9,"distance":4102,"line":1,"i_long":106.79867,"station_name":"Angke","i_lat":-6.144674,"is_transit":false},{"transit":false,"i_lat":-6.155215,"line":1,"is_transit":false,"time":4,"distance":1230,"i_long":106.800832,"station_name":"Duri","station_id":"DU"},{"station_id":"THB","i_lat":-6.185545,"time":8,"line":1,"station_name":"Tanah Abang","i_long":106.811091,"is_transit":true,"distance":3632,"transit":true},{"station_name":"Palmerah","is_transit":false,"distance":3191,"transit":false,"i_long":106.79689,"station_id":"PLM","time":6,"line":6,"i_lat":-6.207404},{"distance":3737,"station_id":"KBY","station_name":"Kebayoran","i_long":106.780334,"line":6,"i_lat":-6.237242,"transit":false,"is_transit":false,"time":7},{"transit":false,"time":8,"i_lat":-6.276362,"i_long":106.74273,"distance":6218,"line":6,"station_name":"Pondokranji","station_id":"PDJ","is_transit":false},{"station_id":"JMU","line":6,"i_long":106.728916,"transit":false,"station_name":"Jurangmangu","time":3,"distance":2179,"is_transit":false,"i_lat":-6.288927},{"transit":false,"time":4,"station_id":"SDM","distance":1994,"line":6,"station_name":"Sudimara","is_transit":false,"i_lat":-6.296963,"i_long":106.712277},{"station_name":"Rawa Buntu","distance":4566,"i_lat":-6.314823,"station_id":"RU","transit":false,"i_long":106.675475,"line":6,"is_transit":false,"time":6},{"is_transit":false,"distance":2413,"station_name":"Serpong","station_id":"SRP","transit":false,"time":4,"i_long":106.66566,"i_lat":-6.319871,"line":6},{"i_long":106.640411,"distance":1784,"line":3,"time":4,"i_lat":-6.32484,"is_transit":false,"transit":false,"station_id":"CSK","station_name":"Cisauk"},{"time":4,"station_id":"CC","station_name":"Cicayur","is_transit":false,"distance":2519,"i_lat":-6.329547,"transit":false,"line":3,"i_long":106.617853},{"time":8,"line":6,"station_id":"PRP","is_transit":false,"distance":5968,"station_name":"Parung Panjang","i_lat":-6.3441410000000005,"i_long":106.568863,"transit":false},{"transit":false,"station_id":"CJT","distance":7025,"line":3,"time":9,"is_transit":false,"i_long":106.508482,"i_lat":-6.354349,"station_name":"Cilejit"},{"is_transit":false,"i_lat":-6.338021,"i_long":106.491338,"station_id":"DAR","time":6,"distance":2675,"station_name":"Daru","line":0,"transit":false}],[{"is_transit":false,"time":0,"station_id":"BOO","distance":0,"i_lat":-6.594596,"i_long":106.790574,"transit":false,"station_name":"Bogor","line":2},{"distance":7514,"station_id":"CLT","is_transit":false,"transit":false,"i_long":106.800016,"i_lat":-6.530544,"station_name":"Cilebut","time":9,"line":2},{"distance":4331,"time":5,"i_long":106.792719,"line":2,"station_id":"BJD","is_transit":false,"i_lat":-6.493243,"transit":false,"station_name":"Bojonggede"},{"i_lat":-6.448811,"line":2,"station_id":"CTA","time":5,"distance":5197,"i_long":106.800298,"transit":false,"station_name":"Citayam","is_transit":false},{"line":2,"i_lat":-6.405256,"station_id":"DP","time":6,"distance":5084,"i_long":106.816926,"is_transit":false,"station_name":"Depok","transit":false},{"line":2,"i_long":106.819451,"transit":false,"distance":1584,"time":3,"i_lat":-6.391065,"station_id":"DPB","station_name":"Depokbaru","is_transit":false},{"transit":false,"i_lat":-6.369073,"is_transit":false,"station_id":"POC","distance":2727,"time":4,"station_name":"Pondok Cina","line":2,"i_long":106.831114},{"station_id":"UI","distance":1109,"station_name":"Univ. Indonesia","i_lat":-6.360749,"transit":false,"is_transit":false,"time":2,"line":2,"i_long":106.831474},{"time":3,"i_long":106.834175,"distance":2264,"transit":false,"station_name":"Univ. Pancasila","is_transit":false,"station_id":"UP","i_lat":-6.339291,"line":2},{"line":2,"transit":false,"i_lat":-6.330363,"distance":1029,"is_transit":false,"station_name":"Lenteng Agung","i_long":106.832616,"time":2,"station_id":"LNA"},{"is_transit":false,"time":3,"transit":false,"i_long":106.838896,"line":2,"station_name":"Tanjung Barat","station_id":"TNT","distance":2671,"i_lat":-6.3080680000000005},{"is_transit":false,"i_long":106.843999,"line":2,"time":4,"station_id":"PSM","transit":false,"distance":2820,"i_lat":-6.2842400000000005,"station_name":"Pasar Minggu"},{"station_id":"PSMB","is_transit":false,"time":2,"i_lat":-6.263214,"transit":false,"line":2,"station_name":"Pasar Minggu Baru","i_long":106.851577,"distance":2380},{"transit":false,"station_id":"DRN","station_name":"Duren Kalibata","line":2,"i_long":106.85449,"time":2,"distance":824,"is_transit":false,"i_lat":-6.255332},{"station_name":"Cawang","time":3,"transit":false,"distance":1546,"is_transit":false,"i_long":106.856607,"i_lat":-6.242512,"station_id":"CW","line":2},{"distance":1230,"i_lat":-6.226659,"station_name":"Tebet","time":2,"station_id":"TEB","transit":false,"line":2,"is_transit":false,"i_long":106.857948},{"line":2,"station_id":"MRI","is_transit":true,"distance":2610,"i_long":106.84912,"station_name":"Manggarai","time":4,"transit":true,"i_lat":-6.209883},{"time":2,"is_transit":false,"i_lat":-6.212485,"line":1,"distance":1275,"i_long":106.858896,"transit":false,"station_name":"Matraman","station_id":"MTR"},{"transit":true,"i_lat":-6.215091,"distance":1377,"station_id":"JNG","station_name":"Jatinegara","line":1,"i_long":106.86807400000001,"time":8,"is_transit":true},{"station_name":"Pondok Jati","station_id":"POK","distance":1236,"is_transit":false,"i_long":106.861737,"transit":false,"line":11,"i_lat":-6.209188,"time":2},{"transit":false,"time":2,"i_lat":-6.193792,"station_id":"KMT","is_transit":false,"station_name":"Kramat","distance":1829,"line":11,"i_long":106.855437},{"distance":973,"i_long":106.850107,"time":1,"line":11,"station_name":"Gang Sentiong","i_lat":-6.185975,"station_id":"GST","transit":false,"is_transit":false},{"is_transit":false,"distance":1567,"i_lat":-6.174784,"station_name":"Pasar Senen","transit":false,"station_id":"PSE","line":11,"time":8,"i_long":106.84368},{"transit":false,"station_id":"KMO","line":11,"time":4,"i_long":106.839204,"station_name":"Kemayoran","is_transit":false,"i_lat":-6.161728,"distance":1436},{"line":11,"station_id":"RJW","i_lat":-6.14505,"transit":false,"is_transit":false,"time":5,"distance":1901,"i_long":106.836569,"station_name":"Rajawali"},{"is_transit":true,"line":4,"transit":true,"distance":1444,"time":3,"i_long":106.826365,"station_id":"KPB","station_name":"Kampung Bandan","i_lat":-6.132549},{"line":1,"station_id":"AK","transit":false,"is_transit":false,"distance":4102,"time":9,"station_name":"Angke","i_lat":-6.144674,"i_long":106.79867},{"transit":false,"line":1,"station_id":"DU","is_transit":false,"i_long":106.800832,"station_name":"Duri","time":4,"distance":1230,"i_lat":-6.155215},{"i_long":106.811091,"is_transit":true,"station_name":"Tanah Abang","distance":3632,"transit":true,"station_id":"THB","time":8,"line":1,"i_lat":-6.185545},{"transit":false,"is_transit":false,"station_id":"PLM","i_lat":-6.207404,"i_long":106.79689,"station_name":"Palmerah","line":6,"distance":3191,"time":6},{"i_lat":-6.237242,"station_id":"KBY","station_name":"Kebayoran","is_transit":false,"transit":false,"time":7,"line":6,"distance":3737,"i_long":106.780334},{"i_lat":-6.276362,"distance":6218,"i_long":106.74273,"line":6,"transit":false,"time":8,"station_name":"Pondokranji","station_id":"PDJ","is_transit":false},{"is_transit":false,"i_lat":-6.288927,"station_id":"JMU","transit":false,"station_name":"Jurangmangu","distance":2179,"i_long":106.728916,"time":3,"line":6},{"i_long":106.712277,"distance":1994,"station_id":"SDM","is_transit":false,"time":4,"transit":false,"i_lat":-6.296963,"station_name":"Sudimara","line":6},{"station_name":"Rawa Buntu","transit":false,"distance":4566,"is_transit":false,"line":6,"station_id":"RU","time":6,"i_lat":-6.314823,"i_long":106.675475},{"station_name":"Serpong","is_transit":false,"station_id":"SRP","time":4,"i_long":106.66566,"transit":false,"distance":2413,"i_lat":-6.319871,"line":6},{"line":3,"transit":false,"station_id":"CSK","time":4,"i_long":106.640411,"station_name":"Cisauk","distance":1784,"i_lat":-6.32484,"is_transit":false},{"i_long":106.617853,"station_id":"CC","time":4,"transit":false,"station_name":"Cicayur","line":3,"i_lat":-6.329547,"distance":2519,"is_transit":false},{"transit":false,"station_id":"PRP","time":8,"line":6,"i_lat":-6.3441410000000005,"station_name":"Parung Panjang","distance":5968,"i_long":106.568863,"is_transit":false},{"i_lat":-6.354349,"station_name":"Cilejit","is_transit":false,"i_long":106.508482,"time":9,"transit":false,"distance":7025,"line":3,"station_id":"CJT"},{"is_transit":false,"line":0,"transit":false,"i_lat":-6.338021,"i_long":106.491338,"time":6,"station_id":"DAR","station_name":"Daru","distance":2675}]]}