{"data":[[{"transit":false,"line":2,"station_id":"BOO","time":0,"i_lat":-6.594596,"i_long":106.790574,"distance":0,"station_name":"Bogor","is_transit":false},{"transit":false,"line":2,"station_name":"Cilebut","is_transit":false,"time":9,"station_id":"CLT","distance":7514,"i_long":106.800016,"i_lat":-6.530544},{"i_lat":-6.493243,"transit":false,"time":5,"is_transit":false,"distance":4331,"station_name":"Bojonggede","station_id":"BJD","i_long":106.792719,"line":2},{"transit":false,"station_id":"CTA","station_name":"Citayam","is_transit":false,"line":2,"distance":5197,"i_lat":-6.448811,"time":5,"i_long":106.800298},{"is_transit":false,"transit":false,"i_long":106.816926,"i_lat":-6.405256,"distance":5084,"station_name":"Depok","time":6,"station_id":"DP","line":2},{"time":3,"is_transit":false,"distance":1584,"transit":false,"line":2,"i_lat":-6.391065,"i_long":106.819451,"station_name":"Depokbaru","station_id":"DPB"},{"i_long":106.831114,"station_name":"Pondok Cina","transit":false,"line":2,"i_lat":-6.369073,"station_id":"POC","time":4,"distance":2727,"is_transit":false},{"time":2,"station_name":"Univ. Indonesia","distance":1109,"is_transit":false,"transit":false,"i_lat":-6.360749,"line":2,"station_id":"UI","i_long":106.831474},{"is_transit":false,"time":3,"transit":false,"distance":2264,"line":2,"i_long":106.834175,"i_lat":-6.339291,"station_name":"Univ. Pancasila","station_id":"UP"},{"time":2,"distance":1029,"transit":false,"station_name":"Lenteng Agung","i_long":106.832616,"i_lat":-6.330363,"line":2,"is_transit":false,"station_id":"LNA"},{"time":3,"station_name":"Tanjung Barat","distance":2671,"transit":false,"station_id":"TNT","line":2,"is_transit":false,"i_lat":-6.3080680000000005,"i_long":106.838896},{"line":2,"i_long":106.843999,"is_transit":false,"station_name":"Pasar Minggu","distance":2820,"station_id":"PSM","transit":false,"time":4,"i_lat":-6.2842400000000005},{"distance":2380,"time":2,"line":2,"i_lat":-6.263214,"is_transit":false,"transit":false,"station_id":"PSMB","station_name":"Pasar Minggu Baru","i_long":106.851577},{"station_id":"DRN","i_long":106.85449,"is_transit":false,"time":2,"i_lat":-6.255332,"line":2,"station_name":"Duren Kalibata","transit":false,"distance":824},{"station_name":"Cawang","station_id":"CW","distance":1546,"line":2,"i_long":106.856607,"time":3,"transit":false,"is_transit":false,"i_lat":-6.242512},{"i_lat":-6.226659,"i_long":106.857948,"line":2,"distance":1230,"transit":false,"is_transit":false,"station_name":"Tebet","station_id":"TEB","time":2},{"station_name":"Manggarai","i_lat":-6.209883,"transit":true,"distance":2610,"station_id":"MRI","is_transit":true,"time":4,"i_long":106.84912,"line":2},{"station_id":"SUD","transit":false,"i_long":106.822649,"time":4,"line":1,"is_transit":false,"station_name":"Sudirman","distance":3186,"i_lat":-6.202263},{"is_transit":false,"i_long":106.819881,"station_id":"SUDB","distance":280,"i_lat":-6.201433,"station_name":"Sudirman Baru","transit":false,"time":1,"line":1},{"i_lat":-6.20132,"is_transit":false,"station_id":"KAT","distance":471,"line":1,"station_name":"Karet","transit":false,"time":1,"i_long":106.816351},{"i_long":106.811091,"station_id":"THB","time":5,"transit":false,"i_lat":-6.185545,"station_name":"Tanah Abang","is_transit":false,"distance":2029,"line":1},{"station_name":"Duri","distance":3632,"station_id":"DU","is_transit":true,"line":1,"i_lat":-6.155215,"transit":true,"i_long":106.800832,"time":8},{"is_transit":false,"distance":1700,"transit":false,"station_name":"Grogol","station_id":"GGL","time":3,"i_long":106.788277,"i_lat":-6.162021,"line":5},{"i_long":106.771379,"transit":false,"distance":2036,"line":5,"station_name":"Pesing","is_transit":false,"i_lat":-6.161433,"station_id":"PSG","time":2},{"i_lat":-6.1587309999999995,"line":5,"station_name":"Taman Kota","distance":1614,"transit":false,"time":2,"station_id":"TKO","is_transit":false,"i_long":106.756522},{"distance":2334,"i_lat":-6.159876,"transit":false,"station_name":"Bojongindah","station_id":"BOI","is_transit":false,"i_long":106.737035,"time":2,"line":5},{"time":4,"transit":false,"station_name":"Rawa Buaya","is_transit":false,"distance":1152,"i_lat":-6.162758,"i_long":106.723064,"line":5,"station_id":"RW"},{"transit":false,"is_transit":false,"i_lat":-6.166068,"station_id":"KDS","distance":2504,"line":5,"time":3,"i_long":106.701612,"station_name":"Kalideres"},{"station_name":"Poris","is_transit":false,"line":5,"station_id":"PI","time":3,"distance":2548,"transit":false,"i_lat":-6.169933,"i_long":106.679458}],[{"i_long":106.790574,"line":2,"i_lat":-6.594596,"time":0,"station_id":"BOO","station_name":"Bogor","is_transit":false,"transit":false,"distance":0},{"i_lat":-6.530544,"time":9,"station_name":"Cilebut","transit":false,"station_id":"CLT","i_long":106.800016,"line":2,"distance":7514,"is_transit":false},{"i_long":106.792719,"time":5,"station_name":"Bojonggede","station_id":"BJD","is_transit":false,"transit":false,"line":2,"distance":4331,"i_lat":-6.493243},{"station_id":"CTA","time":5,"is_transit":false,"transit":false,"station_name":"Citayam","i_lat":-6.448811,"distance":5197,"line":2,"i_long":106.800298},{"time":6,"transit":false,"distance":5084,"station_name":"Depok","station_id":"DP","i_lat":-6.405256,"is_transit":false,"i_long":106.816926,"line":2},{"time":3,"station_name":"Depokbaru","line":2,"i_long":106.819451,"transit":false,"distance":1584,"i_lat":-6.391065,"station_id":"DPB","is_transit":false},{"time":4,"i_long":106.831114,"distance":2727,"transit":false,"station_id":"POC","is_transit":false,"line":2,"i_lat":-6.369073,"station_name":"Pondok Cina"},{"station_name":"Univ. Indonesia","i_long":106.831474,"transit":false,"station_id":"UI","is_transit":false,"time":2,"distance":1109,"i_lat":-6.360749,"line":2},{"station_name":"Univ. Pancasila","time":3,"station_id":"UP","i_long":106.834175,"transit":false,"distance":2264,"i_lat":-6.339291,"line":2,"is_transit":false},{"station_name":"Lenteng Agung","i_lat":-6.330363,"station_id":"LNA","distance":1029,"time":2,"i_long":106.832616,"is_transit":false,"line":2,"transit":false},{"time":3,"distance":2671,"i_long":106.838896,"station_name":"Tanjung Barat","transit":false,"i_lat":-6.3080680000000005,"station_id":"TNT","is_transit":false,"line":2},{"transit":false,"time":4,"station_id":"PSM","station_name":"Pasar Minggu","i_lat":-6.2842400000000005,"is_transit":false,"distance":2820,"line":2,"i_long":106.843999},{"i_lat":-6.263214,"i_long":106.851577,"distance":2380,"line":2,"station_name":"Pasar Minggu Baru","station_id":"PSMB","is_transit":false,"transit":false,"time":2},{"i_lat":-6.255332,"station_id":"DRN","transit":false,"station_name":"Duren Kalibata","distance":824,"line":2,"i_long":106.85449,"time":2,"is_transit":false},{"station_name":"Cawang","line":2,"time":3,"station_id":"CW","i_lat":-6.242512,"distance":1546,"i_long":106.856607,"is_transit":false,"transit":false},{"i_long":106.857948,"distance":1230,"transit":false,"station_name":"Tebet","is_transit":false,"line":2,"time":2,"station_id":"TEB","i_lat":-6.226659},{"i_lat":-6.209883,"is_transit":false,"transit":false,"station_id":"MRI","station_name":"Manggarai","time":4,"distance":2610,"i_long":106.84912,"line":2},{"line":2,"time":4,"station_name":"Cikini","i_long":106.840169,"distance":1590,"station_id":"CKI","is_transit":false,"transit":false,"i_lat":-6.198556},{"distance":1750,"station_id":"GDD","line":2,"station_name":"Gondangdia","is_transit":false,"i_long":106.832183,"time":3,"transit":false,"i_lat":-6.186295},{"station_id":"JUA","transit":false,"is_transit":false,"station_name":"Juanda","i_long":106.828284,"i_lat":-6.166716,"time":4,"line":2,"distance":2015},{"time":2,"distance":1149,"station_name":"Sawah Besar","i_lat":-6.160725,"i_long":106.827103,"transit":false,"station_id":"SW","line":2,"is_transit":false},{"is_transit":false,"i_lat":-6.149769,"station_id":"MGB","time":2,"i_long":106.82482,"transit":false,"station_name":"Manggabesar","distance":906,"line":2},{"station_id":"JAY","line":2,"time":2,"distance":1080,"station_name":"Jayakarta","i_lat":-6.141205,"is_transit":false,"i_long":106.820901,"transit":false},{"station_id":"JAKK","time":4,"i_lat":-6.137569,"distance":1264,"transit":true,"i_long":106.812439,"line":2,"station_name":"Jakarta Kota","is_transit":true},{"i_long":106.826365,"is_transit":true,"transit":true,"station_name":"Kampung Bandan","distance":1364,"line":4,"i_lat":-6.132549,"station_id":"KPB","time":3},{"station_name":"Angke","is_transit":false,"i_long":106.79867,"i_lat":-6.144674,"time":9,"distance":4102,"transit":false,"line":1,"station_id":"AK"},{"i_lat":-6.155215,"line":1,"station_id":"DU","time":4,"is_transit":true,"distance":1230,"transit":true,"station_name":"Duri","i_long":106.800832},{"time":3,"station_name":"Grogol","transit":false,"distance":1700,"i_lat":-6.162021,"i_long":106.788277,"line":5,"station_id":"GGL","is_transit":false},{"distance":2036,"i_long":106.771379,"time":2,"station_id":"PSG","i_lat":-6.161433,"station_name":"Pesing","transit":false,"is_transit":false,"line":5},{"line":5,"distance":1614,"time":2,"i_long":106.756522,"transit":false,"station_name":"Taman Kota","station_id":"TKO","i_lat":-6.1587309999999995,"is_transit":false},{"line":5,"is_transit":false,"distance":2334,"i_lat":-6.159876,"station_id":"BOI","station_name":"Bojongindah","time":2,"transit":false,"i_long":106.737035},{"station_name":"Rawa Buaya","is_transit":false,"i_lat":-6.162758,"i_long":106.723064,"line":5,"time":4,"station_id":"RW","transit":false,"distance":1152},{"distance":2504,"i_lat":-6.166068,"i_long":106.701612,"time":3,"transit":false,"station_name":"Kalideres","station_id":"KDS","line":5,"is_transit":false},{"station_id":"PI","transit":false,"is_transit":false,"station_name":"Poris","time":3,"i_lat":-6.169933,"i_long":106.679458,"distance":2548,"line":5}],[{"transit":false,"i_lat":-6.594596,"i_long":106.790574,"is_transit":false,"station_id":"BOO","distance":0,"time":0,"station_name":"Bogor","line":2},{"station_name":"Cilebut","is_transit":false,"distance":7514,"line":2,"transit":false,"time":9,"i_lat":-6.530544,"i_long":106.800016,"station_id":"CLT"},{"time":5,"transit":false,"distance":4331,"i_lat":-6.493243,"station_id":"BJD","is_transit":false,"line":2,"station_name":"Bojonggede","i_long":106.792719},{"station_id":"CTA","station_name":"Citayam","line":2,"is_transit":false,"i_long":106.800298,"i_lat":-6.448811,"transit":false,"time":5,"distance":5197},{"distance":5084,"station_name":"Depok","line":2,"transit":false,"time":6,"station_id":"DP","is_transit":false,"i_lat":-6.405256,"i_long":106.816926},{"i_lat":-6.391065,"transit":false,"line":2,"i_long":106.819451,"distance":1584,"station_name":"Depokbaru","station_id":"DPB","time":3,"is_transit":false},{"station_id":"POC","i_lat":-6.369073,"time":4,"distance":2727,"i_long":106.831114,"transit":false,"line":2,"station_name":"Pondok Cina","is_transit":false},{"line":2,"time":2,"i_long":106.831474,"station_name":"Univ. Indonesia","distance":1109,"is_transit":false,"transit":false,"station_id":"UI","i_lat":-6.360749},{"i_lat":-6.339291,"is_transit":false,"i_long":106.834175,"transit":false,"station_id":"UP","station_name":"Univ. Pancasila","time":3,"line":2,"distance":2264},{"distance":1029,"i_lat":-6.330363,"i_long":106.832616,"transit":false,"station_id":"LNA","line":2,"is_transit":false,"time":2,"station_name":"Lenteng Agung"},{"time":3,"i_long":106.838896,"station_id":"TNT","line":2,"station_name":"Tanjung Barat","distance":2671,"i_lat":-6.3080680000000005,"is_transit":false,"transit":false},{"is_transit":false,"station_name":"Pasar Minggu","i_long":106.843999,"line":2,"time":4,"transit":false,"distance":2820,"i_lat":-6.2842400000000005,"station_id":"PSM"},{"i_long":106.851577,"is_transit":false,"i_lat":-6.263214,"line":2,"transit":false,"station_id":"PSMB","time":2,"station_name":"Pasar Minggu Baru","distance":2380},{"i_long":106.85449,"station_id":"DRN","distance":824,"station_name":"Duren Kalibata","i_lat":-6.255332,"line":2,"transit":false,"is_transit":false,"time":2},{"station_name":"Cawang","i_long":106.856607,"time":3,"i_lat":-6.242512,"distance":1546,"station_id":"CW","transit":false,"is_transit":false,"line":2},{"is_transit":false,"i_lat":-6.226659,"distance":1230,"line":2,"time":2,"station_id":"TEB","station_name":"Tebet","i_long":106.857948,"transit":false},{"time":4,"line":2,"distance":2610,"i_long":106.84912,"i_lat":-6.209883,"transit":true,"station_id":"MRI","is_transit":true,"station_name":"Manggarai"},{"is_transit":false,"station_name":"Matraman","time":2,"transit":false,"station_id":"MTR","distance":1275,"i_lat":-6.212485,"i_long":106.858896,"line":1},{"transit":true,"distance":1377,"station_id":"JNG","time":8,"line":1,"is_transit":true,"i_lat":-6.215091,"station_name":"Jatinegara","i_long":106.86807400000001},{"transit":false,"station_id":"POK","i_long":106.861737,"line":11,"time":2,"distance":1236,"station_name":"Pondok Jati","is_transit":false,"i_lat":-6.209188},{"station_id":"KMT","is_transit":false,"line":11,"distance":1829,"transit":false,"i_lat":-6.193792,"time":2,"i_long":106.855437,"station_name":"Kramat"},{"station_id":"GST","transit":false,"distance":973,"station_name":"Gang Sentiong","time":1,"is_transit":false,"i_long":106.850107,"line":11,"i_lat":-6.185975},{"time":8,"transit":false,"station_id":"PSE","i_lat":-6.174784,"is_transit":false,"distance":1567,"i_long":106.84368,"station_name":"Pasar Senen","line":11},{"transit":false,"station_name":"Kemayoran","time":4,"i_lat":-6.161728,"is_transit":false,"station_id":"KMO","distance":1436,"i_long":106.839204,"line":11},{"distance":1901,"is_transit":false,"station_name":"Rajawali","time":5,"i_lat":-6.14505,"i_long":106.836569,"line":11,"station_id":"RJW","transit":false},{"is_transit":true,"station_name":"Kampung Bandan","time":3,"distance":1444,"line":4,"i_lat":-6.132549,"transit":true,"i_long":106.826365,"station_id":"KPB"},{"is_transit":false,"line":1,"distance":4102,"i_lat":-6.144674,"station_id":"AK","time":9,"i_long":106.79867,"station_name":"Angke","transit":false},{"i_long":106.800832,"station_name":"Duri","distance":1230,"transit":true,"is_transit":true,"time":4,"i_lat":-6.155215,"line":1,"station_id":"DU"},{"transit":false,"time":3,"distance":1700,"i_lat":-6.162021,"is_transit":false,"line":5,"station_name":"Grogol","station_id":"GGL","i_long":106.788277},{"line":5,"station_name":"Pesing","station_id":"PSG","time":2,"i_lat":-6.161433,"i_long":106.771379,"transit":false,"distance":2036,"is_transit":false},{"transit":false,"is_transit":false,"station_name":"Taman Kota","i_lat":-6.1587309999999995,"i_long":106.756522,"station_id":"TKO","distance":1614,"time":2,"line":5},{"transit":false,"station_id":"BOI","line":5,"i_long":106.737035,"station_name":"Bojongindah","distance":2334,"time":2,"i_lat":-6.159876,"is_transit":false},{"line":5,"time":4,"transit":false,"i_lat":-6.162758,"distance":1152,"is_transit":false,"station_id":"RW","station_name":"Rawa Buaya","i_long":106.723064},{"is_transit":false,"distance":2504,"transit":false,"time":3,"line":5,"station_name":"Kalideres","i_long":106.701612,"station_id":"KDS","i_lat":-6.166068},{"distance":2548,"line":5,"station_id":"PI","transit":false,"station_name":"Poris","i_lat":-6.169933,"is_transit":false,"time":3,"i_long":106.679458}]]}