{"data":[[{"is_transit":false,"distance":0,"station_id":"BOO","transit":false,"i_long":106.790574,"line":2,"station_name":"Bogor","time":0,"i_lat":-6.594596},{"station_name":"Cilebut","is_transit":false,"line":2,"time":9,"distance":7514,"i_lat":-6.530544,"i_long":106.800016,"station_id":"CLT","transit":false},{"is_transit":false,"distance":4331,"station_id":"BJD","i_lat":-6.493243,"line":2,"transit":false,"i_long":106.792719,"time":5,"station_name":"Bojonggede"},{"line":2,"station_id":"CTA","transit":false,"i_long":106.800298,"station_name":"Citayam","is_transit":false,"i_lat":-6.448811,"distance":5197,"time":5},{"i_lat":-6.405256,"distance":5084,"station_id":"DP","is_transit":false,"line":2,"time":6,"transit":false,"station_name":"Depok","i_long":106.816926},{"line":2,"transit":false,"i_lat":-6.391065,"i_long":106.819451,"distance":1584,"station_id":"DPB","time":3,"is_transit":false,"station_name":"Depokbaru"},{"is_transit":false,"line":2,"transit":false,"i_long":106.831114,"time":4,"station_id":"POC","station_name":"Pondok Cina","i_lat":-6.369073,"distance":2727},{"i_lat":-6.360749,"distance":1109,"line":2,"station_id":"UI","time":2,"station_name":"Univ. Indonesia","transit":false,"i_long":106.831474,"is_transit":false},{"time":3,"is_transit":false,"transit":false,"station_id":"UP","i_lat":-6.339291,"station_name":"Univ. Pancasila","line":2,"distance":2264,"i_long":106.834175}]]}