{"data":[[{"station_id":"BOO","is_transit":false,"i_lat":-6.594596,"i_long":106.790574,"time":0,"distance":0,"transit":false,"line":2,"station_name":"Bogor"},{"i_lat":-6.530544,"i_long":106.800016,"line":2,"transit":false,"is_transit":false,"station_id":"CLT","station_name":"Cilebut","time":9,"distance":7514},{"station_name":"Bojonggede","distance":4331,"is_transit":false,"time":5,"transit":false,"i_long":106.792719,"line":2,"station_id":"BJD","i_lat":-6.493243},{"is_transit":false,"station_id":"CTA","line":2,"time":5,"i_lat":-6.448811,"distance":5197,"i_long":106.800298,"station_name":"Citayam","transit":false},{"transit":false,"i_long":106.816926,"station_name":"Depok","station_id":"DP","distance":5084,"i_lat":-6.405256,"line":2,"time":6,"is_transit":false},{"i_long":106.819451,"station_name":"Depokbaru","is_transit":false,"distance":1584,"line":2,"station_id":"DPB","transit":false,"i_lat":-6.391065,"time":3},{"time":4,"station_name":"Pondok Cina","transit":false,"station_id":"POC","distance":2727,"is_transit":false,"i_long":106.831114,"i_lat":-6.369073,"line":2},{"is_transit":false,"distance":1109,"i_long":106.831474,"line":2,"i_lat":-6.360749,"station_name":"Univ. Indonesia","station_id":"UI","time":2,"transit":false},{"line":2,"transit":false,"station_id":"UP","i_lat":-6.339291,"station_name":"Univ. Pancasila","distance":2264,"time":3,"i_long":106.834175,"is_transit":false},{"i_long":106.832616,"transit":false,"is_transit":false,"station_id":"LNA","time":2,"distance":1029,"i_lat":-6.330363,"station_name":"Lenteng Agung","line":2},{"distance":2671,"station_name":"Tanjung Barat","transit":false,"line":2,"i_long":106.838896,"time":3,"is_transit":false,"i_lat":-6.3080680000000005,"station_id":"TNT"},{"distance":2820,"time":4,"i_lat":-6.2842400000000005,"i_long":106.843999,"station_name":"Pasar Minggu","station_id":"PSM","is_transit":false,"line":2,"transit":false},{"i_lat":-6.263214,"line":2,"station_id":"PSMB","station_name":"Pasar Minggu Baru","distance":2380,"i_long":106.851577,"transit":false,"time":2,"is_transit":false},{"station_id":"DRN","station_name":"Duren Kalibata","transit":false,"time":2,"is_transit":false,"distance":824,"i_long":106.85449,"i_lat":-6.255332,"line":2},{"station_name":"Cawang","time":3,"is_transit":false,"station_id":"CW","transit":false,"line":2,"i_lat":-6.242512,"i_long":106.856607,"distance":1546},{"time":2,"is_transit":false,"station_id":"TEB","distance":1230,"i_lat":-6.226659,"transit":false,"station_name":"Tebet","line":2,"i_long":106.857948},{"station_name":"Manggarai","time":4,"is_transit":true,"line":2,"i_lat":-6.209883,"station_id":"MRI","distance":2610,"transit":true,"i_long":106.84912},{"transit":false,"time":4,"line":1,"is_transit":false,"i_long":106.822649,"i_lat":-6.202263,"distance":3186,"station_id":"SUD","station_name":"Sudirman"},{"station_name":"Sudirman Baru","station_id":"SUDB","i_lat":-6.201433,"distance":280,"time":1,"is_transit":false,"line":1,"transit":false,"i_long":106.819881},{"transit":false,"station_id":"KAT","distance":471,"i_long":106.816351,"is_transit":false,"time":1,"line":1,"i_lat":-6.20132,"station_name":"Karet"},{"i_long":106.811091,"transit":false,"time":5,"distance":2029,"station_id":"THB","line":1,"i_lat":-6.185545,"station_name":"Tanah Abang","is_transit":false},{"line":1,"distance":3632,"i_lat":-6.155215,"i_long":106.800832,"station_name":"Duri","station_id":"DU","is_transit":true,"transit":true,"time":8},{"line":5,"station_id":"GGL","is_transit":false,"i_lat":-6.162021,"distance":1700,"station_name":"Grogol","transit":false,"time":3,"i_long":106.788277},{"transit":false,"is_transit":false,"line":5,"distance":2036,"i_lat":-6.161433,"station_id":"PSG","time":2,"station_name":"Pesing","i_long":106.771379},{"i_long":106.756522,"line":5,"distance":1614,"station_name":"Taman Kota","station_id":"TKO","transit":false,"time":2,"i_lat":-6.1587309999999995,"is_transit":false},{"station_name":"Bojongindah","line":5,"station_id":"BOI","transit":false,"i_lat":-6.159876,"is_transit":false,"time":2,"i_long":106.737035,"distance":2334},{"transit":false,"time":4,"is_transit":false,"i_lat":-6.162758,"line":5,"station_name":"Rawa Buaya","distance":1152,"i_long":106.723064,"station_id":"RW"},{"station_name":"Kalideres","transit":false,"i_long":106.701612,"line":5,"is_transit":false,"time":3,"distance":2504,"i_lat":-6.166068,"station_id":"KDS"},{"line":5,"time":3,"i_lat":-6.169933,"transit":false,"station_name":"Poris","distance":2548,"is_transit":false,"station_id":"PI","i_long":106.679458},{"station_name":"Batuceper","line":5,"time":3,"distance":1834,"i_lat":-6.171811,"station_id":"BPR","transit":false,"i_long":106.665036,"is_transit":false},{"station_id":"TTI","distance":2028,"station_name":"Tanah Tinggi","transit":false,"i_long":106.64657,"i_lat":-6.17331,"time":3,"is_transit":false,"line":5}],[{"is_transit":false,"distance":0,"line":2,"station_name":"Bogor","i_lat":-6.594596,"time":0,"transit":false,"station_id":"BOO","i_long":106.790574},{"station_name":"Cilebut","is_transit":false,"line":2,"distance":7514,"time":9,"i_lat":-6.530544,"i_long":106.800016,"station_id":"CLT","transit":false},{"i_lat":-6.493243,"transit":false,"distance":4331,"station_id":"BJD","station_name":"Bojonggede","i_long":106.792719,"time":5,"line":2,"is_transit":false},{"station_id":"CTA","time":5,"distance":5197,"station_name":"Citayam","i_lat":-6.448811,"transit":false,"i_long":106.800298,"line":2,"is_transit":false},{"station_name":"Depok","station_id":"DP","time":6,"is_transit":false,"transit":false,"distance":5084,"i_long":106.816926,"line":2,"i_lat":-6.405256},{"time":3,"station_id":"DPB","i_lat":-6.391065,"is_transit":false,"i_long":106.819451,"station_name":"Depokbaru","transit":false,"distance":1584,"line":2},{"transit":false,"i_long":106.831114,"line":2,"time":4,"station_name":"Pondok Cina","station_id":"POC","distance":2727,"i_lat":-6.369073,"is_transit":false},{"is_transit":false,"i_long":106.831474,"i_lat":-6.360749,"line":2,"time":2,"distance":1109,"transit":false,"station_name":"Univ. Indonesia","station_id":"UI"},{"distance":2264,"is_transit":false,"i_lat":-6.339291,"station_id":"UP","i_long":106.834175,"line":2,"time":3,"station_name":"Univ. Pancasila","transit":false},{"i_lat":-6.330363,"time":2,"station_name":"Lenteng Agung","distance":1029,"i_long":106.832616,"station_id":"LNA","is_transit":false,"line":2,"transit":false},{"station_name":"Tanjung Barat","transit":false,"time":3,"distance":2671,"is_transit":false,"i_lat":-6.3080680000000005,"station_id":"TNT","i_long":106.838896,"line":2},{"station_name":"Pasar Minggu","is_transit":false,"transit":false,"time":4,"station_id":"PSM","distance":2820,"i_lat":-6.2842400000000005,"i_long":106.843999,"line":2},{"station_id":"PSMB","time":2,"is_transit":false,"i_lat":-6.263214,"distance":2380,"station_name":"Pasar Minggu Baru","i_long":106.851577,"transit":false,"line":2},{"station_id":"DRN","transit":false,"distance":824,"is_transit":false,"i_long":106.85449,"station_name":"Duren Kalibata","time":2,"i_lat":-6.255332,"line":2},{"i_long":106.856607,"transit":false,"time":3,"station_name":"Cawang","station_id":"CW","distance":1546,"line":2,"is_transit":false,"i_lat":-6.242512},{"is_transit":false,"distance":1230,"i_long":106.857948,"station_id":"TEB","i_lat":-6.226659,"station_name":"Tebet","transit":false,"line":2,"time":2},{"distance":2610,"station_name":"Manggarai","transit":false,"i_lat":-6.209883,"i_long":106.84912,"line":2,"time":4,"station_id":"MRI","is_transit":false},{"distance":1590,"transit":false,"time":4,"line":2,"i_long":106.840169,"station_name":"Cikini","station_id":"CKI","is_transit":false,"i_lat":-6.198556},{"transit":false,"is_transit":false,"time":3,"station_name":"Gondangdia","distance":1750,"i_long":106.832183,"line":2,"station_id":"GDD","i_lat":-6.186295},{"transit":false,"line":2,"station_id":"JUA","time":4,"i_lat":-6.166716,"station_name":"Juanda","is_transit":false,"distance":2015,"i_long":106.828284},{"distance":1149,"time":2,"is_transit":false,"station_name":"Sawah Besar","station_id":"SW","i_lat":-6.160725,"i_long":106.827103,"line":2,"transit":false},{"distance":906,"station_name":"Manggabesar","line":2,"station_id":"MGB","i_long":106.82482,"time":2,"transit":false,"i_lat":-6.149769,"is_transit":false},{"i_long":106.820901,"station_id":"JAY","i_lat":-6.141205,"time":2,"is_transit":false,"distance":1080,"transit":false,"line":2,"station_name":"Jayakarta"},{"transit":true,"station_id":"JAKK","i_lat":-6.137569,"i_long":106.812439,"line":2,"time":4,"station_name":"Jakarta Kota","distance":1264,"is_transit":true},{"is_transit":true,"line":4,"i_long":106.826365,"i_lat":-6.132549,"time":3,"distance":1364,"transit":true,"station_name":"Kampung Bandan","station_id":"KPB"},{"station_name":"Angke","i_long":106.79867,"i_lat":-6.144674,"transit":false,"station_id":"AK","distance":4102,"time":9,"line":1,"is_transit":false},{"transit":true,"i_lat":-6.155215,"station_name":"Duri","i_long":106.800832,"distance":1230,"time":4,"station_id":"DU","is_transit":true,"line":1},{"i_long":106.788277,"transit":false,"station_name":"Grogol","station_id":"GGL","line":5,"time":3,"i_lat":-6.162021,"is_transit":false,"distance":1700},{"transit":false,"station_name":"Pesing","is_transit":false,"station_id":"PSG","time":2,"distance":2036,"i_long":106.771379,"i_lat":-6.161433,"line":5},{"station_id":"TKO","i_lat":-6.1587309999999995,"time":2,"station_name":"Taman Kota","transit":false,"is_transit":false,"distance":1614,"i_long":106.756522,"line":5},{"station_id":"BOI","distance":2334,"transit":false,"i_lat":-6.159876,"is_transit":false,"i_long":106.737035,"station_name":"Bojongindah","time":2,"line":5},{"line":5,"station_name":"Rawa Buaya","time":4,"distance":1152,"i_long":106.723064,"i_lat":-6.162758,"is_transit":false,"transit":false,"station_id":"RW"},{"transit":false,"line":5,"i_lat":-6.166068,"station_id":"KDS","time":3,"i_long":106.701612,"is_transit":false,"station_name":"Kalideres","distance":2504},{"i_lat":-6.169933,"line":5,"transit":false,"time":3,"station_name":"Poris","station_id":"PI","distance":2548,"is_transit":false,"i_long":106.679458},{"transit":false,"station_id":"BPR","time":3,"distance":1834,"is_transit":false,"i_long":106.665036,"i_lat":-6.171811,"station_name":"Batuceper","line":5},{"station_id":"TTI","i_long":106.64657,"time":3,"station_name":"Tanah Tinggi","transit":false,"distance":2028,"is_transit":false,"i_lat":-6.17331,"line":5}],[{"station_name":"Bogor","i_long":106.790574,"is_transit":false,"i_lat":-6.594596,"transit":false,"time":0,"line":2,"station_id":"BOO","distance":0},{"line":2,"station_name":"Cilebut","station_id":"CLT","transit":false,"is_transit":false,"time":9,"i_lat":-6.530544,"i_long":106.800016,"distance":7514},{"i_long":106.792719,"time":5,"transit":false,"station_name":"Bojonggede","i_lat":-6.493243,"distance":4331,"station_id":"BJD","is_transit":false,"line":2},{"distance":5197,"line":2,"transit":false,"station_id":"CTA","time":5,"station_name":"Citayam","is_transit":false,"i_long":106.800298,"i_lat":-6.448811},{"station_name":"Depok","is_transit":false,"transit":false,"line":2,"distance":5084,"i_lat":-6.405256,"i_long":106.816926,"time":6,"station_id":"DP"},{"station_name":"Depokbaru","distance":1584,"transit":false,"station_id":"DPB","i_lat":-6.391065,"time":3,"is_transit":false,"i_long":106.819451,"line":2},{"time":4,"transit":false,"distance":2727,"i_long":106.831114,"station_id":"POC","is_transit":false,"i_lat":-6.369073,"line":2,"station_name":"Pondok Cina"},{"distance":1109,"i_lat":-6.360749,"transit":false,"line":2,"station_name":"Univ. Indonesia","time":2,"i_long":106.831474,"station_id":"UI","is_transit":false},{"distance":2264,"station_id":"UP","i_lat":-6.339291,"time":3,"station_name":"Univ. Pancasila","line":2,"transit":false,"is_transit":false,"i_long":106.834175},{"station_id":"LNA","time":2,"line":2,"transit":false,"distance":1029,"i_lat":-6.330363,"station_name":"Lenteng Agung","is_transit":false,"i_long":106.832616},{"station_name":"Tanjung Barat","transit":false,"time":3,"i_lat":-6.3080680000000005,"distance":2671,"line":2,"i_long":106.838896,"is_transit":false,"station_id":"TNT"},{"station_name":"Pasar Minggu","line":2,"distance":2820,"transit":false,"i_lat":-6.2842400000000005,"time":4,"station_id":"PSM","i_long":106.843999,"is_transit":false},{"line":2,"station_id":"PSMB","transit":false,"distance":2380,"is_transit":false,"station_name":"Pasar Minggu Baru","time":2,"i_lat":-6.263214,"i_long":106.851577},{"distance":824,"i_lat":-6.255332,"station_name":"Duren Kalibata","station_id":"DRN","is_transit":false,"time":2,"line":2,"transit":false,"i_long":106.85449},{"station_id":"CW","station_name":"Cawang","is_transit":false,"i_lat":-6.242512,"time":3,"line":2,"distance":1546,"i_long":106.856607,"transit":false},{"i_long":106.857948,"distance":1230,"is_transit":false,"station_id":"TEB","line":2,"station_name":"Tebet","time":2,"i_lat":-6.226659,"transit":false},{"transit":true,"time":4,"i_lat":-6.209883,"distance":2610,"station_id":"MRI","is_transit":true,"line":2,"station_name":"Manggarai","i_long":106.84912},{"line":1,"i_lat":-6.212485,"transit":false,"i_long":106.858896,"station_name":"Matraman","distance":1275,"station_id":"MTR","time":2,"is_transit":false},{"station_name":"Jatinegara","time":8,"transit":true,"distance":1377,"is_transit":true,"i_long":106.86807400000001,"station_id":"JNG","i_lat":-6.215091,"line":1},{"is_transit":false,"i_lat":-6.209188,"time":2,"i_long":106.861737,"transit":false,"distance":1236,"line":11,"station_id":"POK","station_name":"Pondok Jati"},{"station_name":"Kramat","line":11,"distance":1829,"time":2,"transit":false,"i_lat":-6.193792,"is_transit":false,"i_long":106.855437,"station_id":"KMT"},{"station_id":"GST","distance":973,"line":11,"transit":false,"is_transit":false,"station_name":"Gang Sentiong","i_long":106.850107,"i_lat":-6.185975,"time":1},{"i_lat":-6.174784,"is_transit":false,"line":11,"station_name":"Pasar Senen","transit":false,"station_id":"PSE","distance":1567,"i_long":106.84368,"time":8},{"is_transit":false,"i_lat":-6.161728,"station_id":"KMO","line":11,"station_name":"Kemayoran","time":4,"i_long":106.839204,"transit":false,"distance":1436},{"station_id":"RJW","i_lat":-6.14505,"line":11,"transit":false,"is_transit":false,"i_long":106.836569,"station_name":"Rajawali","time":5,"distance":1901},{"station_name":"Kampung Bandan","is_transit":true,"i_lat":-6.132549,"time":3,"transit":true,"i_long":106.826365,"station_id":"KPB","distance":1444,"line":4},{"station_id":"AK","distance":4102,"line":1,"time":9,"transit":false,"station_name":"Angke","i_long":106.79867,"is_transit":false,"i_lat":-6.144674},{"is_transit":true,"i_lat":-6.155215,"i_long":106.800832,"station_name":"Duri","line":1,"transit":true,"distance":1230,"station_id":"DU","time":4},{"is_transit":false,"station_id":"GGL","time":3,"i_lat":-6.162021,"transit":false,"distance":1700,"station_name":"Grogol","line":5,"i_long":106.788277},{"transit":false,"time":2,"line":5,"distance":2036,"station_name":"Pesing","is_transit":false,"i_long":106.771379,"station_id":"PSG","i_lat":-6.161433},{"line":5,"i_lat":-6.1587309999999995,"distance":1614,"station_id":"TKO","i_long":106.756522,"station_name":"Taman Kota","transit":false,"time":2,"is_transit":false},{"i_lat":-6.159876,"i_long":106.737035,"line":5,"station_name":"Bojongindah","station_id":"BOI","time":2,"transit":false,"distance":2334,"is_transit":false},{"station_id":"RW","is_transit":false,"line":5,"distance":1152,"time":4,"transit":false,"i_lat":-6.162758,"station_name":"Rawa Buaya","i_long":106.723064},{"i_long":106.701612,"line":5,"is_transit":false,"i_lat":-6.166068,"station_name":"Kalideres","transit":false,"time":3,"distance":2504,"station_id":"KDS"},{"line":5,"station_name":"Poris","time":3,"station_id":"PI","distance":2548,"i_long":106.679458,"is_transit":false,"transit":false,"i_lat":-6.169933},{"line":5,"distance":1834,"is_transit":false,"i_lat":-6.171811,"station_id":"BPR","transit":false,"station_name":"Batuceper","time":3,"i_long":106.665036},{"i_long":106.64657,"time":3,"is_transit":false,"line":5,"transit":false,"distance":2028,"i_lat":-6.17331,"station_name":"Tanah Tinggi","station_id":"TTI"}]]}