{"data":[[{"time":0,"is_transit":false,"i_long":106.790574,"transit":false,"station_name":"Bogor","i_lat":-6.594596,"station_id":"BOO","distance":0,"line":2},{"i_lat":-6.530544,"line":2,"station_id":"CLT","transit":false,"distance":7514,"station_name":"Cilebut","time":9,"i_long":106.800016,"is_transit":false},{"distance":4331,"i_long":106.792719,"i_lat":-6.493243,"station_name":"Bojonggede","line":2,"is_transit":false,"transit":false,"time":5,"station_id":"BJD"},{"i_lat":-6.448811,"station_id":"CTA","distance":5197,"line":2,"is_transit":false,"transit":false,"time":5,"station_name":"Citayam","i_long":106.800298},{"i_long":106.816926,"station_name":"Depok","time":6,"i_lat":-6.405256,"transit":false,"is_transit":false,"line":2,"distance":5084,"station_id":"DP"},{"station_name":"Depokbaru","i_lat":-6.391065,"i_long":106.819451,"line":2,"transit":false,"is_transit":false,"distance":1584,"station_id":"DPB","time":3},{"i_lat":-6.369073,"transit":false,"i_long":106.831114,"station_id":"POC","distance":2727,"is_transit":false,"line":2,"station_name":"Pondok Cina","time":4},{"time":2,"i_long":106.831474,"is_transit":false,"station_id":"UI","line":2,"distance":1109,"transit":false,"station_name":"Univ. Indonesia","i_lat":-6.360749},{"station_name":"Univ. Pancasila","time":3,"i_lat":-6.339291,"distance":2264,"i_long":106.834175,"transit":false,"is_transit":false,"line":2,"station_id":"UP"},{"station_id":"LNA","station_name":"Lenteng Agung","distance":1029,"line":2,"is_transit":false,"i_lat":-6.330363,"transit":false,"i_long":106.832616,"time":2},{"distance":2671,"i_lat":-6.3080680000000005,"station_id":"TNT","line":2,"is_transit":false,"time":3,"i_long":106.838896,"transit":false,"station_name":"Tanjung Barat"},{"i_long":106.843999,"station_name":"Pasar Minggu","distance":2820,"time":4,"line":2,"transit":false,"is_transit":false,"i_lat":-6.2842400000000005,"station_id":"PSM"},{"distance":2380,"station_name":"Pasar Minggu Baru","station_id":"PSMB","i_lat":-6.263214,"line":2,"transit":false,"time":2,"is_transit":false,"i_long":106.851577},{"i_lat":-6.255332,"line":2,"is_transit":false,"station_name":"Duren Kalibata","transit":false,"time":2,"distance":824,"station_id":"DRN","i_long":106.85449},{"station_id":"CW","distance":1546,"is_transit":false,"station_name":"Cawang","i_lat":-6.242512,"time":3,"i_long":106.856607,"transit":false,"line":2},{"transit":false,"time":2,"i_lat":-6.226659,"station_id":"TEB","station_name":"Tebet","distance":1230,"i_long":106.857948,"line":2,"is_transit":false},{"is_transit":true,"station_name":"Manggarai","time":4,"station_id":"MRI","i_long":106.84912,"transit":true,"distance":2610,"i_lat":-6.209883,"line":2},{"time":4,"line":1,"transit":false,"distance":3186,"i_lat":-6.202263,"station_id":"SUD","station_name":"Sudirman","is_transit":false,"i_long":106.822649},{"i_lat":-6.201433,"i_long":106.819881,"transit":false,"station_name":"Sudirman Baru","distance":280,"station_id":"SUDB","is_transit":false,"line":1,"time":1},{"time":1,"station_id":"KAT","i_lat":-6.20132,"line":1,"station_name":"Karet","i_long":106.816351,"transit":false,"is_transit":false,"distance":471},{"is_transit":false,"time":5,"i_lat":-6.185545,"i_long":106.811091,"transit":false,"line":1,"distance":2029,"station_name":"Tanah Abang","station_id":"THB"},{"time":8,"station_id":"DU","is_transit":true,"distance":3632,"transit":true,"i_lat":-6.155215,"i_long":106.800832,"station_name":"Duri","line":1},{"station_name":"Grogol","time":3,"station_id":"GGL","line":5,"is_transit":false,"i_lat":-6.162021,"transit":false,"distance":1700,"i_long":106.788277},{"is_transit":false,"station_id":"PSG","i_long":106.771379,"i_lat":-6.161433,"transit":false,"line":5,"time":2,"station_name":"Pesing","distance":2036},{"time":2,"transit":false,"i_long":106.756522,"line":5,"i_lat":-6.1587309999999995,"distance":1614,"station_id":"TKO","is_transit":false,"station_name":"Taman Kota"}],[{"station_id":"BOO","is_transit":false,"transit":false,"i_long":106.790574,"station_name":"Bogor","i_lat":-6.594596,"distance":0,"line":2,"time":0},{"station_name":"Cilebut","transit":false,"i_lat":-6.530544,"i_long":106.800016,"line":2,"station_id":"CLT","is_transit":false,"time":9,"distance":7514},{"distance":4331,"station_id":"BJD","is_transit":false,"transit":false,"time":5,"line":2,"i_long":106.792719,"station_name":"Bojonggede","i_lat":-6.493243},{"line":2,"time":5,"distance":5197,"i_lat":-6.448811,"is_transit":false,"i_long":106.800298,"station_name":"Citayam","transit":false,"station_id":"CTA"},{"is_transit":false,"station_id":"DP","transit":false,"i_long":106.816926,"i_lat":-6.405256,"line":2,"station_name":"Depok","time":6,"distance":5084},{"i_lat":-6.391065,"transit":false,"station_name":"Depokbaru","i_long":106.819451,"station_id":"DPB","is_transit":false,"time":3,"distance":1584,"line":2},{"line":2,"time":4,"station_id":"POC","transit":false,"i_lat":-6.369073,"i_long":106.831114,"station_name":"Pondok Cina","is_transit":false,"distance":2727},{"station_name":"Univ. Indonesia","transit":false,"is_transit":false,"i_lat":-6.360749,"line":2,"station_id":"UI","distance":1109,"i_long":106.831474,"time":2},{"i_long":106.834175,"time":3,"line":2,"transit":false,"station_id":"UP","i_lat":-6.339291,"distance":2264,"station_name":"Univ. Pancasila","is_transit":false},{"line":2,"time":2,"station_name":"Lenteng Agung","i_lat":-6.330363,"i_long":106.832616,"is_transit":false,"distance":1029,"transit":false,"station_id":"LNA"},{"i_long":106.838896,"transit":false,"time":3,"station_id":"TNT","distance":2671,"line":2,"i_lat":-6.3080680000000005,"is_transit":false,"station_name":"Tanjung Barat"},{"line":2,"time":4,"station_name":"Pasar Minggu","station_id":"PSM","i_long":106.843999,"transit":false,"is_transit":false,"distance":2820,"i_lat":-6.2842400000000005},{"station_name":"Pasar Minggu Baru","time":2,"i_long":106.851577,"line":2,"is_transit":false,"transit":false,"distance":2380,"station_id":"PSMB","i_lat":-6.263214},{"distance":824,"is_transit":false,"station_name":"Duren Kalibata","time":2,"i_lat":-6.255332,"station_id":"DRN","i_long":106.85449,"transit":false,"line":2},{"i_long":106.856607,"i_lat":-6.242512,"transit":false,"station_name":"Cawang","is_transit":false,"distance":1546,"station_id":"CW","line":2,"time":3},{"transit":false,"i_lat":-6.226659,"station_name":"Tebet","is_transit":false,"time":2,"i_long":106.857948,"station_id":"TEB","distance":1230,"line":2},{"line":2,"is_transit":false,"distance":2610,"i_lat":-6.209883,"time":4,"i_long":106.84912,"station_name":"Manggarai","transit":false,"station_id":"MRI"},{"station_id":"CKI","i_lat":-6.198556,"line":2,"is_transit":false,"i_long":106.840169,"transit":false,"station_name":"Cikini","distance":1590,"time":4},{"line":2,"station_name":"Gondangdia","is_transit":false,"distance":1750,"transit":false,"i_lat":-6.186295,"i_long":106.832183,"station_id":"GDD","time":3},{"is_transit":false,"distance":2015,"i_lat":-6.166716,"station_name":"Juanda","i_long":106.828284,"time":4,"line":2,"transit":false,"station_id":"JUA"},{"line":2,"transit":false,"station_name":"Sawah Besar","distance":1149,"station_id":"SW","time":2,"is_transit":false,"i_lat":-6.160725,"i_long":106.827103},{"station_name":"Manggabesar","line":2,"is_transit":false,"distance":906,"i_long":106.82482,"i_lat":-6.149769,"transit":false,"time":2,"station_id":"MGB"},{"station_name":"Jayakarta","i_lat":-6.141205,"i_long":106.820901,"line":2,"time":2,"transit":false,"is_transit":false,"station_id":"JAY","distance":1080},{"line":2,"transit":true,"time":4,"i_lat":-6.137569,"station_name":"Jakarta Kota","station_id":"JAKK","i_long":106.812439,"is_transit":true,"distance":1264},{"distance":1364,"station_id":"KPB","i_long":106.826365,"is_transit":true,"i_lat":-6.132549,"transit":true,"station_name":"Kampung Bandan","line":4,"time":3},{"i_lat":-6.144674,"line":1,"is_transit":false,"station_name":"Angke","station_id":"AK","i_long":106.79867,"transit":false,"time":9,"distance":4102},{"i_long":106.800832,"is_transit":true,"distance":1230,"station_id":"DU","line":1,"transit":true,"station_name":"Duri","time":4,"i_lat":-6.155215},{"line":5,"transit":false,"is_transit":false,"station_name":"Grogol","time":3,"station_id":"GGL","distance":1700,"i_lat":-6.162021,"i_long":106.788277},{"distance":2036,"line":5,"station_id":"PSG","station_name":"Pesing","is_transit":false,"time":2,"i_lat":-6.161433,"i_long":106.771379,"transit":false},{"i_long":106.756522,"station_id":"TKO","is_transit":false,"distance":1614,"time":2,"i_lat":-6.1587309999999995,"transit":false,"station_name":"Taman Kota","line":5}],[{"transit":false,"line":2,"i_long":106.790574,"distance":0,"time":0,"station_id":"BOO","station_name":"Bogor","is_transit":false,"i_lat":-6.594596},{"time":9,"line":2,"distance":7514,"station_name":"Cilebut","station_id":"CLT","i_lat":-6.530544,"transit":false,"is_transit":false,"i_long":106.800016},{"is_transit":false,"i_lat":-6.493243,"station_id":"BJD","distance":4331,"station_name":"Bojonggede","i_long":106.792719,"time":5,"transit":false,"line":2},{"distance":5197,"transit":false,"i_long":106.800298,"station_id":"CTA","i_lat":-6.448811,"time":5,"line":2,"station_name":"Citayam","is_transit":false},{"i_long":106.816926,"station_id":"DP","i_lat":-6.405256,"line":2,"station_name":"Depok","transit":false,"distance":5084,"time":6,"is_transit":false},{"station_name":"Depokbaru","station_id":"DPB","is_transit":false,"distance":1584,"line":2,"i_long":106.819451,"transit":false,"i_lat":-6.391065,"time":3},{"i_lat":-6.369073,"i_long":106.831114,"station_name":"Pondok Cina","is_transit":false,"distance":2727,"line":2,"station_id":"POC","transit":false,"time":4},{"station_id":"UI","line":2,"station_name":"Univ. Indonesia","transit":false,"is_transit":false,"i_long":106.831474,"distance":1109,"time":2,"i_lat":-6.360749},{"time":3,"distance":2264,"transit":false,"is_transit":false,"i_lat":-6.339291,"station_id":"UP","i_long":106.834175,"line":2,"station_name":"Univ. Pancasila"},{"time":2,"distance":1029,"station_id":"LNA","transit":false,"is_transit":false,"i_lat":-6.330363,"i_long":106.832616,"station_name":"Lenteng Agung","line":2},{"time":3,"is_transit":false,"station_name":"Tanjung Barat","i_lat":-6.3080680000000005,"distance":2671,"i_long":106.838896,"station_id":"TNT","transit":false,"line":2},{"transit":false,"station_name":"Pasar Minggu","station_id":"PSM","line":2,"i_long":106.843999,"time":4,"i_lat":-6.2842400000000005,"distance":2820,"is_transit":false},{"i_long":106.851577,"i_lat":-6.263214,"distance":2380,"station_id":"PSMB","time":2,"is_transit":false,"line":2,"transit":false,"station_name":"Pasar Minggu Baru"},{"transit":false,"distance":824,"i_long":106.85449,"station_id":"DRN","line":2,"station_name":"Duren Kalibata","is_transit":false,"time":2,"i_lat":-6.255332},{"i_long":106.856607,"distance":1546,"line":2,"time":3,"i_lat":-6.242512,"transit":false,"is_transit":false,"station_name":"Cawang","station_id":"CW"},{"station_name":"Tebet","is_transit":false,"distance":1230,"i_long":106.857948,"station_id":"TEB","line":2,"transit":false,"i_lat":-6.226659,"time":2},{"i_lat":-6.209883,"distance":2610,"transit":true,"time":4,"line":2,"station_name":"Manggarai","is_transit":true,"station_id":"MRI","i_long":106.84912},{"station_id":"MTR","transit":false,"distance":1275,"i_long":106.858896,"line":1,"time":2,"i_lat":-6.212485,"is_transit":false,"station_name":"Matraman"},{"i_lat":-6.215091,"transit":true,"i_long":106.86807400000001,"line":1,"station_name":"Jatinegara","station_id":"JNG","distance":1377,"is_transit":true,"time":8},{"is_transit":false,"station_name":"Pondok Jati","i_long":106.861737,"transit":false,"line":11,"time":2,"station_id":"POK","distance":1236,"i_lat":-6.209188},{"station_id":"KMT","time":2,"distance":1829,"i_lat":-6.193792,"i_long":106.855437,"line":11,"transit":false,"station_name":"Kramat","is_transit":false},{"i_long":106.850107,"time":1,"transit":false,"station_name":"Gang Sentiong","line":11,"is_transit":false,"station_id":"GST","distance":973,"i_lat":-6.185975},{"distance":1567,"station_name":"Pasar Senen","time":8,"is_transit":false,"line":11,"transit":false,"i_long":106.84368,"i_lat":-6.174784,"station_id":"PSE"},{"i_long":106.839204,"transit":false,"line":11,"station_name":"Kemayoran","station_id":"KMO","distance":1436,"is_transit":false,"time":4,"i_lat":-6.161728},{"station_name":"Rajawali","station_id":"RJW","is_transit":false,"distance":1901,"line":11,"i_lat":-6.14505,"time":5,"i_long":106.836569,"transit":false},{"time":3,"transit":true,"station_name":"Kampung Bandan","is_transit":true,"i_lat":-6.132549,"i_long":106.826365,"line":4,"station_id":"KPB","distance":1444},{"transit":false,"i_long":106.79867,"station_name":"Angke","i_lat":-6.144674,"line":1,"station_id":"AK","distance":4102,"is_transit":false,"time":9},{"station_name":"Duri","station_id":"DU","i_lat":-6.155215,"is_transit":true,"time":4,"distance":1230,"i_long":106.800832,"line":1,"transit":true},{"i_long":106.788277,"line":5,"station_id":"GGL","transit":false,"distance":1700,"i_lat":-6.162021,"is_transit":false,"time":3,"station_name":"Grogol"},{"i_lat":-6.161433,"i_long":106.771379,"station_name":"Pesing","line":5,"transit":false,"station_id":"PSG","distance":2036,"is_transit":false,"time":2},{"station_name":"Taman Kota","transit":false,"is_transit":false,"i_long":106.756522,"time":2,"line":5,"i_lat":-6.1587309999999995,"station_id":"TKO","distance":1614}]]}