{"data":[[{"station_name":"Bogor","transit":false,"station_id":"BOO","distance":0,"i_long":106.790574,"line":2,"is_transit":false,"time":0,"i_lat":-6.594596},{"i_long":106.800016,"line":2,"station_name":"Cilebut","distance":7514,"transit":false,"station_id":"CLT","is_transit":false,"time":9,"i_lat":-6.530544},{"i_long":106.792719,"i_lat":-6.493243,"station_name":"Bojonggede","distance":4331,"transit":false,"time":5,"station_id":"BJD","is_transit":false,"line":2},{"line":2,"distance":5197,"time":5,"i_lat":-6.448811,"i_long":106.800298,"is_transit":false,"station_id":"CTA","transit":false,"station_name":"Citayam"},{"i_long":106.816926,"line":2,"station_name":"Depok","i_lat":-6.405256,"station_id":"DP","is_transit":false,"distance":5084,"transit":false,"time":6},{"transit":false,"i_lat":-6.391065,"station_name":"Depokbaru","line":2,"is_transit":false,"time":3,"i_long":106.819451,"station_id":"DPB","distance":1584},{"is_transit":false,"i_long":106.831114,"transit":false,"station_name":"Pondok Cina","time":4,"line":2,"station_id":"POC","distance":2727,"i_lat":-6.369073},{"i_long":106.831474,"distance":1109,"time":2,"i_lat":-6.360749,"line":2,"transit":false,"station_id":"UI","station_name":"Univ. Indonesia","is_transit":false},{"station_name":"Univ. Pancasila","distance":2264,"i_long":106.834175,"is_transit":false,"i_lat":-6.339291,"time":3,"transit":false,"station_id":"UP","line":2},{"is_transit":false,"distance":1029,"transit":false,"time":2,"station_id":"LNA","i_long":106.832616,"station_name":"Lenteng Agung","i_lat":-6.330363,"line":2},{"station_id":"TNT","station_name":"Tanjung Barat","time":3,"distance":2671,"i_lat":-6.3080680000000005,"i_long":106.838896,"line":2,"is_transit":false,"transit":false},{"station_name":"Pasar Minggu","i_long":106.843999,"i_lat":-6.2842400000000005,"station_id":"PSM","transit":false,"line":2,"is_transit":false,"distance":2820,"time":4},{"is_transit":false,"i_lat":-6.263214,"line":2,"i_long":106.851577,"time":2,"distance":2380,"transit":false,"station_name":"Pasar Minggu Baru","station_id":"PSMB"},{"i_long":106.85449,"station_name":"Duren Kalibata","transit":false,"i_lat":-6.255332,"distance":824,"line":2,"time":2,"station_id":"DRN","is_transit":false},{"station_id":"CW","transit":false,"i_lat":-6.242512,"line":2,"station_name":"Cawang","distance":1546,"is_transit":false,"time":3,"i_long":106.856607},{"i_lat":-6.226659,"is_transit":false,"distance":1230,"station_name":"Tebet","station_id":"TEB","i_long":106.857948,"line":2,"transit":false,"time":2},{"transit":true,"is_transit":true,"line":2,"i_long":106.84912,"station_name":"Manggarai","time":4,"i_lat":-6.209883,"station_id":"MRI","distance":2610},{"i_lat":-6.202263,"station_id":"SUD","distance":3186,"i_long":106.822649,"is_transit":false,"transit":false,"line":1,"time":4,"station_name":"Sudirman"},{"station_name":"Sudirman Baru","station_id":"SUDB","time":1,"i_lat":-6.201433,"i_long":106.819881,"distance":280,"transit":false,"is_transit":false,"line":1},{"time":1,"station_id":"KAT","is_transit":false,"line":1,"station_name":"Karet","i_lat":-6.20132,"transit":false,"i_long":106.816351,"distance":471},{"station_name":"Tanah Abang","i_long":106.811091,"time":5,"station_id":"THB","transit":true,"distance":2029,"i_lat":-6.185545,"line":1,"is_transit":true},{"is_transit":false,"station_id":"PLM","time":6,"transit":false,"distance":3191,"station_name":"Palmerah","i_lat":-6.207404,"i_long":106.79689,"line":6},{"station_name":"Kebayoran","line":6,"time":7,"transit":false,"is_transit":false,"distance":3737,"i_lat":-6.237242,"i_long":106.780334,"station_id":"KBY"},{"station_name":"Pondokranji","transit":false,"line":6,"station_id":"PDJ","time":8,"i_lat":-6.276362,"i_long":106.74273,"is_transit":false,"distance":6218},{"transit":false,"i_long":106.728916,"is_transit":false,"station_name":"Jurangmangu","station_id":"JMU","time":3,"i_lat":-6.288927,"line":6,"distance":2179},{"i_lat":-6.296963,"time":4,"i_long":106.712277,"transit":false,"line":6,"station_name":"Sudimara","distance":1994,"station_id":"SDM","is_transit":false},{"is_transit":false,"distance":4566,"station_name":"Rawa Buntu","time":6,"i_lat":-6.314823,"i_long":106.675475,"line":6,"station_id":"RU","transit":false},{"line":6,"distance":2413,"time":4,"transit":false,"station_id":"SRP","i_long":106.66566,"station_name":"Serpong","is_transit":false,"i_lat":-6.319871},{"distance":1784,"is_transit":false,"time":4,"i_lat":-6.32484,"station_id":"CSK","transit":false,"station_name":"Cisauk","line":3,"i_long":106.640411},{"station_id":"CC","i_lat":-6.329547,"transit":false,"is_transit":false,"line":3,"distance":2519,"time":4,"station_name":"Cicayur","i_long":106.617853},{"time":8,"transit":false,"i_long":106.568863,"is_transit":false,"distance":5968,"i_lat":-6.3441410000000005,"station_id":"PRP","station_name":"Parung Panjang","line":6},{"station_id":"CJT","is_transit":false,"transit":false,"i_long":106.508482,"distance":7025,"station_name":"Cilejit","time":9,"i_lat":-6.354349,"line":3},{"i_long":106.491338,"distance":2675,"station_id":"DAR","line":0,"transit":false,"i_lat":-6.338021,"is_transit":false,"station_name":"Daru","time":6},{"transit":false,"is_transit":false,"i_long":106.460812,"station_name":"Tenjo","station_id":"TEJ","i_lat":-6.327251,"time":5,"distance":3902,"line":6},{"station_name":"Tigaraksa","transit":false,"i_lat":-6.328533,"distance":2974,"line":6,"is_transit":false,"i_long":106.425991,"time":5,"station_id":"TGS"},{"time":3,"distance":2651,"transit":false,"station_id":"CKY","is_transit":false,"i_lat":-6.33561,"line":3,"i_long":106.411216,"station_name":"Cikoya"},{"distance":1853,"is_transit":false,"i_lat":-6.332307,"line":6,"time":4,"station_id":"MJ","transit":false,"station_name":"Maja","i_long":106.394373}],[{"distance":0,"is_transit":false,"transit":false,"i_long":106.790574,"line":2,"i_lat":-6.594596,"time":0,"station_id":"BOO","station_name":"Bogor"},{"line":2,"distance":7514,"station_name":"Cilebut","is_transit":false,"time":9,"i_long":106.800016,"station_id":"CLT","i_lat":-6.530544,"transit":false},{"distance":4331,"i_lat":-6.493243,"transit":false,"station_id":"BJD","is_transit":false,"i_long":106.792719,"line":2,"time":5,"station_name":"Bojonggede"},{"transit":false,"distance":5197,"is_transit":false,"time":5,"station_name":"Citayam","line":2,"i_long":106.800298,"i_lat":-6.448811,"station_id":"CTA"},{"i_long":106.816926,"time":6,"is_transit":false,"line":2,"transit":false,"station_id":"DP","distance":5084,"i_lat":-6.405256,"station_name":"Depok"},{"i_long":106.819451,"line":2,"is_transit":false,"i_lat":-6.391065,"station_id":"DPB","transit":false,"distance":1584,"time":3,"station_name":"Depokbaru"},{"time":4,"line":2,"i_long":106.831114,"is_transit":false,"station_name":"Pondok Cina","transit":false,"station_id":"POC","distance":2727,"i_lat":-6.369073},{"is_transit":false,"station_name":"Univ. Indonesia","transit":false,"station_id":"UI","i_lat":-6.360749,"time":2,"line":2,"distance":1109,"i_long":106.831474},{"i_long":106.834175,"station_id":"UP","is_transit":false,"time":3,"distance":2264,"i_lat":-6.339291,"transit":false,"station_name":"Univ. Pancasila","line":2},{"station_id":"LNA","line":2,"station_name":"Lenteng Agung","transit":false,"distance":1029,"time":2,"i_long":106.832616,"is_transit":false,"i_lat":-6.330363},{"distance":2671,"line":2,"i_long":106.838896,"is_transit":false,"time":3,"station_id":"TNT","station_name":"Tanjung Barat","transit":false,"i_lat":-6.3080680000000005},{"transit":false,"is_transit":false,"distance":2820,"i_lat":-6.2842400000000005,"time":4,"i_long":106.843999,"line":2,"station_id":"PSM","station_name":"Pasar Minggu"},{"station_id":"PSMB","time":2,"line":2,"is_transit":false,"i_long":106.851577,"i_lat":-6.263214,"distance":2380,"station_name":"Pasar Minggu Baru","transit":false},{"distance":824,"transit":false,"time":2,"station_name":"Duren Kalibata","i_long":106.85449,"line":2,"i_lat":-6.255332,"station_id":"DRN","is_transit":false},{"is_transit":false,"line":2,"station_name":"Cawang","i_long":106.856607,"distance":1546,"station_id":"CW","time":3,"i_lat":-6.242512,"transit":false},{"i_long":106.857948,"line":2,"station_id":"TEB","is_transit":false,"station_name":"Tebet","time":2,"transit":false,"distance":1230,"i_lat":-6.226659},{"distance":2610,"i_long":106.84912,"i_lat":-6.209883,"transit":false,"station_id":"MRI","is_transit":false,"time":4,"station_name":"Manggarai","line":2},{"transit":false,"time":4,"distance":1590,"i_long":106.840169,"station_id":"CKI","station_name":"Cikini","is_transit":false,"i_lat":-6.198556,"line":2},{"is_transit":false,"time":3,"transit":false,"line":2,"station_id":"GDD","distance":1750,"i_lat":-6.186295,"i_long":106.832183,"station_name":"Gondangdia"},{"distance":2015,"line":2,"time":4,"i_lat":-6.166716,"station_id":"JUA","transit":false,"i_long":106.828284,"station_name":"Juanda","is_transit":false},{"distance":1149,"transit":false,"time":2,"i_long":106.827103,"is_transit":false,"station_id":"SW","station_name":"Sawah Besar","i_lat":-6.160725,"line":2},{"line":2,"i_long":106.82482,"time":2,"is_transit":false,"transit":false,"station_name":"Manggabesar","station_id":"MGB","distance":906,"i_lat":-6.149769},{"time":2,"i_lat":-6.141205,"i_long":106.820901,"line":2,"distance":1080,"is_transit":false,"station_id":"JAY","transit":false,"station_name":"Jayakarta"},{"station_id":"JAKK","transit":true,"station_name":"Jakarta Kota","time":4,"i_long":106.812439,"distance":1264,"i_lat":-6.137569,"is_transit":true,"line":2},{"line":4,"station_id":"KPB","transit":true,"is_transit":true,"station_name":"Kampung Bandan","time":3,"i_lat":-6.132549,"distance":1364,"i_long":106.826365},{"line":1,"station_id":"AK","distance":4102,"i_lat":-6.144674,"time":9,"i_long":106.79867,"is_transit":false,"station_name":"Angke","transit":false},{"transit":false,"station_id":"DU","station_name":"Duri","is_transit":false,"i_lat":-6.155215,"i_long":106.800832,"line":1,"time":4,"distance":1230},{"line":1,"i_long":106.811091,"is_transit":true,"transit":true,"station_id":"THB","i_lat":-6.185545,"station_name":"Tanah Abang","time":8,"distance":3632},{"station_name":"Palmerah","time":6,"distance":3191,"i_lat":-6.207404,"is_transit":false,"i_long":106.79689,"line":6,"station_id":"PLM","transit":false},{"time":7,"distance":3737,"i_long":106.780334,"transit":false,"i_lat":-6.237242,"line":6,"station_id":"KBY","is_transit":false,"station_name":"Kebayoran"},{"distance":6218,"line":6,"station_id":"PDJ","i_long":106.74273,"transit":false,"i_lat":-6.276362,"time":8,"is_transit":false,"station_name":"Pondokranji"},{"i_long":106.728916,"line":6,"station_id":"JMU","transit":false,"is_transit":false,"time":3,"distance":2179,"station_name":"Jurangmangu","i_lat":-6.288927},{"station_id":"SDM","distance":1994,"is_transit":false,"i_lat":-6.296963,"line":6,"transit":false,"i_long":106.712277,"station_name":"Sudimara","time":4},{"transit":false,"i_lat":-6.314823,"i_long":106.675475,"station_name":"Rawa Buntu","time":6,"station_id":"RU","is_transit":false,"line":6,"distance":4566},{"time":4,"distance":2413,"i_lat":-6.319871,"i_long":106.66566,"line":6,"is_transit":false,"station_name":"Serpong","station_id":"SRP","transit":false},{"line":3,"transit":false,"station_id":"CSK","time":4,"is_transit":false,"distance":1784,"station_name":"Cisauk","i_long":106.640411,"i_lat":-6.32484},{"i_long":106.617853,"line":3,"is_transit":false,"distance":2519,"time":4,"station_name":"Cicayur","transit":false,"i_lat":-6.329547,"station_id":"CC"},{"i_lat":-6.3441410000000005,"line":6,"station_id":"PRP","distance":5968,"station_name":"Parung Panjang","time":8,"transit":false,"is_transit":false,"i_long":106.568863},{"station_name":"Cilejit","time":9,"i_lat":-6.354349,"station_id":"CJT","distance":7025,"transit":false,"is_transit":false,"i_long":106.508482,"line":3},{"is_transit":false,"i_lat":-6.338021,"station_id":"DAR","transit":false,"i_long":106.491338,"station_name":"Daru","time":6,"distance":2675,"line":0},{"is_transit":false,"distance":3902,"station_id":"TEJ","time":5,"station_name":"Tenjo","i_lat":-6.327251,"line":6,"transit":false,"i_long":106.460812},{"distance":2974,"line":6,"time":5,"is_transit":false,"i_long":106.425991,"station_name":"Tigaraksa","i_lat":-6.328533,"station_id":"TGS","transit":false},{"station_name":"Cikoya","station_id":"CKY","transit":false,"is_transit":false,"time":3,"i_lat":-6.33561,"i_long":106.411216,"distance":2651,"line":3},{"transit":false,"distance":1853,"is_transit":false,"i_lat":-6.332307,"station_id":"MJ","i_long":106.394373,"line":6,"time":4,"station_name":"Maja"}],[{"is_transit":false,"station_id":"BOO","station_name":"Bogor","i_long":106.790574,"time":0,"line":2,"transit":false,"i_lat":-6.594596,"distance":0},{"station_name":"Cilebut","time":9,"i_long":106.800016,"transit":false,"station_id":"CLT","i_lat":-6.530544,"line":2,"is_transit":false,"distance":7514},{"distance":4331,"transit":false,"time":5,"i_lat":-6.493243,"i_long":106.792719,"line":2,"station_id":"BJD","station_name":"Bojonggede","is_transit":false},{"station_name":"Citayam","station_id":"CTA","transit":false,"is_transit":false,"i_lat":-6.448811,"i_long":106.800298,"line":2,"distance":5197,"time":5},{"i_lat":-6.405256,"transit":false,"is_transit":false,"time":6,"i_long":106.816926,"line":2,"distance":5084,"station_id":"DP","station_name":"Depok"},{"line":2,"time":3,"distance":1584,"i_long":106.819451,"station_id":"DPB","station_name":"Depokbaru","transit":false,"is_transit":false,"i_lat":-6.391065},{"line":2,"station_name":"Pondok Cina","is_transit":false,"i_lat":-6.369073,"time":4,"distance":2727,"i_long":106.831114,"station_id":"POC","transit":false},{"i_long":106.831474,"is_transit":false,"station_name":"Univ. Indonesia","transit":false,"distance":1109,"i_lat":-6.360749,"line":2,"station_id":"UI","time":2},{"station_name":"Univ. Pancasila","is_transit":false,"distance":2264,"line":2,"i_lat":-6.339291,"i_long":106.834175,"station_id":"UP","transit":false,"time":3},{"station_id":"LNA","distance":1029,"is_transit":false,"transit":false,"time":2,"i_lat":-6.330363,"line":2,"i_long":106.832616,"station_name":"Lenteng Agung"},{"transit":false,"distance":2671,"is_transit":false,"station_name":"Tanjung Barat","time":3,"i_lat":-6.3080680000000005,"station_id":"TNT","i_long":106.838896,"line":2},{"transit":false,"is_transit":false,"time":4,"distance":2820,"line":2,"station_name":"Pasar Minggu","i_lat":-6.2842400000000005,"i_long":106.843999,"station_id":"PSM"},{"station_name":"Pasar Minggu Baru","i_lat":-6.263214,"is_transit":false,"line":2,"transit":false,"distance":2380,"time":2,"i_long":106.851577,"station_id":"PSMB"},{"station_name":"Duren Kalibata","distance":824,"transit":false,"is_transit":false,"i_lat":-6.255332,"line":2,"i_long":106.85449,"station_id":"DRN","time":2},{"line":2,"station_id":"CW","i_long":106.856607,"time":3,"transit":false,"distance":1546,"station_name":"Cawang","is_transit":false,"i_lat":-6.242512},{"station_id":"TEB","time":2,"is_transit":false,"distance":1230,"i_lat":-6.226659,"station_name":"Tebet","transit":false,"i_long":106.857948,"line":2},{"transit":true,"i_lat":-6.209883,"i_long":106.84912,"station_name":"Manggarai","time":4,"line":2,"distance":2610,"station_id":"MRI","is_transit":true},{"i_long":106.858896,"transit":false,"distance":1275,"is_transit":false,"station_id":"MTR","time":2,"line":1,"station_name":"Matraman","i_lat":-6.212485},{"line":1,"station_name":"Jatinegara","transit":true,"is_transit":true,"distance":1377,"station_id":"JNG","i_long":106.86807400000001,"time":8,"i_lat":-6.215091},{"time":2,"i_lat":-6.209188,"station_id":"POK","distance":1236,"line":11,"i_long":106.861737,"transit":false,"station_name":"Pondok Jati","is_transit":false},{"time":2,"transit":false,"is_transit":false,"distance":1829,"i_lat":-6.193792,"line":11,"station_name":"Kramat","i_long":106.855437,"station_id":"KMT"},{"i_long":106.850107,"station_name":"Gang Sentiong","is_transit":false,"station_id":"GST","line":11,"transit":false,"distance":973,"time":1,"i_lat":-6.185975},{"i_long":106.84368,"distance":1567,"transit":false,"line":11,"station_name":"Pasar Senen","is_transit":false,"time":8,"station_id":"PSE","i_lat":-6.174784},{"i_long":106.839204,"distance":1436,"station_id":"KMO","time":4,"i_lat":-6.161728,"line":11,"transit":false,"is_transit":false,"station_name":"Kemayoran"},{"station_id":"RJW","distance":1901,"station_name":"Rajawali","transit":false,"is_transit":false,"i_long":106.836569,"time":5,"i_lat":-6.14505,"line":11},{"i_lat":-6.132549,"transit":true,"i_long":106.826365,"is_transit":true,"station_id":"KPB","time":3,"station_name":"Kampung Bandan","distance":1444,"line":4},{"station_id":"AK","distance":4102,"i_lat":-6.144674,"line":1,"is_transit":false,"transit":false,"time":9,"i_long":106.79867,"station_name":"Angke"},{"is_transit":false,"station_id":"DU","distance":1230,"line":1,"i_long":106.800832,"transit":false,"time":4,"i_lat":-6.155215,"station_name":"Duri"},{"line":1,"distance":3632,"i_long":106.811091,"is_transit":true,"station_id":"THB","station_name":"Tanah Abang","transit":true,"time":8,"i_lat":-6.185545},{"is_transit":false,"station_name":"Palmerah","distance":3191,"i_lat":-6.207404,"time":6,"i_long":106.79689,"line":6,"station_id":"PLM","transit":false},{"is_transit":false,"i_long":106.780334,"station_name":"Kebayoran","transit":false,"time":7,"distance":3737,"line":6,"i_lat":-6.237242,"station_id":"KBY"},{"i_long":106.74273,"station_name":"Pondokranji","time":8,"station_id":"PDJ","is_transit":false,"i_lat":-6.276362,"line":6,"transit":false,"distance":6218},{"time":3,"is_transit":false,"i_long":106.728916,"station_id":"JMU","distance":2179,"i_lat":-6.288927,"transit":false,"station_name":"Jurangmangu","line":6},{"line":6,"distance":1994,"i_lat":-6.296963,"i_long":106.712277,"is_transit":false,"station_id":"SDM","station_name":"Sudimara","time":4,"transit":false},{"line":6,"station_id":"RU","time":6,"i_lat":-6.314823,"station_name":"Rawa Buntu","i_long":106.675475,"is_transit":false,"transit":false,"distance":4566},{"i_long":106.66566,"station_id":"SRP","time":4,"distance":2413,"transit":false,"line":6,"station_name":"Serpong","is_transit":false,"i_lat":-6.319871},{"i_lat":-6.32484,"time":4,"transit":false,"is_transit":false,"i_long":106.640411,"line":3,"station_name":"Cisauk","station_id":"CSK","distance":1784},{"line":3,"time":4,"transit":false,"station_id":"CC","station_name":"Cicayur","i_lat":-6.329547,"distance":2519,"is_transit":false,"i_long":106.617853},{"station_name":"Parung Panjang","transit":false,"line":6,"distance":5968,"station_id":"PRP","time":8,"i_long":106.568863,"i_lat":-6.3441410000000005,"is_transit":false},{"station_id":"CJT","line":3,"i_lat":-6.354349,"distance":7025,"is_transit":false,"time":9,"station_name":"Cilejit","transit":false,"i_long":106.508482},{"is_transit":false,"i_lat":-6.338021,"line":0,"time":6,"distance":2675,"transit":false,"i_long":106.491338,"station_id":"DAR","station_name":"Daru"},{"i_long":106.460812,"distance":3902,"transit":false,"is_transit":false,"time":5,"i_lat":-6.327251,"station_id":"TEJ","line":6,"station_name":"Tenjo"},{"i_long":106.425991,"transit":false,"i_lat":-6.328533,"station_id":"TGS","station_name":"Tigaraksa","is_transit":false,"line":6,"distance":2974,"time":5},{"station_id":"CKY","transit":false,"time":3,"i_lat":-6.33561,"distance":2651,"is_transit":false,"line":3,"i_long":106.411216,"station_name":"Cikoya"},{"time":4,"is_transit":false,"i_long":106.394373,"i_lat":-6.332307,"transit":false,"station_id":"MJ","line":6,"distance":1853,"station_name":"Maja"}]]}