{"data":[[{"time":0,"station_id":"BOO","i_lat":-6.594596,"line":2,"distance":0,"is_transit":false,"station_name":"Bogor","i_long":106.790574,"transit":false},{"i_long":106.800016,"station_name":"Cilebut","station_id":"CLT","is_transit":false,"time":9,"i_lat":-6.530544,"line":2,"transit":false,"distance":7514},{"station_id":"BJD","station_name":"Bojonggede","i_long":106.792719,"line":2,"time":5,"transit":false,"is_transit":false,"distance":4331,"i_lat":-6.493243},{"distance":5197,"station_id":"CTA","line":2,"station_name":"Citayam","i_long":106.800298,"i_lat":-6.448811,"is_transit":false,"transit":false,"time":5},{"i_lat":-6.405256,"station_id":"DP","is_transit":false,"time":6,"line":2,"transit":false,"i_long":106.816926,"distance":5084,"station_name":"Depok"},{"i_long":106.819451,"distance":1584,"line":2,"station_name":"Depokbaru","is_transit":false,"time":3,"transit":false,"i_lat":-6.391065,"station_id":"DPB"},{"i_long":106.831114,"transit":false,"time":4,"distance":2727,"line":2,"i_lat":-6.369073,"station_name":"Pondok Cina","station_id":"POC","is_transit":false},{"distance":1109,"i_long":106.831474,"i_lat":-6.360749,"transit":false,"is_transit":false,"time":2,"line":2,"station_name":"Univ. Indonesia","station_id":"UI"},{"distance":2264,"station_id":"UP","transit":false,"station_name":"Univ. Pancasila","i_lat":-6.339291,"line":2,"i_long":106.834175,"is_transit":false,"time":3},{"i_lat":-6.330363,"station_name":"Lenteng Agung","transit":false,"distance":1029,"i_long":106.832616,"line":2,"station_id":"LNA","time":2,"is_transit":false}]]}