{"data":[[{"time":0,"transit":false,"i_lat":-6.594596,"station_name":"Bogor","i_long":106.790574,"distance":0,"station_id":"BOO","is_transit":false,"line":2},{"i_lat":-6.530544,"i_long":106.800016,"distance":7514,"station_id":"CLT","line":2,"is_transit":false,"time":9,"station_name":"Cilebut","transit":false},{"transit":false,"i_lat":-6.493243,"i_long":106.792719,"station_id":"BJD","line":2,"is_transit":false,"time":5,"distance":4331,"station_name":"Bojonggede"},{"station_name":"Citayam","time":5,"transit":false,"line":2,"i_long":106.800298,"is_transit":false,"distance":5197,"station_id":"CTA","i_lat":-6.448811},{"time":6,"i_long":106.816926,"station_name":"Depok","station_id":"DP","distance":5084,"line":2,"transit":false,"is_transit":false,"i_lat":-6.405256},{"i_long":106.819451,"distance":1584,"is_transit":false,"station_name":"Depokbaru","station_id":"DPB","i_lat":-6.391065,"time":3,"transit":false,"line":2},{"station_name":"Pondok Cina","transit":false,"time":4,"station_id":"POC","is_transit":false,"i_lat":-6.369073,"distance":2727,"line":2,"i_long":106.831114},{"line":2,"station_name":"Univ. Indonesia","transit":false,"time":2,"distance":1109,"is_transit":false,"i_lat":-6.360749,"i_long":106.831474,"station_id":"UI"},{"transit":false,"line":2,"distance":2264,"i_long":106.834175,"time":3,"i_lat":-6.339291,"station_id":"UP","station_name":"Univ. Pancasila","is_transit":false},{"i_lat":-6.330363,"station_name":"Lenteng Agung","is_transit":false,"transit":false,"line":2,"station_id":"LNA","i_long":106.832616,"time":2,"distance":1029},{"time":3,"distance":2671,"is_transit":false,"i_long":106.838896,"line":2,"station_id":"TNT","station_name":"Tanjung Barat","i_lat":-6.3080680000000005,"transit":false},{"station_id":"PSM","station_name":"Pasar Minggu","transit":false,"is_transit":false,"line":2,"distance":2820,"i_long":106.843999,"time":4,"i_lat":-6.2842400000000005},{"station_name":"Pasar Minggu Baru","is_transit":false,"distance":2380,"time":2,"transit":false,"i_lat":-6.263214,"i_long":106.851577,"line":2,"station_id":"PSMB"},{"time":2,"i_long":106.85449,"line":2,"i_lat":-6.255332,"is_transit":false,"distance":824,"station_id":"DRN","station_name":"Duren Kalibata","transit":false},{"time":3,"line":2,"i_lat":-6.242512,"i_long":106.856607,"distance":1546,"station_id":"CW","station_name":"Cawang","is_transit":false,"transit":false},{"i_lat":-6.226659,"i_long":106.857948,"transit":false,"line":2,"station_id":"TEB","is_transit":false,"time":2,"distance":1230,"station_name":"Tebet"},{"line":2,"is_transit":true,"station_id":"MRI","station_name":"Manggarai","transit":true,"i_lat":-6.209883,"time":4,"distance":2610,"i_long":106.84912},{"time":2,"transit":false,"is_transit":false,"station_id":"MTR","i_lat":-6.212485,"i_long":106.858896,"line":1,"station_name":"Matraman","distance":1275},{"i_long":106.86807400000001,"is_transit":false,"distance":1377,"station_id":"JNG","station_name":"Jatinegara","transit":false,"time":8,"i_lat":-6.215091,"line":1},{"i_lat":-6.2135,"station_name":"Klender","time":3,"line":1,"i_long":106.899548,"distance":3395,"transit":false,"is_transit":false,"station_id":"KLD"},{"time":2,"distance":3100,"transit":false,"station_id":"BUA","line":1,"station_name":"Buaran","i_lat":-6.215568,"i_long":106.922662,"is_transit":false},{"time":1,"station_id":"KLDB","distance":1305,"transit":false,"i_long":106.939679,"station_name":"Klenderbaru","line":1,"is_transit":false,"i_lat":-6.217455},{"time":8,"is_transit":false,"distance":1385,"i_long":106.951283,"i_lat":-6.219053,"station_name":"Cakung","line":1,"transit":false,"station_id":"CUK"},{"station_id":"KRI","is_transit":false,"transit":false,"station_name":"Kranji","time":3,"i_lat":-6.224515,"i_long":106.977657,"distance":3097,"line":1},{"line":1,"station_name":"Bekasi","distance":2520,"i_long":106.997013,"station_id":"BKS","transit":false,"time":4,"i_lat":-6.236616,"is_transit":false},{"distance":2368,"transit":false,"i_lat":-6.248029,"station_name":"Bekasi Timur","line":1,"time":2,"station_id":"BKST","is_transit":false,"i_long":107.016735},{"station_id":"TB","line":1,"distance":4460,"time":7,"i_lat":-6.258864,"i_long":107.055722,"transit":false,"is_transit":false,"station_name":"Tambun"},{"station_id":"CIT","distance":3420,"station_name":"Cibitung","is_transit":false,"line":1,"transit":false,"i_lat":-6.261877,"i_long":107.083084,"time":3},{"transit":false,"time":2,"is_transit":false,"i_lat":-6.262938,"line":1,"distance":2800,"i_long":107.093313,"station_name":"Metland Telaga Murni","station_id":"TLM"},{"station_id":"CKR","transit":false,"line":1,"i_long":107.144613,"time":4,"i_lat":-6.2553149999999995,"is_transit":false,"distance":3689,"station_name":"Cikarang"}],[{"station_name":"Bogor","is_transit":false,"i_lat":-6.594596,"distance":0,"transit":false,"i_long":106.790574,"time":0,"line":2,"station_id":"BOO"},{"line":2,"time":9,"station_name":"Cilebut","i_long":106.800016,"distance":7514,"transit":false,"station_id":"CLT","is_transit":false,"i_lat":-6.530544},{"time":5,"distance":4331,"i_lat":-6.493243,"station_id":"BJD","station_name":"Bojonggede","is_transit":false,"i_long":106.792719,"line":2,"transit":false},{"i_long":106.800298,"station_name":"Citayam","is_transit":false,"distance":5197,"transit":false,"station_id":"CTA","time":5,"i_lat":-6.448811,"line":2},{"time":6,"station_name":"Depok","is_transit":false,"station_id":"DP","i_long":106.816926,"transit":false,"distance":5084,"line":2,"i_lat":-6.405256},{"i_long":106.819451,"time":3,"is_transit":false,"station_id":"DPB","line":2,"distance":1584,"i_lat":-6.391065,"station_name":"Depokbaru","transit":false},{"i_long":106.831114,"station_name":"Pondok Cina","distance":2727,"station_id":"POC","time":4,"i_lat":-6.369073,"is_transit":false,"line":2,"transit":false},{"station_name":"Univ. Indonesia","is_transit":false,"time":2,"transit":false,"distance":1109,"station_id":"UI","i_long":106.831474,"i_lat":-6.360749,"line":2},{"i_lat":-6.339291,"station_id":"UP","is_transit":false,"transit":false,"time":3,"line":2,"distance":2264,"station_name":"Univ. Pancasila","i_long":106.834175},{"is_transit":false,"transit":false,"station_id":"LNA","i_long":106.832616,"line":2,"distance":1029,"i_lat":-6.330363,"station_name":"Lenteng Agung","time":2},{"station_name":"Tanjung Barat","distance":2671,"station_id":"TNT","is_transit":false,"line":2,"time":3,"i_long":106.838896,"transit":false,"i_lat":-6.3080680000000005},{"station_name":"Pasar Minggu","time":4,"station_id":"PSM","line":2,"transit":false,"i_long":106.843999,"is_transit":false,"distance":2820,"i_lat":-6.2842400000000005},{"time":2,"line":2,"station_name":"Pasar Minggu Baru","is_transit":false,"i_lat":-6.263214,"transit":false,"i_long":106.851577,"distance":2380,"station_id":"PSMB"},{"line":2,"i_long":106.85449,"i_lat":-6.255332,"station_id":"DRN","station_name":"Duren Kalibata","is_transit":false,"distance":824,"time":2,"transit":false},{"is_transit":false,"line":2,"time":3,"distance":1546,"i_lat":-6.242512,"station_name":"Cawang","station_id":"CW","transit":false,"i_long":106.856607},{"station_name":"Tebet","is_transit":false,"transit":false,"line":2,"time":2,"i_lat":-6.226659,"distance":1230,"station_id":"TEB","i_long":106.857948},{"i_long":106.84912,"station_name":"Manggarai","distance":2610,"transit":true,"is_transit":true,"station_id":"MRI","time":4,"i_lat":-6.209883,"line":2},{"line":1,"is_transit":false,"station_name":"Sudirman","station_id":"SUD","i_long":106.822649,"transit":false,"distance":3186,"time":4,"i_lat":-6.202263},{"station_id":"SUDB","station_name":"Sudirman Baru","transit":false,"i_lat":-6.201433,"distance":280,"time":1,"i_long":106.819881,"line":1,"is_transit":false},{"line":1,"is_transit":false,"i_long":106.816351,"transit":false,"distance":471,"time":1,"station_name":"Karet","station_id":"KAT","i_lat":-6.20132},{"distance":2029,"time":5,"transit":false,"line":1,"station_name":"Tanah Abang","is_transit":false,"station_id":"THB","i_lat":-6.185545,"i_long":106.811091},{"line":1,"station_name":"Duri","is_transit":false,"station_id":"DU","time":8,"i_lat":-6.155215,"i_long":106.800832,"transit":false,"distance":3632},{"time":4,"line":1,"i_long":106.79867,"station_id":"AK","is_transit":false,"i_lat":-6.144674,"distance":1230,"transit":false,"station_name":"Angke"},{"time":9,"i_long":106.826365,"is_transit":true,"station_id":"KPB","line":4,"distance":4102,"station_name":"Kampung Bandan","transit":true,"i_lat":-6.132549},{"station_name":"Rajawali","i_lat":-6.14505,"station_id":"RJW","time":3,"transit":false,"line":11,"is_transit":false,"i_long":106.836569,"distance":1444},{"station_id":"KMO","is_transit":false,"transit":false,"station_name":"Kemayoran","time":5,"line":11,"distance":1901,"i_long":106.839204,"i_lat":-6.161728},{"station_id":"PSE","distance":1436,"i_long":106.84368,"line":11,"time":4,"transit":false,"i_lat":-6.174784,"is_transit":false,"station_name":"Pasar Senen"},{"station_name":"Gang Sentiong","i_lat":-6.185975,"i_long":106.850107,"time":8,"distance":1567,"station_id":"GST","line":11,"transit":false,"is_transit":false},{"station_name":"Kramat","station_id":"KMT","is_transit":false,"transit":false,"i_lat":-6.193792,"i_long":106.855437,"distance":973,"time":1,"line":11},{"transit":false,"distance":1829,"is_transit":false,"line":11,"station_id":"POK","i_lat":-6.209188,"i_long":106.861737,"time":2,"station_name":"Pondok Jati"},{"station_name":"Jatinegara","station_id":"JNG","distance":1236,"i_long":106.86807400000001,"time":9,"is_transit":true,"i_lat":-6.215091,"line":1,"transit":true},{"station_name":"Klender","transit":false,"time":3,"station_id":"KLD","i_lat":-6.2135,"i_long":106.899548,"is_transit":false,"distance":3395,"line":1},{"station_name":"Buaran","i_long":106.922662,"station_id":"BUA","transit":false,"line":1,"distance":3100,"i_lat":-6.215568,"is_transit":false,"time":2},{"time":1,"transit":false,"i_long":106.939679,"line":1,"station_name":"Klenderbaru","station_id":"KLDB","distance":1305,"is_transit":false,"i_lat":-6.217455},{"i_long":106.951283,"is_transit":false,"line":1,"time":8,"transit":false,"station_id":"CUK","distance":1385,"i_lat":-6.219053,"station_name":"Cakung"},{"transit":false,"station_name":"Kranji","is_transit":false,"station_id":"KRI","i_lat":-6.224515,"i_long":106.977657,"time":3,"line":1,"distance":3097},{"station_name":"Bekasi","is_transit":false,"distance":2520,"i_long":106.997013,"station_id":"BKS","line":1,"time":4,"transit":false,"i_lat":-6.236616},{"station_name":"Bekasi Timur","i_long":107.016735,"time":2,"transit":false,"station_id":"BKST","i_lat":-6.248029,"distance":2368,"is_transit":false,"line":1},{"time":7,"line":1,"is_transit":false,"station_name":"Tambun","i_long":107.055722,"i_lat":-6.258864,"distance":4460,"station_id":"TB","transit":false},{"line":1,"station_id":"CIT","time":3,"is_transit":false,"i_lat":-6.261877,"transit":false,"station_name":"Cibitung","i_long":107.083084,"distance":3420},{"time":2,"station_id":"TLM","line":1,"distance":2800,"transit":false,"i_long":107.093313,"is_transit":false,"i_lat":-6.262938,"station_name":"Metland Telaga Murni"},{"time":4,"i_long":107.144613,"i_lat":-6.2553149999999995,"line":1,"station_name":"Cikarang","distance":3689,"station_id":"CKR","transit":false,"is_transit":false}],[{"i_long":106.790574,"i_lat":-6.594596,"is_transit":false,"distance":0,"station_name":"Bogor","transit":false,"station_id":"BOO","time":0,"line":2},{"station_id":"CLT","is_transit":false,"line":2,"station_name":"Cilebut","distance":7514,"time":9,"i_lat":-6.530544,"transit":false,"i_long":106.800016},{"transit":false,"station_name":"Bojonggede","i_long":106.792719,"line":2,"is_transit":false,"time":5,"i_lat":-6.493243,"distance":4331,"station_id":"BJD"},{"distance":5197,"transit":false,"i_long":106.800298,"line":2,"is_transit":false,"station_id":"CTA","time":5,"i_lat":-6.448811,"station_name":"Citayam"},{"station_name":"Depok","i_long":106.816926,"line":2,"transit":false,"i_lat":-6.405256,"time":6,"is_transit":false,"distance":5084,"station_id":"DP"},{"is_transit":false,"station_name":"Depokbaru","transit":false,"i_lat":-6.391065,"distance":1584,"station_id":"DPB","i_long":106.819451,"line":2,"time":3},{"line":2,"is_transit":false,"i_lat":-6.369073,"station_id":"POC","station_name":"Pondok Cina","distance":2727,"time":4,"transit":false,"i_long":106.831114},{"time":2,"is_transit":false,"i_lat":-6.360749,"distance":1109,"transit":false,"i_long":106.831474,"station_id":"UI","line":2,"station_name":"Univ. Indonesia"},{"station_id":"UP","distance":2264,"time":3,"station_name":"Univ. Pancasila","i_lat":-6.339291,"i_long":106.834175,"transit":false,"is_transit":false,"line":2},{"is_transit":false,"i_lat":-6.330363,"station_id":"LNA","i_long":106.832616,"distance":1029,"time":2,"line":2,"station_name":"Lenteng Agung","transit":false},{"transit":false,"is_transit":false,"station_name":"Tanjung Barat","time":3,"i_long":106.838896,"line":2,"distance":2671,"i_lat":-6.3080680000000005,"station_id":"TNT"},{"i_lat":-6.2842400000000005,"line":2,"is_transit":false,"station_id":"PSM","i_long":106.843999,"distance":2820,"station_name":"Pasar Minggu","transit":false,"time":4},{"i_long":106.851577,"i_lat":-6.263214,"is_transit":false,"time":2,"station_name":"Pasar Minggu Baru","line":2,"station_id":"PSMB","distance":2380,"transit":false},{"station_name":"Duren Kalibata","distance":824,"line":2,"transit":false,"station_id":"DRN","i_lat":-6.255332,"i_long":106.85449,"time":2,"is_transit":false},{"station_id":"CW","i_lat":-6.242512,"distance":1546,"i_long":106.856607,"time":3,"transit":false,"line":2,"station_name":"Cawang","is_transit":false},{"station_id":"TEB","i_lat":-6.226659,"distance":1230,"transit":false,"i_long":106.857948,"station_name":"Tebet","is_transit":false,"line":2,"time":2},{"time":4,"line":2,"station_id":"MRI","transit":false,"i_long":106.84912,"distance":2610,"i_lat":-6.209883,"station_name":"Manggarai","is_transit":false},{"time":4,"i_long":106.840169,"station_name":"Cikini","distance":1590,"is_transit":false,"transit":false,"line":2,"i_lat":-6.198556,"station_id":"CKI"},{"distance":1750,"is_transit":false,"station_name":"Gondangdia","station_id":"GDD","time":3,"i_long":106.832183,"line":2,"transit":false,"i_lat":-6.186295},{"transit":false,"distance":2015,"is_transit":false,"station_id":"JUA","line":2,"time":4,"i_lat":-6.166716,"i_long":106.828284,"station_name":"Juanda"},{"transit":false,"distance":1149,"station_id":"SW","is_transit":false,"i_lat":-6.160725,"station_name":"Sawah Besar","time":2,"i_long":106.827103,"line":2},{"is_transit":false,"distance":906,"i_long":106.82482,"station_name":"Manggabesar","transit":false,"i_lat":-6.149769,"station_id":"MGB","line":2,"time":2},{"transit":false,"station_name":"Jayakarta","i_lat":-6.141205,"is_transit":false,"distance":1080,"line":2,"time":2,"station_id":"JAY","i_long":106.820901},{"i_long":106.812439,"transit":true,"station_name":"Jakarta Kota","distance":1264,"i_lat":-6.137569,"line":2,"time":4,"is_transit":true,"station_id":"JAKK"},{"is_transit":true,"transit":true,"i_long":106.826365,"distance":1364,"time":3,"i_lat":-6.132549,"line":4,"station_name":"Kampung Bandan","station_id":"KPB"},{"i_lat":-6.14505,"transit":false,"line":11,"station_name":"Rajawali","station_id":"RJW","distance":1444,"time":3,"is_transit":false,"i_long":106.836569},{"station_name":"Kemayoran","transit":false,"time":5,"distance":1901,"is_transit":false,"i_lat":-6.161728,"line":11,"i_long":106.839204,"station_id":"KMO"},{"station_name":"Pasar Senen","distance":1436,"transit":false,"time":4,"i_long":106.84368,"i_lat":-6.174784,"station_id":"PSE","line":11,"is_transit":false},{"station_name":"Gang Sentiong","i_long":106.850107,"station_id":"GST","is_transit":false,"time":8,"i_lat":-6.185975,"distance":1567,"transit":false,"line":11},{"station_name":"Kramat","i_long":106.855437,"transit":false,"i_lat":-6.193792,"station_id":"KMT","is_transit":false,"time":1,"line":11,"distance":973},{"station_id":"POK","i_long":106.861737,"station_name":"Pondok Jati","is_transit":false,"line":11,"time":2,"distance":1829,"transit":false,"i_lat":-6.209188},{"distance":1236,"i_lat":-6.215091,"line":1,"time":9,"station_name":"Jatinegara","i_long":106.86807400000001,"transit":true,"station_id":"JNG","is_transit":true},{"i_long":106.899548,"station_name":"Klender","station_id":"KLD","transit":false,"line":1,"distance":3395,"time":3,"i_lat":-6.2135,"is_transit":false},{"is_transit":false,"i_long":106.922662,"time":2,"station_name":"Buaran","line":1,"i_lat":-6.215568,"distance":3100,"station_id":"BUA","transit":false},{"time":1,"line":1,"transit":false,"is_transit":false,"i_lat":-6.217455,"i_long":106.939679,"station_name":"Klenderbaru","distance":1305,"station_id":"KLDB"},{"time":8,"station_name":"Cakung","line":1,"station_id":"CUK","i_long":106.951283,"is_transit":false,"i_lat":-6.219053,"distance":1385,"transit":false},{"i_long":106.977657,"time":3,"distance":3097,"station_name":"Kranji","transit":false,"i_lat":-6.224515,"is_transit":false,"line":1,"station_id":"KRI"},{"i_lat":-6.236616,"station_name":"Bekasi","distance":2520,"transit":false,"line":1,"station_id":"BKS","is_transit":false,"time":4,"i_long":106.997013},{"station_id":"BKST","distance":2368,"transit":false,"line":1,"i_lat":-6.248029,"is_transit":false,"i_long":107.016735,"station_name":"Bekasi Timur","time":2},{"time":7,"i_lat":-6.258864,"is_transit":false,"distance":4460,"station_name":"Tambun","line":1,"i_long":107.055722,"transit":false,"station_id":"TB"},{"station_name":"Cibitung","i_long":107.083084,"is_transit":false,"station_id":"CIT","distance":3420,"transit":false,"i_lat":-6.261877,"line":1,"time":3},{"distance":2800,"is_transit":false,"transit":false,"time":2,"station_id":"TLM","i_long":107.093313,"i_lat":-6.262938,"line":1,"station_name":"Metland Telaga Murni"},{"i_lat":-6.2553149999999995,"line":1,"i_long":107.144613,"station_name":"Cikarang","is_transit":false,"distance":3689,"station_id":"CKR","transit":false,"time":4}]]}