{"data":[[{"distance":0,"station_id":"BOO","i_lat":-6.594596,"line":1,"time":0,"transit":false,"station_name":"Bogor","i_long":106.790574,"is_transit":true},{"time":9,"distance":7514,"transit":false,"station_name":"Cilebut","i_long":106.800016,"line":0,"i_lat":-6.530544,"station_id":"CLT","is_transit":false},{"time":5,"line":0,"is_transit":false,"i_lat":-6.493243,"i_long":106.792719,"station_id":"BJD","distance":4331,"station_name":"Bojonggede","transit":false},{"station_name":"Citayam","transit":false,"distance":5197,"time":5,"i_long":106.800298,"i_lat":-6.448811,"is_transit":true,"station_id":"CTA","line":1},{"distance":5084,"station_id":"DP","station_name":"Depok","transit":false,"is_transit":false,"i_long":106.816926,"line":0,"time":6,"i_lat":-6.405256},{"station_name":"Depokbaru","station_id":"DPB","transit":false,"i_lat":-6.391065,"is_transit":false,"line":0,"distance":1584,"time":3,"i_long":106.819451},{"i_lat":-6.369073,"distance":2727,"time":4,"station_name":"Pondok Cina","transit":false,"i_long":106.831114,"is_transit":false,"station_id":"POC","line":2},{"time":2,"transit":false,"station_id":"UI","is_transit":false,"station_name":"Univ. Indonesia","distance":1109,"i_lat":-6.360749,"i_long":106.831474,"line":2},{"station_name":"Univ. Pancasila","transit":false,"is_transit":false,"i_long":106.834175,"i_lat":-6.339291,"station_id":"UP","distance":2264,"line":2,"time":3},{"station_id":"LNA","distance":1029,"i_long":106.832616,"time":2,"is_transit":false,"line":2,"transit":false,"station_name":"Lenteng Agung","i_lat":-6.330363},{"time":3,"station_id":"TNT","is_transit":false,"line":2,"transit":false,"i_long":106.838896,"station_name":"Tanjung Barat","i_lat":-6.3080680000000005,"distance":2671},{"i_lat":-6.2842400000000005,"line":2,"station_id":"PSM","is_transit":false,"transit":false,"station_name":"Pasar Minggu","time":4,"distance":2820,"i_long":106.843999},{"station_id":"PSMB","i_long":106.851577,"station_name":"Pasar Minggu Baru","i_lat":-6.263214,"time":2,"transit":false,"line":2,"distance":2380,"is_transit":false},{"is_transit":false,"distance":824,"transit":false,"station_name":"Duren Kalibata","time":2,"i_lat":-6.255332,"i_long":106.85449,"line":0,"station_id":"DRN"},{"transit":false,"station_name":"Cawang","station_id":"CW","distance":1546,"line":0,"time":3,"i_long":106.856607,"is_transit":false,"i_lat":-6.242512},{"station_id":"TEB","i_lat":-6.226659,"i_long":106.857948,"is_transit":false,"transit":false,"station_name":"Tebet","time":2,"distance":1230,"line":2},{"line":0,"i_long":106.84912,"station_id":"MRI","i_lat":-6.209883,"transit":true,"is_transit":true,"time":4,"distance":2610,"station_name":"Manggarai"},{"distance":3186,"station_id":"SUD","i_lat":-6.202263,"line":1,"is_transit":false,"time":4,"station_name":"Sudirman","i_long":106.822649,"transit":false},{"station_id":"SUDB","i_long":106.819881,"transit":false,"distance":280,"i_lat":-6.201433,"station_name":"Sudirman Baru","is_transit":false,"time":1,"line":1},{"line":1,"transit":false,"station_name":"Karet","station_id":"KAT","distance":471,"i_lat":-6.20132,"i_long":106.816351,"is_transit":false,"time":1},{"station_name":"Tanah Abang","line":1,"is_transit":true,"station_id":"THB","i_lat":-6.185545,"i_long":106.811091,"transit":true,"time":5,"distance":2029},{"time":6,"station_id":"PLM","distance":3191,"station_name":"Palmerah","is_transit":false,"i_lat":-6.207404,"line":6,"i_long":106.79689,"transit":false},{"time":7,"transit":false,"line":6,"distance":3737,"station_name":"Kebayoran","station_id":"KBY","i_lat":-6.237242,"i_long":106.780334,"is_transit":false},{"time":8,"station_name":"Pondokranji","i_long":106.74273,"distance":6218,"i_lat":-6.276362,"line":6,"is_transit":false,"transit":false,"station_id":"PDJ"},{"i_long":106.728916,"line":6,"transit":false,"time":3,"station_name":"Jurangmangu","station_id":"JMU","distance":2179,"i_lat":-6.288927,"is_transit":false}],[{"i_long":106.790574,"time":0,"is_transit":true,"i_lat":-6.594596,"transit":false,"station_name":"Bogor","line":1,"distance":0,"station_id":"BOO"},{"i_long":106.800016,"is_transit":false,"line":0,"transit":false,"distance":7514,"station_name":"Cilebut","station_id":"CLT","time":9,"i_lat":-6.530544},{"station_name":"Bojonggede","is_transit":false,"transit":false,"station_id":"BJD","i_lat":-6.493243,"i_long":106.792719,"distance":4331,"line":0,"time":5},{"transit":false,"time":5,"station_id":"CTA","is_transit":true,"distance":5197,"station_name":"Citayam","i_lat":-6.448811,"line":1,"i_long":106.800298},{"distance":5084,"line":0,"station_id":"DP","station_name":"Depok","transit":false,"is_transit":false,"i_lat":-6.405256,"time":6,"i_long":106.816926},{"station_id":"DPB","distance":1584,"transit":false,"line":0,"i_lat":-6.391065,"i_long":106.819451,"station_name":"Depokbaru","is_transit":false,"time":3},{"is_transit":false,"i_lat":-6.369073,"time":4,"i_long":106.831114,"transit":false,"station_name":"Pondok Cina","line":2,"distance":2727,"station_id":"POC"},{"time":2,"i_long":106.831474,"line":2,"distance":1109,"station_name":"Univ. Indonesia","transit":false,"i_lat":-6.360749,"station_id":"UI","is_transit":false},{"time":3,"distance":2264,"transit":false,"line":2,"station_name":"Univ. Pancasila","i_lat":-6.339291,"i_long":106.834175,"is_transit":false,"station_id":"UP"},{"i_lat":-6.330363,"distance":1029,"time":2,"station_id":"LNA","is_transit":false,"station_name":"Lenteng Agung","i_long":106.832616,"line":2,"transit":false},{"i_long":106.838896,"i_lat":-6.3080680000000005,"line":2,"time":3,"distance":2671,"station_name":"Tanjung Barat","is_transit":false,"transit":false,"station_id":"TNT"},{"time":4,"distance":2820,"station_id":"PSM","line":2,"station_name":"Pasar Minggu","transit":false,"i_lat":-6.2842400000000005,"is_transit":false,"i_long":106.843999},{"transit":false,"time":2,"is_transit":false,"station_name":"Pasar Minggu Baru","i_lat":-6.263214,"line":2,"distance":2380,"station_id":"PSMB","i_long":106.851577},{"transit":false,"station_name":"Duren Kalibata","station_id":"DRN","is_transit":false,"line":0,"time":2,"i_long":106.85449,"i_lat":-6.255332,"distance":824},{"line":0,"station_id":"CW","is_transit":false,"time":3,"i_long":106.856607,"distance":1546,"station_name":"Cawang","transit":false,"i_lat":-6.242512},{"i_long":106.857948,"station_id":"TEB","line":2,"station_name":"Tebet","i_lat":-6.226659,"is_transit":false,"time":2,"transit":false,"distance":1230},{"is_transit":true,"transit":true,"time":4,"i_lat":-6.209883,"i_long":106.84912,"line":0,"station_id":"MRI","station_name":"Manggarai","distance":2610},{"time":4,"i_lat":-6.198556,"line":0,"is_transit":false,"station_name":"Cikini","station_id":"CKI","distance":1590,"transit":false,"i_long":106.840169},{"station_id":"GDD","is_transit":false,"station_name":"Gondangdia","transit":false,"distance":1750,"i_lat":-6.186295,"i_long":106.832183,"time":3,"line":2},{"time":4,"transit":false,"i_long":106.828284,"is_transit":false,"distance":2015,"i_lat":-6.166716,"line":2,"station_id":"JUA","station_name":"Juanda"},{"station_name":"Sawah Besar","is_transit":false,"transit":false,"i_long":106.827103,"station_id":"SW","i_lat":-6.160725,"line":2,"time":2,"distance":1149},{"line":2,"distance":906,"time":2,"station_name":"Manggabesar","transit":false,"i_long":106.82482,"is_transit":false,"station_id":"MGB","i_lat":-6.149769},{"transit":false,"i_lat":-6.141205,"i_long":106.820901,"station_name":"Jayakarta","is_transit":false,"line":7,"time":2,"station_id":"JAY","distance":1080},{"station_id":"JAKK","i_lat":-6.137569,"station_name":"Jakarta Kota","line":0,"time":4,"is_transit":true,"distance":1264,"transit":true,"i_long":106.812439},{"time":3,"distance":1364,"station_name":"Kampung Bandan","i_long":106.826365,"station_id":"KPB","i_lat":-6.132549,"is_transit":true,"line":0,"transit":false},{"time":9,"station_id":"AK","transit":false,"station_name":"Angke","line":0,"distance":4102,"i_lat":-6.144674,"i_long":106.79867,"is_transit":false},{"station_id":"DU","transit":true,"time":4,"distance":1230,"line":1,"station_name":"Duri","i_lat":-6.155215,"is_transit":true,"i_long":106.800832},{"station_name":"Tanah Abang","station_id":"THB","is_transit":true,"i_long":106.811091,"line":1,"i_lat":-6.185545,"time":8,"distance":3632,"transit":true},{"station_name":"Palmerah","i_lat":-6.207404,"i_long":106.79689,"line":6,"distance":3191,"time":6,"is_transit":false,"transit":false,"station_id":"PLM"},{"is_transit":false,"distance":3737,"station_id":"KBY","transit":false,"i_lat":-6.237242,"time":7,"i_long":106.780334,"line":6,"station_name":"Kebayoran"},{"station_name":"Pondokranji","transit":false,"i_long":106.74273,"distance":6218,"line":6,"station_id":"PDJ","i_lat":-6.276362,"time":8,"is_transit":false},{"i_lat":-6.288927,"line":6,"transit":false,"time":3,"is_transit":false,"distance":2179,"station_name":"Jurangmangu","station_id":"JMU","i_long":106.728916}],[{"time":0,"is_transit":true,"transit":false,"i_lat":-6.594596,"distance":0,"station_name":"Bogor","station_id":"BOO","line":1,"i_long":106.790574},{"distance":7514,"transit":false,"is_transit":false,"i_long":106.800016,"line":0,"time":9,"station_name":"Cilebut","station_id":"CLT","i_lat":-6.530544},{"station_id":"BJD","distance":4331,"station_name":"Bojonggede","is_transit":false,"time":5,"transit":false,"i_lat":-6.493243,"i_long":106.792719,"line":0},{"is_transit":true,"i_lat":-6.448811,"time":5,"line":1,"station_id":"CTA","transit":false,"i_long":106.800298,"distance":5197,"station_name":"Citayam"},{"i_long":106.816926,"station_id":"DP","is_transit":false,"distance":5084,"transit":false,"station_name":"Depok","i_lat":-6.405256,"time":6,"line":0},{"i_lat":-6.391065,"time":3,"distance":1584,"line":0,"i_long":106.819451,"station_id":"DPB","is_transit":false,"transit":false,"station_name":"Depokbaru"},{"time":4,"station_name":"Pondok Cina","is_transit":false,"transit":false,"i_lat":-6.369073,"distance":2727,"line":2,"station_id":"POC","i_long":106.831114},{"time":2,"distance":1109,"station_name":"Univ. Indonesia","i_lat":-6.360749,"line":2,"is_transit":false,"station_id":"UI","i_long":106.831474,"transit":false},{"is_transit":false,"i_lat":-6.339291,"station_id":"UP","time":3,"station_name":"Univ. Pancasila","i_long":106.834175,"line":2,"transit":false,"distance":2264},{"station_id":"LNA","i_lat":-6.330363,"i_long":106.832616,"time":2,"distance":1029,"transit":false,"is_transit":false,"station_name":"Lenteng Agung","line":2},{"distance":2671,"i_lat":-6.3080680000000005,"line":2,"time":3,"is_transit":false,"transit":false,"station_id":"TNT","i_long":106.838896,"station_name":"Tanjung Barat"},{"is_transit":false,"transit":false,"station_name":"Pasar Minggu","i_long":106.843999,"distance":2820,"station_id":"PSM","time":4,"i_lat":-6.2842400000000005,"line":2},{"transit":false,"i_lat":-6.263214,"i_long":106.851577,"line":2,"station_id":"PSMB","is_transit":false,"time":2,"distance":2380,"station_name":"Pasar Minggu Baru"},{"i_long":106.85449,"line":0,"time":2,"is_transit":false,"station_id":"DRN","station_name":"Duren Kalibata","distance":824,"transit":false,"i_lat":-6.255332},{"time":3,"line":0,"station_id":"CW","transit":false,"i_lat":-6.242512,"distance":1546,"is_transit":false,"i_long":106.856607,"station_name":"Cawang"},{"is_transit":false,"station_id":"TEB","station_name":"Tebet","i_long":106.857948,"transit":false,"time":2,"distance":1230,"i_lat":-6.226659,"line":2},{"station_name":"Manggarai","distance":2610,"i_long":106.84912,"is_transit":true,"line":0,"time":4,"station_id":"MRI","i_lat":-6.209883,"transit":true},{"line":1,"station_name":"Matraman","station_id":"MTR","distance":1275,"i_lat":-6.212485,"i_long":106.858896,"is_transit":false,"time":2,"transit":false},{"i_long":106.86807400000001,"line":0,"station_id":"JNG","transit":true,"i_lat":-6.215091,"is_transit":true,"time":8,"distance":1377,"station_name":"Jatinegara"},{"time":2,"i_lat":-6.209188,"i_long":106.861737,"station_name":"Pondok Jati","station_id":"POK","line":11,"is_transit":false,"transit":false,"distance":1236},{"is_transit":false,"station_name":"Kramat","time":2,"i_long":106.855437,"i_lat":-6.193792,"transit":false,"distance":1829,"line":11,"station_id":"KMT"},{"transit":false,"line":11,"is_transit":false,"station_id":"GST","time":1,"distance":973,"i_lat":-6.185975,"station_name":"Gang Sentiong","i_long":106.850107},{"distance":1567,"line":11,"i_long":106.84368,"time":8,"i_lat":-6.174784,"station_name":"Pasar Senen","transit":false,"is_transit":false,"station_id":"PSE"},{"station_id":"KMO","i_lat":-6.161728,"line":11,"is_transit":false,"distance":1436,"transit":false,"station_name":"Kemayoran","i_long":106.839204,"time":4},{"time":5,"transit":false,"station_name":"Rajawali","i_lat":-6.14505,"station_id":"RJW","is_transit":false,"i_long":106.836569,"distance":1901,"line":11},{"i_lat":-6.132549,"time":3,"station_id":"KPB","distance":1444,"transit":true,"line":0,"station_name":"Kampung Bandan","i_long":106.826365,"is_transit":true},{"station_name":"Angke","is_transit":false,"time":9,"distance":4102,"station_id":"AK","transit":false,"i_lat":-6.144674,"i_long":106.79867,"line":0},{"time":4,"distance":1230,"transit":true,"line":1,"i_lat":-6.155215,"station_name":"Duri","i_long":106.800832,"is_transit":true,"station_id":"DU"},{"time":8,"i_lat":-6.185545,"distance":3632,"i_long":106.811091,"station_id":"THB","station_name":"Tanah Abang","line":1,"is_transit":true,"transit":true},{"line":6,"i_long":106.79689,"distance":3191,"i_lat":-6.207404,"station_id":"PLM","transit":false,"is_transit":false,"time":6,"station_name":"Palmerah"},{"i_lat":-6.237242,"distance":3737,"station_name":"Kebayoran","transit":false,"i_long":106.780334,"is_transit":false,"line":6,"station_id":"KBY","time":7},{"line":6,"transit":false,"station_id":"PDJ","is_transit":false,"station_name":"Pondokranji","i_lat":-6.276362,"i_long":106.74273,"time":8,"distance":6218},{"time":3,"is_transit":false,"distance":2179,"station_id":"JMU","i_long":106.728916,"line":6,"transit":false,"station_name":"Jurangmangu","i_lat":-6.288927}]]}