{"data":[[{"i_long":106.790574,"line":2,"station_name":"Bogor","time":0,"is_transit":false,"i_lat":-6.594596,"station_id":"BOO","distance":0,"transit":false},{"distance":7514,"line":2,"transit":false,"time":9,"is_transit":false,"station_name":"Cilebut","i_long":106.800016,"station_id":"CLT","i_lat":-6.530544},{"transit":false,"station_id":"BJD","time":5,"line":2,"distance":4331,"i_long":106.792719,"is_transit":false,"station_name":"Bojonggede","i_lat":-6.493243},{"i_lat":-6.448811,"line":2,"station_id":"CTA","transit":false,"is_transit":false,"i_long":106.800298,"distance":5197,"time":5,"station_name":"Citayam"},{"is_transit":false,"station_name":"Depok","transit":false,"line":2,"distance":5084,"i_long":106.816926,"i_lat":-6.405256,"time":6,"station_id":"DP"},{"is_transit":false,"line":2,"time":3,"i_lat":-6.391065,"station_name":"Depokbaru","distance":1584,"station_id":"DPB","i_long":106.819451,"transit":false},{"transit":false,"i_long":106.831114,"line":2,"distance":2727,"time":4,"station_name":"Pondok Cina","station_id":"POC","is_transit":false,"i_lat":-6.369073},{"station_name":"Univ. Indonesia","transit":false,"time":2,"station_id":"UI","line":2,"distance":1109,"i_lat":-6.360749,"is_transit":false,"i_long":106.831474},{"is_transit":false,"i_lat":-6.339291,"line":2,"station_id":"UP","i_long":106.834175,"distance":2264,"transit":false,"time":3,"station_name":"Univ. Pancasila"},{"distance":1029,"station_name":"Lenteng Agung","time":2,"line":2,"is_transit":false,"i_long":106.832616,"i_lat":-6.330363,"transit":false,"station_id":"LNA"},{"station_name":"Tanjung Barat","is_transit":false,"transit":false,"station_id":"TNT","line":2,"distance":2671,"i_lat":-6.3080680000000005,"i_long":106.838896,"time":3},{"i_long":106.843999,"station_name":"Pasar Minggu","distance":2820,"line":2,"transit":false,"station_id":"PSM","is_transit":false,"i_lat":-6.2842400000000005,"time":4},{"is_transit":false,"line":2,"transit":false,"distance":2380,"station_name":"Pasar Minggu Baru","i_long":106.851577,"time":2,"i_lat":-6.263214,"station_id":"PSMB"},{"i_long":106.85449,"i_lat":-6.255332,"is_transit":false,"transit":false,"distance":824,"time":2,"station_name":"Duren Kalibata","line":2,"station_id":"DRN"},{"distance":1546,"line":2,"transit":false,"i_lat":-6.242512,"is_transit":false,"station_id":"CW","time":3,"station_name":"Cawang","i_long":106.856607},{"distance":1230,"i_lat":-6.226659,"time":2,"transit":false,"i_long":106.857948,"station_id":"TEB","is_transit":false,"line":2,"station_name":"Tebet"},{"transit":true,"station_name":"Manggarai","station_id":"MRI","line":2,"is_transit":true,"distance":2610,"i_long":106.84912,"time":4,"i_lat":-6.209883},{"transit":false,"time":2,"line":1,"station_name":"Matraman","distance":1275,"i_long":106.858896,"station_id":"MTR","is_transit":false,"i_lat":-6.212485},{"i_long":106.86807400000001,"i_lat":-6.215091,"distance":1377,"line":1,"station_name":"Jatinegara","transit":false,"time":8,"is_transit":false,"station_id":"JNG"},{"line":1,"station_name":"Klender","time":3,"i_lat":-6.2135,"distance":3395,"is_transit":false,"transit":false,"station_id":"KLD","i_long":106.899548},{"is_transit":false,"line":1,"station_id":"BUA","station_name":"Buaran","time":2,"i_long":106.922662,"i_lat":-6.215568,"distance":3100,"transit":false}],[{"transit":false,"time":0,"station_id":"BOO","is_transit":false,"i_lat":-6.594596,"line":2,"i_long":106.790574,"station_name":"Bogor","distance":0},{"station_name":"Cilebut","distance":7514,"time":9,"i_long":106.800016,"line":2,"station_id":"CLT","is_transit":false,"i_lat":-6.530544,"transit":false},{"distance":4331,"station_name":"Bojonggede","transit":false,"time":5,"line":2,"i_long":106.792719,"station_id":"BJD","is_transit":false,"i_lat":-6.493243},{"station_id":"CTA","distance":5197,"transit":false,"station_name":"Citayam","time":5,"line":2,"is_transit":false,"i_lat":-6.448811,"i_long":106.800298},{"i_long":106.816926,"is_transit":false,"transit":false,"distance":5084,"station_name":"Depok","time":6,"i_lat":-6.405256,"station_id":"DP","line":2},{"i_lat":-6.391065,"line":2,"distance":1584,"transit":false,"station_id":"DPB","station_name":"Depokbaru","is_transit":false,"i_long":106.819451,"time":3},{"time":4,"i_long":106.831114,"station_name":"Pondok Cina","i_lat":-6.369073,"is_transit":false,"line":2,"station_id":"POC","distance":2727,"transit":false},{"transit":false,"station_id":"UI","time":2,"i_long":106.831474,"i_lat":-6.360749,"station_name":"Univ. Indonesia","distance":1109,"line":2,"is_transit":false},{"i_long":106.834175,"station_name":"Univ. Pancasila","time":3,"station_id":"UP","distance":2264,"line":2,"i_lat":-6.339291,"is_transit":false,"transit":false},{"time":2,"distance":1029,"line":2,"i_long":106.832616,"station_id":"LNA","is_transit":false,"station_name":"Lenteng Agung","transit":false,"i_lat":-6.330363},{"station_id":"TNT","station_name":"Tanjung Barat","is_transit":false,"transit":false,"i_lat":-6.3080680000000005,"time":3,"i_long":106.838896,"distance":2671,"line":2},{"station_name":"Pasar Minggu","distance":2820,"transit":false,"i_lat":-6.2842400000000005,"i_long":106.843999,"station_id":"PSM","line":2,"time":4,"is_transit":false},{"transit":false,"i_lat":-6.263214,"station_id":"PSMB","station_name":"Pasar Minggu Baru","time":2,"is_transit":false,"line":2,"i_long":106.851577,"distance":2380},{"line":2,"i_long":106.85449,"transit":false,"time":2,"station_id":"DRN","distance":824,"station_name":"Duren Kalibata","is_transit":false,"i_lat":-6.255332},{"i_long":106.856607,"station_id":"CW","i_lat":-6.242512,"line":2,"time":3,"distance":1546,"transit":false,"station_name":"Cawang","is_transit":false},{"transit":false,"is_transit":false,"station_name":"Tebet","distance":1230,"i_long":106.857948,"line":2,"time":2,"station_id":"TEB","i_lat":-6.226659},{"is_transit":true,"i_long":106.84912,"transit":true,"station_name":"Manggarai","distance":2610,"i_lat":-6.209883,"time":4,"line":2,"station_id":"MRI"},{"transit":false,"i_lat":-6.202263,"station_id":"SUD","time":4,"line":1,"station_name":"Sudirman","i_long":106.822649,"is_transit":false,"distance":3186},{"is_transit":false,"distance":280,"station_id":"SUDB","transit":false,"station_name":"Sudirman Baru","i_lat":-6.201433,"i_long":106.819881,"time":1,"line":1},{"station_id":"KAT","i_long":106.816351,"is_transit":false,"distance":471,"time":1,"line":1,"station_name":"Karet","i_lat":-6.20132,"transit":false},{"i_long":106.811091,"i_lat":-6.185545,"is_transit":false,"transit":false,"distance":2029,"line":1,"station_name":"Tanah Abang","time":5,"station_id":"THB"},{"line":1,"distance":3632,"is_transit":false,"i_long":106.800832,"transit":false,"station_name":"Duri","station_id":"DU","time":8,"i_lat":-6.155215},{"distance":1230,"station_name":"Angke","time":4,"transit":false,"is_transit":false,"i_lat":-6.144674,"station_id":"AK","line":1,"i_long":106.79867},{"transit":true,"time":9,"is_transit":true,"i_long":106.826365,"station_name":"Kampung Bandan","line":4,"i_lat":-6.132549,"station_id":"KPB","distance":4102},{"time":3,"is_transit":false,"station_id":"RJW","i_lat":-6.14505,"station_name":"Rajawali","distance":1444,"line":11,"i_long":106.836569,"transit":false},{"i_long":106.839204,"station_id":"KMO","i_lat":-6.161728,"transit":false,"line":11,"time":5,"distance":1901,"station_name":"Kemayoran","is_transit":false},{"is_transit":false,"time":4,"station_name":"Pasar Senen","i_long":106.84368,"line":11,"distance":1436,"station_id":"PSE","transit":false,"i_lat":-6.174784},{"station_id":"GST","distance":1567,"station_name":"Gang Sentiong","time":8,"is_transit":false,"i_lat":-6.185975,"i_long":106.850107,"transit":false,"line":11},{"i_lat":-6.193792,"distance":973,"i_long":106.855437,"station_name":"Kramat","time":1,"line":11,"station_id":"KMT","transit":false,"is_transit":false},{"i_lat":-6.209188,"i_long":106.861737,"station_name":"Pondok Jati","station_id":"POK","time":2,"line":11,"transit":false,"distance":1829,"is_transit":false},{"station_id":"JNG","distance":1236,"station_name":"Jatinegara","transit":true,"time":9,"i_lat":-6.215091,"is_transit":true,"i_long":106.86807400000001,"line":1},{"station_name":"Klender","i_long":106.899548,"line":1,"transit":false,"time":3,"is_transit":false,"i_lat":-6.2135,"station_id":"KLD","distance":3395},{"time":2,"line":1,"station_id":"BUA","transit":false,"distance":3100,"is_transit":false,"i_lat":-6.215568,"station_name":"Buaran","i_long":106.922662}],[{"distance":0,"station_id":"BOO","is_transit":false,"i_lat":-6.594596,"station_name":"Bogor","line":2,"time":0,"transit":false,"i_long":106.790574},{"station_id":"CLT","line":2,"station_name":"Cilebut","distance":7514,"transit":false,"time":9,"i_long":106.800016,"is_transit":false,"i_lat":-6.530544},{"i_long":106.792719,"station_name":"Bojonggede","line":2,"is_transit":false,"transit":false,"distance":4331,"station_id":"BJD","time":5,"i_lat":-6.493243},{"is_transit":false,"i_lat":-6.448811,"station_name":"Citayam","station_id":"CTA","distance":5197,"line":2,"i_long":106.800298,"time":5,"transit":false},{"i_lat":-6.405256,"distance":5084,"i_long":106.816926,"transit":false,"time":6,"is_transit":false,"line":2,"station_name":"Depok","station_id":"DP"},{"station_name":"Depokbaru","is_transit":false,"i_long":106.819451,"transit":false,"line":2,"station_id":"DPB","distance":1584,"time":3,"i_lat":-6.391065},{"i_long":106.831114,"time":4,"transit":false,"is_transit":false,"station_id":"POC","line":2,"station_name":"Pondok Cina","i_lat":-6.369073,"distance":2727},{"station_name":"Univ. Indonesia","station_id":"UI","distance":1109,"transit":false,"is_transit":false,"i_lat":-6.360749,"time":2,"line":2,"i_long":106.831474},{"is_transit":false,"i_lat":-6.339291,"line":2,"distance":2264,"station_name":"Univ. Pancasila","i_long":106.834175,"station_id":"UP","time":3,"transit":false},{"time":2,"i_lat":-6.330363,"i_long":106.832616,"station_id":"LNA","transit":false,"line":2,"is_transit":false,"station_name":"Lenteng Agung","distance":1029},{"station_id":"TNT","station_name":"Tanjung Barat","i_lat":-6.3080680000000005,"line":2,"distance":2671,"i_long":106.838896,"transit":false,"time":3,"is_transit":false},{"time":4,"station_id":"PSM","is_transit":false,"i_long":106.843999,"transit":false,"distance":2820,"i_lat":-6.2842400000000005,"line":2,"station_name":"Pasar Minggu"},{"time":2,"transit":false,"station_name":"Pasar Minggu Baru","station_id":"PSMB","line":2,"distance":2380,"i_lat":-6.263214,"is_transit":false,"i_long":106.851577},{"is_transit":false,"i_lat":-6.255332,"i_long":106.85449,"station_name":"Duren Kalibata","station_id":"DRN","distance":824,"transit":false,"line":2,"time":2},{"transit":false,"i_lat":-6.242512,"i_long":106.856607,"station_id":"CW","time":3,"distance":1546,"station_name":"Cawang","is_transit":false,"line":2},{"line":2,"i_long":106.857948,"transit":false,"distance":1230,"station_name":"Tebet","is_transit":false,"time":2,"i_lat":-6.226659,"station_id":"TEB"},{"time":4,"distance":2610,"i_long":106.84912,"line":2,"station_id":"MRI","station_name":"Manggarai","i_lat":-6.209883,"transit":false,"is_transit":false},{"station_id":"CKI","station_name":"Cikini","transit":false,"i_long":106.840169,"distance":1590,"i_lat":-6.198556,"is_transit":false,"line":2,"time":4},{"distance":1750,"line":2,"station_name":"Gondangdia","time":3,"station_id":"GDD","is_transit":false,"i_long":106.832183,"i_lat":-6.186295,"transit":false},{"station_name":"Juanda","distance":2015,"i_lat":-6.166716,"i_long":106.828284,"transit":false,"line":2,"station_id":"JUA","time":4,"is_transit":false},{"i_long":106.827103,"line":2,"station_name":"Sawah Besar","is_transit":false,"transit":false,"i_lat":-6.160725,"distance":1149,"time":2,"station_id":"SW"},{"time":2,"station_name":"Manggabesar","is_transit":false,"station_id":"MGB","distance":906,"i_lat":-6.149769,"transit":false,"i_long":106.82482,"line":2},{"line":2,"time":2,"station_name":"Jayakarta","is_transit":false,"station_id":"JAY","i_lat":-6.141205,"distance":1080,"transit":false,"i_long":106.820901},{"transit":true,"distance":1264,"line":2,"i_lat":-6.137569,"i_long":106.812439,"station_id":"JAKK","station_name":"Jakarta Kota","time":4,"is_transit":true},{"is_transit":true,"line":4,"station_name":"Kampung Bandan","i_long":106.826365,"i_lat":-6.132549,"distance":1364,"station_id":"KPB","transit":true,"time":3},{"i_long":106.836569,"line":11,"transit":false,"is_transit":false,"station_id":"RJW","distance":1444,"station_name":"Rajawali","time":3,"i_lat":-6.14505},{"station_id":"KMO","i_lat":-6.161728,"i_long":106.839204,"transit":false,"distance":1901,"station_name":"Kemayoran","time":5,"line":11,"is_transit":false},{"station_name":"Pasar Senen","line":11,"i_lat":-6.174784,"station_id":"PSE","time":4,"transit":false,"distance":1436,"is_transit":false,"i_long":106.84368},{"line":11,"transit":false,"station_id":"GST","distance":1567,"i_long":106.850107,"station_name":"Gang Sentiong","time":8,"is_transit":false,"i_lat":-6.185975},{"station_id":"KMT","distance":973,"transit":false,"station_name":"Kramat","i_long":106.855437,"line":11,"time":1,"is_transit":false,"i_lat":-6.193792},{"station_name":"Pondok Jati","distance":1829,"transit":false,"is_transit":false,"station_id":"POK","time":2,"i_lat":-6.209188,"line":11,"i_long":106.861737},{"i_lat":-6.215091,"i_long":106.86807400000001,"station_id":"JNG","station_name":"Jatinegara","distance":1236,"is_transit":true,"line":1,"transit":true,"time":9},{"station_name":"Klender","i_long":106.899548,"line":1,"distance":3395,"is_transit":false,"i_lat":-6.2135,"station_id":"KLD","transit":false,"time":3},{"line":1,"i_lat":-6.215568,"station_id":"BUA","distance":3100,"transit":false,"station_name":"Buaran","time":2,"is_transit":false,"i_long":106.922662}]]}