{"data":[[{"station_name":"Bogor","transit":false,"time":0,"station_id":"BOO","i_lat":-6.594596,"distance":0,"is_transit":false,"line":2,"i_long":106.790574},{"station_name":"Cilebut","i_long":106.800016,"i_lat":-6.530544,"time":9,"line":2,"station_id":"CLT","is_transit":false,"distance":7514,"transit":false},{"time":5,"line":2,"station_id":"BJD","transit":false,"i_lat":-6.493243,"is_transit":false,"distance":4331,"station_name":"Bojonggede","i_long":106.792719},{"time":5,"transit":false,"line":2,"station_name":"Citayam","is_transit":false,"distance":5197,"i_lat":-6.448811,"i_long":106.800298,"station_id":"CTA"},{"is_transit":false,"i_lat":-6.405256,"line":2,"station_name":"Depok","distance":5084,"time":6,"station_id":"DP","transit":false,"i_long":106.816926},{"i_lat":-6.391065,"transit":false,"i_long":106.819451,"station_id":"DPB","station_name":"Depokbaru","time":3,"is_transit":false,"line":2,"distance":1584},{"is_transit":false,"line":2,"distance":2727,"transit":false,"i_long":106.831114,"time":4,"i_lat":-6.369073,"station_name":"Pondok Cina","station_id":"POC"},{"distance":1109,"station_id":"UI","time":2,"station_name":"Univ. Indonesia","i_lat":-6.360749,"line":2,"is_transit":false,"transit":false,"i_long":106.831474},{"i_long":106.834175,"line":2,"transit":false,"station_id":"UP","is_transit":false,"i_lat":-6.339291,"time":3,"distance":2264,"station_name":"Univ. Pancasila"},{"time":2,"station_name":"Lenteng Agung","is_transit":false,"i_lat":-6.330363,"transit":false,"line":2,"distance":1029,"station_id":"LNA","i_long":106.832616},{"time":3,"is_transit":false,"distance":2671,"station_id":"TNT","station_name":"Tanjung Barat","transit":false,"i_lat":-6.3080680000000005,"i_long":106.838896,"line":2},{"station_name":"Pasar Minggu","is_transit":false,"i_long":106.843999,"i_lat":-6.2842400000000005,"station_id":"PSM","time":4,"distance":2820,"line":2,"transit":false},{"distance":2380,"line":2,"time":2,"station_name":"Pasar Minggu Baru","i_lat":-6.263214,"is_transit":false,"transit":false,"i_long":106.851577,"station_id":"PSMB"},{"transit":false,"i_lat":-6.255332,"i_long":106.85449,"line":2,"time":2,"station_id":"DRN","distance":824,"is_transit":false,"station_name":"Duren Kalibata"},{"is_transit":false,"station_id":"CW","transit":false,"i_long":106.856607,"distance":1546,"i_lat":-6.242512,"station_name":"Cawang","time":3,"line":2},{"transit":false,"is_transit":false,"i_lat":-6.226659,"time":2,"i_long":106.857948,"distance":1230,"station_id":"TEB","line":2,"station_name":"Tebet"},{"i_long":106.84912,"line":2,"is_transit":true,"station_id":"MRI","distance":2610,"i_lat":-6.209883,"time":4,"station_name":"Manggarai","transit":true},{"station_id":"MTR","station_name":"Matraman","i_long":106.858896,"transit":false,"is_transit":false,"distance":1275,"i_lat":-6.212485,"time":2,"line":1},{"line":1,"i_long":106.86807400000001,"distance":1377,"transit":false,"station_id":"JNG","station_name":"Jatinegara","is_transit":false,"i_lat":-6.215091,"time":8},{"station_id":"KLD","line":1,"distance":3395,"station_name":"Klender","transit":false,"time":3,"i_lat":-6.2135,"is_transit":false,"i_long":106.899548},{"transit":false,"station_id":"BUA","is_transit":false,"i_lat":-6.215568,"station_name":"Buaran","line":1,"i_long":106.922662,"distance":3100,"time":2},{"line":1,"transit":false,"i_long":106.939679,"i_lat":-6.217455,"distance":1305,"station_name":"Klenderbaru","is_transit":false,"station_id":"KLDB","time":1}],[{"station_name":"Bogor","line":2,"i_lat":-6.594596,"transit":false,"i_long":106.790574,"is_transit":false,"time":0,"distance":0,"station_id":"BOO"},{"station_id":"CLT","i_long":106.800016,"station_name":"Cilebut","i_lat":-6.530544,"time":9,"transit":false,"line":2,"is_transit":false,"distance":7514},{"distance":4331,"time":5,"is_transit":false,"transit":false,"i_long":106.792719,"i_lat":-6.493243,"station_name":"Bojonggede","line":2,"station_id":"BJD"},{"distance":5197,"i_long":106.800298,"time":5,"is_transit":false,"transit":false,"i_lat":-6.448811,"station_id":"CTA","line":2,"station_name":"Citayam"},{"time":6,"transit":false,"is_transit":false,"station_name":"Depok","distance":5084,"station_id":"DP","i_lat":-6.405256,"i_long":106.816926,"line":2},{"i_lat":-6.391065,"distance":1584,"time":3,"transit":false,"station_name":"Depokbaru","station_id":"DPB","is_transit":false,"i_long":106.819451,"line":2},{"station_id":"POC","distance":2727,"is_transit":false,"line":2,"station_name":"Pondok Cina","i_lat":-6.369073,"transit":false,"time":4,"i_long":106.831114},{"distance":1109,"transit":false,"station_id":"UI","is_transit":false,"i_long":106.831474,"time":2,"line":2,"station_name":"Univ. Indonesia","i_lat":-6.360749},{"station_id":"UP","distance":2264,"line":2,"time":3,"transit":false,"station_name":"Univ. Pancasila","is_transit":false,"i_long":106.834175,"i_lat":-6.339291},{"time":2,"distance":1029,"transit":false,"station_id":"LNA","is_transit":false,"line":2,"station_name":"Lenteng Agung","i_lat":-6.330363,"i_long":106.832616},{"line":2,"time":3,"is_transit":false,"i_lat":-6.3080680000000005,"distance":2671,"station_id":"TNT","transit":false,"station_name":"Tanjung Barat","i_long":106.838896},{"transit":false,"i_lat":-6.2842400000000005,"i_long":106.843999,"distance":2820,"station_name":"Pasar Minggu","time":4,"station_id":"PSM","is_transit":false,"line":2},{"station_name":"Pasar Minggu Baru","station_id":"PSMB","line":2,"distance":2380,"transit":false,"is_transit":false,"i_lat":-6.263214,"time":2,"i_long":106.851577},{"line":2,"transit":false,"i_long":106.85449,"time":2,"i_lat":-6.255332,"station_name":"Duren Kalibata","is_transit":false,"distance":824,"station_id":"DRN"},{"i_long":106.856607,"transit":false,"distance":1546,"is_transit":false,"station_id":"CW","time":3,"line":2,"station_name":"Cawang","i_lat":-6.242512},{"station_name":"Tebet","is_transit":false,"i_lat":-6.226659,"i_long":106.857948,"line":2,"station_id":"TEB","distance":1230,"time":2,"transit":false},{"is_transit":true,"i_long":106.84912,"line":2,"transit":true,"i_lat":-6.209883,"station_id":"MRI","distance":2610,"station_name":"Manggarai","time":4},{"distance":3186,"transit":false,"station_name":"Sudirman","line":1,"station_id":"SUD","time":4,"is_transit":false,"i_lat":-6.202263,"i_long":106.822649},{"station_name":"Sudirman Baru","is_transit":false,"i_long":106.819881,"distance":280,"line":1,"time":1,"station_id":"SUDB","i_lat":-6.201433,"transit":false},{"i_long":106.816351,"line":1,"transit":false,"station_name":"Karet","station_id":"KAT","i_lat":-6.20132,"distance":471,"time":1,"is_transit":false},{"is_transit":false,"transit":false,"i_lat":-6.185545,"distance":2029,"station_id":"THB","station_name":"Tanah Abang","time":5,"i_long":106.811091,"line":1},{"i_lat":-6.155215,"i_long":106.800832,"line":1,"station_name":"Duri","time":8,"station_id":"DU","transit":false,"is_transit":false,"distance":3632},{"i_lat":-6.144674,"station_name":"Angke","distance":1230,"transit":false,"line":1,"station_id":"AK","is_transit":false,"time":4,"i_long":106.79867},{"i_long":106.826365,"distance":4102,"time":9,"i_lat":-6.132549,"transit":true,"line":4,"station_name":"Kampung Bandan","is_transit":true,"station_id":"KPB"},{"transit":false,"i_long":106.836569,"line":11,"station_name":"Rajawali","station_id":"RJW","is_transit":false,"distance":1444,"i_lat":-6.14505,"time":3},{"transit":false,"station_name":"Kemayoran","station_id":"KMO","line":11,"distance":1901,"is_transit":false,"i_lat":-6.161728,"time":5,"i_long":106.839204},{"i_long":106.84368,"distance":1436,"i_lat":-6.174784,"time":4,"station_id":"PSE","transit":false,"station_name":"Pasar Senen","is_transit":false,"line":11},{"station_id":"GST","i_long":106.850107,"transit":false,"is_transit":false,"distance":1567,"station_name":"Gang Sentiong","line":11,"i_lat":-6.185975,"time":8},{"line":11,"i_lat":-6.193792,"distance":973,"station_name":"Kramat","time":1,"i_long":106.855437,"is_transit":false,"transit":false,"station_id":"KMT"},{"time":2,"station_name":"Pondok Jati","i_long":106.861737,"station_id":"POK","distance":1829,"is_transit":false,"transit":false,"line":11,"i_lat":-6.209188},{"transit":true,"i_lat":-6.215091,"distance":1236,"is_transit":true,"time":9,"line":1,"station_name":"Jatinegara","station_id":"JNG","i_long":106.86807400000001},{"line":1,"station_id":"KLD","i_lat":-6.2135,"transit":false,"is_transit":false,"time":3,"station_name":"Klender","i_long":106.899548,"distance":3395},{"station_id":"BUA","line":1,"i_lat":-6.215568,"transit":false,"station_name":"Buaran","distance":3100,"time":2,"is_transit":false,"i_long":106.922662},{"is_transit":false,"station_name":"Klenderbaru","transit":false,"distance":1305,"i_lat":-6.217455,"i_long":106.939679,"line":1,"station_id":"KLDB","time":1}],[{"is_transit":false,"line":2,"transit":false,"station_id":"BOO","i_lat":-6.594596,"station_name":"Bogor","i_long":106.790574,"time":0,"distance":0},{"time":9,"station_id":"CLT","transit":false,"i_long":106.800016,"distance":7514,"i_lat":-6.530544,"line":2,"is_transit":false,"station_name":"Cilebut"},{"is_transit":false,"i_long":106.792719,"station_id":"BJD","transit":false,"i_lat":-6.493243,"line":2,"station_name":"Bojonggede","distance":4331,"time":5},{"time":5,"station_name":"Citayam","distance":5197,"transit":false,"station_id":"CTA","i_lat":-6.448811,"is_transit":false,"i_long":106.800298,"line":2},{"transit":false,"is_transit":false,"i_lat":-6.405256,"i_long":106.816926,"distance":5084,"station_name":"Depok","time":6,"station_id":"DP","line":2},{"is_transit":false,"i_lat":-6.391065,"station_name":"Depokbaru","station_id":"DPB","i_long":106.819451,"line":2,"distance":1584,"time":3,"transit":false},{"line":2,"is_transit":false,"transit":false,"time":4,"distance":2727,"i_long":106.831114,"i_lat":-6.369073,"station_name":"Pondok Cina","station_id":"POC"},{"distance":1109,"time":2,"transit":false,"is_transit":false,"line":2,"station_id":"UI","i_long":106.831474,"station_name":"Univ. Indonesia","i_lat":-6.360749},{"i_long":106.834175,"line":2,"station_id":"UP","time":3,"is_transit":false,"i_lat":-6.339291,"distance":2264,"station_name":"Univ. Pancasila","transit":false},{"i_long":106.832616,"station_id":"LNA","line":2,"transit":false,"station_name":"Lenteng Agung","i_lat":-6.330363,"is_transit":false,"distance":1029,"time":2},{"i_long":106.838896,"station_name":"Tanjung Barat","line":2,"distance":2671,"transit":false,"time":3,"station_id":"TNT","is_transit":false,"i_lat":-6.3080680000000005},{"i_long":106.843999,"station_name":"Pasar Minggu","is_transit":false,"i_lat":-6.2842400000000005,"line":2,"time":4,"distance":2820,"station_id":"PSM","transit":false},{"i_long":106.851577,"line":2,"station_name":"Pasar Minggu Baru","is_transit":false,"distance":2380,"transit":false,"i_lat":-6.263214,"time":2,"station_id":"PSMB"},{"station_id":"DRN","station_name":"Duren Kalibata","transit":false,"i_long":106.85449,"distance":824,"is_transit":false,"time":2,"i_lat":-6.255332,"line":2},{"i_lat":-6.242512,"line":2,"distance":1546,"transit":false,"station_id":"CW","is_transit":false,"i_long":106.856607,"station_name":"Cawang","time":3},{"station_id":"TEB","line":2,"i_lat":-6.226659,"transit":false,"is_transit":false,"station_name":"Tebet","i_long":106.857948,"time":2,"distance":1230},{"i_lat":-6.209883,"transit":false,"distance":2610,"time":4,"station_name":"Manggarai","line":2,"i_long":106.84912,"is_transit":false,"station_id":"MRI"},{"time":4,"distance":1590,"is_transit":false,"transit":false,"line":2,"station_id":"CKI","i_long":106.840169,"station_name":"Cikini","i_lat":-6.198556},{"time":3,"station_name":"Gondangdia","station_id":"GDD","is_transit":false,"i_lat":-6.186295,"i_long":106.832183,"line":2,"transit":false,"distance":1750},{"i_long":106.828284,"time":4,"station_name":"Juanda","distance":2015,"transit":false,"is_transit":false,"i_lat":-6.166716,"line":2,"station_id":"JUA"},{"transit":false,"station_id":"SW","distance":1149,"line":2,"time":2,"i_lat":-6.160725,"i_long":106.827103,"is_transit":false,"station_name":"Sawah Besar"},{"is_transit":false,"time":2,"i_long":106.82482,"station_id":"MGB","line":2,"transit":false,"station_name":"Manggabesar","distance":906,"i_lat":-6.149769},{"station_name":"Jayakarta","is_transit":false,"line":2,"station_id":"JAY","time":2,"i_lat":-6.141205,"distance":1080,"i_long":106.820901,"transit":false},{"i_long":106.812439,"i_lat":-6.137569,"line":2,"transit":true,"is_transit":true,"distance":1264,"time":4,"station_id":"JAKK","station_name":"Jakarta Kota"},{"is_transit":true,"line":4,"i_long":106.826365,"i_lat":-6.132549,"station_id":"KPB","transit":true,"distance":1364,"time":3,"station_name":"Kampung Bandan"},{"i_lat":-6.14505,"distance":1444,"station_id":"RJW","line":11,"i_long":106.836569,"transit":false,"time":3,"is_transit":false,"station_name":"Rajawali"},{"station_name":"Kemayoran","i_lat":-6.161728,"is_transit":false,"time":5,"line":11,"i_long":106.839204,"distance":1901,"station_id":"KMO","transit":false},{"line":11,"station_name":"Pasar Senen","transit":false,"station_id":"PSE","distance":1436,"is_transit":false,"time":4,"i_lat":-6.174784,"i_long":106.84368},{"transit":false,"station_name":"Gang Sentiong","line":11,"station_id":"GST","is_transit":false,"i_lat":-6.185975,"distance":1567,"time":8,"i_long":106.850107},{"station_id":"KMT","transit":false,"is_transit":false,"i_long":106.855437,"time":1,"distance":973,"i_lat":-6.193792,"line":11,"station_name":"Kramat"},{"transit":false,"line":11,"time":2,"i_long":106.861737,"station_name":"Pondok Jati","station_id":"POK","is_transit":false,"distance":1829,"i_lat":-6.209188},{"time":9,"line":1,"transit":true,"station_id":"JNG","i_long":106.86807400000001,"station_name":"Jatinegara","i_lat":-6.215091,"is_transit":true,"distance":1236},{"line":1,"time":3,"station_id":"KLD","i_lat":-6.2135,"distance":3395,"transit":false,"is_transit":false,"station_name":"Klender","i_long":106.899548},{"i_long":106.922662,"station_id":"BUA","station_name":"Buaran","transit":false,"i_lat":-6.215568,"time":2,"distance":3100,"is_transit":false,"line":1},{"i_long":106.939679,"transit":false,"distance":1305,"station_id":"KLDB","is_transit":false,"time":1,"station_name":"Klenderbaru","i_lat":-6.217455,"line":1}]]}