{"data":[[{"station_name":"Bogor","station_id":"BOO","is_transit":false,"line":2,"transit":false,"i_lat":-6.594596,"distance":0,"time":0,"i_long":106.790574},{"time":9,"line":2,"i_lat":-6.530544,"station_id":"CLT","is_transit":false,"station_name":"Cilebut","distance":7514,"transit":false,"i_long":106.800016},{"distance":4331,"i_long":106.792719,"i_lat":-6.493243,"line":2,"station_id":"BJD","transit":false,"station_name":"Bojonggede","time":5,"is_transit":false},{"i_lat":-6.448811,"distance":5197,"line":2,"time":5,"transit":false,"station_id":"CTA","i_long":106.800298,"station_name":"Citayam","is_transit":false},{"i_lat":-6.405256,"distance":5084,"i_long":106.816926,"station_id":"DP","is_transit":false,"station_name":"Depok","time":6,"transit":false,"line":2},{"time":3,"distance":1584,"i_long":106.819451,"transit":false,"i_lat":-6.391065,"line":2,"station_name":"Depokbaru","station_id":"DPB","is_transit":false},{"transit":false,"is_transit":false,"time":4,"station_name":"Pondok Cina","distance":2727,"i_lat":-6.369073,"i_long":106.831114,"station_id":"POC","line":2},{"i_long":106.831474,"line":2,"is_transit":false,"time":2,"transit":false,"station_name":"Univ. Indonesia","station_id":"UI","i_lat":-6.360749,"distance":1109},{"line":2,"i_lat":-6.339291,"station_name":"Univ. Pancasila","is_transit":false,"station_id":"UP","time":3,"i_long":106.834175,"transit":false,"distance":2264},{"station_name":"Lenteng Agung","i_long":106.832616,"station_id":"LNA","is_transit":false,"distance":1029,"i_lat":-6.330363,"transit":false,"time":2,"line":2},{"distance":2671,"time":3,"i_long":106.838896,"line":2,"i_lat":-6.3080680000000005,"is_transit":false,"station_id":"TNT","transit":false,"station_name":"Tanjung Barat"},{"station_name":"Pasar Minggu","transit":false,"station_id":"PSM","i_long":106.843999,"line":2,"is_transit":false,"distance":2820,"i_lat":-6.2842400000000005,"time":4},{"time":2,"station_name":"Pasar Minggu Baru","station_id":"PSMB","i_lat":-6.263214,"is_transit":false,"i_long":106.851577,"distance":2380,"line":2,"transit":false},{"i_lat":-6.255332,"i_long":106.85449,"transit":false,"station_id":"DRN","distance":824,"station_name":"Duren Kalibata","time":2,"line":2,"is_transit":false},{"transit":false,"is_transit":false,"time":3,"i_lat":-6.242512,"station_id":"CW","station_name":"Cawang","i_long":106.856607,"distance":1546,"line":2},{"is_transit":false,"distance":1230,"line":2,"transit":false,"i_lat":-6.226659,"i_long":106.857948,"station_name":"Tebet","station_id":"TEB","time":2},{"time":4,"transit":true,"station_id":"MRI","distance":2610,"i_long":106.84912,"i_lat":-6.209883,"station_name":"Manggarai","line":2,"is_transit":true},{"line":1,"distance":1275,"station_name":"Matraman","time":2,"i_lat":-6.212485,"station_id":"MTR","i_long":106.858896,"is_transit":false,"transit":false},{"i_long":106.86807400000001,"station_name":"Jatinegara","station_id":"JNG","distance":1377,"i_lat":-6.215091,"transit":false,"line":1,"is_transit":false,"time":8},{"station_name":"Klender","distance":3395,"is_transit":false,"transit":false,"time":3,"i_lat":-6.2135,"station_id":"KLD","line":1,"i_long":106.899548},{"i_lat":-6.215568,"line":1,"station_id":"BUA","station_name":"Buaran","i_long":106.922662,"is_transit":false,"distance":3100,"transit":false,"time":2},{"station_name":"Klenderbaru","time":1,"i_lat":-6.217455,"transit":false,"is_transit":false,"i_long":106.939679,"distance":1305,"line":1,"station_id":"KLDB"},{"distance":1385,"is_transit":false,"transit":false,"time":8,"i_lat":-6.219053,"line":1,"station_id":"CUK","station_name":"Cakung","i_long":106.951283},{"i_long":106.977657,"transit":false,"time":3,"distance":3097,"is_transit":false,"line":1,"station_name":"Kranji","station_id":"KRI","i_lat":-6.224515},{"distance":2520,"transit":false,"is_transit":false,"time":4,"i_lat":-6.236616,"station_id":"BKS","i_long":106.997013,"station_name":"Bekasi","line":1},{"i_lat":-6.248029,"distance":2368,"i_long":107.016735,"time":2,"transit":false,"is_transit":false,"line":1,"station_id":"BKST","station_name":"Bekasi Timur"},{"transit":false,"is_transit":false,"station_name":"Tambun","station_id":"TB","i_lat":-6.258864,"line":1,"distance":4460,"time":7,"i_long":107.055722},{"transit":false,"station_name":"Cibitung","distance":3420,"time":3,"i_long":107.083084,"i_lat":-6.261877,"line":1,"station_id":"CIT","is_transit":false},{"is_transit":false,"i_long":107.093313,"line":1,"time":2,"i_lat":-6.262938,"station_id":"TLM","transit":false,"station_name":"Metland Telaga Murni","distance":2800},{"i_long":107.144613,"station_name":"Cikarang","station_id":"CKR","distance":3689,"transit":false,"i_lat":-6.2553149999999995,"line":1,"time":4,"is_transit":false}],[{"distance":0,"i_long":106.790574,"station_id":"BOO","transit":false,"station_name":"Bogor","time":0,"i_lat":-6.594596,"line":2,"is_transit":false},{"station_name":"Cilebut","station_id":"CLT","i_lat":-6.530544,"time":9,"transit":false,"distance":7514,"line":2,"is_transit":false,"i_long":106.800016},{"station_name":"Bojonggede","transit":false,"line":2,"station_id":"BJD","i_lat":-6.493243,"is_transit":false,"time":5,"distance":4331,"i_long":106.792719},{"i_lat":-6.448811,"distance":5197,"station_id":"CTA","time":5,"i_long":106.800298,"line":2,"is_transit":false,"transit":false,"station_name":"Citayam"},{"is_transit":false,"time":6,"i_lat":-6.405256,"station_id":"DP","transit":false,"station_name":"Depok","distance":5084,"i_long":106.816926,"line":2},{"line":2,"is_transit":false,"station_name":"Depokbaru","station_id":"DPB","transit":false,"i_long":106.819451,"i_lat":-6.391065,"time":3,"distance":1584},{"distance":2727,"transit":false,"time":4,"line":2,"station_name":"Pondok Cina","i_long":106.831114,"is_transit":false,"i_lat":-6.369073,"station_id":"POC"},{"station_name":"Univ. Indonesia","i_lat":-6.360749,"station_id":"UI","is_transit":false,"line":2,"transit":false,"distance":1109,"time":2,"i_long":106.831474},{"is_transit":false,"i_long":106.834175,"station_id":"UP","distance":2264,"line":2,"time":3,"station_name":"Univ. Pancasila","transit":false,"i_lat":-6.339291},{"station_id":"LNA","time":2,"distance":1029,"transit":false,"station_name":"Lenteng Agung","i_lat":-6.330363,"line":2,"i_long":106.832616,"is_transit":false},{"transit":false,"station_id":"TNT","station_name":"Tanjung Barat","is_transit":false,"i_lat":-6.3080680000000005,"time":3,"distance":2671,"i_long":106.838896,"line":2},{"i_long":106.843999,"time":4,"station_name":"Pasar Minggu","distance":2820,"line":2,"station_id":"PSM","is_transit":false,"i_lat":-6.2842400000000005,"transit":false},{"transit":false,"station_name":"Pasar Minggu Baru","line":2,"distance":2380,"time":2,"i_long":106.851577,"station_id":"PSMB","is_transit":false,"i_lat":-6.263214},{"station_id":"DRN","i_long":106.85449,"line":2,"transit":false,"is_transit":false,"distance":824,"i_lat":-6.255332,"station_name":"Duren Kalibata","time":2},{"i_lat":-6.242512,"line":2,"station_id":"CW","station_name":"Cawang","time":3,"distance":1546,"is_transit":false,"transit":false,"i_long":106.856607},{"line":2,"transit":false,"station_name":"Tebet","station_id":"TEB","i_lat":-6.226659,"i_long":106.857948,"is_transit":false,"time":2,"distance":1230},{"station_id":"MRI","station_name":"Manggarai","line":2,"is_transit":true,"transit":true,"distance":2610,"i_lat":-6.209883,"time":4,"i_long":106.84912},{"line":1,"distance":3186,"i_lat":-6.202263,"is_transit":false,"time":4,"i_long":106.822649,"station_name":"Sudirman","station_id":"SUD","transit":false},{"station_name":"Sudirman Baru","transit":false,"is_transit":false,"distance":280,"i_long":106.819881,"line":1,"station_id":"SUDB","time":1,"i_lat":-6.201433},{"distance":471,"i_lat":-6.20132,"station_id":"KAT","transit":false,"time":1,"station_name":"Karet","line":1,"i_long":106.816351,"is_transit":false},{"time":5,"distance":2029,"transit":false,"i_lat":-6.185545,"line":1,"i_long":106.811091,"is_transit":false,"station_id":"THB","station_name":"Tanah Abang"},{"station_name":"Duri","transit":false,"distance":3632,"line":1,"i_lat":-6.155215,"station_id":"DU","time":8,"is_transit":false,"i_long":106.800832},{"i_long":106.79867,"transit":false,"is_transit":false,"station_id":"AK","station_name":"Angke","time":4,"i_lat":-6.144674,"line":1,"distance":1230},{"i_lat":-6.132549,"line":4,"station_id":"KPB","is_transit":true,"i_long":106.826365,"time":9,"transit":true,"station_name":"Kampung Bandan","distance":4102},{"distance":1444,"time":3,"transit":false,"i_long":106.836569,"line":11,"station_id":"RJW","station_name":"Rajawali","i_lat":-6.14505,"is_transit":false},{"distance":1901,"line":11,"transit":false,"station_name":"Kemayoran","i_long":106.839204,"station_id":"KMO","time":5,"is_transit":false,"i_lat":-6.161728},{"line":11,"transit":false,"station_name":"Pasar Senen","distance":1436,"is_transit":false,"station_id":"PSE","time":4,"i_lat":-6.174784,"i_long":106.84368},{"time":8,"line":11,"transit":false,"i_lat":-6.185975,"station_name":"Gang Sentiong","distance":1567,"station_id":"GST","i_long":106.850107,"is_transit":false},{"is_transit":false,"transit":false,"time":1,"station_name":"Kramat","station_id":"KMT","line":11,"i_lat":-6.193792,"i_long":106.855437,"distance":973},{"i_long":106.861737,"i_lat":-6.209188,"transit":false,"station_name":"Pondok Jati","station_id":"POK","is_transit":false,"time":2,"line":11,"distance":1829},{"i_lat":-6.215091,"i_long":106.86807400000001,"station_id":"JNG","is_transit":true,"time":9,"distance":1236,"station_name":"Jatinegara","transit":true,"line":1},{"distance":3395,"transit":false,"station_name":"Klender","line":1,"is_transit":false,"station_id":"KLD","time":3,"i_lat":-6.2135,"i_long":106.899548},{"station_id":"BUA","transit":false,"distance":3100,"line":1,"i_long":106.922662,"i_lat":-6.215568,"is_transit":false,"time":2,"station_name":"Buaran"},{"station_id":"KLDB","line":1,"i_long":106.939679,"distance":1305,"transit":false,"station_name":"Klenderbaru","is_transit":false,"time":1,"i_lat":-6.217455},{"station_name":"Cakung","time":8,"is_transit":false,"transit":false,"line":1,"i_lat":-6.219053,"i_long":106.951283,"station_id":"CUK","distance":1385},{"time":3,"i_long":106.977657,"line":1,"i_lat":-6.224515,"station_name":"Kranji","distance":3097,"station_id":"KRI","transit":false,"is_transit":false},{"line":1,"transit":false,"is_transit":false,"i_lat":-6.236616,"station_name":"Bekasi","distance":2520,"time":4,"i_long":106.997013,"station_id":"BKS"},{"transit":false,"station_name":"Bekasi Timur","station_id":"BKST","time":2,"distance":2368,"i_long":107.016735,"i_lat":-6.248029,"is_transit":false,"line":1},{"transit":false,"i_long":107.055722,"time":7,"station_id":"TB","i_lat":-6.258864,"station_name":"Tambun","distance":4460,"is_transit":false,"line":1},{"station_name":"Cibitung","is_transit":false,"time":3,"station_id":"CIT","line":1,"distance":3420,"i_lat":-6.261877,"i_long":107.083084,"transit":false},{"station_id":"TLM","station_name":"Metland Telaga Murni","is_transit":false,"transit":false,"distance":2800,"line":1,"i_lat":-6.262938,"time":2,"i_long":107.093313},{"transit":false,"station_name":"Cikarang","time":4,"station_id":"CKR","distance":3689,"i_lat":-6.2553149999999995,"is_transit":false,"i_long":107.144613,"line":1}],[{"transit":false,"is_transit":false,"station_id":"BOO","time":0,"i_long":106.790574,"distance":0,"i_lat":-6.594596,"station_name":"Bogor","line":2},{"i_lat":-6.530544,"i_long":106.800016,"line":2,"time":9,"station_name":"Cilebut","transit":false,"station_id":"CLT","is_transit":false,"distance":7514},{"line":2,"distance":4331,"is_transit":false,"i_long":106.792719,"station_id":"BJD","transit":false,"station_name":"Bojonggede","time":5,"i_lat":-6.493243},{"transit":false,"station_id":"CTA","is_transit":false,"time":5,"distance":5197,"i_lat":-6.448811,"line":2,"station_name":"Citayam","i_long":106.800298},{"i_long":106.816926,"transit":false,"station_id":"DP","distance":5084,"i_lat":-6.405256,"time":6,"station_name":"Depok","is_transit":false,"line":2},{"is_transit":false,"station_name":"Depokbaru","distance":1584,"i_long":106.819451,"line":2,"station_id":"DPB","transit":false,"time":3,"i_lat":-6.391065},{"station_id":"POC","time":4,"i_long":106.831114,"line":2,"transit":false,"is_transit":false,"distance":2727,"i_lat":-6.369073,"station_name":"Pondok Cina"},{"time":2,"transit":false,"station_id":"UI","i_lat":-6.360749,"i_long":106.831474,"is_transit":false,"station_name":"Univ. Indonesia","distance":1109,"line":2},{"distance":2264,"is_transit":false,"i_lat":-6.339291,"station_name":"Univ. Pancasila","transit":false,"time":3,"i_long":106.834175,"station_id":"UP","line":2},{"i_long":106.832616,"is_transit":false,"i_lat":-6.330363,"station_name":"Lenteng Agung","station_id":"LNA","distance":1029,"line":2,"transit":false,"time":2},{"transit":false,"line":2,"distance":2671,"is_transit":false,"station_name":"Tanjung Barat","i_lat":-6.3080680000000005,"time":3,"i_long":106.838896,"station_id":"TNT"},{"i_long":106.843999,"distance":2820,"transit":false,"station_id":"PSM","line":2,"station_name":"Pasar Minggu","is_transit":false,"i_lat":-6.2842400000000005,"time":4},{"i_lat":-6.263214,"distance":2380,"station_name":"Pasar Minggu Baru","line":2,"is_transit":false,"station_id":"PSMB","i_long":106.851577,"transit":false,"time":2},{"transit":false,"station_id":"DRN","time":2,"station_name":"Duren Kalibata","distance":824,"line":2,"i_lat":-6.255332,"is_transit":false,"i_long":106.85449},{"distance":1546,"transit":false,"line":2,"i_lat":-6.242512,"station_name":"Cawang","is_transit":false,"time":3,"i_long":106.856607,"station_id":"CW"},{"station_id":"TEB","line":2,"is_transit":false,"transit":false,"time":2,"station_name":"Tebet","distance":1230,"i_long":106.857948,"i_lat":-6.226659},{"transit":false,"i_long":106.84912,"station_name":"Manggarai","time":4,"i_lat":-6.209883,"is_transit":false,"distance":2610,"line":2,"station_id":"MRI"},{"transit":false,"i_long":106.840169,"is_transit":false,"i_lat":-6.198556,"station_id":"CKI","station_name":"Cikini","line":2,"distance":1590,"time":4},{"is_transit":false,"time":3,"i_lat":-6.186295,"transit":false,"station_name":"Gondangdia","station_id":"GDD","i_long":106.832183,"distance":1750,"line":2},{"distance":2015,"transit":false,"i_long":106.828284,"i_lat":-6.166716,"line":2,"is_transit":false,"time":4,"station_name":"Juanda","station_id":"JUA"},{"i_lat":-6.160725,"station_name":"Sawah Besar","is_transit":false,"distance":1149,"transit":false,"line":2,"i_long":106.827103,"time":2,"station_id":"SW"},{"time":2,"station_name":"Manggabesar","is_transit":false,"distance":906,"i_lat":-6.149769,"transit":false,"i_long":106.82482,"station_id":"MGB","line":2},{"is_transit":false,"station_id":"JAY","i_long":106.820901,"time":2,"distance":1080,"i_lat":-6.141205,"line":2,"transit":false,"station_name":"Jayakarta"},{"station_id":"JAKK","i_lat":-6.137569,"i_long":106.812439,"distance":1264,"is_transit":true,"time":4,"station_name":"Jakarta Kota","transit":true,"line":2},{"time":3,"station_id":"KPB","station_name":"Kampung Bandan","is_transit":true,"transit":true,"i_long":106.826365,"line":4,"distance":1364,"i_lat":-6.132549},{"station_name":"Rajawali","is_transit":false,"time":3,"i_lat":-6.14505,"transit":false,"line":11,"station_id":"RJW","i_long":106.836569,"distance":1444},{"transit":false,"station_name":"Kemayoran","station_id":"KMO","is_transit":false,"distance":1901,"i_lat":-6.161728,"time":5,"i_long":106.839204,"line":11},{"time":4,"i_long":106.84368,"distance":1436,"is_transit":false,"i_lat":-6.174784,"line":11,"transit":false,"station_name":"Pasar Senen","station_id":"PSE"},{"station_name":"Gang Sentiong","i_long":106.850107,"is_transit":false,"distance":1567,"time":8,"transit":false,"i_lat":-6.185975,"station_id":"GST","line":11},{"line":11,"distance":973,"i_lat":-6.193792,"transit":false,"time":1,"station_name":"Kramat","station_id":"KMT","is_transit":false,"i_long":106.855437},{"time":2,"is_transit":false,"station_name":"Pondok Jati","distance":1829,"i_long":106.861737,"i_lat":-6.209188,"line":11,"transit":false,"station_id":"POK"},{"station_name":"Jatinegara","station_id":"JNG","is_transit":true,"i_long":106.86807400000001,"time":9,"i_lat":-6.215091,"line":1,"distance":1236,"transit":true},{"distance":3395,"station_name":"Klender","time":3,"is_transit":false,"i_long":106.899548,"transit":false,"station_id":"KLD","line":1,"i_lat":-6.2135},{"distance":3100,"time":2,"transit":false,"station_id":"BUA","is_transit":false,"i_long":106.922662,"i_lat":-6.215568,"line":1,"station_name":"Buaran"},{"distance":1305,"i_lat":-6.217455,"time":1,"transit":false,"line":1,"station_id":"KLDB","is_transit":false,"station_name":"Klenderbaru","i_long":106.939679},{"distance":1385,"station_name":"Cakung","line":1,"station_id":"CUK","i_lat":-6.219053,"time":8,"transit":false,"is_transit":false,"i_long":106.951283},{"is_transit":false,"distance":3097,"station_id":"KRI","transit":false,"station_name":"Kranji","time":3,"i_lat":-6.224515,"i_long":106.977657,"line":1},{"i_long":106.997013,"station_name":"Bekasi","transit":false,"distance":2520,"line":1,"station_id":"BKS","i_lat":-6.236616,"is_transit":false,"time":4},{"is_transit":false,"transit":false,"line":1,"time":2,"i_lat":-6.248029,"i_long":107.016735,"station_id":"BKST","station_name":"Bekasi Timur","distance":2368},{"time":7,"i_long":107.055722,"station_id":"TB","station_name":"Tambun","transit":false,"is_transit":false,"i_lat":-6.258864,"line":1,"distance":4460},{"station_id":"CIT","transit":false,"line":1,"distance":3420,"time":3,"i_long":107.083084,"i_lat":-6.261877,"station_name":"Cibitung","is_transit":false},{"is_transit":false,"i_lat":-6.262938,"i_long":107.093313,"station_id":"TLM","station_name":"Metland Telaga Murni","distance":2800,"transit":false,"line":1,"time":2},{"i_lat":-6.2553149999999995,"time":4,"transit":false,"station_name":"Cikarang","line":1,"distance":3689,"station_id":"CKR","is_transit":false,"i_long":107.144613}]]}