{"data":[[{"is_transit":false,"time":0,"i_long":106.790574,"station_id":"BOO","station_name":"Bogor","line":2,"distance":0,"transit":false,"i_lat":-6.594596},{"i_long":106.800016,"time":9,"station_name":"Cilebut","station_id":"CLT","line":2,"is_transit":false,"distance":7514,"transit":false,"i_lat":-6.530544},{"line":2,"transit":false,"time":5,"station_name":"Bojonggede","i_lat":-6.493243,"distance":4331,"is_transit":false,"station_id":"BJD","i_long":106.792719},{"i_lat":-6.448811,"time":5,"station_name":"Citayam","i_long":106.800298,"line":2,"distance":5197,"transit":false,"is_transit":false,"station_id":"CTA"},{"station_id":"DP","line":2,"i_long":106.816926,"station_name":"Depok","i_lat":-6.405256,"time":6,"is_transit":false,"transit":false,"distance":5084},{"transit":false,"time":3,"station_id":"DPB","distance":1584,"line":2,"i_long":106.819451,"station_name":"Depokbaru","is_transit":false,"i_lat":-6.391065},{"station_name":"Pondok Cina","distance":2727,"transit":false,"station_id":"POC","i_lat":-6.369073,"time":4,"i_long":106.831114,"is_transit":false,"line":2},{"station_name":"Univ. Indonesia","station_id":"UI","distance":1109,"i_long":106.831474,"is_transit":false,"time":2,"i_lat":-6.360749,"line":2,"transit":false},{"station_name":"Univ. Pancasila","i_lat":-6.339291,"station_id":"UP","time":3,"line":2,"i_long":106.834175,"distance":2264,"is_transit":false,"transit":false},{"station_id":"LNA","time":2,"station_name":"Lenteng Agung","i_lat":-6.330363,"transit":false,"distance":1029,"line":2,"i_long":106.832616,"is_transit":false},{"i_long":106.838896,"line":2,"time":3,"station_id":"TNT","station_name":"Tanjung Barat","is_transit":false,"i_lat":-6.3080680000000005,"distance":2671,"transit":false},{"i_lat":-6.2842400000000005,"is_transit":false,"station_id":"PSM","time":4,"line":2,"distance":2820,"station_name":"Pasar Minggu","i_long":106.843999,"transit":false},{"station_name":"Pasar Minggu Baru","i_long":106.851577,"time":2,"is_transit":false,"i_lat":-6.263214,"transit":false,"line":2,"distance":2380,"station_id":"PSMB"},{"station_name":"Duren Kalibata","distance":824,"transit":false,"i_lat":-6.255332,"i_long":106.85449,"time":2,"line":2,"is_transit":false,"station_id":"DRN"},{"is_transit":false,"i_long":106.856607,"station_id":"CW","line":2,"distance":1546,"time":3,"station_name":"Cawang","transit":false,"i_lat":-6.242512},{"transit":false,"station_name":"Tebet","station_id":"TEB","distance":1230,"is_transit":false,"i_long":106.857948,"time":2,"i_lat":-6.226659,"line":2},{"station_name":"Manggarai","line":2,"distance":2610,"is_transit":true,"i_lat":-6.209883,"station_id":"MRI","transit":true,"i_long":106.84912,"time":4},{"distance":1275,"i_lat":-6.212485,"i_long":106.858896,"line":1,"station_id":"MTR","is_transit":false,"transit":false,"station_name":"Matraman","time":2},{"time":8,"i_long":106.86807400000001,"transit":false,"i_lat":-6.215091,"station_id":"JNG","is_transit":false,"station_name":"Jatinegara","distance":1377,"line":1},{"is_transit":false,"time":3,"transit":false,"station_id":"KLD","distance":3395,"line":1,"i_lat":-6.2135,"station_name":"Klender","i_long":106.899548},{"distance":3100,"i_long":106.922662,"is_transit":false,"station_name":"Buaran","i_lat":-6.215568,"time":2,"transit":false,"station_id":"BUA","line":1},{"is_transit":false,"transit":false,"time":1,"station_name":"Klenderbaru","i_lat":-6.217455,"line":1,"station_id":"KLDB","distance":1305,"i_long":106.939679}],[{"i_lat":-6.594596,"time":0,"transit":false,"is_transit":false,"i_long":106.790574,"distance":0,"station_name":"Bogor","line":2,"station_id":"BOO"},{"station_id":"CLT","time":9,"i_lat":-6.530544,"transit":false,"station_name":"Cilebut","distance":7514,"i_long":106.800016,"line":2,"is_transit":false},{"i_long":106.792719,"station_id":"BJD","distance":4331,"time":5,"is_transit":false,"i_lat":-6.493243,"station_name":"Bojonggede","transit":false,"line":2},{"distance":5197,"is_transit":false,"i_long":106.800298,"station_id":"CTA","line":2,"i_lat":-6.448811,"time":5,"station_name":"Citayam","transit":false},{"i_lat":-6.405256,"time":6,"transit":false,"is_transit":false,"station_name":"Depok","station_id":"DP","distance":5084,"line":2,"i_long":106.816926},{"i_long":106.819451,"transit":false,"is_transit":false,"i_lat":-6.391065,"distance":1584,"station_name":"Depokbaru","station_id":"DPB","line":2,"time":3},{"is_transit":false,"time":4,"distance":2727,"i_lat":-6.369073,"i_long":106.831114,"transit":false,"station_name":"Pondok Cina","station_id":"POC","line":2},{"i_lat":-6.360749,"i_long":106.831474,"station_id":"UI","time":2,"transit":false,"distance":1109,"line":2,"is_transit":false,"station_name":"Univ. Indonesia"},{"station_id":"UP","transit":false,"is_transit":false,"time":3,"distance":2264,"i_lat":-6.339291,"i_long":106.834175,"line":2,"station_name":"Univ. Pancasila"},{"station_id":"LNA","i_long":106.832616,"i_lat":-6.330363,"station_name":"Lenteng Agung","is_transit":false,"line":2,"distance":1029,"time":2,"transit":false},{"is_transit":false,"station_name":"Tanjung Barat","i_lat":-6.3080680000000005,"time":3,"station_id":"TNT","line":2,"transit":false,"distance":2671,"i_long":106.838896},{"transit":false,"station_id":"PSM","is_transit":false,"station_name":"Pasar Minggu","distance":2820,"i_lat":-6.2842400000000005,"i_long":106.843999,"line":2,"time":4},{"station_id":"PSMB","line":2,"i_long":106.851577,"distance":2380,"transit":false,"is_transit":false,"station_name":"Pasar Minggu Baru","i_lat":-6.263214,"time":2},{"station_name":"Duren Kalibata","line":2,"i_long":106.85449,"i_lat":-6.255332,"station_id":"DRN","time":2,"distance":824,"transit":false,"is_transit":false},{"time":3,"station_name":"Cawang","line":2,"i_long":106.856607,"transit":false,"i_lat":-6.242512,"station_id":"CW","is_transit":false,"distance":1546},{"station_id":"TEB","time":2,"i_long":106.857948,"i_lat":-6.226659,"is_transit":false,"line":2,"station_name":"Tebet","distance":1230,"transit":false},{"station_name":"Manggarai","i_long":106.84912,"transit":true,"is_transit":true,"time":4,"station_id":"MRI","i_lat":-6.209883,"line":2,"distance":2610},{"line":1,"is_transit":false,"time":4,"station_name":"Sudirman","station_id":"SUD","transit":false,"distance":3186,"i_long":106.822649,"i_lat":-6.202263},{"is_transit":false,"transit":false,"time":1,"i_lat":-6.201433,"distance":280,"i_long":106.819881,"station_id":"SUDB","station_name":"Sudirman Baru","line":1},{"distance":471,"time":1,"station_name":"Karet","i_lat":-6.20132,"is_transit":false,"i_long":106.816351,"transit":false,"line":1,"station_id":"KAT"},{"station_id":"THB","i_lat":-6.185545,"station_name":"Tanah Abang","distance":2029,"time":5,"line":1,"i_long":106.811091,"is_transit":false,"transit":false},{"transit":false,"i_lat":-6.155215,"time":8,"distance":3632,"is_transit":false,"station_name":"Duri","i_long":106.800832,"station_id":"DU","line":1},{"station_id":"AK","i_long":106.79867,"line":1,"transit":false,"station_name":"Angke","i_lat":-6.144674,"distance":1230,"is_transit":false,"time":4},{"line":4,"distance":4102,"i_long":106.826365,"transit":true,"i_lat":-6.132549,"station_id":"KPB","station_name":"Kampung Bandan","is_transit":true,"time":9},{"time":3,"i_long":106.836569,"station_name":"Rajawali","transit":false,"is_transit":false,"distance":1444,"i_lat":-6.14505,"station_id":"RJW","line":11},{"line":11,"is_transit":false,"i_lat":-6.161728,"i_long":106.839204,"transit":false,"station_name":"Kemayoran","station_id":"KMO","time":5,"distance":1901},{"i_long":106.84368,"station_name":"Pasar Senen","is_transit":false,"station_id":"PSE","i_lat":-6.174784,"distance":1436,"time":4,"line":11,"transit":false},{"station_id":"GST","i_long":106.850107,"i_lat":-6.185975,"is_transit":false,"time":8,"distance":1567,"line":11,"transit":false,"station_name":"Gang Sentiong"},{"is_transit":false,"i_long":106.855437,"transit":false,"distance":973,"i_lat":-6.193792,"line":11,"time":1,"station_id":"KMT","station_name":"Kramat"},{"station_id":"POK","time":2,"distance":1829,"is_transit":false,"transit":false,"i_lat":-6.209188,"i_long":106.861737,"line":11,"station_name":"Pondok Jati"},{"i_lat":-6.215091,"time":9,"station_name":"Jatinegara","is_transit":true,"distance":1236,"i_long":106.86807400000001,"station_id":"JNG","line":1,"transit":true},{"time":3,"i_lat":-6.2135,"transit":false,"station_name":"Klender","distance":3395,"is_transit":false,"i_long":106.899548,"line":1,"station_id":"KLD"},{"distance":3100,"time":2,"is_transit":false,"station_id":"BUA","i_lat":-6.215568,"i_long":106.922662,"line":1,"transit":false,"station_name":"Buaran"},{"line":1,"transit":false,"time":1,"distance":1305,"i_long":106.939679,"station_id":"KLDB","i_lat":-6.217455,"is_transit":false,"station_name":"Klenderbaru"}],[{"station_id":"BOO","is_transit":false,"i_long":106.790574,"station_name":"Bogor","distance":0,"line":2,"transit":false,"i_lat":-6.594596,"time":0},{"station_id":"CLT","is_transit":false,"transit":false,"distance":7514,"i_lat":-6.530544,"i_long":106.800016,"station_name":"Cilebut","line":2,"time":9},{"i_lat":-6.493243,"time":5,"transit":false,"line":2,"station_id":"BJD","station_name":"Bojonggede","distance":4331,"is_transit":false,"i_long":106.792719},{"station_name":"Citayam","transit":false,"is_transit":false,"line":2,"station_id":"CTA","distance":5197,"i_lat":-6.448811,"time":5,"i_long":106.800298},{"distance":5084,"station_name":"Depok","station_id":"DP","line":2,"i_lat":-6.405256,"time":6,"i_long":106.816926,"transit":false,"is_transit":false},{"is_transit":false,"i_lat":-6.391065,"station_name":"Depokbaru","i_long":106.819451,"distance":1584,"line":2,"time":3,"station_id":"DPB","transit":false},{"distance":2727,"station_name":"Pondok Cina","time":4,"i_long":106.831114,"line":2,"station_id":"POC","is_transit":false,"transit":false,"i_lat":-6.369073},{"time":2,"transit":false,"station_name":"Univ. Indonesia","station_id":"UI","distance":1109,"line":2,"i_lat":-6.360749,"i_long":106.831474,"is_transit":false},{"i_lat":-6.339291,"line":2,"transit":false,"time":3,"i_long":106.834175,"station_id":"UP","station_name":"Univ. Pancasila","is_transit":false,"distance":2264},{"distance":1029,"i_long":106.832616,"station_name":"Lenteng Agung","transit":false,"time":2,"is_transit":false,"i_lat":-6.330363,"station_id":"LNA","line":2},{"is_transit":false,"distance":2671,"line":2,"i_lat":-6.3080680000000005,"time":3,"transit":false,"station_name":"Tanjung Barat","station_id":"TNT","i_long":106.838896},{"time":4,"is_transit":false,"station_id":"PSM","distance":2820,"i_long":106.843999,"i_lat":-6.2842400000000005,"transit":false,"station_name":"Pasar Minggu","line":2},{"transit":false,"line":2,"station_name":"Pasar Minggu Baru","station_id":"PSMB","i_long":106.851577,"is_transit":false,"distance":2380,"i_lat":-6.263214,"time":2},{"station_id":"DRN","i_lat":-6.255332,"distance":824,"is_transit":false,"station_name":"Duren Kalibata","transit":false,"line":2,"time":2,"i_long":106.85449},{"i_long":106.856607,"transit":false,"is_transit":false,"distance":1546,"i_lat":-6.242512,"station_id":"CW","line":2,"time":3,"station_name":"Cawang"},{"distance":1230,"transit":false,"line":2,"station_id":"TEB","i_lat":-6.226659,"time":2,"station_name":"Tebet","i_long":106.857948,"is_transit":false},{"is_transit":false,"i_lat":-6.209883,"transit":false,"station_name":"Manggarai","line":2,"distance":2610,"station_id":"MRI","i_long":106.84912,"time":4},{"time":4,"is_transit":false,"station_id":"CKI","distance":1590,"line":2,"transit":false,"i_long":106.840169,"i_lat":-6.198556,"station_name":"Cikini"},{"time":3,"station_name":"Gondangdia","distance":1750,"is_transit":false,"i_lat":-6.186295,"station_id":"GDD","i_long":106.832183,"line":2,"transit":false},{"time":4,"distance":2015,"transit":false,"line":2,"is_transit":false,"station_name":"Juanda","i_long":106.828284,"station_id":"JUA","i_lat":-6.166716},{"transit":false,"i_long":106.827103,"i_lat":-6.160725,"station_name":"Sawah Besar","time":2,"distance":1149,"station_id":"SW","is_transit":false,"line":2},{"time":2,"line":2,"distance":906,"is_transit":false,"station_name":"Manggabesar","i_lat":-6.149769,"station_id":"MGB","i_long":106.82482,"transit":false},{"line":2,"i_long":106.820901,"distance":1080,"station_name":"Jayakarta","transit":false,"is_transit":false,"station_id":"JAY","time":2,"i_lat":-6.141205},{"transit":true,"station_id":"JAKK","time":4,"i_long":106.812439,"distance":1264,"is_transit":true,"i_lat":-6.137569,"line":2,"station_name":"Jakarta Kota"},{"station_id":"KPB","transit":true,"distance":1364,"i_lat":-6.132549,"is_transit":true,"line":4,"i_long":106.826365,"time":3,"station_name":"Kampung Bandan"},{"line":11,"i_lat":-6.14505,"station_name":"Rajawali","time":3,"station_id":"RJW","distance":1444,"i_long":106.836569,"is_transit":false,"transit":false},{"transit":false,"time":5,"i_long":106.839204,"i_lat":-6.161728,"is_transit":false,"station_name":"Kemayoran","line":11,"distance":1901,"station_id":"KMO"},{"time":4,"is_transit":false,"station_name":"Pasar Senen","station_id":"PSE","distance":1436,"i_long":106.84368,"transit":false,"line":11,"i_lat":-6.174784},{"transit":false,"i_long":106.850107,"station_id":"GST","distance":1567,"is_transit":false,"station_name":"Gang Sentiong","line":11,"time":8,"i_lat":-6.185975},{"distance":973,"line":11,"time":1,"station_name":"Kramat","i_lat":-6.193792,"transit":false,"station_id":"KMT","i_long":106.855437,"is_transit":false},{"is_transit":false,"station_id":"POK","i_lat":-6.209188,"time":2,"station_name":"Pondok Jati","distance":1829,"line":11,"transit":false,"i_long":106.861737},{"station_id":"JNG","is_transit":true,"time":9,"station_name":"Jatinegara","distance":1236,"transit":true,"line":1,"i_lat":-6.215091,"i_long":106.86807400000001},{"is_transit":false,"station_id":"KLD","station_name":"Klender","i_lat":-6.2135,"line":1,"distance":3395,"i_long":106.899548,"transit":false,"time":3},{"line":1,"i_long":106.922662,"station_name":"Buaran","station_id":"BUA","time":2,"transit":false,"is_transit":false,"distance":3100,"i_lat":-6.215568},{"i_lat":-6.217455,"distance":1305,"line":1,"is_transit":false,"time":1,"station_name":"Klenderbaru","station_id":"KLDB","transit":false,"i_long":106.939679}]]}