{"data":[[{"i_lat":-6.594596,"line":1,"time":0,"i_long":106.790574,"station_name":"Bogor","station_id":"BOO","is_transit":true,"distance":0,"transit":false},{"transit":false,"line":0,"is_transit":false,"station_id":"CLT","distance":7514,"station_name":"Cilebut","time":9,"i_lat":-6.530544,"i_long":106.800016},{"i_lat":-6.493243,"i_long":106.792719,"distance":4331,"transit":false,"line":0,"station_name":"Bojonggede","station_id":"BJD","is_transit":false,"time":5},{"i_long":106.800298,"is_transit":true,"transit":false,"i_lat":-6.448811,"distance":5197,"time":5,"line":1,"station_id":"CTA","station_name":"Citayam"},{"station_id":"DP","transit":false,"line":0,"i_lat":-6.405256,"time":6,"is_transit":false,"station_name":"Depok","distance":5084,"i_long":106.816926},{"line":0,"station_id":"DPB","distance":1584,"i_lat":-6.391065,"is_transit":false,"time":3,"station_name":"Depokbaru","transit":false,"i_long":106.819451},{"time":4,"line":2,"distance":2727,"station_name":"Pondok Cina","i_long":106.831114,"transit":false,"i_lat":-6.369073,"is_transit":false,"station_id":"POC"},{"is_transit":false,"transit":false,"station_name":"Univ. Indonesia","time":2,"distance":1109,"i_lat":-6.360749,"i_long":106.831474,"line":2,"station_id":"UI"},{"is_transit":false,"line":2,"i_lat":-6.339291,"transit":false,"time":3,"station_name":"Univ. Pancasila","station_id":"UP","distance":2264,"i_long":106.834175},{"i_lat":-6.330363,"i_long":106.832616,"station_name":"Lenteng Agung","is_transit":false,"time":2,"distance":1029,"line":2,"transit":false,"station_id":"LNA"},{"i_lat":-6.3080680000000005,"time":3,"station_id":"TNT","is_transit":false,"transit":false,"distance":2671,"i_long":106.838896,"line":2,"station_name":"Tanjung Barat"},{"station_id":"PSM","station_name":"Pasar Minggu","distance":2820,"i_lat":-6.2842400000000005,"time":4,"transit":false,"i_long":106.843999,"is_transit":false,"line":2},{"station_id":"PSMB","i_long":106.851577,"i_lat":-6.263214,"is_transit":false,"distance":2380,"station_name":"Pasar Minggu Baru","time":2,"transit":false,"line":2},{"station_id":"DRN","station_name":"Duren Kalibata","transit":false,"line":0,"i_long":106.85449,"distance":824,"is_transit":false,"time":2,"i_lat":-6.255332},{"transit":false,"i_lat":-6.242512,"line":0,"time":3,"i_long":106.856607,"distance":1546,"station_id":"CW","is_transit":false,"station_name":"Cawang"},{"line":2,"i_long":106.857948,"is_transit":false,"distance":1230,"transit":false,"i_lat":-6.226659,"station_name":"Tebet","time":2,"station_id":"TEB"},{"i_lat":-6.209883,"is_transit":true,"line":0,"transit":true,"time":4,"distance":2610,"i_long":106.84912,"station_id":"MRI","station_name":"Manggarai"},{"i_long":106.858896,"time":2,"line":1,"transit":false,"is_transit":false,"i_lat":-6.212485,"station_name":"Matraman","distance":1275,"station_id":"MTR"},{"line":0,"i_long":106.86807400000001,"station_id":"JNG","time":8,"transit":false,"station_name":"Jatinegara","distance":1377,"is_transit":true,"i_lat":-6.215091},{"line":1,"i_lat":-6.2135,"i_long":106.899548,"distance":3395,"transit":false,"is_transit":false,"station_id":"KLD","station_name":"Klender","time":3},{"station_name":"Buaran","distance":3100,"station_id":"BUA","time":2,"i_long":106.922662,"transit":false,"i_lat":-6.215568,"line":0,"is_transit":false},{"station_id":"KLDB","transit":false,"line":1,"station_name":"Klenderbaru","is_transit":false,"distance":1305,"i_lat":-6.217455,"i_long":106.939679,"time":1},{"is_transit":false,"time":8,"i_long":106.951283,"distance":1385,"station_name":"Cakung","line":0,"transit":false,"i_lat":-6.219053,"station_id":"CUK"},{"i_long":106.977657,"line":1,"transit":false,"i_lat":-6.224515,"station_id":"KRI","is_transit":false,"station_name":"Kranji","time":3,"distance":3097}],[{"is_transit":true,"i_lat":-6.594596,"time":0,"transit":false,"distance":0,"station_name":"Bogor","line":1,"station_id":"BOO","i_long":106.790574},{"i_long":106.800016,"line":0,"distance":7514,"transit":false,"station_id":"CLT","i_lat":-6.530544,"time":9,"station_name":"Cilebut","is_transit":false},{"line":0,"station_id":"BJD","transit":false,"time":5,"distance":4331,"i_lat":-6.493243,"is_transit":false,"station_name":"Bojonggede","i_long":106.792719},{"i_lat":-6.448811,"line":1,"is_transit":true,"station_id":"CTA","time":5,"i_long":106.800298,"transit":false,"station_name":"Citayam","distance":5197},{"transit":false,"station_name":"Depok","i_long":106.816926,"distance":5084,"is_transit":false,"station_id":"DP","time":6,"i_lat":-6.405256,"line":0},{"station_id":"DPB","distance":1584,"station_name":"Depokbaru","time":3,"transit":false,"is_transit":false,"i_lat":-6.391065,"i_long":106.819451,"line":0},{"time":4,"distance":2727,"station_id":"POC","station_name":"Pondok Cina","i_long":106.831114,"line":2,"is_transit":false,"i_lat":-6.369073,"transit":false},{"transit":false,"i_lat":-6.360749,"line":2,"distance":1109,"station_id":"UI","time":2,"is_transit":false,"station_name":"Univ. Indonesia","i_long":106.831474},{"time":3,"transit":false,"station_name":"Univ. Pancasila","line":2,"distance":2264,"i_long":106.834175,"i_lat":-6.339291,"station_id":"UP","is_transit":false},{"is_transit":false,"station_name":"Lenteng Agung","station_id":"LNA","i_long":106.832616,"distance":1029,"transit":false,"time":2,"line":2,"i_lat":-6.330363},{"time":3,"i_lat":-6.3080680000000005,"station_name":"Tanjung Barat","is_transit":false,"station_id":"TNT","i_long":106.838896,"distance":2671,"transit":false,"line":2},{"station_name":"Pasar Minggu","time":4,"distance":2820,"is_transit":false,"i_long":106.843999,"transit":false,"i_lat":-6.2842400000000005,"station_id":"PSM","line":2},{"station_id":"PSMB","i_lat":-6.263214,"line":2,"time":2,"is_transit":false,"i_long":106.851577,"station_name":"Pasar Minggu Baru","transit":false,"distance":2380},{"distance":824,"i_lat":-6.255332,"i_long":106.85449,"station_name":"Duren Kalibata","time":2,"line":0,"transit":false,"station_id":"DRN","is_transit":false},{"i_long":106.856607,"is_transit":false,"distance":1546,"transit":false,"line":0,"i_lat":-6.242512,"station_id":"CW","station_name":"Cawang","time":3},{"station_name":"Tebet","i_lat":-6.226659,"transit":false,"is_transit":false,"time":2,"i_long":106.857948,"line":2,"station_id":"TEB","distance":1230},{"i_lat":-6.209883,"station_id":"MRI","is_transit":true,"station_name":"Manggarai","transit":true,"i_long":106.84912,"line":0,"time":4,"distance":2610},{"station_id":"SUD","station_name":"Sudirman","transit":false,"i_lat":-6.202263,"is_transit":false,"line":1,"i_long":106.822649,"distance":3186,"time":4},{"i_long":106.819881,"station_id":"SUDB","is_transit":false,"distance":280,"transit":false,"time":1,"station_name":"Sudirman Baru","line":1,"i_lat":-6.201433},{"transit":false,"is_transit":false,"distance":471,"time":1,"i_long":106.816351,"line":1,"i_lat":-6.20132,"station_id":"KAT","station_name":"Karet"},{"i_long":106.811091,"line":1,"time":5,"is_transit":true,"station_id":"THB","station_name":"Tanah Abang","transit":false,"i_lat":-6.185545,"distance":2029},{"line":1,"is_transit":true,"station_name":"Duri","distance":3632,"i_long":106.800832,"station_id":"DU","transit":true,"time":8,"i_lat":-6.155215},{"i_lat":-6.144674,"time":4,"transit":false,"station_id":"AK","station_name":"Angke","is_transit":false,"i_long":106.79867,"distance":1230,"line":0},{"transit":true,"line":0,"station_name":"Kampung Bandan","distance":4102,"is_transit":true,"station_id":"KPB","time":9,"i_lat":-6.132549,"i_long":106.826365},{"distance":1444,"is_transit":false,"station_id":"RJW","station_name":"Rajawali","i_long":106.836569,"line":11,"transit":false,"i_lat":-6.14505,"time":3},{"i_long":106.839204,"line":11,"is_transit":false,"time":5,"distance":1901,"transit":false,"station_id":"KMO","station_name":"Kemayoran","i_lat":-6.161728},{"i_long":106.84368,"is_transit":false,"station_name":"Pasar Senen","time":4,"distance":1436,"transit":false,"i_lat":-6.174784,"line":11,"station_id":"PSE"},{"time":8,"is_transit":false,"distance":1567,"i_lat":-6.185975,"station_id":"GST","transit":false,"i_long":106.850107,"station_name":"Gang Sentiong","line":11},{"station_id":"KMT","time":1,"station_name":"Kramat","line":11,"i_long":106.855437,"i_lat":-6.193792,"transit":false,"distance":973,"is_transit":false},{"is_transit":false,"time":2,"line":11,"distance":1829,"i_lat":-6.209188,"station_name":"Pondok Jati","transit":false,"i_long":106.861737,"station_id":"POK"},{"line":0,"is_transit":true,"station_name":"Jatinegara","time":9,"distance":1236,"i_long":106.86807400000001,"transit":true,"station_id":"JNG","i_lat":-6.215091},{"station_id":"KLD","is_transit":false,"transit":false,"i_long":106.899548,"time":3,"line":1,"i_lat":-6.2135,"distance":3395,"station_name":"Klender"},{"i_long":106.922662,"line":0,"station_id":"BUA","i_lat":-6.215568,"is_transit":false,"time":2,"station_name":"Buaran","transit":false,"distance":3100},{"distance":1305,"transit":false,"i_lat":-6.217455,"line":1,"i_long":106.939679,"station_id":"KLDB","is_transit":false,"station_name":"Klenderbaru","time":1},{"i_long":106.951283,"line":0,"distance":1385,"time":8,"station_id":"CUK","is_transit":false,"station_name":"Cakung","i_lat":-6.219053,"transit":false},{"line":1,"distance":3097,"time":3,"i_lat":-6.224515,"is_transit":false,"station_name":"Kranji","i_long":106.977657,"station_id":"KRI","transit":false}],[{"is_transit":true,"line":1,"i_lat":-6.594596,"station_name":"Bogor","transit":false,"i_long":106.790574,"distance":0,"time":0,"station_id":"BOO"},{"transit":false,"i_lat":-6.530544,"time":9,"i_long":106.800016,"is_transit":false,"line":0,"station_id":"CLT","distance":7514,"station_name":"Cilebut"},{"station_name":"Bojonggede","i_lat":-6.493243,"is_transit":false,"transit":false,"i_long":106.792719,"line":0,"station_id":"BJD","distance":4331,"time":5},{"transit":false,"distance":5197,"station_name":"Citayam","time":5,"i_long":106.800298,"is_transit":true,"i_lat":-6.448811,"line":1,"station_id":"CTA"},{"station_id":"DP","station_name":"Depok","time":6,"distance":5084,"i_lat":-6.405256,"is_transit":false,"line":0,"transit":false,"i_long":106.816926},{"transit":false,"line":0,"station_name":"Depokbaru","station_id":"DPB","is_transit":false,"time":3,"distance":1584,"i_lat":-6.391065,"i_long":106.819451},{"transit":false,"i_lat":-6.369073,"line":2,"distance":2727,"is_transit":false,"time":4,"station_id":"POC","station_name":"Pondok Cina","i_long":106.831114},{"line":2,"i_long":106.831474,"station_name":"Univ. Indonesia","station_id":"UI","time":2,"is_transit":false,"distance":1109,"transit":false,"i_lat":-6.360749},{"i_long":106.834175,"line":2,"station_name":"Univ. Pancasila","distance":2264,"is_transit":false,"station_id":"UP","time":3,"transit":false,"i_lat":-6.339291},{"line":2,"station_id":"LNA","i_long":106.832616,"station_name":"Lenteng Agung","time":2,"distance":1029,"is_transit":false,"transit":false,"i_lat":-6.330363},{"is_transit":false,"station_name":"Tanjung Barat","transit":false,"i_long":106.838896,"station_id":"TNT","i_lat":-6.3080680000000005,"time":3,"line":2,"distance":2671},{"is_transit":false,"transit":false,"line":2,"i_lat":-6.2842400000000005,"i_long":106.843999,"station_id":"PSM","time":4,"distance":2820,"station_name":"Pasar Minggu"},{"is_transit":false,"time":2,"line":2,"station_name":"Pasar Minggu Baru","i_lat":-6.263214,"station_id":"PSMB","i_long":106.851577,"distance":2380,"transit":false},{"distance":824,"station_id":"DRN","station_name":"Duren Kalibata","time":2,"is_transit":false,"i_lat":-6.255332,"transit":false,"line":0,"i_long":106.85449},{"station_id":"CW","distance":1546,"transit":false,"is_transit":false,"i_lat":-6.242512,"line":0,"i_long":106.856607,"time":3,"station_name":"Cawang"},{"distance":1230,"transit":false,"i_long":106.857948,"line":2,"i_lat":-6.226659,"time":2,"station_id":"TEB","station_name":"Tebet","is_transit":false},{"i_long":106.84912,"is_transit":true,"time":4,"i_lat":-6.209883,"line":0,"station_name":"Manggarai","distance":2610,"transit":true,"station_id":"MRI"},{"station_id":"CKI","transit":false,"station_name":"Cikini","i_long":106.840169,"line":0,"is_transit":false,"i_lat":-6.198556,"time":4,"distance":1590},{"is_transit":false,"i_long":106.832183,"station_id":"GDD","i_lat":-6.186295,"station_name":"Gondangdia","time":3,"distance":1750,"transit":false,"line":2},{"station_id":"JUA","station_name":"Juanda","transit":false,"i_long":106.828284,"line":2,"is_transit":false,"distance":2015,"time":4,"i_lat":-6.166716},{"line":2,"is_transit":false,"i_lat":-6.160725,"station_name":"Sawah Besar","time":2,"station_id":"SW","distance":1149,"transit":false,"i_long":106.827103},{"station_name":"Manggabesar","line":2,"is_transit":false,"distance":906,"i_lat":-6.149769,"transit":false,"i_long":106.82482,"station_id":"MGB","time":2},{"time":2,"line":7,"transit":false,"distance":1080,"station_name":"Jayakarta","i_lat":-6.141205,"i_long":106.820901,"station_id":"JAY","is_transit":false},{"is_transit":true,"transit":true,"station_name":"Jakarta Kota","i_lat":-6.137569,"station_id":"JAKK","i_long":106.812439,"time":4,"line":0,"distance":1264},{"line":0,"is_transit":true,"time":3,"distance":1364,"i_lat":-6.132549,"station_name":"Kampung Bandan","i_long":106.826365,"station_id":"KPB","transit":true},{"distance":1444,"time":3,"i_long":106.836569,"station_id":"RJW","station_name":"Rajawali","is_transit":false,"transit":false,"i_lat":-6.14505,"line":11},{"time":5,"station_name":"Kemayoran","i_long":106.839204,"line":11,"distance":1901,"station_id":"KMO","transit":false,"i_lat":-6.161728,"is_transit":false},{"station_name":"Pasar Senen","distance":1436,"is_transit":false,"i_long":106.84368,"i_lat":-6.174784,"station_id":"PSE","line":11,"transit":false,"time":4},{"i_lat":-6.185975,"transit":false,"station_name":"Gang Sentiong","station_id":"GST","is_transit":false,"distance":1567,"line":11,"time":8,"i_long":106.850107},{"station_name":"Kramat","station_id":"KMT","time":1,"i_lat":-6.193792,"transit":false,"line":11,"is_transit":false,"distance":973,"i_long":106.855437},{"i_long":106.861737,"distance":1829,"line":11,"time":2,"station_id":"POK","is_transit":false,"station_name":"Pondok Jati","i_lat":-6.209188,"transit":false},{"transit":true,"distance":1236,"is_transit":true,"i_lat":-6.215091,"station_id":"JNG","time":9,"station_name":"Jatinegara","line":0,"i_long":106.86807400000001},{"distance":3395,"transit":false,"is_transit":false,"station_id":"KLD","i_long":106.899548,"line":1,"i_lat":-6.2135,"time":3,"station_name":"Klender"},{"time":2,"line":0,"station_id":"BUA","distance":3100,"i_long":106.922662,"transit":false,"is_transit":false,"station_name":"Buaran","i_lat":-6.215568},{"transit":false,"station_name":"Klenderbaru","distance":1305,"i_lat":-6.217455,"line":1,"i_long":106.939679,"station_id":"KLDB","is_transit":false,"time":1},{"i_lat":-6.219053,"transit":false,"time":8,"i_long":106.951283,"station_id":"CUK","line":0,"is_transit":false,"station_name":"Cakung","distance":1385},{"time":3,"transit":false,"is_transit":false,"station_id":"KRI","distance":3097,"i_lat":-6.224515,"station_name":"Kranji","i_long":106.977657,"line":1}]]}