{"data":[[{"line":2,"distance":0,"transit":false,"station_id":"BOO","time":0,"i_long":106.790574,"i_lat":-6.594596,"is_transit":false,"station_name":"Bogor"},{"distance":7514,"i_long":106.800016,"line":2,"station_name":"Cilebut","i_lat":-6.530544,"is_transit":false,"transit":false,"station_id":"CLT","time":9},{"transit":false,"distance":4331,"station_id":"BJD","station_name":"Bojonggede","i_lat":-6.493243,"i_long":106.792719,"line":2,"is_transit":false,"time":5},{"i_lat":-6.448811,"station_id":"CTA","distance":5197,"time":5,"is_transit":false,"i_long":106.800298,"transit":false,"station_name":"Citayam","line":2},{"station_id":"DP","i_long":106.816926,"is_transit":false,"station_name":"Depok","line":2,"time":6,"distance":5084,"i_lat":-6.405256,"transit":false},{"station_name":"Depokbaru","is_transit":false,"transit":false,"i_lat":-6.391065,"distance":1584,"time":3,"line":2,"station_id":"DPB","i_long":106.819451},{"i_long":106.831114,"transit":false,"line":2,"time":4,"station_name":"Pondok Cina","is_transit":false,"distance":2727,"i_lat":-6.369073,"station_id":"POC"},{"is_transit":false,"time":2,"i_lat":-6.360749,"i_long":106.831474,"transit":false,"line":2,"station_id":"UI","station_name":"Univ. Indonesia","distance":1109},{"is_transit":false,"i_lat":-6.339291,"line":2,"station_id":"UP","i_long":106.834175,"transit":false,"distance":2264,"station_name":"Univ. Pancasila","time":3},{"line":2,"station_name":"Lenteng Agung","time":2,"distance":1029,"transit":false,"i_long":106.832616,"station_id":"LNA","is_transit":false,"i_lat":-6.330363},{"line":2,"i_lat":-6.3080680000000005,"distance":2671,"station_id":"TNT","time":3,"station_name":"Tanjung Barat","is_transit":false,"transit":false,"i_long":106.838896},{"is_transit":false,"time":4,"line":2,"station_id":"PSM","station_name":"Pasar Minggu","transit":false,"distance":2820,"i_lat":-6.2842400000000005,"i_long":106.843999},{"distance":2380,"i_lat":-6.263214,"is_transit":false,"time":2,"i_long":106.851577,"line":2,"station_id":"PSMB","transit":false,"station_name":"Pasar Minggu Baru"},{"station_id":"DRN","line":2,"is_transit":false,"i_lat":-6.255332,"i_long":106.85449,"station_name":"Duren Kalibata","transit":false,"distance":824,"time":2}]]}