{"data":[[{"line":1,"is_transit":true,"i_lat":-6.594596,"i_long":106.790574,"distance":0,"station_name":"Bogor","station_id":"BOO","time":0,"transit":false},{"is_transit":false,"i_lat":-6.530544,"i_long":106.800016,"time":9,"distance":7514,"line":0,"transit":false,"station_name":"Cilebut","station_id":"CLT"},{"station_id":"BJD","i_lat":-6.493243,"line":0,"is_transit":false,"distance":4331,"transit":false,"station_name":"Bojonggede","time":5,"i_long":106.792719},{"station_name":"Citayam","i_long":106.800298,"time":5,"line":1,"station_id":"CTA","transit":false,"i_lat":-6.448811,"distance":5197,"is_transit":true},{"time":6,"distance":5084,"station_id":"DP","station_name":"Depok","is_transit":false,"i_long":106.816926,"transit":false,"line":0,"i_lat":-6.405256},{"i_long":106.819451,"time":3,"distance":1584,"i_lat":-6.391065,"transit":false,"is_transit":false,"line":0,"station_id":"DPB","station_name":"Depokbaru"},{"transit":false,"station_name":"Pondok Cina","time":4,"station_id":"POC","is_transit":false,"i_lat":-6.369073,"i_long":106.831114,"distance":2727,"line":2}]]}