{"data":[[{"station_name":"Bogor","transit":false,"station_id":"BOO","distance":0,"i_long":106.790574,"line":2,"is_transit":false,"time":0,"i_lat":-6.594596},{"i_long":106.800016,"line":2,"station_name":"Cilebut","distance":7514,"transit":false,"station_id":"CLT","is_transit":false,"time":9,"i_lat":-6.530544},{"i_long":106.792719,"i_lat":-6.493243,"station_name":"Bojonggede","distance":4331,"transit":false,"time":5,"station_id":"BJD","is_transit":false,"line":2},{"line":2,"distance":5197,"time":5,"i_lat":-6.448811,"i_long":106.800298,"is_transit":false,"station_id":"CTA","transit":false,"station_name":"Citayam"},{"i_long":106.816926,"line":2,"station_name":"Depok","i_lat":-6.405256,"station_id":"DP","is_transit":false,"distance":5084,"transit":false,"time":6},{"transit":false,"i_lat":-6.391065,"station_name":"Depokbaru","line":2,"is_transit":false,"time":3,"i_long":106.819451,"station_id":"DPB","distance":1584},{"is_transit":false,"i_long":106.831114,"transit":false,"station_name":"Pondok Cina","time":4,"line":2,"station_id":"POC","distance":2727,"i_lat":-6.369073}]]}