{"data":[[{"station_name":"Bogor","distance":0,"station_id":"BOO","transit":false,"is_transit":false,"time":0,"i_lat":-6.594596,"i_long":106.790574,"line":2},{"distance":7514,"time":9,"line":2,"station_id":"CLT","i_long":106.800016,"i_lat":-6.530544,"transit":false,"station_name":"Cilebut","is_transit":false},{"is_transit":false,"time":5,"transit":false,"line":2,"i_long":106.792719,"distance":4331,"i_lat":-6.493243,"station_id":"BJD","station_name":"Bojonggede"},{"i_long":106.800298,"station_id":"CTA","i_lat":-6.448811,"is_transit":false,"transit":false,"line":2,"distance":5197,"station_name":"Citayam","time":5},{"time":6,"i_long":106.816926,"station_name":"Depok","is_transit":false,"station_id":"DP","i_lat":-6.405256,"transit":false,"distance":5084,"line":2},{"is_transit":false,"time":3,"station_name":"Depokbaru","station_id":"DPB","distance":1584,"line":2,"transit":false,"i_lat":-6.391065,"i_long":106.819451},{"time":4,"distance":2727,"is_transit":false,"transit":false,"i_lat":-6.369073,"station_name":"Pondok Cina","line":2,"i_long":106.831114,"station_id":"POC"},{"is_transit":false,"i_lat":-6.360749,"line":2,"time":2,"i_long":106.831474,"station_name":"Univ. Indonesia","distance":1109,"station_id":"UI","transit":false},{"transit":false,"i_long":106.834175,"station_id":"UP","station_name":"Univ. Pancasila","is_transit":false,"line":2,"distance":2264,"time":3,"i_lat":-6.339291},{"time":2,"distance":1029,"is_transit":false,"i_long":106.832616,"line":2,"station_name":"Lenteng Agung","station_id":"LNA","transit":false,"i_lat":-6.330363},{"time":3,"distance":2671,"station_id":"TNT","line":2,"i_long":106.838896,"i_lat":-6.3080680000000005,"transit":false,"station_name":"Tanjung Barat","is_transit":false},{"i_lat":-6.2842400000000005,"i_long":106.843999,"station_name":"Pasar Minggu","line":2,"is_transit":false,"time":4,"distance":2820,"station_id":"PSM","transit":false},{"time":2,"station_id":"PSMB","line":2,"i_long":106.851577,"is_transit":false,"station_name":"Pasar Minggu Baru","transit":false,"i_lat":-6.263214,"distance":2380},{"line":2,"station_name":"Duren Kalibata","time":2,"distance":824,"is_transit":false,"station_id":"DRN","i_long":106.85449,"transit":false,"i_lat":-6.255332},{"line":2,"time":3,"station_id":"CW","station_name":"Cawang","distance":1546,"transit":false,"i_lat":-6.242512,"i_long":106.856607,"is_transit":false},{"transit":false,"station_name":"Tebet","line":2,"distance":1230,"time":2,"i_lat":-6.226659,"is_transit":false,"station_id":"TEB","i_long":106.857948},{"transit":true,"station_id":"MRI","line":2,"i_lat":-6.209883,"distance":2610,"i_long":106.84912,"station_name":"Manggarai","time":4,"is_transit":true},{"i_lat":-6.202263,"distance":3186,"i_long":106.822649,"station_id":"SUD","transit":false,"time":4,"is_transit":false,"station_name":"Sudirman","line":1},{"station_name":"Sudirman Baru","time":1,"is_transit":false,"station_id":"SUDB","transit":false,"distance":280,"i_long":106.819881,"i_lat":-6.201433,"line":1},{"station_id":"KAT","time":1,"distance":471,"is_transit":false,"transit":false,"i_long":106.816351,"station_name":"Karet","line":1,"i_lat":-6.20132},{"station_name":"Tanah Abang","station_id":"THB","i_long":106.811091,"line":1,"transit":false,"is_transit":false,"time":5,"distance":2029,"i_lat":-6.185545},{"i_long":106.800832,"distance":3632,"time":8,"station_id":"DU","is_transit":true,"transit":true,"i_lat":-6.155215,"line":1,"station_name":"Duri"},{"time":3,"station_name":"Grogol","distance":1700,"i_long":106.788277,"line":5,"is_transit":false,"station_id":"GGL","transit":false,"i_lat":-6.162021},{"station_id":"PSG","transit":false,"i_long":106.771379,"line":5,"time":2,"i_lat":-6.161433,"distance":2036,"is_transit":false,"station_name":"Pesing"},{"i_long":106.756522,"transit":false,"line":5,"station_id":"TKO","station_name":"Taman Kota","distance":1614,"time":2,"is_transit":false,"i_lat":-6.1587309999999995},{"i_long":106.737035,"station_name":"Bojongindah","is_transit":false,"distance":2334,"time":2,"station_id":"BOI","transit":false,"i_lat":-6.159876,"line":5},{"station_name":"Rawa Buaya","time":4,"distance":1152,"is_transit":false,"transit":false,"i_long":106.723064,"line":5,"station_id":"RW","i_lat":-6.162758},{"station_name":"Kalideres","transit":false,"distance":2504,"line":5,"station_id":"KDS","time":3,"i_lat":-6.166068,"is_transit":false,"i_long":106.701612},{"i_long":106.679458,"line":5,"distance":2548,"time":3,"is_transit":false,"transit":false,"station_name":"Poris","station_id":"PI","i_lat":-6.169933},{"station_name":"Batuceper","transit":false,"time":3,"line":5,"is_transit":false,"distance":1834,"i_lat":-6.171811,"station_id":"BPR","i_long":106.665036},{"time":3,"i_lat":-6.17331,"is_transit":false,"transit":false,"station_id":"TTI","i_long":106.64657,"station_name":"Tanah Tinggi","line":5,"distance":2028},{"station_id":"TNG","line":5,"time":3,"distance":1547,"is_transit":false,"i_long":106.632761,"i_lat":-6.176583,"transit":false,"station_name":"Tangerang"}],[{"station_id":"BOO","i_long":106.790574,"distance":0,"transit":false,"line":2,"station_name":"Bogor","is_transit":false,"time":0,"i_lat":-6.594596},{"distance":7514,"line":2,"station_name":"Cilebut","time":9,"is_transit":false,"station_id":"CLT","i_lat":-6.530544,"transit":false,"i_long":106.800016},{"is_transit":false,"station_name":"Bojonggede","transit":false,"i_lat":-6.493243,"i_long":106.792719,"distance":4331,"station_id":"BJD","time":5,"line":2},{"station_id":"CTA","station_name":"Citayam","transit":false,"distance":5197,"i_long":106.800298,"time":5,"i_lat":-6.448811,"is_transit":false,"line":2},{"distance":5084,"i_lat":-6.405256,"station_id":"DP","i_long":106.816926,"time":6,"is_transit":false,"transit":false,"line":2,"station_name":"Depok"},{"distance":1584,"i_long":106.819451,"i_lat":-6.391065,"station_id":"DPB","line":2,"time":3,"station_name":"Depokbaru","transit":false,"is_transit":false},{"time":4,"i_long":106.831114,"transit":false,"is_transit":false,"distance":2727,"station_name":"Pondok Cina","line":2,"station_id":"POC","i_lat":-6.369073},{"distance":1109,"is_transit":false,"station_id":"UI","transit":false,"line":2,"i_lat":-6.360749,"time":2,"i_long":106.831474,"station_name":"Univ. Indonesia"},{"station_name":"Univ. Pancasila","time":3,"i_long":106.834175,"line":2,"is_transit":false,"station_id":"UP","transit":false,"i_lat":-6.339291,"distance":2264},{"transit":false,"station_name":"Lenteng Agung","distance":1029,"line":2,"is_transit":false,"i_long":106.832616,"i_lat":-6.330363,"station_id":"LNA","time":2},{"i_long":106.838896,"line":2,"station_name":"Tanjung Barat","distance":2671,"station_id":"TNT","i_lat":-6.3080680000000005,"is_transit":false,"time":3,"transit":false},{"transit":false,"is_transit":false,"i_lat":-6.2842400000000005,"station_name":"Pasar Minggu","i_long":106.843999,"line":2,"time":4,"station_id":"PSM","distance":2820},{"is_transit":false,"time":2,"transit":false,"station_id":"PSMB","i_lat":-6.263214,"station_name":"Pasar Minggu Baru","distance":2380,"i_long":106.851577,"line":2},{"i_lat":-6.255332,"transit":false,"line":2,"station_name":"Duren Kalibata","distance":824,"is_transit":false,"station_id":"DRN","i_long":106.85449,"time":2},{"line":2,"time":3,"is_transit":false,"station_id":"CW","station_name":"Cawang","distance":1546,"transit":false,"i_long":106.856607,"i_lat":-6.242512},{"is_transit":false,"distance":1230,"station_name":"Tebet","i_lat":-6.226659,"transit":false,"i_long":106.857948,"line":2,"time":2,"station_id":"TEB"},{"line":2,"is_transit":false,"station_name":"Manggarai","i_long":106.84912,"time":4,"i_lat":-6.209883,"station_id":"MRI","distance":2610,"transit":false},{"transit":false,"line":2,"station_name":"Cikini","station_id":"CKI","i_long":106.840169,"is_transit":false,"distance":1590,"i_lat":-6.198556,"time":4},{"station_id":"GDD","i_lat":-6.186295,"distance":1750,"is_transit":false,"station_name":"Gondangdia","transit":false,"line":2,"time":3,"i_long":106.832183},{"i_long":106.828284,"transit":false,"is_transit":false,"distance":2015,"i_lat":-6.166716,"station_id":"JUA","line":2,"time":4,"station_name":"Juanda"},{"distance":1149,"transit":false,"line":2,"station_id":"SW","i_lat":-6.160725,"time":2,"station_name":"Sawah Besar","i_long":106.827103,"is_transit":false},{"is_transit":false,"i_lat":-6.149769,"station_name":"Manggabesar","transit":false,"line":2,"distance":906,"station_id":"MGB","i_long":106.82482,"time":2},{"time":2,"distance":1080,"is_transit":false,"station_id":"JAY","line":2,"transit":false,"i_long":106.820901,"i_lat":-6.141205,"station_name":"Jayakarta"},{"time":4,"transit":true,"distance":1264,"is_transit":true,"i_lat":-6.137569,"station_id":"JAKK","i_long":106.812439,"line":2,"station_name":"Jakarta Kota"},{"time":3,"distance":1364,"transit":true,"line":4,"is_transit":true,"station_name":"Kampung Bandan","i_long":106.826365,"station_id":"KPB","i_lat":-6.132549},{"transit":false,"i_long":106.79867,"i_lat":-6.144674,"station_name":"Angke","time":9,"distance":4102,"station_id":"AK","is_transit":false,"line":1},{"time":4,"line":1,"distance":1230,"is_transit":true,"station_name":"Duri","i_lat":-6.155215,"station_id":"DU","i_long":106.800832,"transit":true},{"line":5,"i_long":106.788277,"distance":1700,"station_name":"Grogol","transit":false,"is_transit":false,"station_id":"GGL","time":3,"i_lat":-6.162021},{"transit":false,"station_id":"PSG","time":2,"i_long":106.771379,"distance":2036,"is_transit":false,"i_lat":-6.161433,"line":5,"station_name":"Pesing"},{"station_id":"TKO","transit":false,"distance":1614,"i_lat":-6.1587309999999995,"is_transit":false,"line":5,"i_long":106.756522,"time":2,"station_name":"Taman Kota"},{"line":5,"i_lat":-6.159876,"station_name":"Bojongindah","time":2,"station_id":"BOI","distance":2334,"i_long":106.737035,"is_transit":false,"transit":false},{"transit":false,"time":4,"i_long":106.723064,"i_lat":-6.162758,"is_transit":false,"station_name":"Rawa Buaya","line":5,"distance":1152,"station_id":"RW"},{"station_name":"Kalideres","time":3,"distance":2504,"is_transit":false,"station_id":"KDS","i_long":106.701612,"transit":false,"line":5,"i_lat":-6.166068},{"time":3,"is_transit":false,"station_name":"Poris","transit":false,"line":5,"i_lat":-6.169933,"distance":2548,"station_id":"PI","i_long":106.679458},{"station_name":"Batuceper","distance":1834,"station_id":"BPR","transit":false,"i_long":106.665036,"is_transit":false,"i_lat":-6.171811,"line":5,"time":3},{"station_id":"TTI","is_transit":false,"i_lat":-6.17331,"transit":false,"i_long":106.64657,"line":5,"distance":2028,"station_name":"Tanah Tinggi","time":3},{"distance":1547,"station_id":"TNG","is_transit":false,"time":3,"transit":false,"i_lat":-6.176583,"i_long":106.632761,"line":5,"station_name":"Tangerang"}],[{"transit":false,"is_transit":false,"station_id":"BOO","i_lat":-6.594596,"i_long":106.790574,"line":2,"station_name":"Bogor","time":0,"distance":0},{"line":2,"i_long":106.800016,"station_name":"Cilebut","station_id":"CLT","time":9,"transit":false,"is_transit":false,"distance":7514,"i_lat":-6.530544},{"i_lat":-6.493243,"distance":4331,"line":2,"is_transit":false,"time":5,"station_name":"Bojonggede","station_id":"BJD","transit":false,"i_long":106.792719},{"i_lat":-6.448811,"line":2,"station_name":"Citayam","time":5,"distance":5197,"is_transit":false,"station_id":"CTA","transit":false,"i_long":106.800298},{"i_lat":-6.405256,"distance":5084,"station_id":"DP","line":2,"is_transit":false,"i_long":106.816926,"transit":false,"station_name":"Depok","time":6},{"station_id":"DPB","transit":false,"time":3,"i_long":106.819451,"station_name":"Depokbaru","distance":1584,"i_lat":-6.391065,"line":2,"is_transit":false},{"i_long":106.831114,"station_name":"Pondok Cina","station_id":"POC","distance":2727,"time":4,"is_transit":false,"transit":false,"i_lat":-6.369073,"line":2},{"is_transit":false,"station_name":"Univ. Indonesia","line":2,"transit":false,"i_lat":-6.360749,"time":2,"i_long":106.831474,"station_id":"UI","distance":1109},{"i_long":106.834175,"transit":false,"is_transit":false,"distance":2264,"station_name":"Univ. Pancasila","station_id":"UP","line":2,"i_lat":-6.339291,"time":3},{"transit":false,"line":2,"i_long":106.832616,"i_lat":-6.330363,"station_id":"LNA","time":2,"distance":1029,"station_name":"Lenteng Agung","is_transit":false},{"i_lat":-6.3080680000000005,"i_long":106.838896,"line":2,"station_name":"Tanjung Barat","time":3,"is_transit":false,"station_id":"TNT","distance":2671,"transit":false},{"distance":2820,"line":2,"is_transit":false,"station_id":"PSM","i_lat":-6.2842400000000005,"transit":false,"station_name":"Pasar Minggu","i_long":106.843999,"time":4},{"is_transit":false,"station_name":"Pasar Minggu Baru","station_id":"PSMB","i_lat":-6.263214,"i_long":106.851577,"time":2,"distance":2380,"transit":false,"line":2},{"i_long":106.85449,"transit":false,"distance":824,"line":2,"time":2,"i_lat":-6.255332,"is_transit":false,"station_name":"Duren Kalibata","station_id":"DRN"},{"is_transit":false,"i_long":106.856607,"i_lat":-6.242512,"station_id":"CW","station_name":"Cawang","time":3,"line":2,"transit":false,"distance":1546},{"station_name":"Tebet","distance":1230,"station_id":"TEB","line":2,"time":2,"transit":false,"is_transit":false,"i_long":106.857948,"i_lat":-6.226659},{"is_transit":true,"distance":2610,"time":4,"station_name":"Manggarai","i_long":106.84912,"line":2,"station_id":"MRI","i_lat":-6.209883,"transit":true},{"line":1,"i_long":106.858896,"station_id":"MTR","time":2,"i_lat":-6.212485,"station_name":"Matraman","distance":1275,"is_transit":false,"transit":false},{"i_lat":-6.215091,"transit":true,"station_name":"Jatinegara","station_id":"JNG","distance":1377,"is_transit":true,"time":8,"i_long":106.86807400000001,"line":1},{"station_name":"Pondok Jati","distance":1236,"is_transit":false,"i_long":106.861737,"transit":false,"time":2,"station_id":"POK","i_lat":-6.209188,"line":11},{"is_transit":false,"time":2,"station_id":"KMT","transit":false,"i_long":106.855437,"i_lat":-6.193792,"distance":1829,"station_name":"Kramat","line":11},{"station_id":"GST","distance":973,"line":11,"i_long":106.850107,"station_name":"Gang Sentiong","transit":false,"is_transit":false,"i_lat":-6.185975,"time":1},{"is_transit":false,"transit":false,"station_name":"Pasar Senen","time":8,"distance":1567,"station_id":"PSE","line":11,"i_long":106.84368,"i_lat":-6.174784},{"is_transit":false,"i_lat":-6.161728,"i_long":106.839204,"line":11,"transit":false,"station_name":"Kemayoran","distance":1436,"time":4,"station_id":"KMO"},{"distance":1901,"station_id":"RJW","station_name":"Rajawali","i_long":106.836569,"is_transit":false,"transit":false,"i_lat":-6.14505,"line":11,"time":5},{"distance":1444,"is_transit":true,"station_id":"KPB","time":3,"station_name":"Kampung Bandan","transit":true,"i_lat":-6.132549,"i_long":106.826365,"line":4},{"is_transit":false,"time":9,"station_id":"AK","transit":false,"i_long":106.79867,"station_name":"Angke","i_lat":-6.144674,"distance":4102,"line":1},{"is_transit":true,"station_id":"DU","i_lat":-6.155215,"i_long":106.800832,"transit":true,"station_name":"Duri","time":4,"distance":1230,"line":1},{"station_id":"GGL","i_lat":-6.162021,"i_long":106.788277,"time":3,"transit":false,"station_name":"Grogol","line":5,"distance":1700,"is_transit":false},{"time":2,"is_transit":false,"station_id":"PSG","distance":2036,"transit":false,"i_long":106.771379,"line":5,"i_lat":-6.161433,"station_name":"Pesing"},{"station_id":"TKO","transit":false,"station_name":"Taman Kota","is_transit":false,"time":2,"i_lat":-6.1587309999999995,"line":5,"distance":1614,"i_long":106.756522},{"station_id":"BOI","i_lat":-6.159876,"station_name":"Bojongindah","transit":false,"time":2,"i_long":106.737035,"distance":2334,"is_transit":false,"line":5},{"i_long":106.723064,"transit":false,"line":5,"station_name":"Rawa Buaya","is_transit":false,"i_lat":-6.162758,"distance":1152,"time":4,"station_id":"RW"},{"i_long":106.701612,"transit":false,"i_lat":-6.166068,"station_name":"Kalideres","time":3,"line":5,"distance":2504,"station_id":"KDS","is_transit":false},{"i_lat":-6.169933,"is_transit":false,"time":3,"distance":2548,"transit":false,"i_long":106.679458,"line":5,"station_name":"Poris","station_id":"PI"},{"station_id":"BPR","distance":1834,"time":3,"i_lat":-6.171811,"i_long":106.665036,"transit":false,"line":5,"station_name":"Batuceper","is_transit":false},{"station_id":"TTI","i_long":106.64657,"is_transit":false,"time":3,"i_lat":-6.17331,"station_name":"Tanah Tinggi","line":5,"transit":false,"distance":2028},{"is_transit":false,"i_lat":-6.176583,"time":3,"transit":false,"station_name":"Tangerang","line":5,"station_id":"TNG","i_long":106.632761,"distance":1547}]]}