{"data":[[{"distance":0,"is_transit":false,"time":0,"i_long":106.790574,"transit":false,"station_name":"Bogor","station_id":"BOO","i_lat":-6.594596,"line":2},{"time":9,"transit":false,"station_id":"CLT","is_transit":false,"i_long":106.800016,"station_name":"Cilebut","i_lat":-6.530544,"line":2,"distance":7514},{"time":5,"i_lat":-6.493243,"is_transit":false,"transit":false,"line":2,"station_id":"BJD","station_name":"Bojonggede","distance":4331,"i_long":106.792719},{"station_id":"CTA","is_transit":false,"line":2,"transit":false,"i_lat":-6.448811,"station_name":"Citayam","time":5,"i_long":106.800298,"distance":5197},{"time":6,"i_lat":-6.405256,"station_name":"Depok","transit":false,"is_transit":false,"line":2,"distance":5084,"station_id":"DP","i_long":106.816926},{"i_lat":-6.391065,"is_transit":false,"transit":false,"distance":1584,"time":3,"station_name":"Depokbaru","i_long":106.819451,"line":2,"station_id":"DPB"},{"i_lat":-6.369073,"distance":2727,"station_name":"Pondok Cina","is_transit":false,"line":2,"i_long":106.831114,"station_id":"POC","time":4,"transit":false},{"line":2,"station_id":"UI","time":2,"transit":false,"is_transit":false,"i_long":106.831474,"i_lat":-6.360749,"station_name":"Univ. Indonesia","distance":1109},{"line":2,"time":3,"distance":2264,"i_lat":-6.339291,"is_transit":false,"transit":false,"station_id":"UP","i_long":106.834175,"station_name":"Univ. Pancasila"},{"is_transit":false,"station_id":"LNA","station_name":"Lenteng Agung","i_long":106.832616,"line":2,"time":2,"transit":false,"i_lat":-6.330363,"distance":1029},{"transit":false,"station_id":"TNT","i_lat":-6.3080680000000005,"is_transit":false,"time":3,"station_name":"Tanjung Barat","i_long":106.838896,"line":2,"distance":2671},{"i_long":106.843999,"station_name":"Pasar Minggu","line":2,"station_id":"PSM","is_transit":false,"distance":2820,"transit":false,"time":4,"i_lat":-6.2842400000000005},{"line":2,"distance":2380,"time":2,"i_long":106.851577,"is_transit":false,"station_id":"PSMB","station_name":"Pasar Minggu Baru","transit":false,"i_lat":-6.263214},{"transit":false,"time":2,"station_name":"Duren Kalibata","is_transit":false,"station_id":"DRN","distance":824,"i_lat":-6.255332,"line":2,"i_long":106.85449},{"is_transit":false,"i_lat":-6.242512,"transit":false,"line":2,"station_id":"CW","station_name":"Cawang","time":3,"i_long":106.856607,"distance":1546},{"line":2,"transit":false,"i_lat":-6.226659,"is_transit":false,"station_name":"Tebet","time":2,"distance":1230,"i_long":106.857948,"station_id":"TEB"},{"station_id":"MRI","line":2,"transit":true,"is_transit":true,"time":4,"distance":2610,"station_name":"Manggarai","i_long":106.84912,"i_lat":-6.209883},{"transit":false,"line":1,"i_lat":-6.202263,"is_transit":false,"distance":3186,"time":4,"station_name":"Sudirman","i_long":106.822649,"station_id":"SUD"},{"i_lat":-6.201433,"time":1,"station_name":"Sudirman Baru","line":1,"station_id":"SUDB","i_long":106.819881,"distance":280,"is_transit":false,"transit":false},{"station_id":"KAT","distance":471,"i_lat":-6.20132,"line":1,"transit":false,"i_long":106.816351,"station_name":"Karet","is_transit":false,"time":1},{"transit":true,"time":5,"i_lat":-6.185545,"line":1,"station_id":"THB","distance":2029,"is_transit":true,"station_name":"Tanah Abang","i_long":106.811091},{"line":6,"i_long":106.79689,"transit":false,"is_transit":false,"i_lat":-6.207404,"station_id":"PLM","distance":3191,"station_name":"Palmerah","time":6},{"is_transit":false,"i_lat":-6.237242,"transit":false,"line":6,"station_id":"KBY","time":7,"distance":3737,"station_name":"Kebayoran","i_long":106.780334},{"time":8,"station_name":"Pondokranji","line":6,"is_transit":false,"transit":false,"i_long":106.74273,"distance":6218,"station_id":"PDJ","i_lat":-6.276362},{"transit":false,"station_name":"Jurangmangu","time":3,"i_long":106.728916,"line":6,"is_transit":false,"station_id":"JMU","distance":2179,"i_lat":-6.288927}],[{"i_lat":-6.594596,"is_transit":false,"station_name":"Bogor","line":2,"time":0,"i_long":106.790574,"distance":0,"station_id":"BOO","transit":false},{"distance":7514,"station_id":"CLT","i_lat":-6.530544,"is_transit":false,"line":2,"station_name":"Cilebut","i_long":106.800016,"transit":false,"time":9},{"station_name":"Bojonggede","time":5,"is_transit":false,"station_id":"BJD","i_lat":-6.493243,"i_long":106.792719,"transit":false,"distance":4331,"line":2},{"distance":5197,"i_lat":-6.448811,"is_transit":false,"i_long":106.800298,"station_id":"CTA","transit":false,"line":2,"time":5,"station_name":"Citayam"},{"is_transit":false,"station_id":"DP","i_lat":-6.405256,"transit":false,"line":2,"i_long":106.816926,"time":6,"distance":5084,"station_name":"Depok"},{"transit":false,"is_transit":false,"distance":1584,"time":3,"station_name":"Depokbaru","i_lat":-6.391065,"i_long":106.819451,"station_id":"DPB","line":2},{"station_id":"POC","i_lat":-6.369073,"transit":false,"is_transit":false,"distance":2727,"time":4,"i_long":106.831114,"line":2,"station_name":"Pondok Cina"},{"time":2,"station_id":"UI","line":2,"i_long":106.831474,"station_name":"Univ. Indonesia","is_transit":false,"distance":1109,"transit":false,"i_lat":-6.360749},{"is_transit":false,"i_long":106.834175,"transit":false,"station_id":"UP","station_name":"Univ. Pancasila","i_lat":-6.339291,"line":2,"distance":2264,"time":3},{"is_transit":false,"transit":false,"distance":1029,"line":2,"i_long":106.832616,"station_id":"LNA","i_lat":-6.330363,"station_name":"Lenteng Agung","time":2},{"distance":2671,"time":3,"is_transit":false,"i_long":106.838896,"transit":false,"station_name":"Tanjung Barat","i_lat":-6.3080680000000005,"line":2,"station_id":"TNT"},{"time":4,"distance":2820,"line":2,"station_id":"PSM","i_long":106.843999,"station_name":"Pasar Minggu","is_transit":false,"i_lat":-6.2842400000000005,"transit":false},{"time":2,"is_transit":false,"line":2,"distance":2380,"station_name":"Pasar Minggu Baru","i_lat":-6.263214,"i_long":106.851577,"transit":false,"station_id":"PSMB"},{"i_long":106.85449,"distance":824,"station_id":"DRN","is_transit":false,"transit":false,"line":2,"station_name":"Duren Kalibata","i_lat":-6.255332,"time":2},{"is_transit":false,"i_lat":-6.242512,"station_id":"CW","station_name":"Cawang","i_long":106.856607,"transit":false,"time":3,"distance":1546,"line":2},{"i_long":106.857948,"transit":false,"station_name":"Tebet","distance":1230,"time":2,"station_id":"TEB","line":2,"is_transit":false,"i_lat":-6.226659},{"is_transit":false,"distance":2610,"i_lat":-6.209883,"station_id":"MRI","time":4,"line":2,"i_long":106.84912,"transit":false,"station_name":"Manggarai"},{"station_name":"Cikini","time":4,"line":2,"distance":1590,"transit":false,"station_id":"CKI","i_lat":-6.198556,"i_long":106.840169,"is_transit":false},{"distance":1750,"time":3,"i_long":106.832183,"transit":false,"line":2,"i_lat":-6.186295,"station_id":"GDD","is_transit":false,"station_name":"Gondangdia"},{"transit":false,"station_id":"JUA","is_transit":false,"i_lat":-6.166716,"time":4,"station_name":"Juanda","i_long":106.828284,"distance":2015,"line":2},{"station_id":"SW","i_long":106.827103,"i_lat":-6.160725,"station_name":"Sawah Besar","is_transit":false,"distance":1149,"time":2,"line":2,"transit":false},{"i_lat":-6.149769,"is_transit":false,"station_name":"Manggabesar","transit":false,"i_long":106.82482,"station_id":"MGB","time":2,"distance":906,"line":2},{"i_lat":-6.141205,"i_long":106.820901,"transit":false,"time":2,"station_id":"JAY","is_transit":false,"station_name":"Jayakarta","line":2,"distance":1080},{"is_transit":true,"time":4,"station_id":"JAKK","i_long":106.812439,"station_name":"Jakarta Kota","i_lat":-6.137569,"line":2,"transit":true,"distance":1264},{"transit":true,"station_id":"KPB","i_lat":-6.132549,"i_long":106.826365,"distance":1364,"line":4,"is_transit":true,"time":3,"station_name":"Kampung Bandan"},{"station_name":"Angke","transit":false,"i_lat":-6.144674,"time":9,"i_long":106.79867,"distance":4102,"is_transit":false,"line":1,"station_id":"AK"},{"station_id":"DU","i_lat":-6.155215,"transit":false,"i_long":106.800832,"line":1,"station_name":"Duri","distance":1230,"is_transit":false,"time":4},{"time":8,"transit":true,"is_transit":true,"station_name":"Tanah Abang","i_long":106.811091,"line":1,"i_lat":-6.185545,"distance":3632,"station_id":"THB"},{"station_id":"PLM","time":6,"station_name":"Palmerah","line":6,"transit":false,"i_lat":-6.207404,"distance":3191,"is_transit":false,"i_long":106.79689},{"station_id":"KBY","station_name":"Kebayoran","time":7,"transit":false,"distance":3737,"line":6,"i_lat":-6.237242,"is_transit":false,"i_long":106.780334},{"i_long":106.74273,"distance":6218,"is_transit":false,"line":6,"time":8,"i_lat":-6.276362,"transit":false,"station_name":"Pondokranji","station_id":"PDJ"},{"time":3,"transit":false,"station_name":"Jurangmangu","i_long":106.728916,"distance":2179,"is_transit":false,"i_lat":-6.288927,"station_id":"JMU","line":6}],[{"i_lat":-6.594596,"i_long":106.790574,"line":2,"station_name":"Bogor","time":0,"transit":false,"distance":0,"is_transit":false,"station_id":"BOO"},{"is_transit":false,"transit":false,"line":2,"i_long":106.800016,"time":9,"station_name":"Cilebut","i_lat":-6.530544,"station_id":"CLT","distance":7514},{"distance":4331,"is_transit":false,"i_long":106.792719,"transit":false,"station_id":"BJD","i_lat":-6.493243,"time":5,"line":2,"station_name":"Bojonggede"},{"is_transit":false,"time":5,"station_name":"Citayam","distance":5197,"i_lat":-6.448811,"i_long":106.800298,"line":2,"station_id":"CTA","transit":false},{"station_name":"Depok","distance":5084,"transit":false,"time":6,"i_long":106.816926,"line":2,"is_transit":false,"station_id":"DP","i_lat":-6.405256},{"i_long":106.819451,"transit":false,"i_lat":-6.391065,"station_id":"DPB","is_transit":false,"distance":1584,"station_name":"Depokbaru","line":2,"time":3},{"i_long":106.831114,"line":2,"station_name":"Pondok Cina","distance":2727,"time":4,"station_id":"POC","transit":false,"is_transit":false,"i_lat":-6.369073},{"time":2,"transit":false,"i_long":106.831474,"i_lat":-6.360749,"station_id":"UI","distance":1109,"is_transit":false,"station_name":"Univ. Indonesia","line":2},{"station_name":"Univ. Pancasila","i_long":106.834175,"i_lat":-6.339291,"line":2,"distance":2264,"transit":false,"is_transit":false,"station_id":"UP","time":3},{"distance":1029,"time":2,"station_id":"LNA","transit":false,"is_transit":false,"station_name":"Lenteng Agung","i_lat":-6.330363,"line":2,"i_long":106.832616},{"i_long":106.838896,"is_transit":false,"i_lat":-6.3080680000000005,"transit":false,"station_name":"Tanjung Barat","time":3,"station_id":"TNT","line":2,"distance":2671},{"line":2,"is_transit":false,"i_long":106.843999,"transit":false,"i_lat":-6.2842400000000005,"station_id":"PSM","distance":2820,"time":4,"station_name":"Pasar Minggu"},{"distance":2380,"is_transit":false,"transit":false,"i_long":106.851577,"time":2,"i_lat":-6.263214,"line":2,"station_id":"PSMB","station_name":"Pasar Minggu Baru"},{"i_long":106.85449,"distance":824,"transit":false,"is_transit":false,"line":2,"time":2,"i_lat":-6.255332,"station_id":"DRN","station_name":"Duren Kalibata"},{"station_name":"Cawang","is_transit":false,"time":3,"i_lat":-6.242512,"station_id":"CW","i_long":106.856607,"line":2,"transit":false,"distance":1546},{"i_long":106.857948,"line":2,"transit":false,"is_transit":false,"distance":1230,"i_lat":-6.226659,"station_name":"Tebet","time":2,"station_id":"TEB"},{"i_long":106.84912,"station_id":"MRI","is_transit":true,"station_name":"Manggarai","line":2,"i_lat":-6.209883,"transit":true,"distance":2610,"time":4},{"transit":false,"station_name":"Matraman","i_lat":-6.212485,"time":2,"distance":1275,"station_id":"MTR","is_transit":false,"i_long":106.858896,"line":1},{"i_long":106.86807400000001,"is_transit":true,"station_name":"Jatinegara","distance":1377,"station_id":"JNG","i_lat":-6.215091,"transit":true,"time":8,"line":1},{"i_lat":-6.209188,"is_transit":false,"transit":false,"time":2,"i_long":106.861737,"station_name":"Pondok Jati","station_id":"POK","line":11,"distance":1236},{"distance":1829,"i_lat":-6.193792,"transit":false,"station_id":"KMT","station_name":"Kramat","i_long":106.855437,"line":11,"is_transit":false,"time":2},{"is_transit":false,"i_long":106.850107,"station_id":"GST","transit":false,"i_lat":-6.185975,"distance":973,"station_name":"Gang Sentiong","line":11,"time":1},{"is_transit":false,"station_name":"Pasar Senen","i_lat":-6.174784,"line":11,"station_id":"PSE","i_long":106.84368,"distance":1567,"transit":false,"time":8},{"line":11,"station_name":"Kemayoran","distance":1436,"station_id":"KMO","is_transit":false,"i_lat":-6.161728,"transit":false,"time":4,"i_long":106.839204},{"station_id":"RJW","station_name":"Rajawali","is_transit":false,"transit":false,"i_long":106.836569,"i_lat":-6.14505,"distance":1901,"line":11,"time":5},{"station_id":"KPB","distance":1444,"time":3,"transit":true,"station_name":"Kampung Bandan","i_long":106.826365,"is_transit":true,"i_lat":-6.132549,"line":4},{"transit":false,"station_name":"Angke","line":1,"distance":4102,"station_id":"AK","i_long":106.79867,"i_lat":-6.144674,"time":9,"is_transit":false},{"distance":1230,"station_name":"Duri","is_transit":false,"transit":false,"i_long":106.800832,"i_lat":-6.155215,"line":1,"station_id":"DU","time":4},{"line":1,"station_id":"THB","time":8,"is_transit":true,"i_long":106.811091,"distance":3632,"i_lat":-6.185545,"station_name":"Tanah Abang","transit":true},{"transit":false,"station_name":"Palmerah","time":6,"line":6,"station_id":"PLM","is_transit":false,"i_long":106.79689,"distance":3191,"i_lat":-6.207404},{"station_name":"Kebayoran","i_lat":-6.237242,"i_long":106.780334,"time":7,"station_id":"KBY","distance":3737,"line":6,"transit":false,"is_transit":false},{"time":8,"distance":6218,"station_id":"PDJ","station_name":"Pondokranji","transit":false,"i_long":106.74273,"i_lat":-6.276362,"line":6,"is_transit":false},{"i_lat":-6.288927,"is_transit":false,"time":3,"distance":2179,"station_id":"JMU","station_name":"Jurangmangu","i_long":106.728916,"line":6,"transit":false}]]}