{"data":[[{"i_long":106.790574,"i_lat":-6.594596,"transit":false,"station_id":"BOO","station_name":"Bogor","is_transit":false,"time":0,"line":2,"distance":0},{"is_transit":false,"line":2,"station_id":"CLT","i_lat":-6.530544,"i_long":106.800016,"station_name":"Cilebut","transit":false,"time":9,"distance":7514},{"line":2,"i_lat":-6.493243,"is_transit":false,"transit":false,"station_id":"BJD","time":5,"distance":4331,"i_long":106.792719,"station_name":"Bojonggede"},{"i_long":106.800298,"i_lat":-6.448811,"transit":false,"distance":5197,"line":2,"station_name":"Citayam","station_id":"CTA","is_transit":false,"time":5},{"is_transit":false,"station_name":"Depok","distance":5084,"transit":false,"time":6,"i_lat":-6.405256,"i_long":106.816926,"station_id":"DP","line":2},{"transit":false,"is_transit":false,"distance":1584,"i_long":106.819451,"station_name":"Depokbaru","time":3,"i_lat":-6.391065,"station_id":"DPB","line":2},{"i_long":106.831114,"i_lat":-6.369073,"is_transit":false,"station_name":"Pondok Cina","line":2,"station_id":"POC","time":4,"transit":false,"distance":2727},{"station_id":"UI","transit":false,"i_lat":-6.360749,"time":2,"line":2,"distance":1109,"i_long":106.831474,"is_transit":false,"station_name":"Univ. Indonesia"},{"time":3,"distance":2264,"i_long":106.834175,"line":2,"transit":false,"station_name":"Univ. Pancasila","i_lat":-6.339291,"station_id":"UP","is_transit":false}]]}