{"data":[[{"station_name":"Bogor","station_id":"BOO","transit":false,"i_long":106.790574,"line":2,"is_transit":false,"distance":0,"time":0,"i_lat":-6.594596},{"line":2,"station_name":"Cilebut","transit":false,"distance":7514,"i_long":106.800016,"time":9,"is_transit":false,"station_id":"CLT","i_lat":-6.530544},{"time":5,"transit":false,"distance":4331,"i_lat":-6.493243,"i_long":106.792719,"line":2,"is_transit":false,"station_name":"Bojonggede","station_id":"BJD"},{"i_lat":-6.448811,"station_name":"Citayam","line":2,"time":5,"distance":5197,"is_transit":false,"transit":false,"i_long":106.800298,"station_id":"CTA"},{"time":6,"distance":5084,"is_transit":false,"i_lat":-6.405256,"station_id":"DP","station_name":"Depok","i_long":106.816926,"transit":false,"line":2},{"line":2,"station_id":"DPB","is_transit":false,"station_name":"Depokbaru","distance":1584,"transit":false,"i_lat":-6.391065,"i_long":106.819451,"time":3},{"station_name":"Pondok Cina","i_lat":-6.369073,"i_long":106.831114,"line":2,"station_id":"POC","time":4,"distance":2727,"is_transit":false,"transit":false},{"line":2,"i_long":106.831474,"distance":1109,"station_name":"Univ. Indonesia","transit":false,"time":2,"station_id":"UI","i_lat":-6.360749,"is_transit":false},{"distance":2264,"time":3,"i_long":106.834175,"station_name":"Univ. Pancasila","station_id":"UP","transit":false,"i_lat":-6.339291,"line":2,"is_transit":false},{"is_transit":false,"distance":1029,"station_id":"LNA","i_long":106.832616,"i_lat":-6.330363,"time":2,"station_name":"Lenteng Agung","transit":false,"line":2},{"transit":false,"station_id":"TNT","i_lat":-6.3080680000000005,"line":2,"station_name":"Tanjung Barat","time":3,"distance":2671,"is_transit":false,"i_long":106.838896},{"station_name":"Pasar Minggu","time":4,"line":2,"distance":2820,"i_long":106.843999,"transit":false,"station_id":"PSM","is_transit":false,"i_lat":-6.2842400000000005},{"station_name":"Pasar Minggu Baru","time":2,"station_id":"PSMB","distance":2380,"i_long":106.851577,"is_transit":false,"transit":false,"i_lat":-6.263214,"line":2},{"station_name":"Duren Kalibata","station_id":"DRN","time":2,"is_transit":false,"i_lat":-6.255332,"transit":false,"distance":824,"i_long":106.85449,"line":2},{"distance":1546,"is_transit":false,"transit":false,"line":2,"station_name":"Cawang","i_long":106.856607,"time":3,"i_lat":-6.242512,"station_id":"CW"},{"time":2,"is_transit":false,"station_id":"TEB","transit":false,"i_lat":-6.226659,"i_long":106.857948,"distance":1230,"station_name":"Tebet","line":2},{"i_lat":-6.209883,"station_id":"MRI","time":4,"is_transit":true,"transit":true,"distance":2610,"line":2,"i_long":106.84912,"station_name":"Manggarai"},{"i_lat":-6.202263,"is_transit":false,"line":1,"transit":false,"distance":3186,"time":4,"station_name":"Sudirman","i_long":106.822649,"station_id":"SUD"},{"i_lat":-6.201433,"line":1,"station_id":"SUDB","distance":280,"is_transit":false,"time":1,"station_name":"Sudirman Baru","i_long":106.819881,"transit":false},{"station_name":"Karet","is_transit":false,"time":1,"i_long":106.816351,"line":1,"station_id":"KAT","transit":false,"i_lat":-6.20132,"distance":471},{"station_name":"Tanah Abang","is_transit":false,"i_long":106.811091,"i_lat":-6.185545,"transit":false,"time":5,"line":1,"distance":2029,"station_id":"THB"},{"transit":true,"is_transit":true,"distance":3632,"i_long":106.800832,"line":1,"i_lat":-6.155215,"time":8,"station_id":"DU","station_name":"Duri"},{"transit":false,"i_long":106.788277,"is_transit":false,"line":5,"station_id":"GRG","time":3,"station_name":"Grogol","i_lat":-6.162021,"distance":1700},{"is_transit":false,"transit":false,"time":2,"i_lat":-6.161433,"distance":2036,"station_id":"PSG","station_name":"Pesing","i_long":106.771379,"line":5},{"line":5,"time":2,"i_lat":-6.1587309999999995,"distance":1614,"station_name":"Taman Kota","is_transit":false,"station_id":"TKO","transit":false,"i_long":106.756522},{"transit":false,"line":5,"distance":2334,"is_transit":false,"station_id":"BOI","station_name":"Bojongindah","i_lat":-6.159876,"i_long":106.737035,"time":2},{"time":4,"distance":1152,"is_transit":false,"i_long":106.723064,"line":5,"transit":false,"station_name":"Rawa Buaya","station_id":"RW","i_lat":-6.162758},{"is_transit":false,"i_lat":-6.166068,"distance":2504,"i_long":106.701612,"station_id":"KDS","line":5,"station_name":"Kalideres","time":3,"transit":false},{"i_long":106.679458,"station_id":"PI","station_name":"Poris","transit":false,"time":3,"distance":2548,"i_lat":-6.169933,"line":5,"is_transit":false},{"time":3,"station_name":"Batuceper","line":5,"i_lat":-6.171811,"transit":false,"station_id":"BPR","is_transit":false,"i_long":106.665036,"distance":1834}],[{"line":2,"station_id":"BOO","transit":false,"time":0,"distance":0,"is_transit":false,"station_name":"Bogor","i_long":106.790574,"i_lat":-6.594596},{"i_lat":-6.530544,"transit":false,"line":2,"distance":7514,"is_transit":false,"time":9,"station_name":"Cilebut","i_long":106.800016,"station_id":"CLT"},{"distance":4331,"transit":false,"i_long":106.792719,"time":5,"is_transit":false,"station_name":"Bojonggede","line":2,"i_lat":-6.493243,"station_id":"BJD"},{"time":5,"is_transit":false,"station_id":"CTA","transit":false,"i_long":106.800298,"distance":5197,"i_lat":-6.448811,"station_name":"Citayam","line":2},{"transit":false,"i_long":106.816926,"time":6,"station_name":"Depok","line":2,"is_transit":false,"distance":5084,"i_lat":-6.405256,"station_id":"DP"},{"i_lat":-6.391065,"time":3,"line":2,"distance":1584,"is_transit":false,"i_long":106.819451,"station_id":"DPB","transit":false,"station_name":"Depokbaru"},{"time":4,"transit":false,"station_name":"Pondok Cina","i_lat":-6.369073,"line":2,"distance":2727,"is_transit":false,"station_id":"POC","i_long":106.831114},{"is_transit":false,"time":2,"station_id":"UI","station_name":"Univ. Indonesia","i_lat":-6.360749,"line":2,"distance":1109,"i_long":106.831474,"transit":false},{"transit":false,"time":3,"distance":2264,"is_transit":false,"station_id":"UP","i_lat":-6.339291,"i_long":106.834175,"line":2,"station_name":"Univ. Pancasila"},{"i_lat":-6.330363,"station_id":"LNA","transit":false,"i_long":106.832616,"distance":1029,"time":2,"is_transit":false,"station_name":"Lenteng Agung","line":2},{"is_transit":false,"i_lat":-6.3080680000000005,"station_name":"Tanjung Barat","transit":false,"time":3,"distance":2671,"line":2,"i_long":106.838896,"station_id":"TNT"},{"distance":2820,"time":4,"station_name":"Pasar Minggu","i_lat":-6.2842400000000005,"i_long":106.843999,"transit":false,"is_transit":false,"line":2,"station_id":"PSM"},{"distance":2380,"i_lat":-6.263214,"transit":false,"is_transit":false,"time":2,"station_name":"Pasar Minggu Baru","line":2,"i_long":106.851577,"station_id":"PSMB"},{"station_id":"DRN","transit":false,"line":2,"station_name":"Duren Kalibata","i_long":106.85449,"distance":824,"i_lat":-6.255332,"time":2,"is_transit":false},{"time":3,"transit":false,"is_transit":false,"i_long":106.856607,"distance":1546,"i_lat":-6.242512,"station_id":"CW","line":2,"station_name":"Cawang"},{"is_transit":false,"station_name":"Tebet","i_long":106.857948,"distance":1230,"line":2,"station_id":"TEB","time":2,"i_lat":-6.226659,"transit":false},{"line":2,"transit":false,"station_name":"Manggarai","station_id":"MRI","is_transit":false,"i_long":106.84912,"time":4,"i_lat":-6.209883,"distance":2610},{"station_name":"Cikini","distance":1590,"station_id":"CKI","transit":false,"time":4,"line":2,"i_lat":-6.198556,"i_long":106.840169,"is_transit":false},{"station_name":"Gondangdia","is_transit":false,"distance":1750,"i_lat":-6.186295,"i_long":106.832183,"line":2,"transit":false,"station_id":"GDD","time":3},{"i_long":106.828284,"station_id":"JUA","station_name":"Juanda","transit":false,"time":4,"i_lat":-6.166716,"is_transit":false,"line":2,"distance":2015},{"is_transit":false,"i_long":106.827103,"time":2,"i_lat":-6.160725,"line":2,"station_name":"Sawah Besar","distance":1149,"station_id":"SW","transit":false},{"i_long":106.82482,"transit":false,"station_name":"Manggabesar","line":2,"distance":906,"i_lat":-6.149769,"time":2,"station_id":"MGB","is_transit":false},{"i_lat":-6.141205,"i_long":106.820901,"line":2,"is_transit":false,"distance":1080,"station_id":"JAY","station_name":"Jayakarta","time":2,"transit":false},{"line":2,"station_id":"JAKK","transit":true,"is_transit":true,"station_name":"Jakarta Kota","i_lat":-6.137569,"i_long":106.812439,"time":4,"distance":1264},{"time":3,"i_long":106.826365,"station_name":"Kampung Bandan","transit":true,"line":4,"distance":1364,"is_transit":true,"i_lat":-6.132549,"station_id":"KPB"},{"is_transit":false,"line":1,"station_id":"AK","distance":4102,"station_name":"Angke","i_lat":-6.144674,"transit":false,"time":9,"i_long":106.79867},{"transit":true,"station_name":"Duri","distance":1230,"station_id":"DU","time":4,"line":1,"is_transit":true,"i_long":106.800832,"i_lat":-6.155215},{"i_lat":-6.162021,"station_id":"GRG","transit":false,"is_transit":false,"station_name":"Grogol","i_long":106.788277,"distance":1700,"line":5,"time":3},{"i_long":106.771379,"station_name":"Pesing","line":5,"is_transit":false,"station_id":"PSG","distance":2036,"transit":false,"time":2,"i_lat":-6.161433},{"line":5,"station_name":"Taman Kota","distance":1614,"is_transit":false,"transit":false,"i_lat":-6.1587309999999995,"i_long":106.756522,"station_id":"TKO","time":2},{"time":2,"distance":2334,"station_id":"BOI","i_long":106.737035,"transit":false,"is_transit":false,"station_name":"Bojongindah","i_lat":-6.159876,"line":5},{"station_id":"RW","is_transit":false,"station_name":"Rawa Buaya","time":4,"line":5,"i_long":106.723064,"distance":1152,"transit":false,"i_lat":-6.162758},{"transit":false,"i_lat":-6.166068,"time":3,"station_id":"KDS","distance":2504,"line":5,"is_transit":false,"i_long":106.701612,"station_name":"Kalideres"},{"i_lat":-6.169933,"i_long":106.679458,"line":5,"distance":2548,"is_transit":false,"time":3,"transit":false,"station_id":"PI","station_name":"Poris"},{"station_id":"BPR","transit":false,"i_lat":-6.171811,"station_name":"Batuceper","is_transit":false,"time":3,"line":5,"i_long":106.665036,"distance":1834}],[{"station_id":"BOO","distance":0,"is_transit":false,"station_name":"Bogor","time":0,"transit":false,"i_lat":-6.594596,"i_long":106.790574,"line":2},{"is_transit":false,"time":9,"station_name":"Cilebut","station_id":"CLT","distance":7514,"transit":false,"i_lat":-6.530544,"i_long":106.800016,"line":2},{"station_name":"Bojonggede","line":2,"i_long":106.792719,"station_id":"BJD","i_lat":-6.493243,"is_transit":false,"transit":false,"distance":4331,"time":5},{"is_transit":false,"line":2,"transit":false,"i_long":106.800298,"station_name":"Citayam","distance":5197,"time":5,"i_lat":-6.448811,"station_id":"CTA"},{"distance":5084,"time":6,"transit":false,"i_long":106.816926,"line":2,"is_transit":false,"station_id":"DP","station_name":"Depok","i_lat":-6.405256},{"station_name":"Depokbaru","distance":1584,"i_long":106.819451,"i_lat":-6.391065,"transit":false,"line":2,"station_id":"DPB","time":3,"is_transit":false},{"distance":2727,"i_long":106.831114,"line":2,"transit":false,"i_lat":-6.369073,"station_id":"POC","time":4,"is_transit":false,"station_name":"Pondok Cina"},{"station_name":"Univ. Indonesia","line":2,"i_lat":-6.360749,"i_long":106.831474,"station_id":"UI","distance":1109,"transit":false,"is_transit":false,"time":2},{"i_long":106.834175,"line":2,"station_id":"UP","station_name":"Univ. Pancasila","time":3,"transit":false,"is_transit":false,"i_lat":-6.339291,"distance":2264},{"i_lat":-6.330363,"time":2,"transit":false,"distance":1029,"station_name":"Lenteng Agung","station_id":"LNA","line":2,"i_long":106.832616,"is_transit":false},{"i_long":106.838896,"i_lat":-6.3080680000000005,"station_id":"TNT","station_name":"Tanjung Barat","time":3,"line":2,"transit":false,"is_transit":false,"distance":2671},{"station_id":"PSM","is_transit":false,"station_name":"Pasar Minggu","i_long":106.843999,"transit":false,"distance":2820,"time":4,"line":2,"i_lat":-6.2842400000000005},{"line":2,"i_lat":-6.263214,"time":2,"is_transit":false,"station_name":"Pasar Minggu Baru","i_long":106.851577,"transit":false,"distance":2380,"station_id":"PSMB"},{"line":2,"distance":824,"station_name":"Duren Kalibata","is_transit":false,"time":2,"i_lat":-6.255332,"station_id":"DRN","i_long":106.85449,"transit":false},{"station_name":"Cawang","i_lat":-6.242512,"distance":1546,"station_id":"CW","time":3,"i_long":106.856607,"transit":false,"is_transit":false,"line":2},{"transit":false,"time":2,"i_lat":-6.226659,"line":2,"station_name":"Tebet","station_id":"TEB","i_long":106.857948,"is_transit":false,"distance":1230},{"line":2,"distance":2610,"is_transit":true,"i_long":106.84912,"transit":true,"i_lat":-6.209883,"station_id":"MRI","time":4,"station_name":"Manggarai"},{"line":1,"i_lat":-6.212485,"distance":1275,"station_id":"MTR","transit":false,"station_name":"Matraman","is_transit":false,"time":2,"i_long":106.858896},{"station_id":"JNG","station_name":"Jatinegara","distance":1377,"is_transit":true,"transit":true,"i_long":106.86807400000001,"i_lat":-6.215091,"line":1,"time":8},{"station_name":"Pondok Jati","is_transit":false,"distance":1236,"i_lat":-6.209188,"line":11,"transit":false,"time":2,"i_long":106.861737,"station_id":"POK"},{"line":11,"transit":false,"i_long":106.855437,"is_transit":false,"distance":1829,"time":2,"station_name":"Kramat","station_id":"KMT","i_lat":-6.193792},{"line":11,"station_name":"Gang Sentiong","time":1,"is_transit":false,"distance":973,"i_lat":-6.185975,"transit":false,"station_id":"GST","i_long":106.850107},{"time":8,"is_transit":false,"station_id":"PSE","station_name":"Pasar Senen","i_long":106.84368,"line":11,"i_lat":-6.174784,"distance":1567,"transit":false},{"i_long":106.839204,"transit":false,"time":4,"station_id":"KMO","station_name":"Kemayoran","i_lat":-6.161728,"line":11,"distance":1436,"is_transit":false},{"distance":1901,"time":5,"line":11,"station_id":"RJW","station_name":"Rajawali","i_long":106.836569,"transit":false,"i_lat":-6.14505,"is_transit":false},{"time":3,"i_lat":-6.132549,"distance":1444,"transit":true,"is_transit":true,"station_id":"KPB","i_long":106.826365,"line":4,"station_name":"Kampung Bandan"},{"time":9,"i_lat":-6.144674,"transit":false,"is_transit":false,"line":1,"station_name":"Angke","distance":4102,"station_id":"AK","i_long":106.79867},{"is_transit":true,"i_lat":-6.155215,"line":1,"station_id":"DU","station_name":"Duri","transit":true,"i_long":106.800832,"distance":1230,"time":4},{"station_name":"Grogol","line":5,"distance":1700,"transit":false,"i_lat":-6.162021,"time":3,"is_transit":false,"station_id":"GRG","i_long":106.788277},{"transit":false,"line":5,"i_long":106.771379,"time":2,"is_transit":false,"station_name":"Pesing","station_id":"PSG","distance":2036,"i_lat":-6.161433},{"i_long":106.756522,"distance":1614,"line":5,"is_transit":false,"time":2,"station_id":"TKO","i_lat":-6.1587309999999995,"transit":false,"station_name":"Taman Kota"},{"is_transit":false,"station_name":"Bojongindah","station_id":"BOI","i_lat":-6.159876,"line":5,"distance":2334,"transit":false,"time":2,"i_long":106.737035},{"time":4,"station_name":"Rawa Buaya","i_long":106.723064,"i_lat":-6.162758,"station_id":"RW","transit":false,"is_transit":false,"line":5,"distance":1152},{"line":5,"distance":2504,"is_transit":false,"time":3,"i_lat":-6.166068,"i_long":106.701612,"transit":false,"station_name":"Kalideres","station_id":"KDS"},{"time":3,"is_transit":false,"i_lat":-6.169933,"line":5,"station_id":"PI","station_name":"Poris","distance":2548,"i_long":106.679458,"transit":false},{"i_lat":-6.171811,"transit":false,"station_name":"Batuceper","i_long":106.665036,"station_id":"BPR","line":5,"distance":1834,"is_transit":false,"time":3}]]}