{"data":[[{"is_transit":false,"line":2,"i_long":106.790574,"station_name":"Bogor","time":0,"transit":false,"distance":0,"i_lat":-6.594596,"station_id":"BOO"},{"station_name":"Cilebut","i_lat":-6.530544,"i_long":106.800016,"line":2,"is_transit":false,"transit":false,"distance":7514,"station_id":"CLT","time":9},{"station_id":"BJD","time":5,"i_long":106.792719,"i_lat":-6.493243,"line":2,"distance":4331,"transit":false,"is_transit":false,"station_name":"Bojonggede"},{"transit":false,"line":2,"station_id":"CTA","is_transit":false,"time":5,"distance":5197,"station_name":"Citayam","i_lat":-6.448811,"i_long":106.800298},{"transit":false,"i_lat":-6.405256,"station_name":"Depok","station_id":"DP","distance":5084,"i_long":106.816926,"time":6,"is_transit":false,"line":2},{"line":2,"i_lat":-6.391065,"is_transit":false,"station_name":"Depokbaru","station_id":"DPB","time":3,"distance":1584,"i_long":106.819451,"transit":false},{"i_long":106.831114,"time":4,"station_name":"Pondok Cina","transit":false,"i_lat":-6.369073,"line":2,"distance":2727,"station_id":"POC","is_transit":false},{"station_id":"UI","distance":1109,"i_long":106.831474,"transit":false,"i_lat":-6.360749,"line":2,"station_name":"Univ. Indonesia","time":2,"is_transit":false},{"distance":2264,"time":3,"i_long":106.834175,"transit":false,"station_name":"Univ. Pancasila","line":2,"station_id":"UP","is_transit":false,"i_lat":-6.339291},{"line":2,"i_long":106.832616,"station_name":"Lenteng Agung","transit":false,"time":2,"is_transit":false,"distance":1029,"i_lat":-6.330363,"station_id":"LNA"},{"station_name":"Tanjung Barat","station_id":"TNT","time":3,"i_lat":-6.3080680000000005,"line":2,"transit":false,"i_long":106.838896,"is_transit":false,"distance":2671},{"is_transit":false,"time":4,"i_long":106.843999,"transit":false,"distance":2820,"line":2,"station_name":"Pasar Minggu","station_id":"PSM","i_lat":-6.2842400000000005},{"distance":2380,"time":2,"line":2,"i_lat":-6.263214,"transit":false,"is_transit":false,"i_long":106.851577,"station_id":"PSMB","station_name":"Pasar Minggu Baru"},{"line":2,"time":2,"i_lat":-6.255332,"station_name":"Duren Kalibata","is_transit":false,"station_id":"DRN","distance":824,"i_long":106.85449,"transit":false},{"i_lat":-6.242512,"transit":false,"is_transit":false,"i_long":106.856607,"line":2,"station_name":"Cawang","station_id":"CW","time":3,"distance":1546},{"line":2,"transit":false,"i_lat":-6.226659,"station_name":"Tebet","distance":1230,"station_id":"TEB","is_transit":false,"i_long":106.857948,"time":2},{"station_id":"MRI","transit":true,"station_name":"Manggarai","i_lat":-6.209883,"i_long":106.84912,"is_transit":true,"distance":2610,"time":4,"line":2},{"i_lat":-6.202263,"time":4,"i_long":106.822649,"station_name":"Sudirman","line":1,"transit":false,"is_transit":false,"distance":3186,"station_id":"SUD"},{"is_transit":false,"station_id":"SUDB","i_lat":-6.201433,"i_long":106.819881,"time":1,"distance":280,"transit":false,"line":1,"station_name":"Sudirman Baru"},{"i_lat":-6.20132,"i_long":106.816351,"line":1,"transit":false,"is_transit":false,"station_id":"KAT","station_name":"Karet","time":1,"distance":471},{"station_name":"Tanah Abang","distance":2029,"is_transit":true,"time":5,"transit":true,"i_long":106.811091,"line":1,"station_id":"THB","i_lat":-6.185545},{"is_transit":false,"station_id":"PLM","line":6,"time":6,"i_lat":-6.207404,"distance":3191,"i_long":106.79689,"station_name":"Palmerah","transit":false},{"transit":false,"i_long":106.780334,"station_name":"Kebayoran","station_id":"KBY","distance":3737,"i_lat":-6.237242,"line":6,"time":7,"is_transit":false},{"i_long":106.74273,"station_name":"Pondokranji","is_transit":false,"distance":6218,"line":6,"station_id":"PDJ","transit":false,"i_lat":-6.276362,"time":8},{"time":3,"station_name":"Jurangmangu","transit":false,"station_id":"JMU","distance":2179,"is_transit":false,"i_long":106.728916,"i_lat":-6.288927,"line":6}],[{"is_transit":false,"distance":0,"i_long":106.790574,"line":2,"i_lat":-6.594596,"station_name":"Bogor","station_id":"BOO","time":0,"transit":false},{"line":2,"transit":false,"station_id":"CLT","i_lat":-6.530544,"station_name":"Cilebut","distance":7514,"time":9,"i_long":106.800016,"is_transit":false},{"i_long":106.792719,"transit":false,"is_transit":false,"station_id":"BJD","distance":4331,"time":5,"i_lat":-6.493243,"station_name":"Bojonggede","line":2},{"distance":5197,"station_name":"Citayam","transit":false,"line":2,"i_long":106.800298,"time":5,"is_transit":false,"i_lat":-6.448811,"station_id":"CTA"},{"distance":5084,"time":6,"i_lat":-6.405256,"i_long":106.816926,"station_name":"Depok","is_transit":false,"station_id":"DP","line":2,"transit":false},{"i_lat":-6.391065,"line":2,"station_id":"DPB","station_name":"Depokbaru","distance":1584,"i_long":106.819451,"transit":false,"is_transit":false,"time":3},{"station_id":"POC","station_name":"Pondok Cina","transit":false,"is_transit":false,"time":4,"distance":2727,"i_long":106.831114,"i_lat":-6.369073,"line":2},{"station_name":"Univ. Indonesia","time":2,"is_transit":false,"transit":false,"station_id":"UI","line":2,"i_lat":-6.360749,"i_long":106.831474,"distance":1109},{"is_transit":false,"time":3,"station_id":"UP","distance":2264,"i_lat":-6.339291,"transit":false,"station_name":"Univ. Pancasila","line":2,"i_long":106.834175},{"station_name":"Lenteng Agung","is_transit":false,"time":2,"line":2,"i_lat":-6.330363,"station_id":"LNA","distance":1029,"transit":false,"i_long":106.832616},{"distance":2671,"station_id":"TNT","station_name":"Tanjung Barat","time":3,"line":2,"is_transit":false,"i_lat":-6.3080680000000005,"transit":false,"i_long":106.838896},{"station_name":"Pasar Minggu","transit":false,"distance":2820,"time":4,"i_lat":-6.2842400000000005,"i_long":106.843999,"is_transit":false,"station_id":"PSM","line":2},{"i_long":106.851577,"is_transit":false,"station_id":"PSMB","i_lat":-6.263214,"time":2,"line":2,"distance":2380,"station_name":"Pasar Minggu Baru","transit":false},{"transit":false,"i_lat":-6.255332,"station_id":"DRN","i_long":106.85449,"station_name":"Duren Kalibata","distance":824,"time":2,"is_transit":false,"line":2},{"i_long":106.856607,"station_id":"CW","station_name":"Cawang","i_lat":-6.242512,"time":3,"line":2,"is_transit":false,"transit":false,"distance":1546},{"distance":1230,"i_lat":-6.226659,"transit":false,"i_long":106.857948,"line":2,"station_name":"Tebet","station_id":"TEB","time":2,"is_transit":false},{"time":4,"i_lat":-6.209883,"line":2,"is_transit":false,"station_id":"MRI","i_long":106.84912,"station_name":"Manggarai","transit":false,"distance":2610},{"i_long":106.840169,"line":2,"distance":1590,"station_name":"Cikini","transit":false,"station_id":"CKI","time":4,"i_lat":-6.198556,"is_transit":false},{"station_name":"Gondangdia","line":2,"transit":false,"station_id":"GDD","i_lat":-6.186295,"is_transit":false,"time":3,"i_long":106.832183,"distance":1750},{"is_transit":false,"station_id":"JUA","time":4,"i_lat":-6.166716,"line":2,"station_name":"Juanda","distance":2015,"i_long":106.828284,"transit":false},{"station_name":"Sawah Besar","transit":false,"i_long":106.827103,"line":2,"is_transit":false,"time":2,"distance":1149,"i_lat":-6.160725,"station_id":"SW"},{"line":2,"time":2,"i_lat":-6.149769,"transit":false,"station_name":"Manggabesar","is_transit":false,"distance":906,"station_id":"MGB","i_long":106.82482},{"station_name":"Jayakarta","line":2,"time":2,"distance":1080,"i_lat":-6.141205,"station_id":"JAY","transit":false,"i_long":106.820901,"is_transit":false},{"station_id":"JAKK","distance":1264,"station_name":"Jakarta Kota","transit":true,"i_long":106.812439,"i_lat":-6.137569,"time":4,"is_transit":true,"line":2},{"is_transit":true,"distance":1364,"line":4,"station_name":"Kampung Bandan","i_lat":-6.132549,"time":3,"transit":true,"station_id":"KPB","i_long":106.826365},{"station_name":"Angke","is_transit":false,"line":1,"distance":4102,"time":9,"i_lat":-6.144674,"i_long":106.79867,"station_id":"AK","transit":false},{"i_lat":-6.155215,"transit":false,"distance":1230,"station_id":"DU","station_name":"Duri","i_long":106.800832,"time":4,"line":1,"is_transit":false},{"station_id":"THB","time":8,"distance":3632,"station_name":"Tanah Abang","i_lat":-6.185545,"transit":true,"i_long":106.811091,"line":1,"is_transit":true},{"station_name":"Palmerah","is_transit":false,"station_id":"PLM","time":6,"transit":false,"distance":3191,"i_long":106.79689,"line":6,"i_lat":-6.207404},{"time":7,"station_id":"KBY","i_lat":-6.237242,"is_transit":false,"i_long":106.780334,"station_name":"Kebayoran","transit":false,"distance":3737,"line":6},{"transit":false,"i_long":106.74273,"line":6,"time":8,"station_name":"Pondokranji","station_id":"PDJ","distance":6218,"i_lat":-6.276362,"is_transit":false},{"is_transit":false,"i_long":106.728916,"i_lat":-6.288927,"line":6,"distance":2179,"time":3,"transit":false,"station_name":"Jurangmangu","station_id":"JMU"}],[{"distance":0,"is_transit":false,"i_lat":-6.594596,"station_id":"BOO","i_long":106.790574,"line":2,"time":0,"station_name":"Bogor","transit":false},{"i_lat":-6.530544,"distance":7514,"station_name":"Cilebut","time":9,"i_long":106.800016,"station_id":"CLT","is_transit":false,"line":2,"transit":false},{"station_name":"Bojonggede","transit":false,"distance":4331,"time":5,"is_transit":false,"i_lat":-6.493243,"station_id":"BJD","i_long":106.792719,"line":2},{"station_name":"Citayam","is_transit":false,"transit":false,"time":5,"station_id":"CTA","distance":5197,"i_lat":-6.448811,"i_long":106.800298,"line":2},{"station_id":"DP","is_transit":false,"time":6,"i_lat":-6.405256,"distance":5084,"station_name":"Depok","i_long":106.816926,"transit":false,"line":2},{"transit":false,"station_id":"DPB","is_transit":false,"distance":1584,"i_long":106.819451,"station_name":"Depokbaru","time":3,"i_lat":-6.391065,"line":2},{"i_long":106.831114,"transit":false,"time":4,"station_name":"Pondok Cina","station_id":"POC","distance":2727,"line":2,"is_transit":false,"i_lat":-6.369073},{"is_transit":false,"distance":1109,"i_long":106.831474,"station_id":"UI","i_lat":-6.360749,"station_name":"Univ. Indonesia","transit":false,"line":2,"time":2},{"distance":2264,"station_name":"Univ. Pancasila","transit":false,"i_lat":-6.339291,"i_long":106.834175,"line":2,"time":3,"station_id":"UP","is_transit":false},{"i_long":106.832616,"distance":1029,"transit":false,"time":2,"is_transit":false,"i_lat":-6.330363,"station_name":"Lenteng Agung","station_id":"LNA","line":2},{"station_id":"TNT","transit":false,"time":3,"i_long":106.838896,"distance":2671,"line":2,"i_lat":-6.3080680000000005,"station_name":"Tanjung Barat","is_transit":false},{"distance":2820,"is_transit":false,"station_id":"PSM","i_lat":-6.2842400000000005,"line":2,"i_long":106.843999,"time":4,"station_name":"Pasar Minggu","transit":false},{"i_lat":-6.263214,"i_long":106.851577,"distance":2380,"station_name":"Pasar Minggu Baru","time":2,"is_transit":false,"transit":false,"station_id":"PSMB","line":2},{"i_long":106.85449,"station_name":"Duren Kalibata","is_transit":false,"distance":824,"line":2,"transit":false,"time":2,"i_lat":-6.255332,"station_id":"DRN"},{"station_name":"Cawang","transit":false,"i_long":106.856607,"is_transit":false,"station_id":"CW","i_lat":-6.242512,"time":3,"distance":1546,"line":2},{"line":2,"transit":false,"station_name":"Tebet","distance":1230,"station_id":"TEB","time":2,"i_long":106.857948,"is_transit":false,"i_lat":-6.226659},{"station_name":"Manggarai","i_long":106.84912,"distance":2610,"station_id":"MRI","time":4,"is_transit":true,"i_lat":-6.209883,"line":2,"transit":true},{"station_name":"Matraman","i_long":106.858896,"i_lat":-6.212485,"transit":false,"distance":1275,"station_id":"MTR","time":2,"line":1,"is_transit":false},{"transit":true,"i_lat":-6.215091,"station_name":"Jatinegara","i_long":106.86807400000001,"distance":1377,"time":8,"is_transit":true,"station_id":"JNG","line":1},{"i_long":106.861737,"transit":false,"station_name":"Pondok Jati","station_id":"POK","line":11,"time":2,"i_lat":-6.209188,"is_transit":false,"distance":1236},{"transit":false,"station_name":"Kramat","is_transit":false,"station_id":"KMT","time":2,"distance":1829,"i_long":106.855437,"i_lat":-6.193792,"line":11},{"station_id":"GST","i_lat":-6.185975,"time":1,"station_name":"Gang Sentiong","transit":false,"is_transit":false,"distance":973,"i_long":106.850107,"line":11},{"station_id":"PSE","distance":1567,"transit":false,"i_lat":-6.174784,"is_transit":false,"i_long":106.84368,"station_name":"Pasar Senen","time":8,"line":11},{"line":11,"station_name":"Kemayoran","time":4,"distance":1436,"i_long":106.839204,"i_lat":-6.161728,"is_transit":false,"transit":false,"station_id":"KMO"},{"transit":false,"line":11,"i_lat":-6.14505,"station_id":"RJW","time":5,"i_long":106.836569,"is_transit":false,"station_name":"Rajawali","distance":1901},{"i_long":106.826365,"is_transit":true,"line":4,"i_lat":-6.132549,"station_name":"Kampung Bandan","time":3,"transit":true,"distance":1444,"station_id":"KPB"},{"station_name":"Angke","transit":false,"i_lat":-6.144674,"distance":4102,"is_transit":false,"i_long":106.79867,"time":9,"line":1,"station_id":"AK"},{"i_long":106.800832,"is_transit":false,"transit":false,"time":4,"i_lat":-6.155215,"station_id":"DU","line":1,"distance":1230,"station_name":"Duri"},{"i_lat":-6.185545,"station_name":"Tanah Abang","transit":true,"i_long":106.811091,"line":1,"distance":3632,"station_id":"THB","is_transit":true,"time":8},{"i_lat":-6.207404,"distance":3191,"i_long":106.79689,"station_id":"PLM","station_name":"Palmerah","line":6,"time":6,"is_transit":false,"transit":false},{"i_lat":-6.237242,"line":6,"station_id":"KBY","transit":false,"is_transit":false,"distance":3737,"i_long":106.780334,"station_name":"Kebayoran","time":7},{"i_lat":-6.276362,"i_long":106.74273,"station_id":"PDJ","line":6,"transit":false,"distance":6218,"is_transit":false,"station_name":"Pondokranji","time":8},{"distance":2179,"station_id":"JMU","time":3,"is_transit":false,"i_long":106.728916,"line":6,"station_name":"Jurangmangu","transit":false,"i_lat":-6.288927}]]}