{"data":[[{"line":1,"transit":false,"station_id":"BOO","time":0,"i_long":106.790574,"is_transit":true,"i_lat":-6.594596,"distance":0,"station_name":"Bogor"},{"line":0,"i_lat":-6.530544,"distance":7514,"time":9,"station_id":"CLT","is_transit":false,"station_name":"Cilebut","transit":false,"i_long":106.800016},{"i_lat":-6.493243,"station_name":"Bojonggede","line":0,"i_long":106.792719,"time":5,"station_id":"BJD","is_transit":false,"transit":false,"distance":4331},{"time":5,"station_name":"Citayam","distance":5197,"transit":false,"line":1,"station_id":"CTA","i_lat":-6.448811,"is_transit":true,"i_long":106.800298},{"time":6,"is_transit":false,"station_id":"DP","i_long":106.816926,"i_lat":-6.405256,"line":0,"station_name":"Depok","distance":5084,"transit":false},{"station_id":"DPB","is_transit":false,"station_name":"Depokbaru","distance":1584,"i_lat":-6.391065,"transit":false,"time":3,"i_long":106.819451,"line":0},{"station_name":"Pondok Cina","transit":false,"distance":2727,"line":2,"i_long":106.831114,"is_transit":false,"i_lat":-6.369073,"time":4,"station_id":"POC"},{"station_id":"UI","i_lat":-6.360749,"distance":1109,"is_transit":false,"transit":false,"line":2,"time":2,"station_name":"Univ. Indonesia","i_long":106.831474},{"is_transit":false,"distance":2264,"line":2,"time":3,"station_name":"Univ. Pancasila","station_id":"UP","transit":false,"i_long":106.834175,"i_lat":-6.339291},{"distance":1029,"time":2,"station_id":"LNA","is_transit":false,"line":2,"i_lat":-6.330363,"i_long":106.832616,"transit":false,"station_name":"Lenteng Agung"},{"i_lat":-6.3080680000000005,"station_id":"TNT","transit":false,"distance":2671,"time":3,"i_long":106.838896,"line":2,"station_name":"Tanjung Barat","is_transit":false},{"distance":2820,"station_name":"Pasar Minggu","i_lat":-6.2842400000000005,"line":2,"time":4,"transit":false,"station_id":"PSM","is_transit":false,"i_long":106.843999},{"distance":2380,"is_transit":false,"line":2,"i_lat":-6.263214,"i_long":106.851577,"station_name":"Pasar Minggu Baru","transit":false,"station_id":"PSMB","time":2},{"i_lat":-6.255332,"distance":824,"is_transit":false,"time":2,"line":0,"transit":false,"station_id":"DRN","station_name":"Duren Kalibata","i_long":106.85449},{"time":3,"line":0,"is_transit":false,"i_lat":-6.242512,"i_long":106.856607,"station_id":"CW","transit":false,"distance":1546,"station_name":"Cawang"},{"station_id":"TEB","i_long":106.857948,"line":2,"is_transit":false,"transit":false,"i_lat":-6.226659,"time":2,"distance":1230,"station_name":"Tebet"},{"distance":2610,"transit":true,"station_name":"Manggarai","time":4,"i_lat":-6.209883,"station_id":"MRI","i_long":106.84912,"line":0,"is_transit":true},{"i_lat":-6.202263,"transit":false,"is_transit":false,"station_id":"SUD","distance":3186,"time":4,"line":1,"station_name":"Sudirman","i_long":106.822649},{"time":1,"i_lat":-6.201433,"transit":false,"is_transit":false,"line":1,"station_name":"Sudirman Baru","i_long":106.819881,"station_id":"SUDB","distance":280},{"transit":false,"i_long":106.816351,"station_name":"Karet","station_id":"KAT","is_transit":false,"time":1,"distance":471,"i_lat":-6.20132,"line":1},{"station_name":"Tanah Abang","station_id":"THB","distance":2029,"line":1,"transit":true,"i_long":106.811091,"time":5,"is_transit":true,"i_lat":-6.185545},{"i_long":106.79689,"time":6,"distance":3191,"station_id":"PLM","line":6,"is_transit":false,"i_lat":-6.207404,"transit":false,"station_name":"Palmerah"},{"time":7,"is_transit":false,"distance":3737,"i_lat":-6.237242,"station_name":"Kebayoran","transit":false,"i_long":106.780334,"line":6,"station_id":"KBY"},{"distance":6218,"i_long":106.74273,"station_name":"Pondokranji","i_lat":-6.276362,"line":6,"transit":false,"station_id":"PDJ","is_transit":false,"time":8},{"i_long":106.728916,"station_id":"JMU","is_transit":false,"distance":2179,"station_name":"Jurangmangu","transit":false,"line":6,"time":3,"i_lat":-6.288927},{"station_id":"SDM","transit":false,"i_lat":-6.296963,"line":6,"is_transit":false,"time":4,"station_name":"Sudimara","i_long":106.712277,"distance":1994},{"is_transit":false,"i_lat":-6.314823,"i_long":106.675475,"station_id":"RU","station_name":"Rawa Buntu","distance":4566,"time":6,"transit":false,"line":6},{"time":4,"i_lat":-6.319871,"distance":2413,"i_long":106.66566,"line":6,"station_name":"Serpong","transit":false,"station_id":"SRP","is_transit":false},{"is_transit":false,"station_name":"Cisauk","i_long":106.640411,"distance":1784,"i_lat":-6.32484,"line":0,"time":4,"station_id":"CSK","transit":false},{"is_transit":false,"distance":2519,"station_name":"Cicayur","i_long":106.617853,"station_id":"CC","time":4,"transit":false,"line":0,"i_lat":-6.329547},{"station_id":"PRP","distance":5968,"transit":false,"is_transit":false,"i_lat":-6.3441410000000005,"line":6,"station_name":"Parung Panjang","i_long":106.568863,"time":8},{"transit":false,"distance":7025,"i_lat":-6.354349,"station_id":"CJT","station_name":"Cilejit","line":0,"time":9,"is_transit":false,"i_long":106.508482},{"line":0,"station_name":"Daru","time":6,"is_transit":false,"i_lat":-6.338021,"transit":false,"distance":2675,"station_id":"DAR","i_long":106.491338},{"i_lat":-6.327251,"station_id":"TEJ","transit":false,"time":5,"line":6,"is_transit":false,"distance":3902,"station_name":"Tenjo","i_long":106.460812},{"is_transit":false,"distance":2974,"station_id":"TGS","station_name":"Tigaraksa","line":6,"time":5,"transit":false,"i_lat":-6.328533,"i_long":106.425991},{"time":3,"distance":2651,"station_name":"Cikoya","transit":false,"i_long":106.411216,"station_id":"CKY","i_lat":-6.33561,"line":0,"is_transit":false},{"i_long":106.394373,"transit":false,"station_id":"MJ","time":4,"line":6,"i_lat":-6.332307,"is_transit":false,"station_name":"Maja","distance":1853}],[{"station_id":"BOO","time":0,"distance":0,"transit":false,"line":1,"station_name":"Bogor","i_long":106.790574,"is_transit":true,"i_lat":-6.594596},{"distance":7514,"is_transit":false,"i_lat":-6.530544,"line":0,"transit":false,"time":9,"station_name":"Cilebut","i_long":106.800016,"station_id":"CLT"},{"i_lat":-6.493243,"line":0,"transit":false,"station_id":"BJD","station_name":"Bojonggede","i_long":106.792719,"distance":4331,"time":5,"is_transit":false},{"station_id":"CTA","i_long":106.800298,"i_lat":-6.448811,"time":5,"is_transit":true,"distance":5197,"line":1,"station_name":"Citayam","transit":false},{"line":0,"is_transit":false,"time":6,"transit":false,"i_long":106.816926,"distance":5084,"station_id":"DP","station_name":"Depok","i_lat":-6.405256},{"i_long":106.819451,"is_transit":false,"line":0,"station_name":"Depokbaru","station_id":"DPB","distance":1584,"time":3,"i_lat":-6.391065,"transit":false},{"time":4,"i_lat":-6.369073,"is_transit":false,"station_name":"Pondok Cina","transit":false,"i_long":106.831114,"line":2,"station_id":"POC","distance":2727},{"is_transit":false,"distance":1109,"station_id":"UI","time":2,"station_name":"Univ. Indonesia","transit":false,"i_lat":-6.360749,"i_long":106.831474,"line":2},{"station_id":"UP","distance":2264,"time":3,"transit":false,"i_lat":-6.339291,"is_transit":false,"station_name":"Univ. Pancasila","i_long":106.834175,"line":2},{"station_name":"Lenteng Agung","line":2,"transit":false,"station_id":"LNA","i_long":106.832616,"distance":1029,"i_lat":-6.330363,"is_transit":false,"time":2},{"transit":false,"station_id":"TNT","is_transit":false,"station_name":"Tanjung Barat","i_lat":-6.3080680000000005,"i_long":106.838896,"line":2,"time":3,"distance":2671},{"i_lat":-6.2842400000000005,"i_long":106.843999,"station_id":"PSM","line":2,"time":4,"is_transit":false,"distance":2820,"station_name":"Pasar Minggu","transit":false},{"station_id":"PSMB","is_transit":false,"station_name":"Pasar Minggu Baru","i_lat":-6.263214,"line":2,"time":2,"transit":false,"distance":2380,"i_long":106.851577},{"is_transit":false,"line":0,"transit":false,"station_id":"DRN","i_lat":-6.255332,"time":2,"i_long":106.85449,"distance":824,"station_name":"Duren Kalibata"},{"i_lat":-6.242512,"line":0,"transit":false,"is_transit":false,"time":3,"i_long":106.856607,"station_id":"CW","station_name":"Cawang","distance":1546},{"station_name":"Tebet","i_long":106.857948,"i_lat":-6.226659,"time":2,"distance":1230,"transit":false,"line":2,"is_transit":false,"station_id":"TEB"},{"i_lat":-6.209883,"station_id":"MRI","time":4,"i_long":106.84912,"station_name":"Manggarai","line":0,"is_transit":true,"transit":true,"distance":2610},{"line":0,"distance":1590,"station_name":"Cikini","i_lat":-6.198556,"is_transit":false,"station_id":"CKI","time":4,"transit":false,"i_long":106.840169},{"distance":1750,"i_lat":-6.186295,"is_transit":false,"station_name":"Gondangdia","time":3,"i_long":106.832183,"transit":false,"line":2,"station_id":"GDD"},{"distance":2015,"is_transit":false,"station_name":"Juanda","i_long":106.828284,"station_id":"JUA","line":2,"transit":false,"i_lat":-6.166716,"time":4},{"station_name":"Sawah Besar","transit":false,"station_id":"SW","time":2,"is_transit":false,"distance":1149,"i_long":106.827103,"i_lat":-6.160725,"line":2},{"i_long":106.82482,"line":2,"time":2,"i_lat":-6.149769,"distance":906,"is_transit":false,"station_name":"Manggabesar","station_id":"MGB","transit":false},{"line":7,"transit":false,"distance":1080,"i_long":106.820901,"time":2,"station_name":"Jayakarta","i_lat":-6.141205,"station_id":"JAY","is_transit":false},{"distance":1264,"is_transit":true,"line":0,"i_lat":-6.137569,"time":4,"i_long":106.812439,"transit":true,"station_name":"Jakarta Kota","station_id":"JAKK"},{"transit":false,"station_id":"KPB","i_long":106.826365,"station_name":"Kampung Bandan","line":0,"time":3,"distance":1364,"is_transit":true,"i_lat":-6.132549},{"is_transit":false,"line":0,"time":9,"distance":4102,"station_id":"AK","transit":false,"i_long":106.79867,"i_lat":-6.144674,"station_name":"Angke"},{"distance":1230,"transit":true,"i_long":106.800832,"station_name":"Duri","time":4,"station_id":"DU","is_transit":true,"i_lat":-6.155215,"line":1},{"time":8,"line":1,"station_name":"Tanah Abang","i_lat":-6.185545,"distance":3632,"i_long":106.811091,"station_id":"THB","is_transit":true,"transit":true},{"time":6,"i_long":106.79689,"distance":3191,"station_id":"PLM","is_transit":false,"transit":false,"i_lat":-6.207404,"station_name":"Palmerah","line":6},{"i_lat":-6.237242,"station_name":"Kebayoran","i_long":106.780334,"time":7,"station_id":"KBY","is_transit":false,"line":6,"distance":3737,"transit":false},{"station_id":"PDJ","is_transit":false,"i_lat":-6.276362,"i_long":106.74273,"time":8,"station_name":"Pondokranji","line":6,"distance":6218,"transit":false},{"i_long":106.728916,"i_lat":-6.288927,"distance":2179,"station_id":"JMU","transit":false,"time":3,"is_transit":false,"station_name":"Jurangmangu","line":6},{"time":4,"station_id":"SDM","transit":false,"distance":1994,"i_long":106.712277,"line":6,"station_name":"Sudimara","i_lat":-6.296963,"is_transit":false},{"time":6,"station_id":"RU","distance":4566,"station_name":"Rawa Buntu","transit":false,"is_transit":false,"line":6,"i_long":106.675475,"i_lat":-6.314823},{"i_lat":-6.319871,"line":6,"distance":2413,"transit":false,"is_transit":false,"station_name":"Serpong","station_id":"SRP","time":4,"i_long":106.66566},{"i_long":106.640411,"station_name":"Cisauk","is_transit":false,"transit":false,"line":0,"i_lat":-6.32484,"station_id":"CSK","distance":1784,"time":4},{"i_lat":-6.329547,"line":0,"is_transit":false,"distance":2519,"time":4,"transit":false,"i_long":106.617853,"station_id":"CC","station_name":"Cicayur"},{"i_lat":-6.3441410000000005,"distance":5968,"station_name":"Parung Panjang","i_long":106.568863,"line":6,"time":8,"is_transit":false,"transit":false,"station_id":"PRP"},{"station_id":"CJT","distance":7025,"is_transit":false,"transit":false,"station_name":"Cilejit","i_long":106.508482,"time":9,"line":0,"i_lat":-6.354349},{"distance":2675,"i_long":106.491338,"station_id":"DAR","time":6,"line":0,"is_transit":false,"transit":false,"station_name":"Daru","i_lat":-6.338021},{"is_transit":false,"line":6,"station_id":"TEJ","station_name":"Tenjo","i_lat":-6.327251,"distance":3902,"time":5,"transit":false,"i_long":106.460812},{"distance":2974,"i_long":106.425991,"is_transit":false,"transit":false,"i_lat":-6.328533,"line":6,"station_name":"Tigaraksa","station_id":"TGS","time":5},{"time":3,"i_long":106.411216,"station_name":"Cikoya","line":0,"transit":false,"i_lat":-6.33561,"is_transit":false,"distance":2651,"station_id":"CKY"},{"distance":1853,"line":6,"is_transit":false,"i_long":106.394373,"station_id":"MJ","time":4,"transit":false,"station_name":"Maja","i_lat":-6.332307}],[{"station_id":"BOO","transit":false,"i_lat":-6.594596,"line":1,"time":0,"is_transit":true,"station_name":"Bogor","distance":0,"i_long":106.790574},{"i_lat":-6.530544,"is_transit":false,"time":9,"distance":7514,"line":0,"station_name":"Cilebut","station_id":"CLT","transit":false,"i_long":106.800016},{"time":5,"i_lat":-6.493243,"station_id":"BJD","i_long":106.792719,"line":0,"station_name":"Bojonggede","distance":4331,"transit":false,"is_transit":false},{"line":1,"is_transit":true,"distance":5197,"station_name":"Citayam","time":5,"station_id":"CTA","transit":false,"i_lat":-6.448811,"i_long":106.800298},{"i_lat":-6.405256,"station_id":"DP","line":0,"is_transit":false,"distance":5084,"i_long":106.816926,"station_name":"Depok","time":6,"transit":false},{"time":3,"distance":1584,"station_name":"Depokbaru","i_lat":-6.391065,"is_transit":false,"i_long":106.819451,"line":0,"station_id":"DPB","transit":false},{"transit":false,"line":2,"distance":2727,"i_lat":-6.369073,"i_long":106.831114,"time":4,"station_id":"POC","station_name":"Pondok Cina","is_transit":false},{"time":2,"distance":1109,"station_id":"UI","station_name":"Univ. Indonesia","line":2,"is_transit":false,"transit":false,"i_lat":-6.360749,"i_long":106.831474},{"line":2,"station_id":"UP","i_long":106.834175,"transit":false,"time":3,"i_lat":-6.339291,"is_transit":false,"distance":2264,"station_name":"Univ. Pancasila"},{"station_id":"LNA","distance":1029,"i_lat":-6.330363,"transit":false,"time":2,"i_long":106.832616,"station_name":"Lenteng Agung","line":2,"is_transit":false},{"i_long":106.838896,"station_id":"TNT","line":2,"station_name":"Tanjung Barat","distance":2671,"i_lat":-6.3080680000000005,"is_transit":false,"time":3,"transit":false},{"distance":2820,"transit":false,"station_id":"PSM","is_transit":false,"time":4,"station_name":"Pasar Minggu","i_lat":-6.2842400000000005,"i_long":106.843999,"line":2},{"station_id":"PSMB","transit":false,"i_long":106.851577,"time":2,"line":2,"distance":2380,"i_lat":-6.263214,"is_transit":false,"station_name":"Pasar Minggu Baru"},{"station_id":"DRN","is_transit":false,"time":2,"station_name":"Duren Kalibata","transit":false,"i_lat":-6.255332,"line":0,"distance":824,"i_long":106.85449},{"time":3,"is_transit":false,"i_lat":-6.242512,"line":0,"station_name":"Cawang","distance":1546,"i_long":106.856607,"station_id":"CW","transit":false},{"i_lat":-6.226659,"line":2,"i_long":106.857948,"transit":false,"time":2,"distance":1230,"station_id":"TEB","is_transit":false,"station_name":"Tebet"},{"line":0,"station_name":"Manggarai","transit":true,"station_id":"MRI","i_lat":-6.209883,"distance":2610,"is_transit":true,"time":4,"i_long":106.84912},{"time":2,"line":1,"i_long":106.858896,"station_name":"Matraman","is_transit":false,"distance":1275,"transit":false,"i_lat":-6.212485,"station_id":"MTR"},{"station_name":"Jatinegara","i_lat":-6.215091,"transit":true,"line":0,"station_id":"JNG","i_long":106.86807400000001,"is_transit":true,"time":8,"distance":1377},{"station_name":"Pondok Jati","station_id":"POK","i_lat":-6.209188,"line":11,"transit":false,"time":2,"is_transit":false,"i_long":106.861737,"distance":1236},{"is_transit":false,"line":11,"station_id":"KMT","distance":1829,"transit":false,"station_name":"Kramat","i_long":106.855437,"i_lat":-6.193792,"time":2},{"station_name":"Gang Sentiong","transit":false,"line":11,"is_transit":false,"time":1,"i_lat":-6.185975,"station_id":"GST","distance":973,"i_long":106.850107},{"distance":1567,"i_lat":-6.174784,"station_name":"Pasar Senen","time":8,"i_long":106.84368,"transit":false,"station_id":"PSE","is_transit":false,"line":11},{"station_id":"KMO","line":11,"time":4,"i_long":106.839204,"i_lat":-6.161728,"is_transit":false,"station_name":"Kemayoran","distance":1436,"transit":false},{"i_lat":-6.14505,"station_id":"RJW","i_long":106.836569,"station_name":"Rajawali","distance":1901,"is_transit":false,"transit":false,"line":11,"time":5},{"station_id":"KPB","is_transit":true,"i_long":106.826365,"time":3,"i_lat":-6.132549,"distance":1444,"station_name":"Kampung Bandan","line":0,"transit":true},{"distance":4102,"station_id":"AK","line":0,"time":9,"station_name":"Angke","transit":false,"i_long":106.79867,"i_lat":-6.144674,"is_transit":false},{"time":4,"i_long":106.800832,"i_lat":-6.155215,"is_transit":true,"station_id":"DU","distance":1230,"station_name":"Duri","transit":true,"line":1},{"station_id":"THB","time":8,"is_transit":true,"station_name":"Tanah Abang","transit":true,"i_lat":-6.185545,"i_long":106.811091,"distance":3632,"line":1},{"distance":3191,"transit":false,"station_id":"PLM","i_long":106.79689,"station_name":"Palmerah","time":6,"i_lat":-6.207404,"line":6,"is_transit":false},{"is_transit":false,"time":7,"distance":3737,"station_id":"KBY","station_name":"Kebayoran","transit":false,"i_lat":-6.237242,"i_long":106.780334,"line":6},{"station_id":"PDJ","is_transit":false,"time":8,"station_name":"Pondokranji","line":6,"distance":6218,"transit":false,"i_lat":-6.276362,"i_long":106.74273},{"station_name":"Jurangmangu","is_transit":false,"transit":false,"i_long":106.728916,"time":3,"line":6,"station_id":"JMU","i_lat":-6.288927,"distance":2179},{"is_transit":false,"station_name":"Sudimara","transit":false,"time":4,"i_lat":-6.296963,"line":6,"station_id":"SDM","i_long":106.712277,"distance":1994},{"is_transit":false,"i_lat":-6.314823,"line":6,"distance":4566,"i_long":106.675475,"transit":false,"station_id":"RU","station_name":"Rawa Buntu","time":6},{"station_name":"Serpong","is_transit":false,"station_id":"SRP","time":4,"distance":2413,"transit":false,"i_lat":-6.319871,"i_long":106.66566,"line":6},{"transit":false,"i_lat":-6.32484,"is_transit":false,"time":4,"station_id":"CSK","distance":1784,"line":0,"station_name":"Cisauk","i_long":106.640411},{"station_id":"CC","distance":2519,"transit":false,"time":4,"i_long":106.617853,"station_name":"Cicayur","line":0,"i_lat":-6.329547,"is_transit":false},{"is_transit":false,"time":8,"distance":5968,"station_name":"Parung Panjang","station_id":"PRP","i_lat":-6.3441410000000005,"transit":false,"i_long":106.568863,"line":6},{"i_long":106.508482,"distance":7025,"station_name":"Cilejit","station_id":"CJT","i_lat":-6.354349,"is_transit":false,"time":9,"line":0,"transit":false},{"station_id":"DAR","is_transit":false,"station_name":"Daru","transit":false,"i_long":106.491338,"line":0,"i_lat":-6.338021,"distance":2675,"time":6},{"is_transit":false,"station_id":"TEJ","time":5,"distance":3902,"transit":false,"line":6,"station_name":"Tenjo","i_lat":-6.327251,"i_long":106.460812},{"transit":false,"station_id":"TGS","distance":2974,"is_transit":false,"station_name":"Tigaraksa","i_lat":-6.328533,"i_long":106.425991,"line":6,"time":5},{"i_lat":-6.33561,"station_name":"Cikoya","line":0,"i_long":106.411216,"distance":2651,"station_id":"CKY","transit":false,"is_transit":false,"time":3},{"line":6,"station_id":"MJ","is_transit":false,"time":4,"i_lat":-6.332307,"i_long":106.394373,"transit":false,"distance":1853,"station_name":"Maja"}]]}