{"data":[[{"line":1,"i_lat":-6.594596,"station_id":"BOO","is_transit":true,"distance":0,"time":0,"i_long":106.790574,"transit":false,"station_name":"Bogor"},{"station_name":"Cilebut","is_transit":false,"transit":false,"distance":7514,"i_long":106.800016,"line":0,"station_id":"CLT","time":9,"i_lat":-6.530544},{"distance":4331,"line":0,"time":5,"i_long":106.792719,"i_lat":-6.493243,"is_transit":false,"station_name":"Bojonggede","station_id":"BJD","transit":false},{"i_long":106.800298,"transit":false,"is_transit":true,"time":5,"line":1,"station_name":"Citayam","distance":5197,"station_id":"CTA","i_lat":-6.448811},{"transit":false,"time":10,"station_id":"CBN","i_lat":-6.46424,"i_long":106.851978,"line":0,"station_name":"Cibinong","is_transit":false,"distance":6740},{"transit":false,"station_id":"NMO","is_transit":false,"distance":6527,"station_name":"Nambo","time":10,"i_lat":-6.466285,"line":21,"i_long":106.905196}]]}