{"data":[[{"is_transit":true,"i_long":106.790574,"distance":0,"station_id":"BOO","station_name":"Bogor","time":0,"transit":false,"i_lat":-6.594596,"line":1},{"time":9,"distance":7514,"station_id":"CLT","i_long":106.800016,"transit":false,"line":0,"is_transit":false,"i_lat":-6.530544,"station_name":"Cilebut"},{"station_id":"BJD","is_transit":false,"i_long":106.792719,"line":0,"distance":4331,"i_lat":-6.493243,"transit":false,"time":5,"station_name":"Bojonggede"},{"line":1,"station_id":"CTA","i_long":106.800298,"transit":false,"is_transit":true,"station_name":"Citayam","i_lat":-6.448811,"time":5,"distance":5197},{"is_transit":false,"time":6,"station_name":"Depok","i_lat":-6.405256,"transit":false,"station_id":"DP","line":0,"distance":5084,"i_long":106.816926},{"i_lat":-6.391065,"line":0,"distance":1584,"i_long":106.819451,"transit":false,"is_transit":false,"station_name":"Depokbaru","time":3,"station_id":"DPB"},{"is_transit":false,"time":4,"line":2,"i_long":106.831114,"distance":2727,"station_name":"Pondok Cina","transit":false,"station_id":"POC","i_lat":-6.369073},{"distance":1109,"is_transit":false,"time":2,"i_long":106.831474,"line":2,"station_name":"Univ. Indonesia","station_id":"UI","i_lat":-6.360749,"transit":false},{"line":2,"station_id":"UP","station_name":"Univ. Pancasila","transit":false,"i_long":106.834175,"time":3,"i_lat":-6.339291,"distance":2264,"is_transit":false},{"transit":false,"distance":1029,"station_name":"Lenteng Agung","station_id":"LNA","time":2,"line":2,"is_transit":false,"i_lat":-6.330363,"i_long":106.832616},{"station_id":"TNT","transit":false,"is_transit":false,"distance":2671,"i_long":106.838896,"i_lat":-6.3080680000000005,"line":2,"time":3,"station_name":"Tanjung Barat"},{"station_name":"Pasar Minggu","i_lat":-6.2842400000000005,"time":4,"transit":false,"i_long":106.843999,"line":2,"is_transit":false,"station_id":"PSM","distance":2820},{"station_name":"Pasar Minggu Baru","transit":false,"i_long":106.851577,"line":2,"is_transit":false,"i_lat":-6.263214,"time":2,"station_id":"PSMB","distance":2380},{"station_name":"Duren Kalibata","station_id":"DRN","is_transit":false,"transit":false,"line":0,"i_lat":-6.255332,"time":2,"i_long":106.85449,"distance":824},{"i_lat":-6.242512,"time":3,"station_id":"CW","distance":1546,"transit":false,"station_name":"Cawang","i_long":106.856607,"line":0,"is_transit":false},{"transit":false,"station_name":"Tebet","is_transit":false,"line":2,"i_long":106.857948,"distance":1230,"time":2,"i_lat":-6.226659,"station_id":"TEB"},{"station_name":"Manggarai","transit":true,"station_id":"MRI","line":0,"is_transit":true,"time":4,"i_lat":-6.209883,"i_long":106.84912,"distance":2610},{"station_name":"Sudirman","transit":false,"station_id":"SUD","distance":3186,"time":4,"i_lat":-6.202263,"line":1,"is_transit":false,"i_long":106.822649},{"station_id":"SUDB","station_name":"Sudirman Baru","time":1,"is_transit":false,"i_lat":-6.201433,"i_long":106.819881,"line":1,"distance":280,"transit":false},{"station_id":"KAT","distance":471,"i_lat":-6.20132,"is_transit":false,"line":1,"station_name":"Karet","i_long":106.816351,"transit":false,"time":1},{"time":5,"transit":false,"station_id":"THB","i_lat":-6.185545,"is_transit":true,"i_long":106.811091,"line":1,"station_name":"Tanah Abang","distance":2029},{"transit":true,"line":1,"time":8,"is_transit":true,"station_name":"Duri","station_id":"DU","i_lat":-6.155215,"distance":3632,"i_long":106.800832},{"i_lat":-6.162021,"line":5,"i_long":106.788277,"time":3,"transit":false,"station_name":"Grogol","station_id":"GGL","distance":1700,"is_transit":false},{"transit":false,"i_lat":-6.161433,"distance":2036,"i_long":106.771379,"line":5,"station_id":"PSG","station_name":"Pesing","is_transit":false,"time":2},{"station_id":"TKO","distance":1614,"transit":false,"is_transit":false,"i_lat":-6.1587309999999995,"station_name":"Taman Kota","i_long":106.756522,"time":2,"line":5},{"station_name":"Bojongindah","transit":false,"i_long":106.737035,"line":0,"is_transit":false,"station_id":"BOI","distance":2334,"i_lat":-6.159876,"time":2},{"time":4,"station_name":"Rawa Buaya","i_long":106.723064,"line":5,"is_transit":false,"station_id":"RW","distance":1152,"i_lat":-6.162758,"transit":false},{"is_transit":false,"station_name":"Kalideres","distance":2504,"station_id":"KDS","line":5,"time":3,"i_long":106.701612,"transit":false,"i_lat":-6.166068},{"distance":2548,"station_name":"Poris","line":5,"i_long":106.679458,"is_transit":false,"transit":false,"i_lat":-6.169933,"time":3,"station_id":"PI"},{"i_long":106.665036,"distance":1834,"time":3,"transit":false,"is_transit":false,"station_name":"Batuceper","i_lat":-6.171811,"line":0,"station_id":"BPR"},{"transit":false,"is_transit":false,"i_lat":-6.17331,"time":3,"station_id":"TTI","i_long":106.64657,"station_name":"Tanah Tinggi","distance":2028,"line":5},{"station_name":"Tangerang","station_id":"TNG","is_transit":false,"distance":1547,"time":3,"transit":false,"i_lat":-6.176583,"i_long":106.632761,"line":5}],[{"station_name":"Bogor","i_lat":-6.594596,"distance":0,"i_long":106.790574,"time":0,"is_transit":true,"station_id":"BOO","line":1,"transit":false},{"station_name":"Cilebut","i_long":106.800016,"transit":false,"i_lat":-6.530544,"time":9,"line":0,"distance":7514,"is_transit":false,"station_id":"CLT"},{"transit":false,"station_id":"BJD","distance":4331,"i_lat":-6.493243,"i_long":106.792719,"station_name":"Bojonggede","line":0,"is_transit":false,"time":5},{"i_lat":-6.448811,"i_long":106.800298,"station_name":"Citayam","station_id":"CTA","time":5,"is_transit":true,"transit":false,"line":1,"distance":5197},{"i_long":106.816926,"time":6,"station_name":"Depok","is_transit":false,"transit":false,"distance":5084,"station_id":"DP","i_lat":-6.405256,"line":0},{"transit":false,"distance":1584,"station_id":"DPB","i_lat":-6.391065,"time":3,"is_transit":false,"station_name":"Depokbaru","i_long":106.819451,"line":0},{"distance":2727,"time":4,"line":2,"station_name":"Pondok Cina","i_lat":-6.369073,"i_long":106.831114,"station_id":"POC","is_transit":false,"transit":false},{"distance":1109,"i_lat":-6.360749,"is_transit":false,"station_id":"UI","line":2,"transit":false,"station_name":"Univ. Indonesia","time":2,"i_long":106.831474},{"station_id":"UP","transit":false,"station_name":"Univ. Pancasila","is_transit":false,"distance":2264,"i_lat":-6.339291,"line":2,"i_long":106.834175,"time":3},{"station_name":"Lenteng Agung","transit":false,"station_id":"LNA","i_long":106.832616,"is_transit":false,"time":2,"line":2,"distance":1029,"i_lat":-6.330363},{"distance":2671,"i_lat":-6.3080680000000005,"is_transit":false,"i_long":106.838896,"transit":false,"time":3,"station_id":"TNT","station_name":"Tanjung Barat","line":2},{"transit":false,"is_transit":false,"line":2,"station_id":"PSM","i_long":106.843999,"i_lat":-6.2842400000000005,"station_name":"Pasar Minggu","time":4,"distance":2820},{"distance":2380,"time":2,"line":2,"transit":false,"i_lat":-6.263214,"is_transit":false,"station_id":"PSMB","i_long":106.851577,"station_name":"Pasar Minggu Baru"},{"time":2,"transit":false,"is_transit":false,"i_lat":-6.255332,"station_name":"Duren Kalibata","line":0,"i_long":106.85449,"distance":824,"station_id":"DRN"},{"station_name":"Cawang","is_transit":false,"i_long":106.856607,"i_lat":-6.242512,"time":3,"distance":1546,"station_id":"CW","transit":false,"line":0},{"distance":1230,"is_transit":false,"station_name":"Tebet","transit":false,"time":2,"station_id":"TEB","i_lat":-6.226659,"line":2,"i_long":106.857948},{"i_long":106.84912,"line":0,"distance":2610,"time":4,"transit":true,"station_name":"Manggarai","station_id":"MRI","i_lat":-6.209883,"is_transit":true},{"is_transit":false,"line":0,"station_id":"CKI","transit":false,"i_long":106.840169,"distance":1590,"station_name":"Cikini","i_lat":-6.198556,"time":4},{"i_lat":-6.186295,"is_transit":false,"station_name":"Gondangdia","station_id":"GDD","transit":false,"i_long":106.832183,"distance":1750,"time":3,"line":2},{"line":2,"transit":false,"i_lat":-6.166716,"distance":2015,"station_name":"Juanda","time":4,"station_id":"JUA","is_transit":false,"i_long":106.828284},{"station_id":"SW","transit":false,"i_lat":-6.160725,"time":2,"distance":1149,"i_long":106.827103,"line":2,"is_transit":false,"station_name":"Sawah Besar"},{"station_id":"MGB","i_long":106.82482,"station_name":"Manggabesar","is_transit":false,"time":2,"line":2,"transit":false,"i_lat":-6.149769,"distance":906},{"distance":1080,"transit":false,"station_id":"JAY","i_long":106.820901,"time":2,"i_lat":-6.141205,"station_name":"Jayakarta","is_transit":false,"line":7},{"is_transit":true,"i_lat":-6.137569,"time":4,"transit":true,"station_name":"Jakarta Kota","distance":1264,"i_long":106.812439,"line":0,"station_id":"JAKK"},{"time":3,"is_transit":true,"distance":1364,"station_id":"KPB","i_long":106.826365,"line":0,"transit":false,"i_lat":-6.132549,"station_name":"Kampung Bandan"},{"is_transit":false,"distance":4102,"i_long":106.79867,"line":0,"transit":false,"station_id":"AK","station_name":"Angke","time":9,"i_lat":-6.144674},{"station_name":"Duri","line":1,"is_transit":true,"distance":1230,"time":4,"transit":true,"i_lat":-6.155215,"i_long":106.800832,"station_id":"DU"},{"i_long":106.788277,"line":5,"is_transit":false,"station_id":"GGL","transit":false,"distance":1700,"i_lat":-6.162021,"time":3,"station_name":"Grogol"},{"i_lat":-6.161433,"line":5,"time":2,"station_id":"PSG","is_transit":false,"transit":false,"i_long":106.771379,"distance":2036,"station_name":"Pesing"},{"station_name":"Taman Kota","i_lat":-6.1587309999999995,"transit":false,"time":2,"is_transit":false,"station_id":"TKO","i_long":106.756522,"distance":1614,"line":5},{"time":2,"line":0,"station_name":"Bojongindah","station_id":"BOI","is_transit":false,"transit":false,"distance":2334,"i_lat":-6.159876,"i_long":106.737035},{"transit":false,"i_long":106.723064,"i_lat":-6.162758,"time":4,"station_id":"RW","is_transit":false,"distance":1152,"line":5,"station_name":"Rawa Buaya"},{"station_name":"Kalideres","time":3,"line":5,"distance":2504,"is_transit":false,"i_lat":-6.166068,"i_long":106.701612,"transit":false,"station_id":"KDS"},{"i_lat":-6.169933,"distance":2548,"time":3,"is_transit":false,"i_long":106.679458,"transit":false,"station_name":"Poris","line":5,"station_id":"PI"},{"transit":false,"time":3,"line":0,"station_name":"Batuceper","i_lat":-6.171811,"is_transit":false,"i_long":106.665036,"distance":1834,"station_id":"BPR"},{"i_long":106.64657,"transit":false,"is_transit":false,"station_name":"Tanah Tinggi","line":5,"station_id":"TTI","distance":2028,"time":3,"i_lat":-6.17331},{"distance":1547,"station_id":"TNG","is_transit":false,"i_lat":-6.176583,"station_name":"Tangerang","transit":false,"time":3,"line":5,"i_long":106.632761}],[{"station_id":"BOO","distance":0,"station_name":"Bogor","time":0,"transit":false,"i_lat":-6.594596,"i_long":106.790574,"is_transit":true,"line":1},{"distance":7514,"station_name":"Cilebut","i_lat":-6.530544,"line":0,"station_id":"CLT","transit":false,"i_long":106.800016,"time":9,"is_transit":false},{"i_long":106.792719,"distance":4331,"station_name":"Bojonggede","is_transit":false,"time":5,"transit":false,"line":0,"i_lat":-6.493243,"station_id":"BJD"},{"distance":5197,"i_long":106.800298,"i_lat":-6.448811,"line":1,"station_id":"CTA","is_transit":true,"transit":false,"time":5,"station_name":"Citayam"},{"line":0,"station_id":"DP","i_long":106.816926,"transit":false,"distance":5084,"station_name":"Depok","time":6,"is_transit":false,"i_lat":-6.405256},{"station_name":"Depokbaru","line":0,"is_transit":false,"time":3,"station_id":"DPB","i_long":106.819451,"transit":false,"i_lat":-6.391065,"distance":1584},{"is_transit":false,"line":2,"i_lat":-6.369073,"time":4,"distance":2727,"transit":false,"station_name":"Pondok Cina","station_id":"POC","i_long":106.831114},{"transit":false,"is_transit":false,"station_name":"Univ. Indonesia","distance":1109,"time":2,"line":2,"i_lat":-6.360749,"station_id":"UI","i_long":106.831474},{"station_id":"UP","line":2,"distance":2264,"time":3,"transit":false,"station_name":"Univ. Pancasila","i_lat":-6.339291,"is_transit":false,"i_long":106.834175},{"i_lat":-6.330363,"is_transit":false,"time":2,"i_long":106.832616,"line":2,"distance":1029,"transit":false,"station_name":"Lenteng Agung","station_id":"LNA"},{"distance":2671,"is_transit":false,"station_id":"TNT","time":3,"i_lat":-6.3080680000000005,"i_long":106.838896,"station_name":"Tanjung Barat","line":2,"transit":false},{"transit":false,"i_lat":-6.2842400000000005,"i_long":106.843999,"station_name":"Pasar Minggu","station_id":"PSM","distance":2820,"is_transit":false,"line":2,"time":4},{"transit":false,"station_id":"PSMB","i_long":106.851577,"line":2,"is_transit":false,"distance":2380,"station_name":"Pasar Minggu Baru","i_lat":-6.263214,"time":2},{"distance":824,"station_id":"DRN","station_name":"Duren Kalibata","i_lat":-6.255332,"line":0,"is_transit":false,"time":2,"transit":false,"i_long":106.85449},{"station_id":"CW","i_long":106.856607,"transit":false,"time":3,"line":0,"is_transit":false,"distance":1546,"station_name":"Cawang","i_lat":-6.242512},{"line":2,"station_id":"TEB","distance":1230,"transit":false,"i_lat":-6.226659,"station_name":"Tebet","is_transit":false,"time":2,"i_long":106.857948},{"distance":2610,"station_name":"Manggarai","transit":true,"i_long":106.84912,"line":0,"is_transit":true,"station_id":"MRI","time":4,"i_lat":-6.209883},{"transit":false,"i_long":106.858896,"i_lat":-6.212485,"distance":1275,"is_transit":false,"station_name":"Matraman","time":2,"station_id":"MTR","line":1},{"i_lat":-6.215091,"is_transit":true,"i_long":106.86807400000001,"transit":true,"station_id":"JNG","distance":1377,"line":0,"time":8,"station_name":"Jatinegara"},{"time":2,"station_name":"Pondok Jati","i_long":106.861737,"transit":false,"i_lat":-6.209188,"line":11,"is_transit":false,"station_id":"POK","distance":1236},{"line":11,"i_lat":-6.193792,"i_long":106.855437,"distance":1829,"station_name":"Kramat","station_id":"KMT","time":2,"transit":false,"is_transit":false},{"station_name":"Gang Sentiong","i_lat":-6.185975,"time":1,"station_id":"GST","i_long":106.850107,"distance":973,"line":11,"is_transit":false,"transit":false},{"transit":false,"line":11,"is_transit":false,"time":8,"station_name":"Pasar Senen","station_id":"PSE","distance":1567,"i_long":106.84368,"i_lat":-6.174784},{"transit":false,"station_name":"Kemayoran","station_id":"KMO","is_transit":false,"distance":1436,"line":11,"i_lat":-6.161728,"time":4,"i_long":106.839204},{"i_lat":-6.14505,"is_transit":false,"station_id":"RJW","transit":false,"time":5,"station_name":"Rajawali","distance":1901,"i_long":106.836569,"line":11},{"is_transit":true,"station_name":"Kampung Bandan","time":3,"distance":1444,"line":0,"i_lat":-6.132549,"station_id":"KPB","i_long":106.826365,"transit":true},{"is_transit":false,"transit":false,"i_long":106.79867,"distance":4102,"station_id":"AK","time":9,"station_name":"Angke","line":0,"i_lat":-6.144674},{"time":4,"station_name":"Duri","station_id":"DU","line":1,"i_long":106.800832,"is_transit":true,"transit":true,"distance":1230,"i_lat":-6.155215},{"transit":false,"i_lat":-6.162021,"distance":1700,"i_long":106.788277,"line":5,"is_transit":false,"station_id":"GGL","time":3,"station_name":"Grogol"},{"i_lat":-6.161433,"transit":false,"distance":2036,"station_name":"Pesing","time":2,"line":5,"station_id":"PSG","is_transit":false,"i_long":106.771379},{"transit":false,"i_long":106.756522,"station_id":"TKO","distance":1614,"time":2,"i_lat":-6.1587309999999995,"line":5,"station_name":"Taman Kota","is_transit":false},{"is_transit":false,"i_lat":-6.159876,"station_id":"BOI","distance":2334,"transit":false,"station_name":"Bojongindah","time":2,"i_long":106.737035,"line":0},{"i_long":106.723064,"station_name":"Rawa Buaya","is_transit":false,"transit":false,"line":5,"station_id":"RW","i_lat":-6.162758,"distance":1152,"time":4},{"station_id":"KDS","time":3,"is_transit":false,"i_long":106.701612,"distance":2504,"i_lat":-6.166068,"station_name":"Kalideres","line":5,"transit":false},{"distance":2548,"is_transit":false,"i_lat":-6.169933,"transit":false,"station_name":"Poris","line":5,"time":3,"i_long":106.679458,"station_id":"PI"},{"transit":false,"line":0,"distance":1834,"station_id":"BPR","is_transit":false,"station_name":"Batuceper","time":3,"i_lat":-6.171811,"i_long":106.665036},{"is_transit":false,"time":3,"distance":2028,"i_lat":-6.17331,"i_long":106.64657,"station_id":"TTI","station_name":"Tanah Tinggi","transit":false,"line":5},{"transit":false,"station_name":"Tangerang","station_id":"TNG","i_lat":-6.176583,"distance":1547,"is_transit":false,"line":5,"i_long":106.632761,"time":3}]]}