{"data":[[{"transit":false,"time":0,"distance":0,"i_long":106.790574,"i_lat":-6.594596,"station_id":"BOO","station_name":"Bogor","is_transit":false,"line":2},{"time":9,"is_transit":false,"distance":7514,"transit":false,"i_lat":-6.530544,"station_id":"CLT","i_long":106.800016,"station_name":"Cilebut","line":2},{"distance":4331,"time":5,"i_lat":-6.493243,"station_name":"Bojonggede","transit":false,"is_transit":false,"station_id":"BJD","line":2,"i_long":106.792719},{"time":5,"station_id":"CTA","transit":false,"i_lat":-6.448811,"is_transit":false,"line":2,"i_long":106.800298,"station_name":"Citayam","distance":5197},{"i_long":106.816926,"distance":5084,"i_lat":-6.405256,"station_id":"DP","transit":false,"station_name":"Depok","line":2,"is_transit":false,"time":6},{"is_transit":false,"time":3,"i_lat":-6.391065,"line":2,"station_name":"Depokbaru","station_id":"DPB","i_long":106.819451,"transit":false,"distance":1584},{"station_id":"POC","station_name":"Pondok Cina","i_lat":-6.369073,"time":4,"distance":2727,"is_transit":false,"line":2,"transit":false,"i_long":106.831114},{"distance":1109,"station_name":"Univ. Indonesia","i_lat":-6.360749,"time":2,"transit":false,"line":2,"station_id":"UI","i_long":106.831474,"is_transit":false},{"time":3,"line":2,"i_long":106.834175,"distance":2264,"transit":false,"station_id":"UP","is_transit":false,"station_name":"Univ. Pancasila","i_lat":-6.339291},{"time":2,"i_lat":-6.330363,"transit":false,"i_long":106.832616,"line":2,"station_name":"Lenteng Agung","distance":1029,"station_id":"LNA","is_transit":false},{"transit":false,"is_transit":false,"i_long":106.838896,"station_id":"TNT","i_lat":-6.3080680000000005,"line":2,"distance":2671,"time":3,"station_name":"Tanjung Barat"},{"time":4,"station_name":"Pasar Minggu","is_transit":false,"i_long":106.843999,"station_id":"PSM","transit":false,"i_lat":-6.2842400000000005,"line":2,"distance":2820},{"i_lat":-6.263214,"line":2,"is_transit":false,"distance":2380,"station_id":"PSMB","i_long":106.851577,"time":2,"transit":false,"station_name":"Pasar Minggu Baru"},{"line":2,"i_lat":-6.255332,"station_name":"Duren Kalibata","distance":824,"station_id":"DRN","is_transit":false,"time":2,"transit":false,"i_long":106.85449},{"i_lat":-6.242512,"i_long":106.856607,"station_name":"Cawang","distance":1546,"time":3,"station_id":"CW","is_transit":false,"transit":false,"line":2},{"line":2,"distance":1230,"i_long":106.857948,"is_transit":false,"station_name":"Tebet","transit":false,"i_lat":-6.226659,"time":2,"station_id":"TEB"},{"time":4,"line":2,"distance":2610,"is_transit":true,"station_name":"Manggarai","i_lat":-6.209883,"i_long":106.84912,"station_id":"MRI","transit":true},{"line":1,"i_long":106.822649,"transit":false,"i_lat":-6.202263,"station_id":"SUD","is_transit":false,"station_name":"Sudirman","distance":3186,"time":4},{"i_lat":-6.201433,"is_transit":false,"transit":false,"i_long":106.819881,"time":1,"line":1,"station_name":"Sudirman Baru","station_id":"SUDB","distance":280}],[{"i_long":106.790574,"line":2,"time":0,"distance":0,"is_transit":false,"i_lat":-6.594596,"station_id":"BOO","station_name":"Bogor","transit":false},{"line":2,"station_id":"CLT","is_transit":false,"station_name":"Cilebut","time":9,"i_lat":-6.530544,"i_long":106.800016,"distance":7514,"transit":false},{"i_lat":-6.493243,"is_transit":false,"time":5,"station_id":"BJD","i_long":106.792719,"distance":4331,"line":2,"transit":false,"station_name":"Bojonggede"},{"distance":5197,"station_name":"Citayam","transit":false,"i_long":106.800298,"time":5,"station_id":"CTA","is_transit":false,"i_lat":-6.448811,"line":2},{"station_id":"DP","station_name":"Depok","line":2,"i_lat":-6.405256,"time":6,"is_transit":false,"distance":5084,"transit":false,"i_long":106.816926},{"i_lat":-6.391065,"i_long":106.819451,"station_name":"Depokbaru","distance":1584,"is_transit":false,"time":3,"station_id":"DPB","transit":false,"line":2},{"station_name":"Pondok Cina","i_lat":-6.369073,"i_long":106.831114,"transit":false,"line":2,"time":4,"station_id":"POC","is_transit":false,"distance":2727},{"transit":false,"i_lat":-6.360749,"line":2,"station_name":"Univ. Indonesia","distance":1109,"station_id":"UI","time":2,"i_long":106.831474,"is_transit":false},{"line":2,"is_transit":false,"station_id":"UP","i_long":106.834175,"transit":false,"distance":2264,"i_lat":-6.339291,"time":3,"station_name":"Univ. Pancasila"},{"station_id":"LNA","time":2,"is_transit":false,"i_lat":-6.330363,"i_long":106.832616,"station_name":"Lenteng Agung","distance":1029,"transit":false,"line":2},{"is_transit":false,"transit":false,"station_name":"Tanjung Barat","time":3,"distance":2671,"i_lat":-6.3080680000000005,"station_id":"TNT","line":2,"i_long":106.838896},{"station_name":"Pasar Minggu","transit":false,"distance":2820,"time":4,"station_id":"PSM","i_lat":-6.2842400000000005,"i_long":106.843999,"line":2,"is_transit":false},{"distance":2380,"i_long":106.851577,"line":2,"i_lat":-6.263214,"station_id":"PSMB","station_name":"Pasar Minggu Baru","is_transit":false,"transit":false,"time":2},{"station_name":"Duren Kalibata","i_lat":-6.255332,"i_long":106.85449,"is_transit":false,"line":2,"station_id":"DRN","transit":false,"distance":824,"time":2},{"station_id":"CW","distance":1546,"transit":false,"i_lat":-6.242512,"station_name":"Cawang","i_long":106.856607,"time":3,"is_transit":false,"line":2},{"transit":false,"i_lat":-6.226659,"station_name":"Tebet","is_transit":false,"distance":1230,"line":2,"i_long":106.857948,"station_id":"TEB","time":2},{"station_name":"Manggarai","is_transit":false,"distance":2610,"station_id":"MRI","i_long":106.84912,"transit":false,"i_lat":-6.209883,"line":2,"time":4},{"line":2,"transit":false,"station_name":"Cikini","i_long":106.840169,"station_id":"CKI","is_transit":false,"i_lat":-6.198556,"time":4,"distance":1590},{"is_transit":false,"station_id":"GDD","i_lat":-6.186295,"line":2,"transit":false,"distance":1750,"i_long":106.832183,"station_name":"Gondangdia","time":3},{"time":4,"is_transit":false,"station_id":"JUA","distance":2015,"line":2,"station_name":"Juanda","i_lat":-6.166716,"i_long":106.828284,"transit":false},{"station_id":"SW","is_transit":false,"station_name":"Sawah Besar","line":2,"distance":1149,"transit":false,"i_lat":-6.160725,"i_long":106.827103,"time":2},{"transit":false,"is_transit":false,"i_long":106.82482,"line":2,"station_id":"MGB","time":2,"distance":906,"i_lat":-6.149769,"station_name":"Manggabesar"},{"i_long":106.820901,"distance":1080,"station_name":"Jayakarta","line":2,"transit":false,"station_id":"JAY","time":2,"is_transit":false,"i_lat":-6.141205},{"i_long":106.812439,"station_name":"Jakarta Kota","time":4,"is_transit":true,"line":2,"i_lat":-6.137569,"transit":true,"station_id":"JAKK","distance":1264},{"transit":true,"line":4,"i_lat":-6.132549,"time":3,"station_name":"Kampung Bandan","is_transit":true,"station_id":"KPB","distance":1364,"i_long":106.826365},{"i_lat":-6.144674,"time":9,"station_name":"Angke","i_long":106.79867,"station_id":"AK","line":1,"distance":4102,"is_transit":false,"transit":false},{"transit":false,"is_transit":false,"station_name":"Duri","distance":1230,"line":1,"station_id":"DU","i_lat":-6.155215,"time":4,"i_long":106.800832},{"station_id":"THB","time":8,"transit":false,"i_lat":-6.185545,"is_transit":false,"station_name":"Tanah Abang","distance":3632,"i_long":106.811091,"line":1},{"transit":false,"i_lat":-6.20132,"is_transit":false,"distance":2029,"station_id":"KAT","line":1,"i_long":106.816351,"time":5,"station_name":"Karet"},{"i_long":106.819881,"time":1,"station_name":"Sudirman Baru","i_lat":-6.201433,"distance":471,"station_id":"SUDB","line":1,"transit":false,"is_transit":false}],[{"i_long":106.790574,"time":0,"transit":false,"line":2,"station_id":"BOO","distance":0,"is_transit":false,"i_lat":-6.594596,"station_name":"Bogor"},{"station_id":"CLT","transit":false,"distance":7514,"station_name":"Cilebut","is_transit":false,"i_lat":-6.530544,"time":9,"i_long":106.800016,"line":2},{"station_id":"BJD","distance":4331,"is_transit":false,"transit":false,"i_long":106.792719,"i_lat":-6.493243,"time":5,"line":2,"station_name":"Bojonggede"},{"i_long":106.800298,"line":2,"station_id":"CTA","is_transit":false,"station_name":"Citayam","transit":false,"i_lat":-6.448811,"time":5,"distance":5197},{"distance":5084,"is_transit":false,"i_long":106.816926,"line":2,"station_name":"Depok","transit":false,"i_lat":-6.405256,"time":6,"station_id":"DP"},{"line":2,"i_long":106.819451,"station_name":"Depokbaru","i_lat":-6.391065,"time":3,"is_transit":false,"distance":1584,"station_id":"DPB","transit":false},{"is_transit":false,"time":4,"distance":2727,"transit":false,"station_name":"Pondok Cina","i_long":106.831114,"i_lat":-6.369073,"station_id":"POC","line":2},{"is_transit":false,"time":2,"distance":1109,"line":2,"station_id":"UI","i_lat":-6.360749,"i_long":106.831474,"transit":false,"station_name":"Univ. Indonesia"},{"is_transit":false,"time":3,"i_long":106.834175,"distance":2264,"line":2,"station_name":"Univ. Pancasila","transit":false,"i_lat":-6.339291,"station_id":"UP"},{"i_lat":-6.330363,"i_long":106.832616,"line":2,"is_transit":false,"station_id":"LNA","distance":1029,"transit":false,"time":2,"station_name":"Lenteng Agung"},{"time":3,"is_transit":false,"station_name":"Tanjung Barat","transit":false,"line":2,"i_lat":-6.3080680000000005,"distance":2671,"i_long":106.838896,"station_id":"TNT"},{"line":2,"i_lat":-6.2842400000000005,"is_transit":false,"transit":false,"station_name":"Pasar Minggu","distance":2820,"i_long":106.843999,"time":4,"station_id":"PSM"},{"time":2,"transit":false,"is_transit":false,"i_lat":-6.263214,"line":2,"station_name":"Pasar Minggu Baru","distance":2380,"station_id":"PSMB","i_long":106.851577},{"line":2,"transit":false,"time":2,"i_lat":-6.255332,"is_transit":false,"station_id":"DRN","i_long":106.85449,"station_name":"Duren Kalibata","distance":824},{"transit":false,"i_lat":-6.242512,"is_transit":false,"i_long":106.856607,"line":2,"time":3,"distance":1546,"station_name":"Cawang","station_id":"CW"},{"station_id":"TEB","i_long":106.857948,"time":2,"distance":1230,"is_transit":false,"transit":false,"line":2,"i_lat":-6.226659,"station_name":"Tebet"},{"transit":true,"is_transit":true,"i_long":106.84912,"station_id":"MRI","station_name":"Manggarai","line":2,"time":4,"distance":2610,"i_lat":-6.209883},{"is_transit":false,"transit":false,"i_long":106.858896,"line":1,"distance":1275,"i_lat":-6.212485,"time":2,"station_id":"MTR","station_name":"Matraman"},{"time":8,"distance":1377,"station_id":"JNG","line":1,"station_name":"Jatinegara","is_transit":true,"i_lat":-6.215091,"transit":true,"i_long":106.86807400000001},{"time":2,"is_transit":false,"station_name":"Pondok Jati","station_id":"POK","transit":false,"i_long":106.861737,"line":11,"distance":1236,"i_lat":-6.209188},{"i_long":106.855437,"line":11,"time":2,"i_lat":-6.193792,"station_name":"Kramat","station_id":"KMT","distance":1829,"is_transit":false,"transit":false},{"transit":false,"station_id":"GST","i_long":106.850107,"is_transit":false,"distance":973,"time":1,"station_name":"Gang Sentiong","i_lat":-6.185975,"line":11},{"line":11,"i_lat":-6.174784,"i_long":106.84368,"transit":false,"time":8,"station_id":"PSE","is_transit":false,"station_name":"Pasar Senen","distance":1567},{"station_name":"Kemayoran","station_id":"KMO","distance":1436,"time":4,"i_lat":-6.161728,"transit":false,"is_transit":false,"i_long":106.839204,"line":11},{"is_transit":false,"transit":false,"time":5,"i_long":106.836569,"station_id":"RJW","station_name":"Rajawali","distance":1901,"i_lat":-6.14505,"line":11},{"transit":true,"distance":1444,"is_transit":true,"i_long":106.826365,"line":4,"time":3,"station_name":"Kampung Bandan","station_id":"KPB","i_lat":-6.132549},{"station_name":"Angke","line":1,"transit":false,"i_long":106.79867,"station_id":"AK","time":9,"distance":4102,"is_transit":false,"i_lat":-6.144674},{"transit":false,"i_lat":-6.155215,"i_long":106.800832,"line":1,"is_transit":false,"station_id":"DU","time":4,"station_name":"Duri","distance":1230},{"i_long":106.811091,"line":1,"station_name":"Tanah Abang","time":8,"distance":3632,"is_transit":false,"station_id":"THB","transit":false,"i_lat":-6.185545},{"time":5,"line":1,"i_lat":-6.20132,"station_name":"Karet","is_transit":false,"i_long":106.816351,"transit":false,"station_id":"KAT","distance":2029},{"line":1,"distance":471,"is_transit":false,"i_long":106.819881,"transit":false,"station_id":"SUDB","time":1,"station_name":"Sudirman Baru","i_lat":-6.201433}]]}