{"data":[[{"time":0,"is_transit":false,"i_long":106.790574,"transit":false,"distance":0,"i_lat":-6.594596,"line":2,"station_id":"BOO","station_name":"Bogor"},{"is_transit":false,"transit":false,"time":9,"distance":7514,"station_id":"CLT","station_name":"Cilebut","line":2,"i_long":106.800016,"i_lat":-6.530544},{"station_name":"Bojonggede","distance":4331,"i_long":106.792719,"station_id":"BJD","is_transit":false,"line":2,"time":5,"i_lat":-6.493243,"transit":false},{"station_id":"CTA","i_lat":-6.448811,"distance":5197,"is_transit":false,"time":5,"station_name":"Citayam","transit":false,"i_long":106.800298,"line":2},{"station_name":"Depok","transit":false,"distance":5084,"station_id":"DP","i_lat":-6.405256,"line":2,"time":6,"is_transit":false,"i_long":106.816926},{"time":3,"i_long":106.819451,"distance":1584,"i_lat":-6.391065,"station_id":"DPB","station_name":"Depokbaru","is_transit":false,"transit":false,"line":2},{"line":2,"time":4,"station_id":"POC","is_transit":false,"station_name":"Pondok Cina","i_lat":-6.369073,"i_long":106.831114,"distance":2727,"transit":false}]]}