{"data":[[{"transit":false,"distance":0,"i_long":106.790574,"i_lat":-6.594596,"is_transit":false,"station_id":"BOO","line":2,"station_name":"Bogor","time":0},{"distance":7514,"is_transit":false,"i_lat":-6.530544,"station_id":"CLT","time":9,"transit":false,"i_long":106.800016,"line":2,"station_name":"Cilebut"},{"is_transit":false,"station_id":"BJD","time":5,"distance":4331,"line":2,"station_name":"Bojonggede","i_long":106.792719,"i_lat":-6.493243,"transit":false},{"i_lat":-6.448811,"time":5,"distance":5197,"line":2,"i_long":106.800298,"transit":false,"is_transit":false,"station_id":"CTA","station_name":"Citayam"},{"time":6,"i_long":106.816926,"station_name":"Depok","i_lat":-6.405256,"transit":false,"is_transit":false,"station_id":"DP","distance":5084,"line":2},{"i_long":106.819451,"station_name":"Depokbaru","station_id":"DPB","is_transit":false,"line":2,"transit":false,"i_lat":-6.391065,"time":3,"distance":1584},{"time":4,"i_lat":-6.369073,"distance":2727,"i_long":106.831114,"station_id":"POC","line":2,"station_name":"Pondok Cina","transit":false,"is_transit":false},{"is_transit":false,"transit":false,"station_id":"UI","i_long":106.831474,"station_name":"Univ. Indonesia","i_lat":-6.360749,"line":2,"time":2,"distance":1109},{"is_transit":false,"i_long":106.834175,"line":2,"station_name":"Univ. Pancasila","i_lat":-6.339291,"time":3,"distance":2264,"station_id":"UP","transit":false},{"time":2,"station_id":"LNA","transit":false,"i_long":106.832616,"is_transit":false,"line":2,"distance":1029,"station_name":"Lenteng Agung","i_lat":-6.330363},{"transit":false,"line":2,"i_long":106.838896,"i_lat":-6.3080680000000005,"is_transit":false,"station_id":"TNT","time":3,"distance":2671,"station_name":"Tanjung Barat"},{"time":4,"i_long":106.843999,"is_transit":false,"i_lat":-6.2842400000000005,"station_id":"PSM","station_name":"Pasar Minggu","line":2,"distance":2820,"transit":false},{"line":2,"station_name":"Pasar Minggu Baru","distance":2380,"is_transit":false,"station_id":"PSMB","i_long":106.851577,"transit":false,"time":2,"i_lat":-6.263214},{"station_name":"Duren Kalibata","distance":824,"time":2,"is_transit":false,"i_lat":-6.255332,"station_id":"DRN","transit":false,"i_long":106.85449,"line":2},{"line":2,"is_transit":false,"i_long":106.856607,"distance":1546,"station_id":"CW","i_lat":-6.242512,"station_name":"Cawang","time":3,"transit":false},{"time":2,"transit":false,"station_name":"Tebet","is_transit":false,"distance":1230,"i_lat":-6.226659,"station_id":"TEB","i_long":106.857948,"line":2},{"i_long":106.84912,"time":4,"distance":2610,"is_transit":true,"station_id":"MRI","line":2,"i_lat":-6.209883,"transit":true,"station_name":"Manggarai"},{"i_long":106.822649,"line":1,"station_name":"Sudirman","i_lat":-6.202263,"transit":false,"station_id":"SUD","time":4,"distance":3186,"is_transit":false},{"time":1,"is_transit":false,"station_name":"Sudirman Baru","i_lat":-6.201433,"station_id":"SUDB","transit":false,"distance":280,"i_long":106.819881,"line":1},{"i_long":106.816351,"transit":false,"station_id":"KAT","line":1,"is_transit":false,"time":1,"distance":471,"i_lat":-6.20132,"station_name":"Karet"},{"station_name":"Tanah Abang","distance":2029,"i_long":106.811091,"transit":false,"station_id":"THB","i_lat":-6.185545,"time":5,"line":1,"is_transit":false},{"distance":3632,"station_name":"Duri","transit":true,"i_lat":-6.155215,"is_transit":true,"station_id":"DU","i_long":106.800832,"line":1,"time":8},{"i_long":106.788277,"is_transit":false,"station_name":"Grogol","i_lat":-6.162021,"transit":false,"station_id":"GGL","time":3,"distance":1700,"line":5},{"line":5,"station_id":"PSG","is_transit":false,"distance":2036,"i_long":106.771379,"time":2,"station_name":"Pesing","transit":false,"i_lat":-6.161433},{"transit":false,"distance":1614,"line":5,"time":2,"station_name":"Taman Kota","is_transit":false,"station_id":"TKO","i_lat":-6.1587309999999995,"i_long":106.756522},{"i_lat":-6.159876,"is_transit":false,"i_long":106.737035,"station_name":"Bojongindah","transit":false,"time":2,"station_id":"BOI","distance":2334,"line":5},{"station_name":"Rawa Buaya","station_id":"RW","i_long":106.723064,"is_transit":false,"time":4,"transit":false,"distance":1152,"i_lat":-6.162758,"line":5},{"time":3,"transit":false,"line":5,"distance":2504,"station_id":"KDS","i_lat":-6.166068,"i_long":106.701612,"station_name":"Kalideres","is_transit":false},{"distance":2548,"station_name":"Poris","station_id":"PI","i_lat":-6.169933,"line":5,"time":3,"transit":false,"i_long":106.679458,"is_transit":false}],[{"time":0,"station_name":"Bogor","i_lat":-6.594596,"i_long":106.790574,"line":2,"transit":false,"distance":0,"is_transit":false,"station_id":"BOO"},{"time":9,"i_long":106.800016,"transit":false,"station_id":"CLT","station_name":"Cilebut","distance":7514,"line":2,"is_transit":false,"i_lat":-6.530544},{"transit":false,"time":5,"is_transit":false,"i_lat":-6.493243,"i_long":106.792719,"station_id":"BJD","station_name":"Bojonggede","distance":4331,"line":2},{"i_lat":-6.448811,"station_name":"Citayam","line":2,"distance":5197,"i_long":106.800298,"transit":false,"is_transit":false,"time":5,"station_id":"CTA"},{"i_long":106.816926,"transit":false,"time":6,"station_id":"DP","i_lat":-6.405256,"station_name":"Depok","line":2,"distance":5084,"is_transit":false},{"is_transit":false,"time":3,"station_id":"DPB","transit":false,"station_name":"Depokbaru","i_lat":-6.391065,"line":2,"distance":1584,"i_long":106.819451},{"station_id":"POC","station_name":"Pondok Cina","time":4,"distance":2727,"i_lat":-6.369073,"transit":false,"line":2,"i_long":106.831114,"is_transit":false},{"is_transit":false,"station_name":"Univ. Indonesia","distance":1109,"i_lat":-6.360749,"time":2,"transit":false,"station_id":"UI","i_long":106.831474,"line":2},{"station_name":"Univ. Pancasila","line":2,"time":3,"i_long":106.834175,"distance":2264,"i_lat":-6.339291,"station_id":"UP","transit":false,"is_transit":false},{"i_long":106.832616,"distance":1029,"i_lat":-6.330363,"time":2,"is_transit":false,"line":2,"station_id":"LNA","station_name":"Lenteng Agung","transit":false},{"time":3,"is_transit":false,"station_name":"Tanjung Barat","station_id":"TNT","distance":2671,"i_lat":-6.3080680000000005,"i_long":106.838896,"transit":false,"line":2},{"distance":2820,"line":2,"station_name":"Pasar Minggu","i_long":106.843999,"transit":false,"time":4,"i_lat":-6.2842400000000005,"is_transit":false,"station_id":"PSM"},{"station_name":"Pasar Minggu Baru","station_id":"PSMB","i_long":106.851577,"time":2,"transit":false,"distance":2380,"is_transit":false,"i_lat":-6.263214,"line":2},{"i_lat":-6.255332,"station_name":"Duren Kalibata","i_long":106.85449,"time":2,"line":2,"is_transit":false,"transit":false,"station_id":"DRN","distance":824},{"station_id":"CW","transit":false,"i_lat":-6.242512,"is_transit":false,"line":2,"distance":1546,"i_long":106.856607,"station_name":"Cawang","time":3},{"transit":false,"station_id":"TEB","line":2,"i_long":106.857948,"time":2,"station_name":"Tebet","i_lat":-6.226659,"distance":1230,"is_transit":false},{"line":2,"i_lat":-6.209883,"is_transit":false,"i_long":106.84912,"transit":false,"station_name":"Manggarai","time":4,"distance":2610,"station_id":"MRI"},{"station_id":"CKI","time":4,"station_name":"Cikini","is_transit":false,"transit":false,"distance":1590,"line":2,"i_lat":-6.198556,"i_long":106.840169},{"i_lat":-6.186295,"is_transit":false,"time":3,"distance":1750,"i_long":106.832183,"transit":false,"station_id":"GDD","line":2,"station_name":"Gondangdia"},{"station_id":"JUA","is_transit":false,"i_long":106.828284,"station_name":"Juanda","i_lat":-6.166716,"transit":false,"time":4,"line":2,"distance":2015},{"i_lat":-6.160725,"station_name":"Sawah Besar","is_transit":false,"line":2,"station_id":"SW","transit":false,"time":2,"distance":1149,"i_long":106.827103},{"i_lat":-6.149769,"is_transit":false,"station_id":"MGB","line":2,"transit":false,"time":2,"station_name":"Manggabesar","distance":906,"i_long":106.82482},{"i_lat":-6.141205,"transit":false,"line":2,"time":2,"is_transit":false,"station_id":"JAY","station_name":"Jayakarta","distance":1080,"i_long":106.820901},{"line":2,"distance":1264,"station_name":"Jakarta Kota","time":4,"is_transit":true,"i_lat":-6.137569,"transit":true,"station_id":"JAKK","i_long":106.812439},{"distance":1364,"station_id":"KPB","time":3,"station_name":"Kampung Bandan","i_lat":-6.132549,"line":4,"transit":true,"is_transit":true,"i_long":106.826365},{"i_lat":-6.144674,"station_id":"AK","is_transit":false,"transit":false,"station_name":"Angke","i_long":106.79867,"time":9,"line":1,"distance":4102},{"i_lat":-6.155215,"time":4,"station_name":"Duri","transit":true,"is_transit":true,"distance":1230,"line":1,"station_id":"DU","i_long":106.800832},{"i_lat":-6.162021,"line":5,"station_name":"Grogol","transit":false,"time":3,"i_long":106.788277,"is_transit":false,"distance":1700,"station_id":"GGL"},{"is_transit":false,"i_lat":-6.161433,"station_name":"Pesing","time":2,"transit":false,"station_id":"PSG","i_long":106.771379,"distance":2036,"line":5},{"line":5,"i_lat":-6.1587309999999995,"station_name":"Taman Kota","is_transit":false,"station_id":"TKO","i_long":106.756522,"time":2,"transit":false,"distance":1614},{"transit":false,"time":2,"station_name":"Bojongindah","i_long":106.737035,"i_lat":-6.159876,"station_id":"BOI","line":5,"is_transit":false,"distance":2334},{"is_transit":false,"i_long":106.723064,"station_name":"Rawa Buaya","transit":false,"line":5,"station_id":"RW","time":4,"distance":1152,"i_lat":-6.162758},{"is_transit":false,"i_long":106.701612,"station_id":"KDS","distance":2504,"transit":false,"time":3,"station_name":"Kalideres","i_lat":-6.166068,"line":5},{"line":5,"is_transit":false,"i_lat":-6.169933,"distance":2548,"station_id":"PI","station_name":"Poris","transit":false,"time":3,"i_long":106.679458}],[{"time":0,"station_name":"Bogor","i_lat":-6.594596,"i_long":106.790574,"distance":0,"line":2,"is_transit":false,"transit":false,"station_id":"BOO"},{"station_id":"CLT","i_lat":-6.530544,"transit":false,"station_name":"Cilebut","distance":7514,"is_transit":false,"i_long":106.800016,"line":2,"time":9},{"station_id":"BJD","time":5,"i_long":106.792719,"i_lat":-6.493243,"is_transit":false,"distance":4331,"transit":false,"line":2,"station_name":"Bojonggede"},{"transit":false,"station_name":"Citayam","i_lat":-6.448811,"is_transit":false,"i_long":106.800298,"line":2,"station_id":"CTA","distance":5197,"time":5},{"i_lat":-6.405256,"i_long":106.816926,"line":2,"station_id":"DP","station_name":"Depok","is_transit":false,"time":6,"distance":5084,"transit":false},{"line":2,"i_lat":-6.391065,"transit":false,"time":3,"station_id":"DPB","is_transit":false,"station_name":"Depokbaru","i_long":106.819451,"distance":1584},{"i_lat":-6.369073,"is_transit":false,"station_name":"Pondok Cina","transit":false,"station_id":"POC","line":2,"time":4,"distance":2727,"i_long":106.831114},{"time":2,"i_long":106.831474,"station_id":"UI","line":2,"is_transit":false,"i_lat":-6.360749,"station_name":"Univ. Indonesia","transit":false,"distance":1109},{"station_id":"UP","line":2,"distance":2264,"transit":false,"time":3,"i_lat":-6.339291,"station_name":"Univ. Pancasila","i_long":106.834175,"is_transit":false},{"i_long":106.832616,"is_transit":false,"i_lat":-6.330363,"station_id":"LNA","station_name":"Lenteng Agung","line":2,"time":2,"distance":1029,"transit":false},{"i_long":106.838896,"station_id":"TNT","distance":2671,"line":2,"station_name":"Tanjung Barat","time":3,"is_transit":false,"transit":false,"i_lat":-6.3080680000000005},{"time":4,"station_id":"PSM","station_name":"Pasar Minggu","transit":false,"i_lat":-6.2842400000000005,"line":2,"distance":2820,"i_long":106.843999,"is_transit":false},{"station_id":"PSMB","i_long":106.851577,"is_transit":false,"i_lat":-6.263214,"station_name":"Pasar Minggu Baru","transit":false,"line":2,"distance":2380,"time":2},{"i_long":106.85449,"time":2,"line":2,"distance":824,"i_lat":-6.255332,"is_transit":false,"station_name":"Duren Kalibata","station_id":"DRN","transit":false},{"station_name":"Cawang","i_lat":-6.242512,"i_long":106.856607,"transit":false,"is_transit":false,"time":3,"station_id":"CW","line":2,"distance":1546},{"station_id":"TEB","is_transit":false,"line":2,"i_lat":-6.226659,"station_name":"Tebet","distance":1230,"time":2,"i_long":106.857948,"transit":false},{"line":2,"transit":true,"station_id":"MRI","station_name":"Manggarai","is_transit":true,"time":4,"distance":2610,"i_lat":-6.209883,"i_long":106.84912},{"time":2,"i_long":106.858896,"transit":false,"distance":1275,"station_id":"MTR","station_name":"Matraman","i_lat":-6.212485,"line":1,"is_transit":false},{"distance":1377,"i_lat":-6.215091,"station_name":"Jatinegara","is_transit":true,"i_long":106.86807400000001,"line":1,"transit":true,"time":8,"station_id":"JNG"},{"time":2,"transit":false,"station_id":"POK","i_long":106.861737,"is_transit":false,"distance":1236,"i_lat":-6.209188,"line":11,"station_name":"Pondok Jati"},{"station_id":"KMT","i_lat":-6.193792,"i_long":106.855437,"line":11,"transit":false,"distance":1829,"is_transit":false,"time":2,"station_name":"Kramat"},{"distance":973,"transit":false,"station_name":"Gang Sentiong","i_long":106.850107,"line":11,"station_id":"GST","i_lat":-6.185975,"is_transit":false,"time":1},{"is_transit":false,"time":8,"station_name":"Pasar Senen","station_id":"PSE","i_lat":-6.174784,"line":11,"transit":false,"distance":1567,"i_long":106.84368},{"distance":1436,"i_long":106.839204,"transit":false,"station_id":"KMO","station_name":"Kemayoran","i_lat":-6.161728,"is_transit":false,"line":11,"time":4},{"station_id":"RJW","transit":false,"time":5,"is_transit":false,"distance":1901,"station_name":"Rajawali","line":11,"i_long":106.836569,"i_lat":-6.14505},{"i_lat":-6.132549,"time":3,"station_name":"Kampung Bandan","i_long":106.826365,"is_transit":true,"transit":true,"distance":1444,"line":4,"station_id":"KPB"},{"i_long":106.79867,"is_transit":false,"transit":false,"station_name":"Angke","station_id":"AK","i_lat":-6.144674,"line":1,"time":9,"distance":4102},{"station_id":"DU","i_long":106.800832,"distance":1230,"line":1,"station_name":"Duri","is_transit":true,"transit":true,"i_lat":-6.155215,"time":4},{"line":5,"time":3,"is_transit":false,"station_id":"GGL","station_name":"Grogol","i_long":106.788277,"distance":1700,"i_lat":-6.162021,"transit":false},{"time":2,"is_transit":false,"i_long":106.771379,"line":5,"station_name":"Pesing","i_lat":-6.161433,"distance":2036,"station_id":"PSG","transit":false},{"distance":1614,"i_long":106.756522,"i_lat":-6.1587309999999995,"station_name":"Taman Kota","time":2,"line":5,"station_id":"TKO","transit":false,"is_transit":false},{"distance":2334,"line":5,"i_long":106.737035,"transit":false,"time":2,"station_id":"BOI","station_name":"Bojongindah","i_lat":-6.159876,"is_transit":false},{"station_id":"RW","time":4,"line":5,"station_name":"Rawa Buaya","i_lat":-6.162758,"is_transit":false,"distance":1152,"transit":false,"i_long":106.723064},{"transit":false,"station_name":"Kalideres","i_lat":-6.166068,"line":5,"distance":2504,"time":3,"station_id":"KDS","is_transit":false,"i_long":106.701612},{"i_long":106.679458,"transit":false,"is_transit":false,"i_lat":-6.169933,"line":5,"station_id":"PI","station_name":"Poris","time":3,"distance":2548}]]}