{"data":[[{"station_id":"BOO","distance":0,"transit":false,"i_lat":-6.594596,"station_name":"Bogor","line":1,"time":0,"is_transit":true,"i_long":106.790574},{"distance":7514,"station_name":"Cilebut","is_transit":false,"time":9,"line":0,"station_id":"CLT","i_long":106.800016,"i_lat":-6.530544,"transit":false},{"i_lat":-6.493243,"is_transit":false,"time":5,"line":0,"i_long":106.792719,"station_id":"BJD","distance":4331,"station_name":"Bojonggede","transit":false},{"transit":false,"station_name":"Citayam","line":1,"is_transit":true,"time":5,"distance":5197,"i_lat":-6.448811,"i_long":106.800298,"station_id":"CTA"},{"distance":5084,"transit":false,"time":6,"i_lat":-6.405256,"station_name":"Depok","i_long":106.816926,"station_id":"DP","is_transit":false,"line":0},{"station_id":"DPB","i_lat":-6.391065,"transit":false,"i_long":106.819451,"station_name":"Depokbaru","time":3,"is_transit":false,"line":0,"distance":1584},{"line":2,"time":4,"station_id":"POC","i_lat":-6.369073,"is_transit":false,"i_long":106.831114,"transit":false,"station_name":"Pondok Cina","distance":2727},{"distance":1109,"station_name":"Univ. Indonesia","station_id":"UI","i_long":106.831474,"is_transit":false,"time":2,"transit":false,"i_lat":-6.360749,"line":2},{"station_name":"Univ. Pancasila","line":2,"transit":false,"i_lat":-6.339291,"time":3,"distance":2264,"i_long":106.834175,"is_transit":false,"station_id":"UP"},{"transit":false,"is_transit":false,"i_long":106.832616,"station_name":"Lenteng Agung","station_id":"LNA","line":2,"i_lat":-6.330363,"time":2,"distance":1029},{"i_lat":-6.3080680000000005,"station_id":"TNT","station_name":"Tanjung Barat","time":3,"transit":false,"is_transit":false,"distance":2671,"i_long":106.838896,"line":2},{"distance":2820,"time":4,"i_long":106.843999,"is_transit":false,"transit":false,"station_id":"PSM","station_name":"Pasar Minggu","line":2,"i_lat":-6.2842400000000005},{"station_name":"Pasar Minggu Baru","i_lat":-6.263214,"distance":2380,"line":2,"station_id":"PSMB","time":2,"i_long":106.851577,"transit":false,"is_transit":false},{"station_id":"DRN","distance":824,"transit":false,"i_lat":-6.255332,"i_long":106.85449,"is_transit":false,"time":2,"station_name":"Duren Kalibata","line":0},{"transit":false,"line":0,"distance":1546,"is_transit":false,"i_lat":-6.242512,"station_id":"CW","time":3,"station_name":"Cawang","i_long":106.856607},{"is_transit":false,"distance":1230,"i_long":106.857948,"station_name":"Tebet","line":2,"i_lat":-6.226659,"time":2,"transit":false,"station_id":"TEB"},{"line":0,"time":4,"distance":2610,"station_name":"Manggarai","station_id":"MRI","i_lat":-6.209883,"is_transit":true,"transit":true,"i_long":106.84912},{"i_long":106.858896,"station_id":"MTR","is_transit":false,"line":1,"distance":1275,"time":2,"transit":false,"station_name":"Matraman","i_lat":-6.212485},{"i_long":106.86807400000001,"station_id":"JNG","i_lat":-6.215091,"distance":1377,"station_name":"Jatinegara","time":8,"transit":false,"line":0,"is_transit":true},{"station_id":"KLD","is_transit":false,"transit":false,"line":1,"i_lat":-6.2135,"time":3,"station_name":"Klender","i_long":106.899548,"distance":3395},{"i_long":106.922662,"distance":3100,"time":2,"is_transit":false,"station_name":"Buaran","transit":false,"i_lat":-6.215568,"line":0,"station_id":"BUA"}],[{"transit":false,"distance":0,"line":1,"station_name":"Bogor","station_id":"BOO","i_lat":-6.594596,"time":0,"is_transit":true,"i_long":106.790574},{"i_long":106.800016,"is_transit":false,"station_id":"CLT","station_name":"Cilebut","distance":7514,"transit":false,"i_lat":-6.530544,"line":0,"time":9},{"station_name":"Bojonggede","time":5,"i_lat":-6.493243,"station_id":"BJD","line":0,"is_transit":false,"distance":4331,"i_long":106.792719,"transit":false},{"i_long":106.800298,"station_id":"CTA","distance":5197,"time":5,"station_name":"Citayam","transit":false,"i_lat":-6.448811,"is_transit":true,"line":1},{"line":0,"is_transit":false,"transit":false,"i_lat":-6.405256,"station_id":"DP","i_long":106.816926,"station_name":"Depok","time":6,"distance":5084},{"transit":false,"line":0,"station_id":"DPB","i_long":106.819451,"i_lat":-6.391065,"time":3,"station_name":"Depokbaru","is_transit":false,"distance":1584},{"is_transit":false,"station_id":"POC","i_lat":-6.369073,"line":2,"time":4,"station_name":"Pondok Cina","distance":2727,"transit":false,"i_long":106.831114},{"i_long":106.831474,"station_name":"Univ. Indonesia","line":2,"is_transit":false,"station_id":"UI","time":2,"distance":1109,"i_lat":-6.360749,"transit":false},{"time":3,"station_id":"UP","transit":false,"i_lat":-6.339291,"distance":2264,"is_transit":false,"line":2,"station_name":"Univ. Pancasila","i_long":106.834175},{"station_id":"LNA","station_name":"Lenteng Agung","is_transit":false,"i_lat":-6.330363,"transit":false,"i_long":106.832616,"distance":1029,"time":2,"line":2},{"transit":false,"is_transit":false,"i_long":106.838896,"station_name":"Tanjung Barat","i_lat":-6.3080680000000005,"distance":2671,"station_id":"TNT","time":3,"line":2},{"station_name":"Pasar Minggu","distance":2820,"station_id":"PSM","line":2,"transit":false,"time":4,"is_transit":false,"i_lat":-6.2842400000000005,"i_long":106.843999},{"transit":false,"time":2,"distance":2380,"i_long":106.851577,"i_lat":-6.263214,"line":2,"is_transit":false,"station_name":"Pasar Minggu Baru","station_id":"PSMB"},{"is_transit":false,"time":2,"station_id":"DRN","distance":824,"transit":false,"line":0,"i_long":106.85449,"station_name":"Duren Kalibata","i_lat":-6.255332},{"station_name":"Cawang","i_long":106.856607,"distance":1546,"line":0,"i_lat":-6.242512,"transit":false,"station_id":"CW","is_transit":false,"time":3},{"distance":1230,"time":2,"line":2,"i_long":106.857948,"i_lat":-6.226659,"is_transit":false,"station_id":"TEB","station_name":"Tebet","transit":false},{"station_id":"MRI","distance":2610,"station_name":"Manggarai","transit":true,"i_lat":-6.209883,"i_long":106.84912,"line":0,"is_transit":true,"time":4},{"is_transit":false,"station_name":"Sudirman","i_long":106.822649,"time":4,"transit":false,"distance":3186,"i_lat":-6.202263,"line":1,"station_id":"SUD"},{"line":1,"i_lat":-6.201433,"i_long":106.819881,"transit":false,"time":1,"distance":280,"station_name":"Sudirman Baru","is_transit":false,"station_id":"SUDB"},{"station_id":"KAT","distance":471,"line":1,"i_long":106.816351,"transit":false,"is_transit":false,"station_name":"Karet","i_lat":-6.20132,"time":1},{"station_name":"Tanah Abang","time":5,"i_lat":-6.185545,"line":1,"is_transit":true,"distance":2029,"i_long":106.811091,"transit":false,"station_id":"THB"},{"line":1,"station_id":"DU","i_lat":-6.155215,"time":8,"i_long":106.800832,"station_name":"Duri","transit":true,"distance":3632,"is_transit":true},{"transit":false,"time":4,"line":0,"i_lat":-6.144674,"distance":1230,"i_long":106.79867,"is_transit":false,"station_name":"Angke","station_id":"AK"},{"line":0,"i_long":106.826365,"is_transit":true,"distance":4102,"i_lat":-6.132549,"station_id":"KPB","station_name":"Kampung Bandan","transit":true,"time":9},{"station_name":"Rajawali","transit":false,"station_id":"RJW","time":3,"distance":1444,"i_lat":-6.14505,"line":11,"is_transit":false,"i_long":106.836569},{"is_transit":false,"line":11,"station_id":"KMO","distance":1901,"time":5,"i_long":106.839204,"i_lat":-6.161728,"transit":false,"station_name":"Kemayoran"},{"i_long":106.84368,"station_name":"Pasar Senen","transit":false,"station_id":"PSE","line":11,"is_transit":false,"time":4,"distance":1436,"i_lat":-6.174784},{"distance":1567,"line":11,"i_long":106.850107,"is_transit":false,"time":8,"station_id":"GST","station_name":"Gang Sentiong","i_lat":-6.185975,"transit":false},{"station_name":"Kramat","station_id":"KMT","is_transit":false,"distance":973,"transit":false,"time":1,"i_lat":-6.193792,"line":11,"i_long":106.855437},{"distance":1829,"i_long":106.861737,"i_lat":-6.209188,"is_transit":false,"station_id":"POK","line":11,"transit":false,"station_name":"Pondok Jati","time":2},{"distance":1236,"station_name":"Jatinegara","station_id":"JNG","transit":true,"i_long":106.86807400000001,"i_lat":-6.215091,"is_transit":true,"line":0,"time":9},{"station_name":"Klender","line":1,"i_long":106.899548,"is_transit":false,"time":3,"distance":3395,"transit":false,"station_id":"KLD","i_lat":-6.2135},{"i_long":106.922662,"is_transit":false,"line":0,"distance":3100,"station_id":"BUA","time":2,"station_name":"Buaran","transit":false,"i_lat":-6.215568}],[{"station_name":"Bogor","i_lat":-6.594596,"transit":false,"station_id":"BOO","line":1,"i_long":106.790574,"is_transit":true,"distance":0,"time":0},{"line":0,"i_lat":-6.530544,"transit":false,"is_transit":false,"distance":7514,"station_name":"Cilebut","i_long":106.800016,"station_id":"CLT","time":9},{"is_transit":false,"i_long":106.792719,"station_id":"BJD","station_name":"Bojonggede","distance":4331,"i_lat":-6.493243,"time":5,"transit":false,"line":0},{"transit":false,"distance":5197,"i_long":106.800298,"station_id":"CTA","station_name":"Citayam","is_transit":true,"line":1,"time":5,"i_lat":-6.448811},{"station_id":"DP","i_lat":-6.405256,"i_long":106.816926,"transit":false,"is_transit":false,"distance":5084,"station_name":"Depok","time":6,"line":0},{"distance":1584,"i_lat":-6.391065,"is_transit":false,"line":0,"station_name":"Depokbaru","transit":false,"station_id":"DPB","time":3,"i_long":106.819451},{"line":2,"is_transit":false,"time":4,"transit":false,"i_lat":-6.369073,"station_name":"Pondok Cina","station_id":"POC","i_long":106.831114,"distance":2727},{"time":2,"i_long":106.831474,"station_id":"UI","line":2,"station_name":"Univ. Indonesia","i_lat":-6.360749,"distance":1109,"transit":false,"is_transit":false},{"line":2,"is_transit":false,"station_id":"UP","i_lat":-6.339291,"transit":false,"time":3,"station_name":"Univ. Pancasila","distance":2264,"i_long":106.834175},{"i_lat":-6.330363,"station_id":"LNA","station_name":"Lenteng Agung","i_long":106.832616,"is_transit":false,"distance":1029,"time":2,"line":2,"transit":false},{"time":3,"i_long":106.838896,"distance":2671,"i_lat":-6.3080680000000005,"transit":false,"line":2,"station_id":"TNT","is_transit":false,"station_name":"Tanjung Barat"},{"station_id":"PSM","line":2,"transit":false,"time":4,"distance":2820,"i_lat":-6.2842400000000005,"is_transit":false,"i_long":106.843999,"station_name":"Pasar Minggu"},{"i_long":106.851577,"line":2,"station_id":"PSMB","i_lat":-6.263214,"station_name":"Pasar Minggu Baru","transit":false,"is_transit":false,"time":2,"distance":2380},{"i_long":106.85449,"is_transit":false,"time":2,"station_id":"DRN","station_name":"Duren Kalibata","line":0,"i_lat":-6.255332,"transit":false,"distance":824},{"station_name":"Cawang","is_transit":false,"time":3,"distance":1546,"i_long":106.856607,"line":0,"i_lat":-6.242512,"transit":false,"station_id":"CW"},{"distance":1230,"station_name":"Tebet","transit":false,"line":2,"station_id":"TEB","i_long":106.857948,"i_lat":-6.226659,"is_transit":false,"time":2},{"distance":2610,"line":0,"i_lat":-6.209883,"station_name":"Manggarai","i_long":106.84912,"station_id":"MRI","time":4,"transit":true,"is_transit":true},{"is_transit":false,"time":4,"distance":1590,"i_lat":-6.198556,"i_long":106.840169,"transit":false,"line":0,"station_id":"CKI","station_name":"Cikini"},{"station_name":"Gondangdia","time":3,"i_long":106.832183,"line":2,"distance":1750,"i_lat":-6.186295,"station_id":"GDD","transit":false,"is_transit":false},{"station_id":"JUA","time":4,"i_lat":-6.166716,"i_long":106.828284,"distance":2015,"station_name":"Juanda","transit":false,"line":2,"is_transit":false},{"is_transit":false,"transit":false,"distance":1149,"i_long":106.827103,"line":2,"station_name":"Sawah Besar","station_id":"SW","i_lat":-6.160725,"time":2},{"i_long":106.82482,"station_name":"Manggabesar","station_id":"MGB","distance":906,"i_lat":-6.149769,"line":2,"transit":false,"time":2,"is_transit":false},{"station_id":"JAY","line":7,"is_transit":false,"i_lat":-6.141205,"station_name":"Jayakarta","time":2,"i_long":106.820901,"distance":1080,"transit":false},{"time":4,"station_id":"JAKK","distance":1264,"i_lat":-6.137569,"station_name":"Jakarta Kota","is_transit":true,"transit":true,"i_long":106.812439,"line":0},{"i_long":106.826365,"is_transit":true,"transit":true,"i_lat":-6.132549,"line":0,"distance":1364,"time":3,"station_name":"Kampung Bandan","station_id":"KPB"},{"i_long":106.836569,"station_id":"RJW","line":11,"time":3,"station_name":"Rajawali","distance":1444,"is_transit":false,"transit":false,"i_lat":-6.14505},{"distance":1901,"i_long":106.839204,"line":11,"station_name":"Kemayoran","is_transit":false,"i_lat":-6.161728,"time":5,"station_id":"KMO","transit":false},{"station_name":"Pasar Senen","station_id":"PSE","is_transit":false,"transit":false,"i_lat":-6.174784,"i_long":106.84368,"line":11,"time":4,"distance":1436},{"i_long":106.850107,"station_name":"Gang Sentiong","station_id":"GST","distance":1567,"transit":false,"is_transit":false,"time":8,"line":11,"i_lat":-6.185975},{"is_transit":false,"line":11,"station_name":"Kramat","i_lat":-6.193792,"i_long":106.855437,"station_id":"KMT","transit":false,"time":1,"distance":973},{"i_long":106.861737,"line":11,"station_name":"Pondok Jati","transit":false,"is_transit":false,"distance":1829,"station_id":"POK","time":2,"i_lat":-6.209188},{"i_lat":-6.215091,"is_transit":true,"i_long":106.86807400000001,"line":0,"transit":true,"station_name":"Jatinegara","station_id":"JNG","distance":1236,"time":9},{"line":1,"i_lat":-6.2135,"transit":false,"i_long":106.899548,"distance":3395,"station_id":"KLD","time":3,"station_name":"Klender","is_transit":false},{"i_lat":-6.215568,"line":0,"transit":false,"i_long":106.922662,"station_id":"BUA","is_transit":false,"station_name":"Buaran","time":2,"distance":3100}]]}