{"data":[[{"time":0,"is_transit":false,"transit":false,"i_long":106.790574,"line":2,"station_id":"BOO","i_lat":-6.594596,"station_name":"Bogor","distance":0},{"station_name":"Cilebut","line":2,"i_lat":-6.530544,"is_transit":false,"distance":7514,"time":9,"station_id":"CLT","transit":false,"i_long":106.800016},{"time":5,"distance":4331,"i_long":106.792719,"line":2,"station_name":"Bojonggede","transit":false,"is_transit":false,"i_lat":-6.493243,"station_id":"BJD"},{"station_id":"CTA","is_transit":false,"transit":false,"i_lat":-6.448811,"time":5,"distance":5197,"i_long":106.800298,"line":2,"station_name":"Citayam"},{"time":6,"is_transit":false,"line":2,"station_id":"DP","i_lat":-6.405256,"distance":5084,"i_long":106.816926,"station_name":"Depok","transit":false},{"station_id":"DPB","distance":1584,"station_name":"Depokbaru","transit":false,"time":3,"is_transit":false,"i_long":106.819451,"i_lat":-6.391065,"line":2},{"station_id":"POC","i_long":106.831114,"line":2,"transit":false,"time":4,"distance":2727,"i_lat":-6.369073,"is_transit":false,"station_name":"Pondok Cina"},{"transit":false,"i_lat":-6.360749,"is_transit":false,"time":2,"station_id":"UI","i_long":106.831474,"distance":1109,"station_name":"Univ. Indonesia","line":2},{"is_transit":false,"i_long":106.834175,"station_id":"UP","transit":false,"i_lat":-6.339291,"distance":2264,"time":3,"line":2,"station_name":"Univ. Pancasila"},{"station_name":"Lenteng Agung","is_transit":false,"time":2,"i_lat":-6.330363,"station_id":"LNA","line":2,"transit":false,"distance":1029,"i_long":106.832616},{"time":3,"distance":2671,"station_id":"TNT","transit":false,"i_lat":-6.3080680000000005,"line":2,"station_name":"Tanjung Barat","is_transit":false,"i_long":106.838896},{"i_long":106.843999,"is_transit":false,"i_lat":-6.2842400000000005,"line":2,"distance":2820,"transit":false,"time":4,"station_id":"PSM","station_name":"Pasar Minggu"},{"i_long":106.851577,"station_name":"Pasar Minggu Baru","is_transit":false,"i_lat":-6.263214,"distance":2380,"station_id":"PSMB","time":2,"transit":false,"line":2},{"line":2,"i_long":106.85449,"i_lat":-6.255332,"station_id":"DRN","station_name":"Duren Kalibata","distance":824,"time":2,"is_transit":false,"transit":false},{"time":3,"i_long":106.856607,"transit":false,"distance":1546,"line":2,"station_id":"CW","station_name":"Cawang","is_transit":false,"i_lat":-6.242512},{"is_transit":false,"distance":1230,"transit":false,"i_lat":-6.226659,"station_id":"TEB","line":2,"time":2,"station_name":"Tebet","i_long":106.857948},{"time":4,"transit":true,"i_lat":-6.209883,"is_transit":true,"station_name":"Manggarai","i_long":106.84912,"line":2,"station_id":"MRI","distance":2610},{"line":1,"transit":false,"distance":3186,"station_name":"Sudirman","is_transit":false,"station_id":"SUD","i_lat":-6.202263,"i_long":106.822649,"time":4},{"distance":280,"i_long":106.819881,"station_name":"Sudirman Baru","i_lat":-6.201433,"time":1,"is_transit":false,"line":1,"station_id":"SUDB","transit":false},{"is_transit":false,"station_id":"KAT","line":1,"transit":false,"i_lat":-6.20132,"time":1,"station_name":"Karet","i_long":106.816351,"distance":471},{"is_transit":false,"i_lat":-6.185545,"time":5,"i_long":106.811091,"transit":false,"station_id":"THB","distance":2029,"line":1,"station_name":"Tanah Abang"},{"distance":3632,"i_lat":-6.155215,"time":8,"is_transit":true,"i_long":106.800832,"station_id":"DU","station_name":"Duri","line":1,"transit":true},{"i_long":106.788277,"transit":false,"station_id":"GRG","distance":1700,"is_transit":false,"line":5,"station_name":"Grogol","time":3,"i_lat":-6.162021},{"station_name":"Pesing","time":2,"i_lat":-6.161433,"transit":false,"station_id":"PSG","is_transit":false,"line":5,"distance":2036,"i_long":106.771379},{"is_transit":false,"transit":false,"time":2,"station_id":"TKO","station_name":"Taman Kota","i_lat":-6.1587309999999995,"i_long":106.756522,"distance":1614,"line":5},{"is_transit":false,"line":5,"station_id":"BOI","distance":2334,"i_long":106.737035,"i_lat":-6.159876,"transit":false,"station_name":"Bojongindah","time":2},{"is_transit":false,"transit":false,"i_lat":-6.162758,"i_long":106.723064,"line":5,"station_name":"Rawa Buaya","time":4,"station_id":"RW","distance":1152}],[{"station_name":"Bogor","station_id":"BOO","i_lat":-6.594596,"transit":false,"time":0,"is_transit":false,"distance":0,"i_long":106.790574,"line":2},{"distance":7514,"station_id":"CLT","line":2,"time":9,"is_transit":false,"transit":false,"i_lat":-6.530544,"i_long":106.800016,"station_name":"Cilebut"},{"i_long":106.792719,"distance":4331,"time":5,"line":2,"is_transit":false,"transit":false,"i_lat":-6.493243,"station_id":"BJD","station_name":"Bojonggede"},{"i_lat":-6.448811,"station_id":"CTA","station_name":"Citayam","transit":false,"distance":5197,"i_long":106.800298,"line":2,"is_transit":false,"time":5},{"is_transit":false,"distance":5084,"station_id":"DP","i_long":106.816926,"line":2,"i_lat":-6.405256,"transit":false,"time":6,"station_name":"Depok"},{"i_long":106.819451,"transit":false,"is_transit":false,"distance":1584,"time":3,"station_name":"Depokbaru","station_id":"DPB","i_lat":-6.391065,"line":2},{"i_long":106.831114,"time":4,"is_transit":false,"line":2,"distance":2727,"transit":false,"station_id":"POC","station_name":"Pondok Cina","i_lat":-6.369073},{"station_id":"UI","i_lat":-6.360749,"line":2,"distance":1109,"station_name":"Univ. Indonesia","transit":false,"is_transit":false,"time":2,"i_long":106.831474},{"transit":false,"station_name":"Univ. Pancasila","i_long":106.834175,"i_lat":-6.339291,"time":3,"line":2,"is_transit":false,"station_id":"UP","distance":2264},{"is_transit":false,"station_id":"LNA","time":2,"i_lat":-6.330363,"line":2,"distance":1029,"station_name":"Lenteng Agung","i_long":106.832616,"transit":false},{"station_name":"Tanjung Barat","time":3,"station_id":"TNT","transit":false,"is_transit":false,"i_lat":-6.3080680000000005,"line":2,"i_long":106.838896,"distance":2671},{"is_transit":false,"i_lat":-6.2842400000000005,"i_long":106.843999,"line":2,"station_id":"PSM","transit":false,"distance":2820,"station_name":"Pasar Minggu","time":4},{"transit":false,"station_id":"PSMB","station_name":"Pasar Minggu Baru","is_transit":false,"distance":2380,"i_lat":-6.263214,"i_long":106.851577,"time":2,"line":2},{"i_long":106.85449,"transit":false,"line":2,"distance":824,"i_lat":-6.255332,"station_id":"DRN","time":2,"is_transit":false,"station_name":"Duren Kalibata"},{"station_id":"CW","distance":1546,"i_lat":-6.242512,"station_name":"Cawang","line":2,"is_transit":false,"time":3,"transit":false,"i_long":106.856607},{"line":2,"distance":1230,"time":2,"i_long":106.857948,"station_id":"TEB","station_name":"Tebet","transit":false,"i_lat":-6.226659,"is_transit":false},{"i_long":106.84912,"time":4,"station_id":"MRI","line":2,"distance":2610,"station_name":"Manggarai","transit":false,"i_lat":-6.209883,"is_transit":false},{"transit":false,"is_transit":false,"time":4,"i_long":106.840169,"distance":1590,"station_id":"CKI","i_lat":-6.198556,"line":2,"station_name":"Cikini"},{"is_transit":false,"time":3,"i_long":106.832183,"line":2,"station_id":"GDD","distance":1750,"station_name":"Gondangdia","transit":false,"i_lat":-6.186295},{"is_transit":false,"station_name":"Juanda","time":4,"i_long":106.828284,"distance":2015,"line":2,"transit":false,"station_id":"JUA","i_lat":-6.166716},{"is_transit":false,"station_id":"SW","transit":false,"time":2,"station_name":"Sawah Besar","i_long":106.827103,"distance":1149,"i_lat":-6.160725,"line":2},{"time":2,"station_name":"Manggabesar","station_id":"MGB","is_transit":false,"distance":906,"i_lat":-6.149769,"i_long":106.82482,"line":2,"transit":false},{"station_id":"JAY","distance":1080,"is_transit":false,"i_long":106.820901,"transit":false,"time":2,"i_lat":-6.141205,"station_name":"Jayakarta","line":2},{"i_lat":-6.137569,"station_id":"JAKK","is_transit":true,"transit":true,"time":4,"station_name":"Jakarta Kota","i_long":106.812439,"distance":1264,"line":2},{"station_id":"KPB","distance":1364,"i_lat":-6.132549,"station_name":"Kampung Bandan","i_long":106.826365,"time":3,"line":4,"is_transit":true,"transit":true},{"line":1,"time":9,"station_name":"Angke","transit":false,"i_long":106.79867,"i_lat":-6.144674,"station_id":"AK","is_transit":false,"distance":4102},{"i_long":106.800832,"time":4,"is_transit":true,"line":1,"i_lat":-6.155215,"distance":1230,"transit":true,"station_id":"DU","station_name":"Duri"},{"distance":1700,"i_long":106.788277,"line":5,"i_lat":-6.162021,"station_name":"Grogol","time":3,"is_transit":false,"station_id":"GRG","transit":false},{"station_id":"PSG","station_name":"Pesing","transit":false,"i_long":106.771379,"time":2,"distance":2036,"is_transit":false,"line":5,"i_lat":-6.161433},{"is_transit":false,"station_name":"Taman Kota","i_lat":-6.1587309999999995,"station_id":"TKO","i_long":106.756522,"transit":false,"time":2,"distance":1614,"line":5},{"transit":false,"is_transit":false,"distance":2334,"time":2,"station_id":"BOI","station_name":"Bojongindah","i_long":106.737035,"i_lat":-6.159876,"line":5},{"station_id":"RW","distance":1152,"i_lat":-6.162758,"line":5,"i_long":106.723064,"is_transit":false,"station_name":"Rawa Buaya","time":4,"transit":false}],[{"i_long":106.790574,"time":0,"is_transit":false,"distance":0,"station_name":"Bogor","line":2,"transit":false,"station_id":"BOO","i_lat":-6.594596},{"station_id":"CLT","station_name":"Cilebut","line":2,"transit":false,"distance":7514,"time":9,"i_long":106.800016,"is_transit":false,"i_lat":-6.530544},{"time":5,"is_transit":false,"station_name":"Bojonggede","line":2,"transit":false,"station_id":"BJD","i_lat":-6.493243,"distance":4331,"i_long":106.792719},{"time":5,"station_id":"CTA","is_transit":false,"i_long":106.800298,"station_name":"Citayam","line":2,"i_lat":-6.448811,"distance":5197,"transit":false},{"transit":false,"station_id":"DP","i_lat":-6.405256,"station_name":"Depok","is_transit":false,"i_long":106.816926,"time":6,"line":2,"distance":5084},{"station_id":"DPB","i_lat":-6.391065,"i_long":106.819451,"is_transit":false,"line":2,"transit":false,"distance":1584,"station_name":"Depokbaru","time":3},{"transit":false,"line":2,"station_name":"Pondok Cina","station_id":"POC","i_lat":-6.369073,"i_long":106.831114,"is_transit":false,"time":4,"distance":2727},{"is_transit":false,"distance":1109,"i_long":106.831474,"station_name":"Univ. Indonesia","station_id":"UI","line":2,"time":2,"transit":false,"i_lat":-6.360749},{"is_transit":false,"time":3,"transit":false,"line":2,"i_lat":-6.339291,"station_id":"UP","distance":2264,"station_name":"Univ. Pancasila","i_long":106.834175},{"distance":1029,"station_id":"LNA","time":2,"line":2,"transit":false,"i_long":106.832616,"i_lat":-6.330363,"is_transit":false,"station_name":"Lenteng Agung"},{"station_id":"TNT","station_name":"Tanjung Barat","i_lat":-6.3080680000000005,"i_long":106.838896,"is_transit":false,"time":3,"distance":2671,"transit":false,"line":2},{"transit":false,"distance":2820,"i_lat":-6.2842400000000005,"line":2,"is_transit":false,"time":4,"station_id":"PSM","station_name":"Pasar Minggu","i_long":106.843999},{"time":2,"transit":false,"i_lat":-6.263214,"station_name":"Pasar Minggu Baru","line":2,"is_transit":false,"station_id":"PSMB","distance":2380,"i_long":106.851577},{"i_long":106.85449,"time":2,"i_lat":-6.255332,"transit":false,"line":2,"station_name":"Duren Kalibata","distance":824,"is_transit":false,"station_id":"DRN"},{"station_name":"Cawang","is_transit":false,"i_lat":-6.242512,"distance":1546,"transit":false,"time":3,"i_long":106.856607,"station_id":"CW","line":2},{"line":2,"is_transit":false,"time":2,"i_lat":-6.226659,"i_long":106.857948,"transit":false,"distance":1230,"station_name":"Tebet","station_id":"TEB"},{"i_lat":-6.209883,"i_long":106.84912,"is_transit":true,"time":4,"station_name":"Manggarai","transit":true,"distance":2610,"line":2,"station_id":"MRI"},{"i_long":106.858896,"is_transit":false,"distance":1275,"line":1,"i_lat":-6.212485,"time":2,"transit":false,"station_name":"Matraman","station_id":"MTR"},{"i_lat":-6.215091,"station_name":"Jatinegara","transit":true,"i_long":106.86807400000001,"time":8,"line":1,"distance":1377,"is_transit":true,"station_id":"JNG"},{"time":2,"station_name":"Pondok Jati","i_long":106.861737,"line":11,"transit":false,"distance":1236,"i_lat":-6.209188,"station_id":"POK","is_transit":false},{"i_long":106.855437,"station_name":"Kramat","transit":false,"is_transit":false,"distance":1829,"i_lat":-6.193792,"time":2,"line":11,"station_id":"KMT"},{"station_id":"GST","distance":973,"i_lat":-6.185975,"line":11,"i_long":106.850107,"time":1,"transit":false,"is_transit":false,"station_name":"Gang Sentiong"},{"i_lat":-6.174784,"station_name":"Pasar Senen","line":11,"i_long":106.84368,"is_transit":false,"time":8,"transit":false,"distance":1567,"station_id":"PSE"},{"time":4,"is_transit":false,"station_id":"KMO","i_long":106.839204,"station_name":"Kemayoran","transit":false,"distance":1436,"i_lat":-6.161728,"line":11},{"transit":false,"i_long":106.836569,"station_name":"Rajawali","station_id":"RJW","line":11,"is_transit":false,"time":5,"distance":1901,"i_lat":-6.14505},{"i_long":106.826365,"i_lat":-6.132549,"line":4,"station_name":"Kampung Bandan","is_transit":true,"distance":1444,"time":3,"station_id":"KPB","transit":true},{"distance":4102,"line":1,"transit":false,"time":9,"i_lat":-6.144674,"is_transit":false,"station_id":"AK","station_name":"Angke","i_long":106.79867},{"i_lat":-6.155215,"station_name":"Duri","i_long":106.800832,"time":4,"distance":1230,"is_transit":true,"line":1,"station_id":"DU","transit":true},{"station_id":"GRG","i_long":106.788277,"distance":1700,"is_transit":false,"time":3,"station_name":"Grogol","line":5,"i_lat":-6.162021,"transit":false},{"i_lat":-6.161433,"transit":false,"is_transit":false,"station_id":"PSG","time":2,"distance":2036,"station_name":"Pesing","i_long":106.771379,"line":5},{"i_long":106.756522,"transit":false,"line":5,"station_name":"Taman Kota","station_id":"TKO","time":2,"distance":1614,"i_lat":-6.1587309999999995,"is_transit":false},{"is_transit":false,"line":5,"i_long":106.737035,"transit":false,"distance":2334,"time":2,"station_id":"BOI","station_name":"Bojongindah","i_lat":-6.159876},{"distance":1152,"station_name":"Rawa Buaya","line":5,"transit":false,"time":4,"i_long":106.723064,"is_transit":false,"i_lat":-6.162758,"station_id":"RW"}]]}