{"data":[[{"station_name":"Bogor","station_id":"BOO","line":2,"distance":0,"is_transit":false,"i_lat":-6.594596,"time":0,"transit":false,"i_long":106.790574},{"station_name":"Cilebut","is_transit":false,"i_long":106.800016,"transit":false,"line":2,"i_lat":-6.530544,"station_id":"CLT","time":9,"distance":7514},{"station_name":"Bojonggede","line":2,"is_transit":false,"station_id":"BJD","time":5,"i_long":106.792719,"i_lat":-6.493243,"distance":4331,"transit":false},{"i_lat":-6.448811,"transit":false,"distance":5197,"is_transit":false,"i_long":106.800298,"line":2,"station_name":"Citayam","time":5,"station_id":"CTA"},{"line":2,"station_name":"Depok","distance":5084,"time":6,"station_id":"DP","i_lat":-6.405256,"i_long":106.816926,"transit":false,"is_transit":false},{"time":3,"station_name":"Depokbaru","is_transit":false,"i_long":106.819451,"distance":1584,"transit":false,"i_lat":-6.391065,"line":2,"station_id":"DPB"},{"time":4,"i_lat":-6.369073,"station_id":"POC","i_long":106.831114,"line":2,"station_name":"Pondok Cina","distance":2727,"is_transit":false,"transit":false},{"line":2,"station_name":"Univ. Indonesia","time":2,"distance":1109,"is_transit":false,"transit":false,"i_lat":-6.360749,"station_id":"UI","i_long":106.831474},{"station_id":"UP","distance":2264,"time":3,"is_transit":false,"i_long":106.834175,"station_name":"Univ. Pancasila","line":2,"i_lat":-6.339291,"transit":false},{"i_long":106.832616,"station_id":"LNA","i_lat":-6.330363,"line":2,"time":2,"station_name":"Lenteng Agung","transit":false,"distance":1029,"is_transit":false},{"i_lat":-6.3080680000000005,"station_name":"Tanjung Barat","time":3,"i_long":106.838896,"distance":2671,"transit":false,"station_id":"TNT","is_transit":false,"line":2},{"i_lat":-6.2842400000000005,"distance":2820,"time":4,"transit":false,"i_long":106.843999,"line":2,"station_id":"PSM","station_name":"Pasar Minggu","is_transit":false},{"transit":false,"distance":2380,"station_id":"PSMB","i_lat":-6.263214,"is_transit":false,"time":2,"i_long":106.851577,"line":2,"station_name":"Pasar Minggu Baru"},{"distance":824,"time":2,"i_lat":-6.255332,"i_long":106.85449,"line":2,"is_transit":false,"station_name":"Duren Kalibata","transit":false,"station_id":"DRN"},{"line":2,"i_long":106.856607,"transit":false,"station_name":"Cawang","station_id":"CW","i_lat":-6.242512,"distance":1546,"time":3,"is_transit":false},{"transit":false,"is_transit":false,"i_long":106.857948,"time":2,"distance":1230,"station_id":"TEB","station_name":"Tebet","i_lat":-6.226659,"line":2},{"i_long":106.84912,"line":2,"time":4,"transit":false,"is_transit":false,"station_id":"MRI","distance":2610,"station_name":"Manggarai","i_lat":-6.209883},{"is_transit":false,"station_id":"CKI","station_name":"Cikini","distance":1590,"line":2,"i_long":106.840169,"time":4,"i_lat":-6.198556,"transit":false},{"line":2,"distance":1750,"time":3,"i_long":106.832183,"transit":false,"is_transit":false,"i_lat":-6.186295,"station_id":"GDD","station_name":"Gondangdia"},{"time":4,"station_name":"Juanda","is_transit":false,"i_long":106.828284,"transit":false,"i_lat":-6.166716,"distance":2015,"line":2,"station_id":"JUA"}],[{"station_name":"Bogor","time":0,"is_transit":false,"i_lat":-6.594596,"station_id":"BOO","line":2,"distance":0,"transit":false,"i_long":106.790574},{"distance":7514,"transit":false,"i_lat":-6.530544,"is_transit":false,"time":9,"station_name":"Cilebut","station_id":"CLT","i_long":106.800016,"line":2},{"line":2,"time":5,"is_transit":false,"distance":4331,"i_lat":-6.493243,"i_long":106.792719,"station_id":"BJD","transit":false,"station_name":"Bojonggede"},{"time":5,"station_id":"CTA","distance":5197,"i_lat":-6.448811,"transit":false,"i_long":106.800298,"line":2,"station_name":"Citayam","is_transit":false},{"i_long":106.816926,"station_name":"Depok","is_transit":false,"line":2,"time":6,"station_id":"DP","transit":false,"i_lat":-6.405256,"distance":5084},{"station_name":"Depokbaru","transit":false,"i_long":106.819451,"i_lat":-6.391065,"station_id":"DPB","is_transit":false,"distance":1584,"time":3,"line":2},{"i_lat":-6.369073,"i_long":106.831114,"line":2,"distance":2727,"time":4,"is_transit":false,"transit":false,"station_id":"POC","station_name":"Pondok Cina"},{"station_id":"UI","transit":false,"i_lat":-6.360749,"station_name":"Univ. Indonesia","is_transit":false,"time":2,"line":2,"i_long":106.831474,"distance":1109},{"station_id":"UP","distance":2264,"is_transit":false,"station_name":"Univ. Pancasila","time":3,"transit":false,"i_lat":-6.339291,"i_long":106.834175,"line":2},{"is_transit":false,"time":2,"station_name":"Lenteng Agung","station_id":"LNA","distance":1029,"transit":false,"i_lat":-6.330363,"i_long":106.832616,"line":2},{"transit":false,"line":2,"i_long":106.838896,"station_id":"TNT","i_lat":-6.3080680000000005,"is_transit":false,"station_name":"Tanjung Barat","time":3,"distance":2671},{"is_transit":false,"line":2,"transit":false,"i_long":106.843999,"station_name":"Pasar Minggu","time":4,"distance":2820,"i_lat":-6.2842400000000005,"station_id":"PSM"},{"distance":2380,"time":2,"transit":false,"i_long":106.851577,"line":2,"is_transit":false,"station_id":"PSMB","station_name":"Pasar Minggu Baru","i_lat":-6.263214},{"station_name":"Duren Kalibata","distance":824,"i_long":106.85449,"i_lat":-6.255332,"transit":false,"line":2,"station_id":"DRN","time":2,"is_transit":false},{"distance":1546,"i_long":106.856607,"line":2,"transit":false,"i_lat":-6.242512,"station_id":"CW","time":3,"station_name":"Cawang","is_transit":false},{"station_name":"Tebet","line":2,"i_lat":-6.226659,"i_long":106.857948,"station_id":"TEB","distance":1230,"transit":false,"is_transit":false,"time":2},{"i_long":106.84912,"line":2,"station_id":"MRI","station_name":"Manggarai","time":4,"transit":true,"is_transit":true,"i_lat":-6.209883,"distance":2610},{"i_long":106.822649,"is_transit":false,"station_name":"Sudirman","station_id":"SUD","distance":3186,"i_lat":-6.202263,"transit":false,"line":1,"time":4},{"station_name":"Sudirman Baru","line":1,"transit":false,"i_lat":-6.201433,"distance":280,"i_long":106.819881,"station_id":"SUDB","time":1,"is_transit":false},{"is_transit":false,"distance":471,"i_lat":-6.20132,"i_long":106.816351,"station_name":"Karet","line":1,"time":1,"station_id":"KAT","transit":false},{"time":5,"station_name":"Tanah Abang","distance":2029,"is_transit":false,"i_lat":-6.185545,"station_id":"THB","line":1,"i_long":106.811091,"transit":false},{"i_long":106.800832,"time":8,"is_transit":false,"i_lat":-6.155215,"station_name":"Duri","line":1,"station_id":"DU","distance":3632,"transit":false},{"distance":1230,"i_long":106.79867,"station_id":"AK","i_lat":-6.144674,"time":4,"is_transit":false,"transit":false,"line":1,"station_name":"Angke"},{"line":4,"station_name":"Kampung Bandan","time":9,"transit":true,"i_lat":-6.132549,"station_id":"KPB","i_long":106.826365,"distance":4102,"is_transit":true},{"distance":1364,"time":3,"i_lat":-6.137569,"is_transit":true,"line":2,"i_long":106.812439,"transit":true,"station_name":"Jakarta Kota","station_id":"JAKK"},{"i_long":106.820901,"transit":false,"i_lat":-6.141205,"line":2,"station_id":"JAY","time":4,"is_transit":false,"station_name":"Jayakarta","distance":1264},{"i_lat":-6.149769,"is_transit":false,"line":2,"i_long":106.82482,"station_id":"MGB","time":2,"station_name":"Manggabesar","distance":1080,"transit":false},{"i_lat":-6.160725,"station_id":"SW","time":2,"station_name":"Sawah Besar","i_long":106.827103,"is_transit":false,"line":2,"distance":906,"transit":false},{"station_name":"Juanda","line":2,"distance":1149,"i_lat":-6.166716,"transit":false,"is_transit":false,"i_long":106.828284,"station_id":"JUA","time":2}],[{"distance":0,"i_lat":-6.594596,"station_name":"Bogor","transit":false,"is_transit":false,"i_long":106.790574,"time":0,"line":2,"station_id":"BOO"},{"time":9,"i_lat":-6.530544,"transit":false,"station_name":"Cilebut","distance":7514,"i_long":106.800016,"is_transit":false,"line":2,"station_id":"CLT"},{"i_lat":-6.493243,"time":5,"line":2,"is_transit":false,"station_id":"BJD","i_long":106.792719,"station_name":"Bojonggede","distance":4331,"transit":false},{"is_transit":false,"station_id":"CTA","transit":false,"i_long":106.800298,"station_name":"Citayam","time":5,"distance":5197,"i_lat":-6.448811,"line":2},{"i_lat":-6.405256,"time":6,"distance":5084,"line":2,"station_name":"Depok","station_id":"DP","transit":false,"is_transit":false,"i_long":106.816926},{"i_long":106.819451,"station_id":"DPB","station_name":"Depokbaru","transit":false,"line":2,"time":3,"is_transit":false,"i_lat":-6.391065,"distance":1584},{"distance":2727,"transit":false,"is_transit":false,"station_name":"Pondok Cina","line":2,"station_id":"POC","time":4,"i_long":106.831114,"i_lat":-6.369073},{"distance":1109,"i_long":106.831474,"time":2,"i_lat":-6.360749,"station_name":"Univ. Indonesia","transit":false,"is_transit":false,"station_id":"UI","line":2},{"station_id":"UP","line":2,"i_long":106.834175,"station_name":"Univ. Pancasila","time":3,"is_transit":false,"distance":2264,"transit":false,"i_lat":-6.339291},{"station_name":"Lenteng Agung","transit":false,"is_transit":false,"i_long":106.832616,"line":2,"distance":1029,"i_lat":-6.330363,"time":2,"station_id":"LNA"},{"station_name":"Tanjung Barat","distance":2671,"time":3,"transit":false,"i_lat":-6.3080680000000005,"is_transit":false,"line":2,"station_id":"TNT","i_long":106.838896},{"time":4,"transit":false,"station_id":"PSM","distance":2820,"line":2,"i_long":106.843999,"is_transit":false,"station_name":"Pasar Minggu","i_lat":-6.2842400000000005},{"station_id":"PSMB","time":2,"transit":false,"distance":2380,"i_long":106.851577,"is_transit":false,"station_name":"Pasar Minggu Baru","i_lat":-6.263214,"line":2},{"i_long":106.85449,"station_id":"DRN","transit":false,"i_lat":-6.255332,"line":2,"station_name":"Duren Kalibata","distance":824,"is_transit":false,"time":2},{"line":2,"time":3,"distance":1546,"station_name":"Cawang","transit":false,"is_transit":false,"i_lat":-6.242512,"i_long":106.856607,"station_id":"CW"},{"i_long":106.857948,"distance":1230,"station_id":"TEB","i_lat":-6.226659,"line":2,"time":2,"transit":false,"station_name":"Tebet","is_transit":false},{"i_long":106.84912,"i_lat":-6.209883,"distance":2610,"transit":true,"is_transit":true,"station_name":"Manggarai","time":4,"station_id":"MRI","line":2},{"distance":1275,"i_long":106.858896,"station_id":"MTR","line":1,"station_name":"Matraman","is_transit":false,"transit":false,"i_lat":-6.212485,"time":2},{"distance":1377,"is_transit":true,"station_name":"Jatinegara","time":8,"station_id":"JNG","transit":true,"i_long":106.86807400000001,"i_lat":-6.215091,"line":1},{"transit":false,"station_id":"POK","distance":1236,"is_transit":false,"i_long":106.861737,"line":11,"station_name":"Pondok Jati","time":2,"i_lat":-6.209188},{"station_name":"Kramat","is_transit":false,"line":11,"time":2,"distance":1829,"i_lat":-6.193792,"i_long":106.855437,"station_id":"KMT","transit":false},{"is_transit":false,"station_id":"GST","distance":973,"i_lat":-6.185975,"line":11,"transit":false,"i_long":106.850107,"time":1,"station_name":"Gang Sentiong"},{"line":11,"station_id":"PSE","transit":false,"i_long":106.84368,"station_name":"Pasar Senen","is_transit":false,"i_lat":-6.174784,"distance":1567,"time":8},{"i_lat":-6.161728,"station_id":"KMO","distance":1436,"is_transit":false,"line":11,"time":4,"transit":false,"station_name":"Kemayoran","i_long":106.839204},{"line":11,"transit":false,"i_lat":-6.14505,"i_long":106.836569,"station_id":"RJW","distance":1901,"time":5,"is_transit":false,"station_name":"Rajawali"},{"is_transit":true,"line":4,"transit":true,"i_long":106.826365,"station_name":"Kampung Bandan","station_id":"KPB","time":3,"i_lat":-6.132549,"distance":1444},{"i_lat":-6.137569,"distance":1364,"line":2,"station_id":"JAKK","time":3,"station_name":"Jakarta Kota","transit":true,"i_long":106.812439,"is_transit":true},{"time":4,"is_transit":false,"transit":false,"station_id":"JAY","i_lat":-6.141205,"station_name":"Jayakarta","line":2,"distance":1264,"i_long":106.820901},{"is_transit":false,"distance":1080,"station_name":"Manggabesar","transit":false,"i_long":106.82482,"i_lat":-6.149769,"line":2,"time":2,"station_id":"MGB"},{"station_name":"Sawah Besar","is_transit":false,"i_long":106.827103,"line":2,"station_id":"SW","time":2,"i_lat":-6.160725,"distance":906,"transit":false},{"i_long":106.828284,"line":2,"station_id":"JUA","station_name":"Juanda","distance":1149,"transit":false,"time":2,"is_transit":false,"i_lat":-6.166716}]]}