{"data":[[{"station_id":"BOO","i_lat":-6.594596,"distance":0,"line":1,"is_transit":true,"station_name":"Bogor","transit":false,"i_long":106.790574,"time":0},{"i_long":106.800016,"time":9,"is_transit":false,"station_name":"Cilebut","transit":false,"distance":7514,"station_id":"CLT","i_lat":-6.530544,"line":0},{"station_name":"Bojonggede","i_long":106.792719,"line":0,"transit":false,"is_transit":false,"distance":4331,"time":5,"station_id":"BJD","i_lat":-6.493243},{"is_transit":true,"station_id":"CTA","transit":false,"i_lat":-6.448811,"time":5,"station_name":"Citayam","line":1,"distance":5197,"i_long":106.800298},{"station_id":"DP","is_transit":false,"time":6,"distance":5084,"line":0,"i_long":106.816926,"i_lat":-6.405256,"station_name":"Depok","transit":false},{"distance":1584,"time":3,"station_id":"DPB","i_lat":-6.391065,"station_name":"Depokbaru","i_long":106.819451,"transit":false,"is_transit":false,"line":0},{"distance":2727,"i_lat":-6.369073,"line":2,"time":4,"i_long":106.831114,"station_id":"POC","is_transit":false,"station_name":"Pondok Cina","transit":false},{"transit":false,"line":2,"distance":1109,"is_transit":false,"station_name":"Univ. Indonesia","i_lat":-6.360749,"time":2,"i_long":106.831474,"station_id":"UI"},{"is_transit":false,"i_long":106.834175,"line":2,"transit":false,"i_lat":-6.339291,"distance":2264,"station_name":"Univ. Pancasila","time":3,"station_id":"UP"},{"station_id":"LNA","transit":false,"time":2,"line":2,"i_long":106.832616,"i_lat":-6.330363,"is_transit":false,"distance":1029,"station_name":"Lenteng Agung"},{"transit":false,"is_transit":false,"time":3,"station_name":"Tanjung Barat","distance":2671,"i_long":106.838896,"line":2,"station_id":"TNT","i_lat":-6.3080680000000005},{"line":2,"time":4,"i_lat":-6.2842400000000005,"distance":2820,"station_name":"Pasar Minggu","station_id":"PSM","is_transit":false,"transit":false,"i_long":106.843999},{"i_lat":-6.263214,"distance":2380,"is_transit":false,"time":2,"line":2,"station_id":"PSMB","transit":false,"station_name":"Pasar Minggu Baru","i_long":106.851577},{"station_name":"Duren Kalibata","transit":false,"time":2,"i_long":106.85449,"station_id":"DRN","is_transit":false,"i_lat":-6.255332,"distance":824,"line":0},{"station_name":"Cawang","is_transit":false,"transit":false,"i_lat":-6.242512,"time":3,"i_long":106.856607,"line":0,"station_id":"CW","distance":1546},{"station_name":"Tebet","is_transit":false,"station_id":"TEB","transit":false,"i_lat":-6.226659,"time":2,"distance":1230,"i_long":106.857948,"line":2},{"is_transit":true,"transit":true,"line":0,"i_lat":-6.209883,"station_id":"MRI","distance":2610,"time":4,"station_name":"Manggarai","i_long":106.84912},{"i_lat":-6.202263,"i_long":106.822649,"station_id":"SUD","line":1,"distance":3186,"time":4,"is_transit":false,"station_name":"Sudirman","transit":false},{"i_long":106.819881,"station_id":"SUDB","transit":false,"is_transit":false,"station_name":"Sudirman Baru","i_lat":-6.201433,"line":1,"distance":280,"time":1},{"station_name":"Karet","station_id":"KAT","i_long":106.816351,"is_transit":false,"distance":471,"line":1,"time":1,"transit":false,"i_lat":-6.20132},{"is_transit":true,"transit":true,"distance":2029,"station_name":"Tanah Abang","line":1,"station_id":"THB","i_lat":-6.185545,"time":5,"i_long":106.811091},{"line":6,"is_transit":false,"i_lat":-6.207404,"distance":3191,"time":6,"station_id":"PLM","station_name":"Palmerah","transit":false,"i_long":106.79689},{"time":7,"station_id":"KBY","distance":3737,"transit":false,"station_name":"Kebayoran","i_lat":-6.237242,"is_transit":false,"i_long":106.780334,"line":6},{"distance":6218,"station_name":"Pondokranji","i_lat":-6.276362,"line":6,"station_id":"PDJ","time":8,"transit":false,"i_long":106.74273,"is_transit":false},{"i_long":106.728916,"distance":2179,"is_transit":false,"time":3,"i_lat":-6.288927,"line":6,"station_id":"JMU","station_name":"Jurangmangu","transit":false},{"i_lat":-6.296963,"i_long":106.712277,"station_name":"Sudimara","is_transit":false,"distance":1994,"transit":false,"line":6,"station_id":"SDM","time":4},{"line":6,"distance":4566,"station_id":"RU","i_lat":-6.314823,"is_transit":false,"i_long":106.675475,"transit":false,"station_name":"Rawa Buntu","time":6},{"is_transit":false,"transit":false,"time":4,"i_lat":-6.319871,"station_name":"Serpong","line":6,"station_id":"SRP","i_long":106.66566,"distance":2413},{"is_transit":false,"station_id":"CSK","i_lat":-6.32484,"line":0,"transit":false,"distance":1784,"time":4,"i_long":106.640411,"station_name":"Cisauk"},{"distance":2519,"transit":false,"i_lat":-6.329547,"station_name":"Cicayur","i_long":106.617853,"line":0,"station_id":"CC","time":4,"is_transit":false},{"station_name":"Parung Panjang","station_id":"PRP","i_long":106.568863,"distance":5968,"transit":false,"is_transit":false,"time":8,"line":6,"i_lat":-6.3441410000000005},{"transit":false,"station_id":"CJT","time":9,"station_name":"Cilejit","line":0,"i_lat":-6.354349,"i_long":106.508482,"distance":7025,"is_transit":false},{"is_transit":false,"line":0,"distance":2675,"station_id":"DAR","i_lat":-6.338021,"time":6,"transit":false,"i_long":106.491338,"station_name":"Daru"}],[{"station_name":"Bogor","line":1,"time":0,"transit":false,"distance":0,"i_lat":-6.594596,"is_transit":true,"i_long":106.790574,"station_id":"BOO"},{"is_transit":false,"distance":7514,"i_long":106.800016,"transit":false,"i_lat":-6.530544,"line":0,"station_id":"CLT","station_name":"Cilebut","time":9},{"line":0,"station_id":"BJD","station_name":"Bojonggede","time":5,"i_long":106.792719,"transit":false,"i_lat":-6.493243,"is_transit":false,"distance":4331},{"time":5,"station_id":"CTA","i_long":106.800298,"station_name":"Citayam","i_lat":-6.448811,"line":1,"transit":false,"distance":5197,"is_transit":true},{"station_name":"Depok","time":6,"distance":5084,"is_transit":false,"i_lat":-6.405256,"i_long":106.816926,"line":0,"transit":false,"station_id":"DP"},{"is_transit":false,"time":3,"i_lat":-6.391065,"station_name":"Depokbaru","distance":1584,"i_long":106.819451,"line":0,"transit":false,"station_id":"DPB"},{"i_lat":-6.369073,"i_long":106.831114,"station_id":"POC","station_name":"Pondok Cina","time":4,"line":2,"distance":2727,"transit":false,"is_transit":false},{"transit":false,"i_long":106.831474,"is_transit":false,"distance":1109,"station_name":"Univ. Indonesia","line":2,"station_id":"UI","i_lat":-6.360749,"time":2},{"time":3,"distance":2264,"line":2,"station_name":"Univ. Pancasila","transit":false,"i_lat":-6.339291,"is_transit":false,"i_long":106.834175,"station_id":"UP"},{"station_name":"Lenteng Agung","i_long":106.832616,"station_id":"LNA","transit":false,"is_transit":false,"distance":1029,"i_lat":-6.330363,"line":2,"time":2},{"is_transit":false,"transit":false,"i_lat":-6.3080680000000005,"station_name":"Tanjung Barat","time":3,"station_id":"TNT","i_long":106.838896,"distance":2671,"line":2},{"i_lat":-6.2842400000000005,"transit":false,"line":2,"is_transit":false,"i_long":106.843999,"time":4,"station_id":"PSM","station_name":"Pasar Minggu","distance":2820},{"transit":false,"i_lat":-6.263214,"time":2,"station_name":"Pasar Minggu Baru","line":2,"is_transit":false,"distance":2380,"station_id":"PSMB","i_long":106.851577},{"is_transit":false,"i_lat":-6.255332,"i_long":106.85449,"distance":824,"time":2,"station_name":"Duren Kalibata","transit":false,"line":0,"station_id":"DRN"},{"line":0,"station_id":"CW","time":3,"station_name":"Cawang","transit":false,"i_long":106.856607,"i_lat":-6.242512,"distance":1546,"is_transit":false},{"station_id":"TEB","time":2,"station_name":"Tebet","i_long":106.857948,"transit":false,"i_lat":-6.226659,"is_transit":false,"line":2,"distance":1230},{"distance":2610,"transit":true,"i_long":106.84912,"time":4,"station_id":"MRI","is_transit":true,"line":0,"station_name":"Manggarai","i_lat":-6.209883},{"station_id":"CKI","is_transit":false,"distance":1590,"line":0,"i_long":106.840169,"station_name":"Cikini","transit":false,"time":4,"i_lat":-6.198556},{"station_name":"Gondangdia","is_transit":false,"i_lat":-6.186295,"distance":1750,"station_id":"GDD","time":3,"transit":false,"i_long":106.832183,"line":2},{"i_long":106.828284,"station_id":"JUA","is_transit":false,"transit":false,"line":2,"i_lat":-6.166716,"time":4,"distance":2015,"station_name":"Juanda"},{"i_long":106.827103,"transit":false,"station_id":"SW","distance":1149,"is_transit":false,"i_lat":-6.160725,"time":2,"station_name":"Sawah Besar","line":2},{"line":2,"station_name":"Manggabesar","i_lat":-6.149769,"transit":false,"time":2,"i_long":106.82482,"station_id":"MGB","is_transit":false,"distance":906},{"distance":1080,"station_name":"Jayakarta","line":7,"station_id":"JAY","i_lat":-6.141205,"i_long":106.820901,"transit":false,"is_transit":false,"time":2},{"station_id":"JAKK","is_transit":true,"time":4,"i_long":106.812439,"line":0,"i_lat":-6.137569,"distance":1264,"station_name":"Jakarta Kota","transit":true},{"station_id":"KPB","transit":false,"distance":1364,"station_name":"Kampung Bandan","i_lat":-6.132549,"line":0,"i_long":106.826365,"is_transit":true,"time":3},{"is_transit":false,"time":9,"transit":false,"i_lat":-6.144674,"distance":4102,"station_id":"AK","station_name":"Angke","line":0,"i_long":106.79867},{"station_id":"DU","line":1,"i_long":106.800832,"time":4,"station_name":"Duri","distance":1230,"is_transit":true,"transit":true,"i_lat":-6.155215},{"is_transit":true,"i_lat":-6.185545,"i_long":106.811091,"station_id":"THB","time":8,"distance":3632,"station_name":"Tanah Abang","line":1,"transit":true},{"station_name":"Palmerah","is_transit":false,"transit":false,"i_long":106.79689,"line":6,"station_id":"PLM","time":6,"i_lat":-6.207404,"distance":3191},{"i_lat":-6.237242,"station_id":"KBY","distance":3737,"i_long":106.780334,"line":6,"is_transit":false,"station_name":"Kebayoran","transit":false,"time":7},{"line":6,"is_transit":false,"i_long":106.74273,"distance":6218,"transit":false,"time":8,"station_id":"PDJ","station_name":"Pondokranji","i_lat":-6.276362},{"i_lat":-6.288927,"distance":2179,"transit":false,"station_name":"Jurangmangu","i_long":106.728916,"station_id":"JMU","time":3,"line":6,"is_transit":false},{"time":4,"i_lat":-6.296963,"station_name":"Sudimara","i_long":106.712277,"distance":1994,"line":6,"station_id":"SDM","is_transit":false,"transit":false},{"distance":4566,"line":6,"time":6,"i_lat":-6.314823,"station_id":"RU","is_transit":false,"transit":false,"i_long":106.675475,"station_name":"Rawa Buntu"},{"transit":false,"station_name":"Serpong","i_lat":-6.319871,"distance":2413,"line":6,"is_transit":false,"time":4,"station_id":"SRP","i_long":106.66566},{"time":4,"station_id":"CSK","distance":1784,"station_name":"Cisauk","is_transit":false,"i_lat":-6.32484,"line":0,"transit":false,"i_long":106.640411},{"line":0,"station_name":"Cicayur","i_lat":-6.329547,"distance":2519,"is_transit":false,"time":4,"transit":false,"i_long":106.617853,"station_id":"CC"},{"station_id":"PRP","is_transit":false,"station_name":"Parung Panjang","line":6,"time":8,"i_lat":-6.3441410000000005,"transit":false,"i_long":106.568863,"distance":5968},{"time":9,"line":0,"transit":false,"i_lat":-6.354349,"i_long":106.508482,"is_transit":false,"station_id":"CJT","station_name":"Cilejit","distance":7025},{"i_long":106.491338,"time":6,"transit":false,"station_name":"Daru","distance":2675,"station_id":"DAR","line":0,"is_transit":false,"i_lat":-6.338021}],[{"line":1,"i_lat":-6.594596,"is_transit":true,"station_id":"BOO","time":0,"distance":0,"station_name":"Bogor","transit":false,"i_long":106.790574},{"time":9,"station_id":"CLT","transit":false,"line":0,"is_transit":false,"distance":7514,"i_long":106.800016,"station_name":"Cilebut","i_lat":-6.530544},{"station_id":"BJD","is_transit":false,"transit":false,"line":0,"time":5,"station_name":"Bojonggede","distance":4331,"i_long":106.792719,"i_lat":-6.493243},{"i_long":106.800298,"i_lat":-6.448811,"station_name":"Citayam","time":5,"station_id":"CTA","distance":5197,"is_transit":true,"transit":false,"line":1},{"i_long":106.816926,"time":6,"line":0,"station_id":"DP","i_lat":-6.405256,"distance":5084,"is_transit":false,"station_name":"Depok","transit":false},{"i_long":106.819451,"station_id":"DPB","is_transit":false,"line":0,"station_name":"Depokbaru","distance":1584,"i_lat":-6.391065,"time":3,"transit":false},{"i_long":106.831114,"line":2,"station_id":"POC","station_name":"Pondok Cina","is_transit":false,"time":4,"transit":false,"i_lat":-6.369073,"distance":2727},{"is_transit":false,"transit":false,"distance":1109,"station_id":"UI","i_lat":-6.360749,"i_long":106.831474,"line":2,"time":2,"station_name":"Univ. Indonesia"},{"transit":false,"i_lat":-6.339291,"distance":2264,"is_transit":false,"time":3,"i_long":106.834175,"line":2,"station_id":"UP","station_name":"Univ. Pancasila"},{"line":2,"station_id":"LNA","transit":false,"i_long":106.832616,"distance":1029,"is_transit":false,"time":2,"i_lat":-6.330363,"station_name":"Lenteng Agung"},{"time":3,"transit":false,"i_lat":-6.3080680000000005,"is_transit":false,"station_name":"Tanjung Barat","i_long":106.838896,"line":2,"station_id":"TNT","distance":2671},{"line":2,"time":4,"station_id":"PSM","i_lat":-6.2842400000000005,"station_name":"Pasar Minggu","transit":false,"distance":2820,"is_transit":false,"i_long":106.843999},{"i_lat":-6.263214,"is_transit":false,"line":2,"station_id":"PSMB","station_name":"Pasar Minggu Baru","i_long":106.851577,"time":2,"transit":false,"distance":2380},{"line":0,"station_id":"DRN","i_long":106.85449,"distance":824,"is_transit":false,"time":2,"station_name":"Duren Kalibata","transit":false,"i_lat":-6.255332},{"time":3,"station_name":"Cawang","i_long":106.856607,"is_transit":false,"distance":1546,"line":0,"transit":false,"i_lat":-6.242512,"station_id":"CW"},{"station_id":"TEB","i_lat":-6.226659,"time":2,"station_name":"Tebet","line":2,"transit":false,"is_transit":false,"distance":1230,"i_long":106.857948},{"i_lat":-6.209883,"time":4,"i_long":106.84912,"station_id":"MRI","station_name":"Manggarai","line":0,"distance":2610,"is_transit":true,"transit":true},{"line":1,"i_long":106.858896,"distance":1275,"is_transit":false,"time":2,"station_name":"Matraman","i_lat":-6.212485,"transit":false,"station_id":"MTR"},{"time":8,"line":0,"distance":1377,"is_transit":true,"station_id":"JNG","i_long":106.86807400000001,"i_lat":-6.215091,"station_name":"Jatinegara","transit":true},{"transit":false,"station_name":"Pondok Jati","time":2,"i_long":106.861737,"line":11,"i_lat":-6.209188,"station_id":"POK","distance":1236,"is_transit":false},{"station_name":"Kramat","distance":1829,"i_lat":-6.193792,"is_transit":false,"transit":false,"time":2,"station_id":"KMT","i_long":106.855437,"line":11},{"i_lat":-6.185975,"i_long":106.850107,"station_id":"GST","distance":973,"station_name":"Gang Sentiong","is_transit":false,"line":11,"time":1,"transit":false},{"time":8,"distance":1567,"line":11,"transit":false,"is_transit":false,"station_id":"PSE","i_long":106.84368,"station_name":"Pasar Senen","i_lat":-6.174784},{"i_long":106.839204,"station_id":"KMO","is_transit":false,"time":4,"distance":1436,"transit":false,"station_name":"Kemayoran","line":11,"i_lat":-6.161728},{"station_id":"RJW","time":5,"i_lat":-6.14505,"is_transit":false,"i_long":106.836569,"transit":false,"line":11,"distance":1901,"station_name":"Rajawali"},{"is_transit":true,"distance":1444,"time":3,"station_id":"KPB","station_name":"Kampung Bandan","line":0,"i_lat":-6.132549,"transit":true,"i_long":106.826365},{"line":0,"distance":4102,"station_name":"Angke","transit":false,"station_id":"AK","i_lat":-6.144674,"i_long":106.79867,"time":9,"is_transit":false},{"time":4,"transit":true,"is_transit":true,"i_long":106.800832,"distance":1230,"station_id":"DU","station_name":"Duri","i_lat":-6.155215,"line":1},{"transit":true,"time":8,"distance":3632,"i_lat":-6.185545,"i_long":106.811091,"is_transit":true,"station_id":"THB","station_name":"Tanah Abang","line":1},{"station_id":"PLM","time":6,"transit":false,"i_lat":-6.207404,"line":6,"distance":3191,"station_name":"Palmerah","is_transit":false,"i_long":106.79689},{"line":6,"i_long":106.780334,"station_id":"KBY","station_name":"Kebayoran","time":7,"transit":false,"i_lat":-6.237242,"distance":3737,"is_transit":false},{"i_long":106.74273,"transit":false,"time":8,"distance":6218,"station_name":"Pondokranji","station_id":"PDJ","is_transit":false,"i_lat":-6.276362,"line":6},{"transit":false,"is_transit":false,"time":3,"distance":2179,"station_name":"Jurangmangu","i_long":106.728916,"i_lat":-6.288927,"station_id":"JMU","line":6},{"line":6,"is_transit":false,"distance":1994,"i_lat":-6.296963,"transit":false,"station_id":"SDM","i_long":106.712277,"station_name":"Sudimara","time":4},{"time":6,"i_lat":-6.314823,"i_long":106.675475,"station_name":"Rawa Buntu","distance":4566,"is_transit":false,"transit":false,"line":6,"station_id":"RU"},{"transit":false,"i_lat":-6.319871,"distance":2413,"i_long":106.66566,"station_id":"SRP","is_transit":false,"time":4,"station_name":"Serpong","line":6},{"i_long":106.640411,"line":0,"is_transit":false,"transit":false,"station_id":"CSK","time":4,"i_lat":-6.32484,"station_name":"Cisauk","distance":1784},{"line":0,"is_transit":false,"station_name":"Cicayur","i_lat":-6.329547,"time":4,"distance":2519,"station_id":"CC","transit":false,"i_long":106.617853},{"i_long":106.568863,"i_lat":-6.3441410000000005,"station_name":"Parung Panjang","line":6,"transit":false,"distance":5968,"is_transit":false,"station_id":"PRP","time":8},{"station_name":"Cilejit","is_transit":false,"distance":7025,"transit":false,"time":9,"i_lat":-6.354349,"station_id":"CJT","line":0,"i_long":106.508482},{"station_id":"DAR","is_transit":false,"distance":2675,"station_name":"Daru","i_long":106.491338,"time":6,"i_lat":-6.338021,"transit":false,"line":0}]]}