{"data":[[{"station_name":"Bogor","transit":false,"i_lat":-6.594596,"line":1,"i_long":106.790574,"time":0,"station_id":"BOO","is_transit":true,"distance":0},{"distance":7514,"transit":false,"line":0,"is_transit":false,"station_id":"CLT","i_lat":-6.530544,"station_name":"Cilebut","time":9,"i_long":106.800016},{"time":5,"distance":4331,"is_transit":false,"transit":false,"i_lat":-6.493243,"station_name":"Bojonggede","station_id":"BJD","i_long":106.792719,"line":0},{"i_long":106.800298,"i_lat":-6.448811,"station_id":"CTA","line":1,"distance":5197,"is_transit":true,"station_name":"Citayam","transit":false,"time":5},{"station_id":"DP","is_transit":false,"distance":5084,"i_long":106.816926,"i_lat":-6.405256,"transit":false,"line":0,"station_name":"Depok","time":6},{"is_transit":false,"transit":false,"i_lat":-6.391065,"station_name":"Depokbaru","time":3,"distance":1584,"i_long":106.819451,"station_id":"DPB","line":0},{"transit":false,"time":4,"station_id":"POC","is_transit":false,"station_name":"Pondok Cina","distance":2727,"i_long":106.831114,"line":2,"i_lat":-6.369073},{"i_long":106.831474,"line":2,"station_name":"Univ. Indonesia","distance":1109,"i_lat":-6.360749,"station_id":"UI","time":2,"transit":false,"is_transit":false},{"station_name":"Univ. Pancasila","distance":2264,"i_lat":-6.339291,"station_id":"UP","time":3,"i_long":106.834175,"is_transit":false,"transit":false,"line":2},{"i_lat":-6.330363,"distance":1029,"time":2,"line":2,"station_name":"Lenteng Agung","is_transit":false,"station_id":"LNA","i_long":106.832616,"transit":false},{"transit":false,"distance":2671,"station_name":"Tanjung Barat","i_lat":-6.3080680000000005,"time":3,"i_long":106.838896,"line":2,"is_transit":false,"station_id":"TNT"},{"station_name":"Pasar Minggu","transit":false,"i_long":106.843999,"i_lat":-6.2842400000000005,"distance":2820,"station_id":"PSM","is_transit":false,"time":4,"line":2},{"i_lat":-6.263214,"time":2,"i_long":106.851577,"line":2,"transit":false,"station_name":"Pasar Minggu Baru","is_transit":false,"distance":2380,"station_id":"PSMB"},{"i_long":106.85449,"time":2,"i_lat":-6.255332,"station_name":"Duren Kalibata","is_transit":false,"distance":824,"transit":false,"station_id":"DRN","line":0},{"station_id":"CW","distance":1546,"i_long":106.856607,"line":0,"time":3,"i_lat":-6.242512,"station_name":"Cawang","transit":false,"is_transit":false},{"station_name":"Tebet","transit":false,"i_long":106.857948,"distance":1230,"i_lat":-6.226659,"is_transit":false,"station_id":"TEB","line":2,"time":2},{"distance":2610,"transit":true,"i_lat":-6.209883,"i_long":106.84912,"time":4,"line":0,"station_name":"Manggarai","is_transit":true,"station_id":"MRI"},{"i_long":106.822649,"line":1,"distance":3186,"is_transit":false,"station_id":"SUD","transit":false,"time":4,"i_lat":-6.202263,"station_name":"Sudirman"},{"station_name":"Sudirman Baru","transit":false,"time":1,"line":1,"is_transit":false,"station_id":"SUDB","i_long":106.819881,"distance":280,"i_lat":-6.201433},{"station_name":"Karet","is_transit":false,"time":1,"i_long":106.816351,"station_id":"KAT","distance":471,"i_lat":-6.20132,"transit":false,"line":1},{"station_id":"THB","i_lat":-6.185545,"line":1,"station_name":"Tanah Abang","time":5,"distance":2029,"is_transit":true,"i_long":106.811091,"transit":false},{"line":1,"distance":3632,"is_transit":true,"transit":true,"i_lat":-6.155215,"i_long":106.800832,"time":8,"station_name":"Duri","station_id":"DU"},{"line":5,"station_name":"Grogol","distance":1700,"transit":false,"time":3,"is_transit":false,"station_id":"GGL","i_long":106.788277,"i_lat":-6.162021},{"transit":false,"i_lat":-6.161433,"time":2,"distance":2036,"station_name":"Pesing","line":5,"station_id":"PSG","is_transit":false,"i_long":106.771379},{"distance":1614,"time":2,"i_lat":-6.1587309999999995,"line":5,"i_long":106.756522,"station_id":"TKO","transit":false,"is_transit":false,"station_name":"Taman Kota"},{"i_long":106.737035,"is_transit":false,"i_lat":-6.159876,"distance":2334,"line":0,"station_name":"Bojongindah","time":2,"transit":false,"station_id":"BOI"},{"transit":false,"is_transit":false,"distance":1152,"station_name":"Rawa Buaya","station_id":"RW","i_lat":-6.162758,"line":5,"time":4,"i_long":106.723064},{"time":3,"station_name":"Kalideres","transit":false,"i_long":106.701612,"station_id":"KDS","distance":2504,"line":5,"is_transit":false,"i_lat":-6.166068},{"line":5,"i_lat":-6.169933,"transit":false,"station_name":"Poris","is_transit":false,"distance":2548,"i_long":106.679458,"time":3,"station_id":"PI"},{"i_lat":-6.171811,"line":0,"distance":1834,"station_name":"Batuceper","i_long":106.665036,"station_id":"BPR","time":3,"transit":false,"is_transit":false}],[{"transit":false,"time":0,"station_id":"BOO","i_lat":-6.594596,"line":1,"is_transit":true,"distance":0,"station_name":"Bogor","i_long":106.790574},{"station_name":"Cilebut","time":9,"station_id":"CLT","line":0,"is_transit":false,"transit":false,"i_lat":-6.530544,"distance":7514,"i_long":106.800016},{"station_name":"Bojonggede","station_id":"BJD","distance":4331,"i_long":106.792719,"line":0,"i_lat":-6.493243,"is_transit":false,"time":5,"transit":false},{"distance":5197,"line":1,"i_long":106.800298,"time":5,"station_id":"CTA","is_transit":true,"i_lat":-6.448811,"transit":false,"station_name":"Citayam"},{"time":6,"is_transit":false,"distance":5084,"i_lat":-6.405256,"i_long":106.816926,"station_name":"Depok","station_id":"DP","transit":false,"line":0},{"i_lat":-6.391065,"transit":false,"is_transit":false,"station_id":"DPB","station_name":"Depokbaru","line":0,"distance":1584,"time":3,"i_long":106.819451},{"i_lat":-6.369073,"station_id":"POC","i_long":106.831114,"station_name":"Pondok Cina","distance":2727,"time":4,"transit":false,"is_transit":false,"line":2},{"station_name":"Univ. Indonesia","time":2,"line":2,"is_transit":false,"i_lat":-6.360749,"distance":1109,"i_long":106.831474,"station_id":"UI","transit":false},{"distance":2264,"station_name":"Univ. Pancasila","time":3,"transit":false,"station_id":"UP","is_transit":false,"i_lat":-6.339291,"i_long":106.834175,"line":2},{"station_name":"Lenteng Agung","is_transit":false,"distance":1029,"station_id":"LNA","time":2,"line":2,"i_lat":-6.330363,"transit":false,"i_long":106.832616},{"is_transit":false,"i_lat":-6.3080680000000005,"line":2,"transit":false,"distance":2671,"station_name":"Tanjung Barat","station_id":"TNT","i_long":106.838896,"time":3},{"station_id":"PSM","is_transit":false,"station_name":"Pasar Minggu","time":4,"distance":2820,"i_long":106.843999,"i_lat":-6.2842400000000005,"transit":false,"line":2},{"transit":false,"line":2,"station_id":"PSMB","is_transit":false,"i_lat":-6.263214,"distance":2380,"station_name":"Pasar Minggu Baru","i_long":106.851577,"time":2},{"distance":824,"station_id":"DRN","station_name":"Duren Kalibata","line":0,"is_transit":false,"i_long":106.85449,"time":2,"i_lat":-6.255332,"transit":false},{"station_id":"CW","distance":1546,"transit":false,"i_long":106.856607,"i_lat":-6.242512,"is_transit":false,"time":3,"line":0,"station_name":"Cawang"},{"time":2,"station_name":"Tebet","is_transit":false,"distance":1230,"transit":false,"station_id":"TEB","i_lat":-6.226659,"i_long":106.857948,"line":2},{"time":4,"is_transit":true,"distance":2610,"transit":true,"station_name":"Manggarai","i_lat":-6.209883,"i_long":106.84912,"line":0,"station_id":"MRI"},{"station_id":"CKI","distance":1590,"i_long":106.840169,"time":4,"line":0,"station_name":"Cikini","is_transit":false,"i_lat":-6.198556,"transit":false},{"time":3,"station_id":"GDD","i_long":106.832183,"transit":false,"station_name":"Gondangdia","is_transit":false,"line":2,"i_lat":-6.186295,"distance":1750},{"distance":2015,"time":4,"transit":false,"i_lat":-6.166716,"is_transit":false,"i_long":106.828284,"line":2,"station_id":"JUA","station_name":"Juanda"},{"line":2,"transit":false,"is_transit":false,"time":2,"station_id":"SW","distance":1149,"i_long":106.827103,"i_lat":-6.160725,"station_name":"Sawah Besar"},{"station_name":"Manggabesar","distance":906,"time":2,"i_long":106.82482,"line":2,"is_transit":false,"station_id":"MGB","i_lat":-6.149769,"transit":false},{"station_id":"JAY","i_lat":-6.141205,"i_long":106.820901,"distance":1080,"transit":false,"line":7,"time":2,"is_transit":false,"station_name":"Jayakarta"},{"station_id":"JAKK","distance":1264,"time":4,"i_lat":-6.137569,"i_long":106.812439,"station_name":"Jakarta Kota","line":0,"is_transit":true,"transit":true},{"i_long":106.826365,"i_lat":-6.132549,"distance":1364,"is_transit":true,"station_name":"Kampung Bandan","line":0,"time":3,"station_id":"KPB","transit":false},{"i_lat":-6.144674,"station_name":"Angke","line":0,"i_long":106.79867,"transit":false,"distance":4102,"is_transit":false,"time":9,"station_id":"AK"},{"i_long":106.800832,"line":1,"i_lat":-6.155215,"time":4,"transit":true,"station_id":"DU","station_name":"Duri","is_transit":true,"distance":1230},{"station_name":"Grogol","transit":false,"i_lat":-6.162021,"is_transit":false,"station_id":"GGL","distance":1700,"line":5,"i_long":106.788277,"time":3},{"station_name":"Pesing","line":5,"i_long":106.771379,"transit":false,"station_id":"PSG","is_transit":false,"distance":2036,"time":2,"i_lat":-6.161433},{"i_long":106.756522,"time":2,"station_id":"TKO","transit":false,"distance":1614,"is_transit":false,"station_name":"Taman Kota","i_lat":-6.1587309999999995,"line":5},{"is_transit":false,"time":2,"i_lat":-6.159876,"i_long":106.737035,"station_id":"BOI","line":0,"distance":2334,"station_name":"Bojongindah","transit":false},{"station_name":"Rawa Buaya","time":4,"is_transit":false,"station_id":"RW","line":5,"distance":1152,"transit":false,"i_lat":-6.162758,"i_long":106.723064},{"station_name":"Kalideres","time":3,"i_lat":-6.166068,"is_transit":false,"station_id":"KDS","distance":2504,"i_long":106.701612,"line":5,"transit":false},{"transit":false,"station_name":"Poris","distance":2548,"time":3,"station_id":"PI","i_lat":-6.169933,"is_transit":false,"i_long":106.679458,"line":5},{"station_name":"Batuceper","time":3,"line":0,"is_transit":false,"i_long":106.665036,"distance":1834,"i_lat":-6.171811,"transit":false,"station_id":"BPR"}],[{"distance":0,"line":1,"i_long":106.790574,"is_transit":true,"station_name":"Bogor","transit":false,"i_lat":-6.594596,"station_id":"BOO","time":0},{"i_lat":-6.530544,"transit":false,"station_id":"CLT","i_long":106.800016,"time":9,"line":0,"is_transit":false,"station_name":"Cilebut","distance":7514},{"time":5,"line":0,"i_long":106.792719,"distance":4331,"is_transit":false,"transit":false,"station_name":"Bojonggede","station_id":"BJD","i_lat":-6.493243},{"time":5,"station_id":"CTA","is_transit":true,"distance":5197,"transit":false,"i_lat":-6.448811,"line":1,"station_name":"Citayam","i_long":106.800298},{"station_name":"Depok","distance":5084,"i_lat":-6.405256,"transit":false,"i_long":106.816926,"time":6,"line":0,"station_id":"DP","is_transit":false},{"line":0,"is_transit":false,"transit":false,"time":3,"i_lat":-6.391065,"distance":1584,"station_id":"DPB","i_long":106.819451,"station_name":"Depokbaru"},{"i_long":106.831114,"station_name":"Pondok Cina","distance":2727,"station_id":"POC","i_lat":-6.369073,"line":2,"time":4,"is_transit":false,"transit":false},{"distance":1109,"i_lat":-6.360749,"is_transit":false,"station_id":"UI","line":2,"station_name":"Univ. Indonesia","i_long":106.831474,"transit":false,"time":2},{"line":2,"distance":2264,"is_transit":false,"transit":false,"i_lat":-6.339291,"i_long":106.834175,"station_id":"UP","time":3,"station_name":"Univ. Pancasila"},{"station_id":"LNA","distance":1029,"time":2,"i_lat":-6.330363,"station_name":"Lenteng Agung","i_long":106.832616,"line":2,"transit":false,"is_transit":false},{"station_id":"TNT","i_lat":-6.3080680000000005,"transit":false,"is_transit":false,"i_long":106.838896,"line":2,"station_name":"Tanjung Barat","distance":2671,"time":3},{"distance":2820,"i_lat":-6.2842400000000005,"time":4,"is_transit":false,"station_id":"PSM","station_name":"Pasar Minggu","transit":false,"i_long":106.843999,"line":2},{"i_long":106.851577,"is_transit":false,"line":2,"i_lat":-6.263214,"transit":false,"station_name":"Pasar Minggu Baru","time":2,"distance":2380,"station_id":"PSMB"},{"station_name":"Duren Kalibata","time":2,"station_id":"DRN","i_long":106.85449,"is_transit":false,"distance":824,"line":0,"i_lat":-6.255332,"transit":false},{"i_long":106.856607,"line":0,"station_id":"CW","distance":1546,"transit":false,"is_transit":false,"i_lat":-6.242512,"time":3,"station_name":"Cawang"},{"i_lat":-6.226659,"line":2,"time":2,"distance":1230,"is_transit":false,"station_id":"TEB","station_name":"Tebet","i_long":106.857948,"transit":false},{"transit":true,"is_transit":true,"distance":2610,"time":4,"station_id":"MRI","i_long":106.84912,"station_name":"Manggarai","i_lat":-6.209883,"line":0},{"line":1,"i_lat":-6.212485,"station_id":"MTR","distance":1275,"i_long":106.858896,"time":2,"transit":false,"station_name":"Matraman","is_transit":false},{"time":8,"distance":1377,"line":0,"transit":true,"station_id":"JNG","i_long":106.86807400000001,"is_transit":true,"i_lat":-6.215091,"station_name":"Jatinegara"},{"line":11,"station_id":"POK","transit":false,"time":2,"station_name":"Pondok Jati","i_lat":-6.209188,"is_transit":false,"distance":1236,"i_long":106.861737},{"is_transit":false,"time":2,"station_name":"Kramat","distance":1829,"i_lat":-6.193792,"station_id":"KMT","i_long":106.855437,"line":11,"transit":false},{"time":1,"line":11,"station_name":"Gang Sentiong","station_id":"GST","distance":973,"i_long":106.850107,"i_lat":-6.185975,"is_transit":false,"transit":false},{"station_id":"PSE","i_lat":-6.174784,"is_transit":false,"line":11,"time":8,"distance":1567,"station_name":"Pasar Senen","transit":false,"i_long":106.84368},{"station_id":"KMO","station_name":"Kemayoran","is_transit":false,"line":11,"i_long":106.839204,"transit":false,"time":4,"i_lat":-6.161728,"distance":1436},{"time":5,"i_lat":-6.14505,"transit":false,"i_long":106.836569,"line":11,"station_name":"Rajawali","is_transit":false,"distance":1901,"station_id":"RJW"},{"time":3,"station_id":"KPB","is_transit":true,"transit":true,"i_lat":-6.132549,"line":0,"station_name":"Kampung Bandan","distance":1444,"i_long":106.826365},{"station_id":"AK","i_lat":-6.144674,"distance":4102,"is_transit":false,"i_long":106.79867,"transit":false,"line":0,"station_name":"Angke","time":9},{"station_name":"Duri","line":1,"distance":1230,"station_id":"DU","transit":true,"is_transit":true,"time":4,"i_lat":-6.155215,"i_long":106.800832},{"station_id":"GGL","i_long":106.788277,"time":3,"i_lat":-6.162021,"transit":false,"line":5,"is_transit":false,"distance":1700,"station_name":"Grogol"},{"distance":2036,"transit":false,"i_lat":-6.161433,"i_long":106.771379,"station_id":"PSG","line":5,"station_name":"Pesing","is_transit":false,"time":2},{"is_transit":false,"line":5,"station_id":"TKO","i_lat":-6.1587309999999995,"distance":1614,"i_long":106.756522,"station_name":"Taman Kota","transit":false,"time":2},{"time":2,"distance":2334,"i_long":106.737035,"line":0,"station_name":"Bojongindah","transit":false,"i_lat":-6.159876,"station_id":"BOI","is_transit":false},{"i_lat":-6.162758,"is_transit":false,"line":5,"transit":false,"distance":1152,"time":4,"station_id":"RW","station_name":"Rawa Buaya","i_long":106.723064},{"station_name":"Kalideres","station_id":"KDS","transit":false,"line":5,"time":3,"is_transit":false,"i_lat":-6.166068,"distance":2504,"i_long":106.701612},{"is_transit":false,"station_id":"PI","i_long":106.679458,"line":5,"station_name":"Poris","distance":2548,"time":3,"transit":false,"i_lat":-6.169933},{"i_lat":-6.171811,"station_id":"BPR","line":0,"station_name":"Batuceper","i_long":106.665036,"distance":1834,"time":3,"is_transit":false,"transit":false}]]}