{"data":[[{"i_long":106.790574,"transit":false,"time":0,"i_lat":-6.594596,"line":2,"distance":0,"station_name":"Bogor","station_id":"BOO","is_transit":false},{"line":2,"station_name":"Cilebut","i_lat":-6.530544,"time":9,"i_long":106.800016,"distance":7514,"transit":false,"station_id":"CLT","is_transit":false},{"station_id":"BJD","station_name":"Bojonggede","distance":4331,"is_transit":false,"i_lat":-6.493243,"line":2,"time":5,"i_long":106.792719,"transit":false},{"time":5,"station_id":"CTA","station_name":"Citayam","i_lat":-6.448811,"i_long":106.800298,"transit":false,"distance":5197,"is_transit":false,"line":2},{"time":6,"i_lat":-6.405256,"transit":false,"i_long":106.816926,"station_name":"Depok","distance":5084,"is_transit":false,"line":2,"station_id":"DP"},{"station_name":"Depokbaru","distance":1584,"i_long":106.819451,"line":2,"i_lat":-6.391065,"is_transit":false,"time":3,"transit":false,"station_id":"DPB"},{"i_lat":-6.369073,"i_long":106.831114,"station_id":"POC","line":2,"station_name":"Pondok Cina","is_transit":false,"time":4,"distance":2727,"transit":false},{"i_long":106.831474,"i_lat":-6.360749,"time":2,"station_id":"UI","station_name":"Univ. Indonesia","transit":false,"is_transit":false,"distance":1109,"line":2},{"i_lat":-6.339291,"distance":2264,"time":3,"i_long":106.834175,"station_id":"UP","station_name":"Univ. Pancasila","transit":false,"line":2,"is_transit":false},{"station_name":"Lenteng Agung","station_id":"LNA","distance":1029,"i_lat":-6.330363,"transit":false,"i_long":106.832616,"is_transit":false,"line":2,"time":2},{"station_id":"TNT","transit":false,"line":2,"station_name":"Tanjung Barat","time":3,"distance":2671,"i_lat":-6.3080680000000005,"is_transit":false,"i_long":106.838896},{"is_transit":false,"distance":2820,"i_lat":-6.2842400000000005,"transit":false,"station_name":"Pasar Minggu","station_id":"PSM","time":4,"i_long":106.843999,"line":2},{"time":2,"station_id":"PSMB","is_transit":false,"distance":2380,"i_long":106.851577,"i_lat":-6.263214,"station_name":"Pasar Minggu Baru","transit":false,"line":2},{"time":2,"is_transit":false,"distance":824,"station_name":"Duren Kalibata","line":2,"i_lat":-6.255332,"i_long":106.85449,"transit":false,"station_id":"DRN"},{"is_transit":false,"i_lat":-6.242512,"i_long":106.856607,"distance":1546,"transit":false,"station_name":"Cawang","line":2,"station_id":"CW","time":3},{"distance":1230,"station_name":"Tebet","transit":false,"station_id":"TEB","is_transit":false,"time":2,"i_long":106.857948,"line":2,"i_lat":-6.226659},{"i_lat":-6.209883,"station_name":"Manggarai","transit":true,"is_transit":true,"time":4,"i_long":106.84912,"line":2,"station_id":"MRI","distance":2610},{"i_lat":-6.202263,"station_name":"Sudirman","line":1,"distance":3186,"i_long":106.822649,"time":4,"station_id":"SUD","is_transit":false,"transit":false},{"time":1,"is_transit":false,"transit":false,"distance":280,"i_lat":-6.201433,"i_long":106.819881,"station_name":"Sudirman Baru","line":1,"station_id":"SUDB"},{"line":1,"time":1,"transit":false,"distance":471,"station_id":"KAT","is_transit":false,"station_name":"Karet","i_long":106.816351,"i_lat":-6.20132},{"line":1,"i_lat":-6.185545,"is_transit":false,"transit":false,"distance":2029,"station_name":"Tanah Abang","station_id":"THB","time":5,"i_long":106.811091},{"station_id":"DU","is_transit":true,"distance":3632,"i_long":106.800832,"line":1,"transit":true,"i_lat":-6.155215,"station_name":"Duri","time":8},{"station_id":"GGL","distance":1700,"is_transit":false,"transit":false,"i_lat":-6.162021,"line":5,"station_name":"Grogol","i_long":106.788277,"time":3},{"is_transit":false,"station_name":"Pesing","station_id":"PSG","distance":2036,"transit":false,"i_lat":-6.161433,"time":2,"i_long":106.771379,"line":5},{"station_id":"TKO","line":5,"i_long":106.756522,"transit":false,"station_name":"Taman Kota","is_transit":false,"time":2,"distance":1614,"i_lat":-6.1587309999999995},{"line":5,"station_name":"Bojongindah","i_lat":-6.159876,"i_long":106.737035,"time":2,"distance":2334,"station_id":"BOI","transit":false,"is_transit":false},{"time":4,"line":5,"transit":false,"station_id":"RW","is_transit":false,"i_lat":-6.162758,"distance":1152,"station_name":"Rawa Buaya","i_long":106.723064},{"is_transit":false,"station_name":"Kalideres","time":3,"station_id":"KDS","distance":2504,"line":5,"i_long":106.701612,"i_lat":-6.166068,"transit":false},{"station_id":"PI","time":3,"station_name":"Poris","is_transit":false,"distance":2548,"line":5,"i_lat":-6.169933,"i_long":106.679458,"transit":false},{"i_long":106.665036,"transit":false,"is_transit":false,"i_lat":-6.171811,"line":5,"time":3,"station_name":"Batuceper","distance":1834,"station_id":"BPR"},{"transit":false,"time":3,"i_lat":-6.17331,"station_name":"Tanah Tinggi","distance":2028,"i_long":106.64657,"station_id":"TTI","is_transit":false,"line":5},{"i_lat":-6.176583,"distance":1547,"station_name":"Tangerang","is_transit":false,"station_id":"TNG","time":3,"i_long":106.632761,"line":5,"transit":false}],[{"station_id":"BOO","time":0,"i_lat":-6.594596,"station_name":"Bogor","line":2,"is_transit":false,"distance":0,"i_long":106.790574,"transit":false},{"distance":7514,"i_long":106.800016,"station_id":"CLT","is_transit":false,"i_lat":-6.530544,"station_name":"Cilebut","transit":false,"line":2,"time":9},{"station_id":"BJD","station_name":"Bojonggede","time":5,"transit":false,"distance":4331,"i_lat":-6.493243,"i_long":106.792719,"line":2,"is_transit":false},{"i_lat":-6.448811,"i_long":106.800298,"time":5,"station_id":"CTA","line":2,"transit":false,"is_transit":false,"distance":5197,"station_name":"Citayam"},{"i_long":106.816926,"station_id":"DP","station_name":"Depok","time":6,"is_transit":false,"distance":5084,"transit":false,"line":2,"i_lat":-6.405256},{"line":2,"station_name":"Depokbaru","i_lat":-6.391065,"station_id":"DPB","distance":1584,"i_long":106.819451,"is_transit":false,"time":3,"transit":false},{"station_id":"POC","station_name":"Pondok Cina","line":2,"distance":2727,"time":4,"i_long":106.831114,"transit":false,"i_lat":-6.369073,"is_transit":false},{"line":2,"station_id":"UI","distance":1109,"i_long":106.831474,"station_name":"Univ. Indonesia","i_lat":-6.360749,"time":2,"transit":false,"is_transit":false},{"transit":false,"station_id":"UP","is_transit":false,"time":3,"line":2,"i_lat":-6.339291,"i_long":106.834175,"station_name":"Univ. Pancasila","distance":2264},{"station_id":"LNA","station_name":"Lenteng Agung","line":2,"is_transit":false,"time":2,"distance":1029,"transit":false,"i_lat":-6.330363,"i_long":106.832616},{"i_lat":-6.3080680000000005,"time":3,"i_long":106.838896,"line":2,"station_id":"TNT","station_name":"Tanjung Barat","transit":false,"distance":2671,"is_transit":false},{"station_id":"PSM","distance":2820,"is_transit":false,"time":4,"i_lat":-6.2842400000000005,"station_name":"Pasar Minggu","line":2,"i_long":106.843999,"transit":false},{"i_long":106.851577,"station_name":"Pasar Minggu Baru","distance":2380,"is_transit":false,"line":2,"i_lat":-6.263214,"time":2,"station_id":"PSMB","transit":false},{"transit":false,"distance":824,"i_long":106.85449,"i_lat":-6.255332,"line":2,"station_id":"DRN","station_name":"Duren Kalibata","time":2,"is_transit":false},{"is_transit":false,"line":2,"station_name":"Cawang","time":3,"i_lat":-6.242512,"station_id":"CW","distance":1546,"transit":false,"i_long":106.856607},{"i_lat":-6.226659,"distance":1230,"i_long":106.857948,"line":2,"time":2,"station_id":"TEB","transit":false,"station_name":"Tebet","is_transit":false},{"time":4,"distance":2610,"station_id":"MRI","line":2,"i_lat":-6.209883,"is_transit":false,"station_name":"Manggarai","transit":false,"i_long":106.84912},{"distance":1590,"i_lat":-6.198556,"i_long":106.840169,"station_id":"CKI","time":4,"is_transit":false,"line":2,"station_name":"Cikini","transit":false},{"i_long":106.832183,"is_transit":false,"time":3,"distance":1750,"i_lat":-6.186295,"station_name":"Gondangdia","line":2,"station_id":"GDD","transit":false},{"i_lat":-6.166716,"station_name":"Juanda","station_id":"JUA","time":4,"line":2,"i_long":106.828284,"distance":2015,"is_transit":false,"transit":false},{"time":2,"transit":false,"station_id":"SW","is_transit":false,"distance":1149,"i_lat":-6.160725,"i_long":106.827103,"line":2,"station_name":"Sawah Besar"},{"is_transit":false,"transit":false,"time":2,"line":2,"i_long":106.82482,"i_lat":-6.149769,"distance":906,"station_name":"Manggabesar","station_id":"MGB"},{"transit":false,"is_transit":false,"station_id":"JAY","time":2,"distance":1080,"i_long":106.820901,"line":2,"station_name":"Jayakarta","i_lat":-6.141205},{"i_lat":-6.137569,"is_transit":true,"i_long":106.812439,"station_id":"JAKK","transit":true,"distance":1264,"line":2,"time":4,"station_name":"Jakarta Kota"},{"is_transit":true,"station_name":"Kampung Bandan","transit":true,"i_long":106.826365,"time":3,"distance":1364,"station_id":"KPB","i_lat":-6.132549,"line":4},{"time":9,"transit":false,"line":1,"is_transit":false,"station_id":"AK","distance":4102,"i_long":106.79867,"station_name":"Angke","i_lat":-6.144674},{"transit":true,"time":4,"station_id":"DU","i_lat":-6.155215,"line":1,"is_transit":true,"i_long":106.800832,"station_name":"Duri","distance":1230},{"i_long":106.788277,"time":3,"distance":1700,"station_name":"Grogol","line":5,"is_transit":false,"transit":false,"i_lat":-6.162021,"station_id":"GGL"},{"time":2,"line":5,"transit":false,"i_long":106.771379,"station_name":"Pesing","station_id":"PSG","distance":2036,"is_transit":false,"i_lat":-6.161433},{"transit":false,"is_transit":false,"station_id":"TKO","i_lat":-6.1587309999999995,"line":5,"time":2,"station_name":"Taman Kota","distance":1614,"i_long":106.756522},{"distance":2334,"transit":false,"station_id":"BOI","is_transit":false,"i_lat":-6.159876,"i_long":106.737035,"line":5,"station_name":"Bojongindah","time":2},{"is_transit":false,"time":4,"station_name":"Rawa Buaya","station_id":"RW","i_long":106.723064,"distance":1152,"transit":false,"line":5,"i_lat":-6.162758},{"station_id":"KDS","distance":2504,"i_long":106.701612,"line":5,"station_name":"Kalideres","transit":false,"time":3,"is_transit":false,"i_lat":-6.166068},{"distance":2548,"station_name":"Poris","i_long":106.679458,"line":5,"transit":false,"station_id":"PI","i_lat":-6.169933,"is_transit":false,"time":3},{"time":3,"is_transit":false,"transit":false,"i_long":106.665036,"line":5,"distance":1834,"station_name":"Batuceper","i_lat":-6.171811,"station_id":"BPR"},{"station_id":"TTI","time":3,"distance":2028,"i_lat":-6.17331,"i_long":106.64657,"line":5,"is_transit":false,"transit":false,"station_name":"Tanah Tinggi"},{"i_lat":-6.176583,"is_transit":false,"station_name":"Tangerang","time":3,"transit":false,"i_long":106.632761,"station_id":"TNG","distance":1547,"line":5}],[{"transit":false,"station_id":"BOO","station_name":"Bogor","i_long":106.790574,"distance":0,"line":2,"i_lat":-6.594596,"time":0,"is_transit":false},{"is_transit":false,"transit":false,"i_long":106.800016,"station_name":"Cilebut","time":9,"station_id":"CLT","line":2,"distance":7514,"i_lat":-6.530544},{"i_lat":-6.493243,"transit":false,"station_id":"BJD","station_name":"Bojonggede","time":5,"line":2,"is_transit":false,"distance":4331,"i_long":106.792719},{"is_transit":false,"station_id":"CTA","transit":false,"line":2,"distance":5197,"time":5,"i_lat":-6.448811,"station_name":"Citayam","i_long":106.800298},{"i_lat":-6.405256,"transit":false,"distance":5084,"line":2,"station_id":"DP","station_name":"Depok","time":6,"i_long":106.816926,"is_transit":false},{"line":2,"station_name":"Depokbaru","distance":1584,"i_lat":-6.391065,"station_id":"DPB","is_transit":false,"transit":false,"time":3,"i_long":106.819451},{"transit":false,"i_long":106.831114,"station_id":"POC","station_name":"Pondok Cina","time":4,"line":2,"is_transit":false,"i_lat":-6.369073,"distance":2727},{"station_id":"UI","i_long":106.831474,"station_name":"Univ. Indonesia","is_transit":false,"time":2,"line":2,"i_lat":-6.360749,"distance":1109,"transit":false},{"station_id":"UP","line":2,"time":3,"is_transit":false,"distance":2264,"i_long":106.834175,"station_name":"Univ. Pancasila","transit":false,"i_lat":-6.339291},{"i_lat":-6.330363,"time":2,"is_transit":false,"line":2,"distance":1029,"i_long":106.832616,"station_id":"LNA","station_name":"Lenteng Agung","transit":false},{"is_transit":false,"time":3,"station_id":"TNT","station_name":"Tanjung Barat","i_lat":-6.3080680000000005,"i_long":106.838896,"transit":false,"distance":2671,"line":2},{"is_transit":false,"time":4,"line":2,"i_lat":-6.2842400000000005,"transit":false,"station_id":"PSM","station_name":"Pasar Minggu","distance":2820,"i_long":106.843999},{"time":2,"i_long":106.851577,"is_transit":false,"line":2,"i_lat":-6.263214,"station_name":"Pasar Minggu Baru","transit":false,"distance":2380,"station_id":"PSMB"},{"distance":824,"line":2,"i_long":106.85449,"station_id":"DRN","i_lat":-6.255332,"transit":false,"is_transit":false,"station_name":"Duren Kalibata","time":2},{"is_transit":false,"i_lat":-6.242512,"transit":false,"distance":1546,"station_name":"Cawang","i_long":106.856607,"time":3,"line":2,"station_id":"CW"},{"is_transit":false,"time":2,"station_name":"Tebet","distance":1230,"i_lat":-6.226659,"line":2,"i_long":106.857948,"transit":false,"station_id":"TEB"},{"i_long":106.84912,"is_transit":true,"time":4,"station_name":"Manggarai","distance":2610,"i_lat":-6.209883,"line":2,"transit":true,"station_id":"MRI"},{"time":2,"distance":1275,"station_name":"Matraman","i_lat":-6.212485,"i_long":106.858896,"transit":false,"station_id":"MTR","line":1,"is_transit":false},{"station_id":"JNG","transit":true,"time":8,"distance":1377,"i_lat":-6.215091,"station_name":"Jatinegara","line":1,"is_transit":true,"i_long":106.86807400000001},{"time":2,"is_transit":false,"transit":false,"line":11,"station_name":"Pondok Jati","distance":1236,"i_lat":-6.209188,"station_id":"POK","i_long":106.861737},{"station_id":"KMT","is_transit":false,"time":2,"distance":1829,"line":11,"transit":false,"station_name":"Kramat","i_lat":-6.193792,"i_long":106.855437},{"is_transit":false,"time":1,"distance":973,"station_id":"GST","i_lat":-6.185975,"i_long":106.850107,"line":11,"station_name":"Gang Sentiong","transit":false},{"transit":false,"station_name":"Pasar Senen","i_lat":-6.174784,"is_transit":false,"distance":1567,"time":8,"line":11,"station_id":"PSE","i_long":106.84368},{"time":4,"station_name":"Kemayoran","station_id":"KMO","transit":false,"is_transit":false,"i_lat":-6.161728,"i_long":106.839204,"distance":1436,"line":11},{"line":11,"time":5,"i_lat":-6.14505,"station_id":"RJW","i_long":106.836569,"is_transit":false,"station_name":"Rajawali","distance":1901,"transit":false},{"i_lat":-6.132549,"station_name":"Kampung Bandan","station_id":"KPB","is_transit":true,"distance":1444,"time":3,"transit":true,"line":4,"i_long":106.826365},{"station_name":"Angke","time":9,"i_long":106.79867,"distance":4102,"i_lat":-6.144674,"line":1,"transit":false,"station_id":"AK","is_transit":false},{"i_long":106.800832,"line":1,"distance":1230,"is_transit":true,"time":4,"i_lat":-6.155215,"transit":true,"station_id":"DU","station_name":"Duri"},{"i_long":106.788277,"station_name":"Grogol","station_id":"GGL","i_lat":-6.162021,"time":3,"is_transit":false,"distance":1700,"transit":false,"line":5},{"i_long":106.771379,"is_transit":false,"station_id":"PSG","i_lat":-6.161433,"station_name":"Pesing","distance":2036,"line":5,"transit":false,"time":2},{"station_name":"Taman Kota","is_transit":false,"time":2,"line":5,"i_lat":-6.1587309999999995,"i_long":106.756522,"transit":false,"distance":1614,"station_id":"TKO"},{"station_id":"BOI","is_transit":false,"i_lat":-6.159876,"line":5,"distance":2334,"station_name":"Bojongindah","i_long":106.737035,"time":2,"transit":false},{"i_lat":-6.162758,"i_long":106.723064,"is_transit":false,"line":5,"station_id":"RW","time":4,"distance":1152,"transit":false,"station_name":"Rawa Buaya"},{"transit":false,"station_id":"KDS","time":3,"distance":2504,"i_lat":-6.166068,"i_long":106.701612,"line":5,"station_name":"Kalideres","is_transit":false},{"station_id":"PI","distance":2548,"station_name":"Poris","transit":false,"i_lat":-6.169933,"i_long":106.679458,"line":5,"time":3,"is_transit":false},{"station_name":"Batuceper","time":3,"station_id":"BPR","line":5,"distance":1834,"i_lat":-6.171811,"transit":false,"is_transit":false,"i_long":106.665036},{"line":5,"transit":false,"station_name":"Tanah Tinggi","distance":2028,"is_transit":false,"time":3,"station_id":"TTI","i_lat":-6.17331,"i_long":106.64657},{"station_id":"TNG","time":3,"i_long":106.632761,"line":5,"distance":1547,"is_transit":false,"i_lat":-6.176583,"transit":false,"station_name":"Tangerang"}]]}