{"data":[[{"station_name":"Bogor","time":0,"transit":false,"station_id":"BOO","i_long":106.790574,"distance":0,"i_lat":-6.594596,"line":2,"is_transit":false},{"distance":7514,"i_lat":-6.530544,"time":9,"station_name":"Cilebut","transit":false,"line":2,"station_id":"CLT","i_long":106.800016,"is_transit":false},{"station_name":"Bojonggede","is_transit":false,"i_lat":-6.493243,"time":5,"station_id":"BJD","distance":4331,"line":2,"i_long":106.792719,"transit":false},{"is_transit":false,"distance":5197,"i_lat":-6.448811,"line":2,"station_name":"Citayam","time":5,"station_id":"CTA","i_long":106.800298,"transit":false},{"distance":5084,"time":6,"station_name":"Depok","i_lat":-6.405256,"line":2,"is_transit":false,"transit":false,"station_id":"DP","i_long":106.816926},{"station_id":"DPB","time":3,"i_long":106.819451,"line":2,"distance":1584,"transit":false,"is_transit":false,"station_name":"Depokbaru","i_lat":-6.391065},{"transit":false,"is_transit":false,"line":2,"distance":2727,"i_long":106.831114,"time":4,"station_name":"Pondok Cina","station_id":"POC","i_lat":-6.369073},{"distance":1109,"i_lat":-6.360749,"is_transit":false,"i_long":106.831474,"station_name":"Univ. Indonesia","line":2,"time":2,"transit":false,"station_id":"UI"},{"i_long":106.834175,"line":2,"i_lat":-6.339291,"station_id":"UP","distance":2264,"transit":false,"station_name":"Univ. Pancasila","is_transit":false,"time":3},{"i_long":106.832616,"is_transit":false,"station_id":"LNA","distance":1029,"i_lat":-6.330363,"line":2,"transit":false,"time":2,"station_name":"Lenteng Agung"},{"line":2,"is_transit":false,"transit":false,"distance":2671,"i_lat":-6.3080680000000005,"i_long":106.838896,"station_name":"Tanjung Barat","station_id":"TNT","time":3},{"time":4,"station_id":"PSM","i_lat":-6.2842400000000005,"line":2,"distance":2820,"is_transit":false,"i_long":106.843999,"station_name":"Pasar Minggu","transit":false},{"i_lat":-6.263214,"station_name":"Pasar Minggu Baru","is_transit":false,"distance":2380,"transit":false,"line":2,"time":2,"station_id":"PSMB","i_long":106.851577},{"i_lat":-6.255332,"transit":false,"line":2,"i_long":106.85449,"is_transit":false,"time":2,"station_name":"Duren Kalibata","station_id":"DRN","distance":824},{"station_id":"CW","i_lat":-6.242512,"i_long":106.856607,"distance":1546,"line":2,"is_transit":false,"transit":false,"station_name":"Cawang","time":3},{"distance":1230,"transit":false,"station_name":"Tebet","time":2,"station_id":"TEB","i_long":106.857948,"is_transit":false,"line":2,"i_lat":-6.226659},{"is_transit":true,"station_name":"Manggarai","transit":true,"distance":2610,"i_long":106.84912,"station_id":"MRI","i_lat":-6.209883,"time":4,"line":2},{"transit":false,"line":1,"station_name":"Sudirman","distance":3186,"i_lat":-6.202263,"station_id":"SUD","time":4,"is_transit":false,"i_long":106.822649},{"time":1,"line":1,"i_long":106.819881,"transit":false,"station_id":"SUDB","station_name":"Sudirman Baru","distance":280,"is_transit":false,"i_lat":-6.201433},{"i_lat":-6.20132,"i_long":106.816351,"line":1,"transit":false,"station_id":"KAT","is_transit":false,"distance":471,"time":1,"station_name":"Karet"},{"is_transit":false,"distance":2029,"transit":false,"station_name":"Tanah Abang","station_id":"THB","line":1,"i_long":106.811091,"time":5,"i_lat":-6.185545},{"station_name":"Duri","station_id":"DU","time":8,"distance":3632,"transit":true,"is_transit":true,"i_long":106.800832,"line":1,"i_lat":-6.155215},{"distance":1700,"i_lat":-6.162021,"i_long":106.788277,"line":5,"station_name":"Grogol","is_transit":false,"station_id":"GGL","time":3,"transit":false},{"i_long":106.771379,"station_id":"PSG","is_transit":false,"distance":2036,"station_name":"Pesing","line":5,"time":2,"i_lat":-6.161433,"transit":false},{"line":5,"station_id":"TKO","station_name":"Taman Kota","transit":false,"i_lat":-6.1587309999999995,"is_transit":false,"distance":1614,"i_long":106.756522,"time":2},{"station_id":"BOI","station_name":"Bojongindah","i_long":106.737035,"i_lat":-6.159876,"line":5,"transit":false,"is_transit":false,"distance":2334,"time":2},{"time":4,"line":5,"i_lat":-6.162758,"is_transit":false,"station_name":"Rawa Buaya","distance":1152,"i_long":106.723064,"transit":false,"station_id":"RW"},{"station_name":"Kalideres","distance":2504,"station_id":"KDS","transit":false,"time":3,"is_transit":false,"i_long":106.701612,"line":5,"i_lat":-6.166068},{"station_id":"PI","line":5,"distance":2548,"transit":false,"is_transit":false,"station_name":"Poris","i_lat":-6.169933,"time":3,"i_long":106.679458},{"i_long":106.665036,"line":5,"time":3,"station_id":"BPR","transit":false,"distance":1834,"station_name":"Batuceper","is_transit":false,"i_lat":-6.171811}],[{"station_name":"Bogor","station_id":"BOO","i_lat":-6.594596,"distance":0,"line":2,"i_long":106.790574,"time":0,"transit":false,"is_transit":false},{"i_lat":-6.530544,"time":9,"station_id":"CLT","distance":7514,"is_transit":false,"transit":false,"station_name":"Cilebut","i_long":106.800016,"line":2},{"distance":4331,"station_name":"Bojonggede","station_id":"BJD","i_lat":-6.493243,"is_transit":false,"transit":false,"i_long":106.792719,"line":2,"time":5},{"time":5,"station_id":"CTA","i_long":106.800298,"station_name":"Citayam","distance":5197,"transit":false,"i_lat":-6.448811,"line":2,"is_transit":false},{"distance":5084,"transit":false,"i_long":106.816926,"line":2,"is_transit":false,"i_lat":-6.405256,"station_name":"Depok","time":6,"station_id":"DP"},{"i_lat":-6.391065,"is_transit":false,"station_name":"Depokbaru","i_long":106.819451,"station_id":"DPB","distance":1584,"transit":false,"line":2,"time":3},{"station_name":"Pondok Cina","time":4,"distance":2727,"line":2,"is_transit":false,"station_id":"POC","i_long":106.831114,"transit":false,"i_lat":-6.369073},{"time":2,"is_transit":false,"transit":false,"station_name":"Univ. Indonesia","distance":1109,"i_lat":-6.360749,"i_long":106.831474,"station_id":"UI","line":2},{"station_id":"UP","i_long":106.834175,"time":3,"station_name":"Univ. Pancasila","is_transit":false,"distance":2264,"i_lat":-6.339291,"transit":false,"line":2},{"station_name":"Lenteng Agung","is_transit":false,"line":2,"transit":false,"station_id":"LNA","i_lat":-6.330363,"distance":1029,"i_long":106.832616,"time":2},{"i_long":106.838896,"station_name":"Tanjung Barat","i_lat":-6.3080680000000005,"line":2,"transit":false,"is_transit":false,"station_id":"TNT","time":3,"distance":2671},{"station_name":"Pasar Minggu","time":4,"i_long":106.843999,"i_lat":-6.2842400000000005,"is_transit":false,"transit":false,"distance":2820,"line":2,"station_id":"PSM"},{"time":2,"transit":false,"i_long":106.851577,"i_lat":-6.263214,"distance":2380,"is_transit":false,"station_id":"PSMB","station_name":"Pasar Minggu Baru","line":2},{"station_name":"Duren Kalibata","distance":824,"is_transit":false,"line":2,"time":2,"station_id":"DRN","i_long":106.85449,"transit":false,"i_lat":-6.255332},{"time":3,"station_name":"Cawang","station_id":"CW","transit":false,"is_transit":false,"i_lat":-6.242512,"i_long":106.856607,"line":2,"distance":1546},{"station_id":"TEB","station_name":"Tebet","i_lat":-6.226659,"i_long":106.857948,"line":2,"transit":false,"time":2,"is_transit":false,"distance":1230},{"transit":false,"station_id":"MRI","is_transit":false,"time":4,"line":2,"i_lat":-6.209883,"i_long":106.84912,"distance":2610,"station_name":"Manggarai"},{"i_lat":-6.198556,"i_long":106.840169,"line":2,"station_id":"CKI","transit":false,"is_transit":false,"time":4,"station_name":"Cikini","distance":1590},{"time":3,"transit":false,"station_name":"Gondangdia","is_transit":false,"i_long":106.832183,"station_id":"GDD","i_lat":-6.186295,"distance":1750,"line":2},{"transit":false,"station_name":"Juanda","station_id":"JUA","time":4,"line":2,"i_long":106.828284,"distance":2015,"i_lat":-6.166716,"is_transit":false},{"i_lat":-6.160725,"transit":false,"station_id":"SW","line":2,"station_name":"Sawah Besar","i_long":106.827103,"distance":1149,"is_transit":false,"time":2},{"station_name":"Manggabesar","time":2,"line":2,"transit":false,"i_long":106.82482,"distance":906,"is_transit":false,"station_id":"MGB","i_lat":-6.149769},{"is_transit":false,"i_long":106.820901,"transit":false,"time":2,"station_id":"JAY","distance":1080,"station_name":"Jayakarta","i_lat":-6.141205,"line":2},{"transit":true,"is_transit":true,"station_id":"JAKK","i_long":106.812439,"time":4,"line":2,"distance":1264,"i_lat":-6.137569,"station_name":"Jakarta Kota"},{"station_name":"Kampung Bandan","i_lat":-6.132549,"station_id":"KPB","distance":1364,"time":3,"transit":true,"i_long":106.826365,"is_transit":true,"line":4},{"transit":false,"station_name":"Angke","station_id":"AK","time":9,"i_long":106.79867,"distance":4102,"line":1,"i_lat":-6.144674,"is_transit":false},{"time":4,"is_transit":true,"station_name":"Duri","distance":1230,"i_lat":-6.155215,"i_long":106.800832,"station_id":"DU","line":1,"transit":true},{"distance":1700,"time":3,"is_transit":false,"station_id":"GGL","station_name":"Grogol","i_lat":-6.162021,"i_long":106.788277,"transit":false,"line":5},{"i_long":106.771379,"transit":false,"station_id":"PSG","line":5,"distance":2036,"is_transit":false,"time":2,"i_lat":-6.161433,"station_name":"Pesing"},{"station_name":"Taman Kota","is_transit":false,"distance":1614,"line":5,"i_long":106.756522,"i_lat":-6.1587309999999995,"station_id":"TKO","transit":false,"time":2},{"line":5,"time":2,"is_transit":false,"transit":false,"i_lat":-6.159876,"i_long":106.737035,"station_id":"BOI","distance":2334,"station_name":"Bojongindah"},{"is_transit":false,"i_lat":-6.162758,"distance":1152,"station_id":"RW","time":4,"line":5,"transit":false,"station_name":"Rawa Buaya","i_long":106.723064},{"is_transit":false,"station_id":"KDS","time":3,"distance":2504,"i_long":106.701612,"line":5,"transit":false,"station_name":"Kalideres","i_lat":-6.166068},{"is_transit":false,"station_name":"Poris","station_id":"PI","time":3,"transit":false,"i_lat":-6.169933,"distance":2548,"line":5,"i_long":106.679458},{"i_lat":-6.171811,"time":3,"is_transit":false,"station_id":"BPR","line":5,"distance":1834,"station_name":"Batuceper","transit":false,"i_long":106.665036}],[{"i_lat":-6.594596,"i_long":106.790574,"station_id":"BOO","station_name":"Bogor","time":0,"transit":false,"line":2,"distance":0,"is_transit":false},{"i_long":106.800016,"i_lat":-6.530544,"time":9,"transit":false,"distance":7514,"line":2,"station_name":"Cilebut","is_transit":false,"station_id":"CLT"},{"transit":false,"is_transit":false,"station_id":"BJD","i_lat":-6.493243,"line":2,"time":5,"station_name":"Bojonggede","i_long":106.792719,"distance":4331},{"is_transit":false,"station_name":"Citayam","station_id":"CTA","i_lat":-6.448811,"time":5,"transit":false,"i_long":106.800298,"line":2,"distance":5197},{"i_lat":-6.405256,"is_transit":false,"transit":false,"distance":5084,"i_long":106.816926,"time":6,"station_name":"Depok","station_id":"DP","line":2},{"station_name":"Depokbaru","transit":false,"line":2,"distance":1584,"is_transit":false,"station_id":"DPB","i_lat":-6.391065,"i_long":106.819451,"time":3},{"station_name":"Pondok Cina","distance":2727,"is_transit":false,"transit":false,"time":4,"line":2,"i_long":106.831114,"i_lat":-6.369073,"station_id":"POC"},{"distance":1109,"i_lat":-6.360749,"time":2,"transit":false,"is_transit":false,"i_long":106.831474,"station_name":"Univ. Indonesia","line":2,"station_id":"UI"},{"time":3,"i_lat":-6.339291,"station_id":"UP","i_long":106.834175,"line":2,"transit":false,"station_name":"Univ. Pancasila","is_transit":false,"distance":2264},{"i_long":106.832616,"station_name":"Lenteng Agung","distance":1029,"is_transit":false,"station_id":"LNA","time":2,"i_lat":-6.330363,"transit":false,"line":2},{"distance":2671,"transit":false,"time":3,"i_lat":-6.3080680000000005,"is_transit":false,"line":2,"i_long":106.838896,"station_name":"Tanjung Barat","station_id":"TNT"},{"time":4,"i_lat":-6.2842400000000005,"line":2,"station_name":"Pasar Minggu","transit":false,"station_id":"PSM","distance":2820,"is_transit":false,"i_long":106.843999},{"is_transit":false,"time":2,"i_long":106.851577,"line":2,"station_name":"Pasar Minggu Baru","distance":2380,"transit":false,"i_lat":-6.263214,"station_id":"PSMB"},{"i_lat":-6.255332,"transit":false,"distance":824,"station_name":"Duren Kalibata","line":2,"is_transit":false,"i_long":106.85449,"station_id":"DRN","time":2},{"i_lat":-6.242512,"distance":1546,"time":3,"station_id":"CW","line":2,"is_transit":false,"transit":false,"station_name":"Cawang","i_long":106.856607},{"station_name":"Tebet","line":2,"transit":false,"distance":1230,"i_lat":-6.226659,"station_id":"TEB","time":2,"is_transit":false,"i_long":106.857948},{"station_name":"Manggarai","is_transit":true,"station_id":"MRI","i_long":106.84912,"transit":true,"distance":2610,"i_lat":-6.209883,"line":2,"time":4},{"i_lat":-6.212485,"line":1,"time":2,"i_long":106.858896,"is_transit":false,"transit":false,"station_id":"MTR","distance":1275,"station_name":"Matraman"},{"i_lat":-6.215091,"distance":1377,"line":1,"time":8,"station_name":"Jatinegara","transit":true,"is_transit":true,"i_long":106.86807400000001,"station_id":"JNG"},{"station_name":"Pondok Jati","line":11,"transit":false,"station_id":"POK","i_lat":-6.209188,"time":2,"distance":1236,"is_transit":false,"i_long":106.861737},{"is_transit":false,"i_lat":-6.193792,"station_name":"Kramat","distance":1829,"time":2,"station_id":"KMT","line":11,"i_long":106.855437,"transit":false},{"is_transit":false,"station_name":"Gang Sentiong","i_lat":-6.185975,"i_long":106.850107,"time":1,"line":11,"transit":false,"distance":973,"station_id":"GST"},{"time":8,"transit":false,"station_name":"Pasar Senen","distance":1567,"i_lat":-6.174784,"i_long":106.84368,"line":11,"station_id":"PSE","is_transit":false},{"distance":1436,"i_long":106.839204,"station_id":"KMO","time":4,"is_transit":false,"transit":false,"station_name":"Kemayoran","i_lat":-6.161728,"line":11},{"i_long":106.836569,"line":11,"is_transit":false,"time":5,"transit":false,"station_name":"Rajawali","station_id":"RJW","distance":1901,"i_lat":-6.14505},{"distance":1444,"station_id":"KPB","station_name":"Kampung Bandan","i_lat":-6.132549,"line":4,"i_long":106.826365,"time":3,"transit":true,"is_transit":true},{"is_transit":false,"time":9,"station_id":"AK","distance":4102,"i_lat":-6.144674,"line":1,"i_long":106.79867,"station_name":"Angke","transit":false},{"station_id":"DU","time":4,"transit":true,"is_transit":true,"distance":1230,"i_lat":-6.155215,"i_long":106.800832,"station_name":"Duri","line":1},{"time":3,"transit":false,"line":5,"i_long":106.788277,"distance":1700,"station_id":"GGL","station_name":"Grogol","i_lat":-6.162021,"is_transit":false},{"i_lat":-6.161433,"i_long":106.771379,"station_name":"Pesing","distance":2036,"transit":false,"line":5,"time":2,"station_id":"PSG","is_transit":false},{"station_id":"TKO","distance":1614,"i_long":106.756522,"i_lat":-6.1587309999999995,"line":5,"transit":false,"time":2,"station_name":"Taman Kota","is_transit":false},{"station_id":"BOI","line":5,"is_transit":false,"time":2,"station_name":"Bojongindah","distance":2334,"i_lat":-6.159876,"i_long":106.737035,"transit":false},{"distance":1152,"i_long":106.723064,"line":5,"i_lat":-6.162758,"transit":false,"station_id":"RW","time":4,"is_transit":false,"station_name":"Rawa Buaya"},{"time":3,"is_transit":false,"station_id":"KDS","line":5,"station_name":"Kalideres","distance":2504,"i_lat":-6.166068,"i_long":106.701612,"transit":false},{"distance":2548,"i_long":106.679458,"line":5,"transit":false,"station_id":"PI","station_name":"Poris","is_transit":false,"time":3,"i_lat":-6.169933},{"distance":1834,"i_lat":-6.171811,"line":5,"station_id":"BPR","transit":false,"time":3,"i_long":106.665036,"is_transit":false,"station_name":"Batuceper"}]]}