{"data":[[{"transit":false,"i_lat":-6.594596,"station_id":"BOO","station_name":"Bogor","is_transit":false,"time":0,"line":2,"i_long":106.790574,"distance":0},{"line":2,"i_long":106.800016,"transit":false,"time":9,"station_id":"CLT","is_transit":false,"station_name":"Cilebut","distance":7514,"i_lat":-6.530544},{"i_long":106.792719,"station_id":"BJD","i_lat":-6.493243,"line":2,"time":5,"transit":false,"station_name":"Bojonggede","is_transit":false,"distance":4331},{"transit":false,"is_transit":false,"station_name":"Citayam","distance":5197,"i_long":106.800298,"line":2,"time":5,"station_id":"CTA","i_lat":-6.448811},{"is_transit":false,"i_long":106.816926,"transit":false,"station_name":"Depok","distance":5084,"i_lat":-6.405256,"time":6,"line":2,"station_id":"DP"},{"station_name":"Depokbaru","is_transit":false,"i_lat":-6.391065,"transit":false,"station_id":"DPB","time":3,"distance":1584,"i_long":106.819451,"line":2},{"time":4,"is_transit":false,"line":2,"station_id":"POC","i_lat":-6.369073,"distance":2727,"transit":false,"station_name":"Pondok Cina","i_long":106.831114},{"is_transit":false,"line":2,"time":2,"i_lat":-6.360749,"i_long":106.831474,"station_id":"UI","station_name":"Univ. Indonesia","transit":false,"distance":1109},{"station_id":"UP","i_lat":-6.339291,"i_long":106.834175,"transit":false,"station_name":"Univ. Pancasila","is_transit":false,"time":3,"distance":2264,"line":2}]]}