{"data":[[{"time":0,"line":1,"station_name":"Bogor","transit":false,"station_id":"BOO","is_transit":true,"i_lat":-6.594596,"i_long":106.790574,"distance":0},{"station_id":"CLT","is_transit":false,"time":9,"distance":7514,"line":0,"i_long":106.800016,"station_name":"Cilebut","transit":false,"i_lat":-6.530544},{"distance":4331,"line":0,"i_lat":-6.493243,"transit":false,"i_long":106.792719,"is_transit":false,"station_id":"BJD","station_name":"Bojonggede","time":5},{"is_transit":true,"transit":false,"station_id":"CTA","i_lat":-6.448811,"line":1,"time":5,"distance":5197,"station_name":"Citayam","i_long":106.800298},{"station_name":"Depok","i_lat":-6.405256,"station_id":"DP","line":0,"transit":false,"is_transit":false,"time":6,"i_long":106.816926,"distance":5084},{"i_long":106.819451,"line":0,"station_name":"Depokbaru","time":3,"is_transit":false,"distance":1584,"i_lat":-6.391065,"transit":false,"station_id":"DPB"},{"line":2,"i_lat":-6.369073,"station_name":"Pondok Cina","distance":2727,"station_id":"POC","transit":false,"is_transit":false,"i_long":106.831114,"time":4},{"station_id":"UI","i_long":106.831474,"station_name":"Univ. Indonesia","is_transit":false,"time":2,"distance":1109,"i_lat":-6.360749,"transit":false,"line":2},{"line":2,"station_name":"Univ. Pancasila","is_transit":false,"i_lat":-6.339291,"i_long":106.834175,"time":3,"transit":false,"station_id":"UP","distance":2264},{"i_lat":-6.330363,"station_id":"LNA","i_long":106.832616,"line":2,"station_name":"Lenteng Agung","time":2,"is_transit":false,"distance":1029,"transit":false},{"time":3,"line":2,"distance":2671,"is_transit":false,"station_id":"TNT","i_long":106.838896,"transit":false,"station_name":"Tanjung Barat","i_lat":-6.3080680000000005},{"station_name":"Pasar Minggu","i_lat":-6.2842400000000005,"distance":2820,"transit":false,"time":4,"is_transit":false,"station_id":"PSM","i_long":106.843999,"line":2},{"line":2,"i_long":106.851577,"time":2,"is_transit":false,"station_name":"Pasar Minggu Baru","transit":false,"i_lat":-6.263214,"distance":2380,"station_id":"PSMB"},{"transit":false,"station_id":"DRN","station_name":"Duren Kalibata","time":2,"is_transit":false,"distance":824,"i_lat":-6.255332,"line":0,"i_long":106.85449},{"time":3,"line":0,"station_name":"Cawang","transit":false,"station_id":"CW","is_transit":false,"distance":1546,"i_lat":-6.242512,"i_long":106.856607},{"time":2,"station_name":"Tebet","line":2,"is_transit":false,"station_id":"TEB","transit":false,"i_lat":-6.226659,"distance":1230,"i_long":106.857948},{"distance":2610,"line":0,"station_id":"MRI","transit":true,"i_lat":-6.209883,"station_name":"Manggarai","i_long":106.84912,"is_transit":true,"time":4},{"i_long":106.822649,"is_transit":false,"transit":false,"i_lat":-6.202263,"time":4,"station_id":"SUD","line":1,"distance":3186,"station_name":"Sudirman"},{"is_transit":false,"transit":false,"i_long":106.819881,"i_lat":-6.201433,"distance":280,"station_name":"Sudirman Baru","line":1,"station_id":"SUDB","time":1},{"is_transit":false,"time":1,"distance":471,"line":1,"transit":false,"i_lat":-6.20132,"station_name":"Karet","station_id":"KAT","i_long":106.816351},{"transit":false,"is_transit":true,"distance":2029,"i_lat":-6.185545,"station_id":"THB","line":1,"time":5,"i_long":106.811091,"station_name":"Tanah Abang"},{"station_name":"Duri","is_transit":true,"i_lat":-6.155215,"distance":3632,"line":1,"transit":true,"time":8,"i_long":106.800832,"station_id":"DU"},{"i_lat":-6.162021,"is_transit":false,"i_long":106.788277,"transit":false,"station_id":"GGL","time":3,"station_name":"Grogol","distance":1700,"line":5},{"station_name":"Pesing","line":5,"i_long":106.771379,"time":2,"station_id":"PSG","is_transit":false,"transit":false,"distance":2036,"i_lat":-6.161433},{"distance":1614,"station_id":"TKO","time":2,"i_long":106.756522,"i_lat":-6.1587309999999995,"line":5,"transit":false,"station_name":"Taman Kota","is_transit":false},{"transit":false,"station_name":"Bojongindah","i_long":106.737035,"line":0,"time":2,"i_lat":-6.159876,"is_transit":false,"distance":2334,"station_id":"BOI"},{"station_name":"Rawa Buaya","station_id":"RW","is_transit":false,"transit":false,"distance":1152,"i_lat":-6.162758,"line":5,"time":4,"i_long":106.723064},{"transit":false,"line":5,"distance":2504,"i_long":106.701612,"station_name":"Kalideres","is_transit":false,"station_id":"KDS","i_lat":-6.166068,"time":3},{"is_transit":false,"line":5,"time":3,"i_lat":-6.169933,"i_long":106.679458,"station_id":"PI","station_name":"Poris","distance":2548,"transit":false}],[{"distance":0,"i_lat":-6.594596,"time":0,"i_long":106.790574,"line":1,"transit":false,"station_name":"Bogor","station_id":"BOO","is_transit":true},{"is_transit":false,"station_id":"CLT","transit":false,"i_long":106.800016,"distance":7514,"i_lat":-6.530544,"station_name":"Cilebut","time":9,"line":0},{"is_transit":false,"time":5,"i_long":106.792719,"line":0,"station_id":"BJD","station_name":"Bojonggede","distance":4331,"transit":false,"i_lat":-6.493243},{"transit":false,"is_transit":true,"station_id":"CTA","distance":5197,"time":5,"i_lat":-6.448811,"i_long":106.800298,"line":1,"station_name":"Citayam"},{"is_transit":false,"time":6,"i_lat":-6.405256,"transit":false,"line":0,"station_name":"Depok","station_id":"DP","distance":5084,"i_long":106.816926},{"time":3,"i_lat":-6.391065,"is_transit":false,"station_name":"Depokbaru","i_long":106.819451,"station_id":"DPB","line":0,"distance":1584,"transit":false},{"i_lat":-6.369073,"station_name":"Pondok Cina","transit":false,"line":2,"i_long":106.831114,"time":4,"station_id":"POC","distance":2727,"is_transit":false},{"transit":false,"station_id":"UI","time":2,"i_lat":-6.360749,"distance":1109,"i_long":106.831474,"station_name":"Univ. Indonesia","line":2,"is_transit":false},{"line":2,"i_lat":-6.339291,"distance":2264,"station_id":"UP","station_name":"Univ. Pancasila","time":3,"i_long":106.834175,"transit":false,"is_transit":false},{"is_transit":false,"line":2,"transit":false,"time":2,"station_id":"LNA","distance":1029,"station_name":"Lenteng Agung","i_lat":-6.330363,"i_long":106.832616},{"transit":false,"i_long":106.838896,"station_id":"TNT","is_transit":false,"time":3,"line":2,"i_lat":-6.3080680000000005,"station_name":"Tanjung Barat","distance":2671},{"station_id":"PSM","station_name":"Pasar Minggu","time":4,"transit":false,"i_lat":-6.2842400000000005,"is_transit":false,"i_long":106.843999,"line":2,"distance":2820},{"i_lat":-6.263214,"transit":false,"station_id":"PSMB","time":2,"i_long":106.851577,"distance":2380,"line":2,"is_transit":false,"station_name":"Pasar Minggu Baru"},{"i_long":106.85449,"is_transit":false,"line":0,"station_name":"Duren Kalibata","i_lat":-6.255332,"station_id":"DRN","time":2,"distance":824,"transit":false},{"i_long":106.856607,"is_transit":false,"line":0,"station_name":"Cawang","transit":false,"station_id":"CW","distance":1546,"i_lat":-6.242512,"time":3},{"line":2,"time":2,"is_transit":false,"station_id":"TEB","distance":1230,"station_name":"Tebet","transit":false,"i_long":106.857948,"i_lat":-6.226659},{"i_long":106.84912,"line":0,"station_id":"MRI","is_transit":true,"distance":2610,"station_name":"Manggarai","time":4,"transit":true,"i_lat":-6.209883},{"station_name":"Cikini","is_transit":false,"transit":false,"distance":1590,"i_lat":-6.198556,"time":4,"station_id":"CKI","i_long":106.840169,"line":0},{"distance":1750,"i_long":106.832183,"is_transit":false,"transit":false,"station_id":"GDD","station_name":"Gondangdia","i_lat":-6.186295,"line":2,"time":3},{"i_lat":-6.166716,"distance":2015,"station_name":"Juanda","is_transit":false,"time":4,"line":2,"station_id":"JUA","transit":false,"i_long":106.828284},{"i_long":106.827103,"station_name":"Sawah Besar","station_id":"SW","time":2,"i_lat":-6.160725,"line":2,"is_transit":false,"transit":false,"distance":1149},{"is_transit":false,"station_name":"Manggabesar","station_id":"MGB","distance":906,"transit":false,"time":2,"i_lat":-6.149769,"line":2,"i_long":106.82482},{"station_id":"JAY","line":7,"distance":1080,"time":2,"transit":false,"i_lat":-6.141205,"i_long":106.820901,"station_name":"Jayakarta","is_transit":false},{"distance":1264,"i_lat":-6.137569,"station_name":"Jakarta Kota","is_transit":true,"line":0,"station_id":"JAKK","i_long":106.812439,"time":4,"transit":true},{"time":3,"is_transit":true,"station_id":"KPB","transit":false,"i_lat":-6.132549,"i_long":106.826365,"station_name":"Kampung Bandan","line":0,"distance":1364},{"i_lat":-6.144674,"is_transit":false,"station_name":"Angke","time":9,"station_id":"AK","distance":4102,"transit":false,"i_long":106.79867,"line":0},{"time":4,"distance":1230,"line":1,"station_id":"DU","i_long":106.800832,"is_transit":true,"station_name":"Duri","transit":true,"i_lat":-6.155215},{"station_id":"GGL","transit":false,"is_transit":false,"time":3,"station_name":"Grogol","line":5,"i_lat":-6.162021,"i_long":106.788277,"distance":1700},{"i_long":106.771379,"station_id":"PSG","distance":2036,"line":5,"i_lat":-6.161433,"station_name":"Pesing","time":2,"is_transit":false,"transit":false},{"station_name":"Taman Kota","i_lat":-6.1587309999999995,"transit":false,"time":2,"station_id":"TKO","distance":1614,"i_long":106.756522,"is_transit":false,"line":5},{"distance":2334,"i_long":106.737035,"line":0,"station_name":"Bojongindah","transit":false,"station_id":"BOI","i_lat":-6.159876,"time":2,"is_transit":false},{"i_lat":-6.162758,"line":5,"station_id":"RW","is_transit":false,"transit":false,"station_name":"Rawa Buaya","i_long":106.723064,"time":4,"distance":1152},{"i_lat":-6.166068,"time":3,"distance":2504,"transit":false,"station_id":"KDS","i_long":106.701612,"station_name":"Kalideres","is_transit":false,"line":5},{"i_lat":-6.169933,"station_name":"Poris","time":3,"distance":2548,"transit":false,"i_long":106.679458,"station_id":"PI","line":5,"is_transit":false}],[{"i_long":106.790574,"distance":0,"time":0,"station_id":"BOO","is_transit":true,"transit":false,"line":1,"station_name":"Bogor","i_lat":-6.594596},{"station_name":"Cilebut","transit":false,"distance":7514,"is_transit":false,"i_long":106.800016,"time":9,"line":0,"i_lat":-6.530544,"station_id":"CLT"},{"line":0,"i_long":106.792719,"station_name":"Bojonggede","transit":false,"time":5,"is_transit":false,"distance":4331,"i_lat":-6.493243,"station_id":"BJD"},{"station_id":"CTA","transit":false,"distance":5197,"i_lat":-6.448811,"time":5,"is_transit":true,"i_long":106.800298,"line":1,"station_name":"Citayam"},{"station_name":"Depok","distance":5084,"i_long":106.816926,"line":0,"time":6,"transit":false,"station_id":"DP","i_lat":-6.405256,"is_transit":false},{"station_id":"DPB","time":3,"i_long":106.819451,"distance":1584,"station_name":"Depokbaru","i_lat":-6.391065,"transit":false,"is_transit":false,"line":0},{"is_transit":false,"station_id":"POC","i_lat":-6.369073,"line":2,"i_long":106.831114,"distance":2727,"station_name":"Pondok Cina","transit":false,"time":4},{"i_lat":-6.360749,"station_id":"UI","station_name":"Univ. Indonesia","time":2,"transit":false,"line":2,"i_long":106.831474,"is_transit":false,"distance":1109},{"station_id":"UP","station_name":"Univ. Pancasila","is_transit":false,"i_lat":-6.339291,"transit":false,"i_long":106.834175,"time":3,"line":2,"distance":2264},{"distance":1029,"i_lat":-6.330363,"line":2,"transit":false,"station_id":"LNA","time":2,"i_long":106.832616,"station_name":"Lenteng Agung","is_transit":false},{"time":3,"distance":2671,"i_lat":-6.3080680000000005,"station_id":"TNT","station_name":"Tanjung Barat","line":2,"is_transit":false,"i_long":106.838896,"transit":false},{"i_lat":-6.2842400000000005,"station_name":"Pasar Minggu","time":4,"distance":2820,"transit":false,"i_long":106.843999,"line":2,"is_transit":false,"station_id":"PSM"},{"time":2,"transit":false,"i_long":106.851577,"station_name":"Pasar Minggu Baru","station_id":"PSMB","i_lat":-6.263214,"line":2,"distance":2380,"is_transit":false},{"transit":false,"station_name":"Duren Kalibata","line":0,"distance":824,"station_id":"DRN","i_lat":-6.255332,"i_long":106.85449,"time":2,"is_transit":false},{"is_transit":false,"distance":1546,"i_lat":-6.242512,"line":0,"station_id":"CW","time":3,"station_name":"Cawang","transit":false,"i_long":106.856607},{"distance":1230,"station_id":"TEB","transit":false,"line":2,"i_lat":-6.226659,"i_long":106.857948,"station_name":"Tebet","time":2,"is_transit":false},{"time":4,"line":0,"distance":2610,"i_long":106.84912,"station_name":"Manggarai","i_lat":-6.209883,"transit":true,"station_id":"MRI","is_transit":true},{"distance":1275,"transit":false,"station_id":"MTR","i_lat":-6.212485,"line":1,"i_long":106.858896,"is_transit":false,"time":2,"station_name":"Matraman"},{"i_lat":-6.215091,"station_id":"JNG","is_transit":true,"distance":1377,"transit":true,"line":0,"i_long":106.86807400000001,"time":8,"station_name":"Jatinegara"},{"station_name":"Pondok Jati","is_transit":false,"i_lat":-6.209188,"distance":1236,"transit":false,"line":11,"time":2,"station_id":"POK","i_long":106.861737},{"time":2,"i_lat":-6.193792,"i_long":106.855437,"transit":false,"is_transit":false,"distance":1829,"line":11,"station_id":"KMT","station_name":"Kramat"},{"is_transit":false,"transit":false,"station_id":"GST","station_name":"Gang Sentiong","distance":973,"i_lat":-6.185975,"i_long":106.850107,"time":1,"line":11},{"station_id":"PSE","i_long":106.84368,"i_lat":-6.174784,"line":11,"transit":false,"distance":1567,"time":8,"is_transit":false,"station_name":"Pasar Senen"},{"i_lat":-6.161728,"time":4,"i_long":106.839204,"transit":false,"distance":1436,"station_id":"KMO","station_name":"Kemayoran","line":11,"is_transit":false},{"is_transit":false,"distance":1901,"transit":false,"i_long":106.836569,"time":5,"station_id":"RJW","i_lat":-6.14505,"line":11,"station_name":"Rajawali"},{"station_name":"Kampung Bandan","is_transit":true,"transit":true,"i_long":106.826365,"line":0,"station_id":"KPB","distance":1444,"i_lat":-6.132549,"time":3},{"station_id":"AK","distance":4102,"line":0,"station_name":"Angke","is_transit":false,"i_lat":-6.144674,"time":9,"i_long":106.79867,"transit":false},{"station_id":"DU","i_lat":-6.155215,"station_name":"Duri","i_long":106.800832,"time":4,"line":1,"is_transit":true,"transit":true,"distance":1230},{"station_id":"GGL","station_name":"Grogol","distance":1700,"time":3,"is_transit":false,"i_long":106.788277,"line":5,"i_lat":-6.162021,"transit":false},{"i_lat":-6.161433,"i_long":106.771379,"transit":false,"time":2,"line":5,"distance":2036,"is_transit":false,"station_id":"PSG","station_name":"Pesing"},{"i_lat":-6.1587309999999995,"transit":false,"line":5,"time":2,"station_name":"Taman Kota","station_id":"TKO","distance":1614,"i_long":106.756522,"is_transit":false},{"distance":2334,"transit":false,"station_name":"Bojongindah","is_transit":false,"i_long":106.737035,"line":0,"station_id":"BOI","time":2,"i_lat":-6.159876},{"is_transit":false,"station_name":"Rawa Buaya","i_long":106.723064,"i_lat":-6.162758,"line":5,"time":4,"transit":false,"distance":1152,"station_id":"RW"},{"time":3,"i_long":106.701612,"line":5,"transit":false,"i_lat":-6.166068,"station_id":"KDS","is_transit":false,"distance":2504,"station_name":"Kalideres"},{"distance":2548,"transit":false,"station_name":"Poris","i_long":106.679458,"station_id":"PI","line":5,"i_lat":-6.169933,"is_transit":false,"time":3}]]}