{"data":[[{"line":2,"is_transit":false,"transit":false,"time":0,"i_lat":-6.594596,"i_long":106.790574,"distance":0,"station_id":"BOO","station_name":"Bogor"},{"is_transit":false,"station_name":"Cilebut","line":2,"i_long":106.800016,"distance":7514,"time":9,"transit":false,"station_id":"CLT","i_lat":-6.530544},{"station_name":"Bojonggede","station_id":"BJD","is_transit":false,"i_lat":-6.493243,"transit":false,"i_long":106.792719,"time":5,"distance":4331,"line":2},{"station_id":"CTA","i_long":106.800298,"station_name":"Citayam","is_transit":false,"distance":5197,"time":5,"transit":false,"line":2,"i_lat":-6.448811},{"station_name":"Depok","time":6,"line":2,"is_transit":false,"station_id":"DP","transit":false,"i_lat":-6.405256,"i_long":106.816926,"distance":5084},{"distance":1584,"station_name":"Depokbaru","transit":false,"station_id":"DPB","i_long":106.819451,"is_transit":false,"i_lat":-6.391065,"time":3,"line":2},{"i_long":106.831114,"station_id":"POC","transit":false,"line":2,"is_transit":false,"time":4,"station_name":"Pondok Cina","distance":2727,"i_lat":-6.369073},{"is_transit":false,"time":2,"station_id":"UI","transit":false,"i_lat":-6.360749,"i_long":106.831474,"line":2,"distance":1109,"station_name":"Univ. Indonesia"},{"station_id":"UP","time":3,"station_name":"Univ. Pancasila","distance":2264,"transit":false,"line":2,"i_lat":-6.339291,"i_long":106.834175,"is_transit":false},{"station_id":"LNA","i_lat":-6.330363,"i_long":106.832616,"is_transit":false,"distance":1029,"transit":false,"station_name":"Lenteng Agung","time":2,"line":2},{"i_long":106.838896,"line":2,"time":3,"i_lat":-6.3080680000000005,"station_id":"TNT","station_name":"Tanjung Barat","transit":false,"is_transit":false,"distance":2671},{"i_long":106.843999,"time":4,"line":2,"distance":2820,"transit":false,"station_name":"Pasar Minggu","station_id":"PSM","is_transit":false,"i_lat":-6.2842400000000005},{"distance":2380,"i_lat":-6.263214,"station_id":"PSMB","is_transit":false,"time":2,"transit":false,"line":2,"station_name":"Pasar Minggu Baru","i_long":106.851577},{"transit":false,"i_lat":-6.255332,"time":2,"distance":824,"is_transit":false,"station_name":"Duren Kalibata","line":2,"station_id":"DRN","i_long":106.85449},{"time":3,"transit":false,"is_transit":false,"i_lat":-6.242512,"station_id":"CW","distance":1546,"line":2,"station_name":"Cawang","i_long":106.856607},{"transit":false,"is_transit":false,"station_name":"Tebet","time":2,"distance":1230,"station_id":"TEB","i_long":106.857948,"line":2,"i_lat":-6.226659},{"distance":2610,"line":2,"station_id":"MRI","is_transit":true,"transit":true,"time":4,"station_name":"Manggarai","i_lat":-6.209883,"i_long":106.84912},{"transit":false,"time":4,"line":1,"distance":3186,"station_id":"SUD","is_transit":false,"station_name":"Sudirman","i_long":106.822649,"i_lat":-6.202263},{"transit":false,"line":1,"i_long":106.819881,"station_name":"Sudirman Baru","i_lat":-6.201433,"time":1,"is_transit":false,"station_id":"SUDB","distance":280},{"i_lat":-6.20132,"time":1,"station_name":"Karet","station_id":"KAT","transit":false,"distance":471,"is_transit":false,"line":1,"i_long":106.816351},{"transit":false,"line":1,"distance":2029,"i_long":106.811091,"is_transit":false,"time":5,"i_lat":-6.185545,"station_name":"Tanah Abang","station_id":"THB"},{"transit":true,"line":1,"station_name":"Duri","distance":3632,"i_long":106.800832,"is_transit":true,"i_lat":-6.155215,"time":8,"station_id":"DU"},{"station_name":"Grogol","station_id":"GGL","i_long":106.788277,"time":3,"transit":false,"is_transit":false,"distance":1700,"line":5,"i_lat":-6.162021},{"time":2,"transit":false,"i_long":106.771379,"is_transit":false,"distance":2036,"station_id":"PSG","line":5,"station_name":"Pesing","i_lat":-6.161433},{"time":2,"station_id":"TKO","line":5,"station_name":"Taman Kota","transit":false,"distance":1614,"i_long":106.756522,"i_lat":-6.1587309999999995,"is_transit":false},{"station_name":"Bojongindah","station_id":"BOI","distance":2334,"transit":false,"time":2,"i_lat":-6.159876,"is_transit":false,"line":5,"i_long":106.737035},{"line":5,"time":4,"distance":1152,"is_transit":false,"station_name":"Rawa Buaya","i_long":106.723064,"station_id":"RW","transit":false,"i_lat":-6.162758}],[{"station_id":"BOO","i_long":106.790574,"is_transit":false,"i_lat":-6.594596,"station_name":"Bogor","transit":false,"time":0,"distance":0,"line":2},{"is_transit":false,"transit":false,"station_name":"Cilebut","distance":7514,"line":2,"time":9,"station_id":"CLT","i_long":106.800016,"i_lat":-6.530544},{"station_id":"BJD","transit":false,"line":2,"time":5,"distance":4331,"is_transit":false,"station_name":"Bojonggede","i_long":106.792719,"i_lat":-6.493243},{"is_transit":false,"distance":5197,"i_long":106.800298,"i_lat":-6.448811,"transit":false,"time":5,"station_name":"Citayam","station_id":"CTA","line":2},{"station_name":"Depok","station_id":"DP","i_lat":-6.405256,"line":2,"is_transit":false,"distance":5084,"transit":false,"time":6,"i_long":106.816926},{"transit":false,"i_lat":-6.391065,"time":3,"i_long":106.819451,"line":2,"distance":1584,"station_name":"Depokbaru","is_transit":false,"station_id":"DPB"},{"distance":2727,"transit":false,"station_name":"Pondok Cina","line":2,"is_transit":false,"station_id":"POC","i_lat":-6.369073,"time":4,"i_long":106.831114},{"station_id":"UI","is_transit":false,"distance":1109,"transit":false,"line":2,"time":2,"i_lat":-6.360749,"i_long":106.831474,"station_name":"Univ. Indonesia"},{"is_transit":false,"distance":2264,"station_name":"Univ. Pancasila","transit":false,"time":3,"i_lat":-6.339291,"station_id":"UP","i_long":106.834175,"line":2},{"time":2,"i_long":106.832616,"line":2,"is_transit":false,"distance":1029,"station_id":"LNA","transit":false,"i_lat":-6.330363,"station_name":"Lenteng Agung"},{"i_long":106.838896,"station_name":"Tanjung Barat","distance":2671,"time":3,"station_id":"TNT","i_lat":-6.3080680000000005,"line":2,"is_transit":false,"transit":false},{"station_name":"Pasar Minggu","is_transit":false,"station_id":"PSM","transit":false,"i_long":106.843999,"i_lat":-6.2842400000000005,"distance":2820,"line":2,"time":4},{"i_lat":-6.263214,"line":2,"time":2,"station_id":"PSMB","is_transit":false,"distance":2380,"transit":false,"i_long":106.851577,"station_name":"Pasar Minggu Baru"},{"transit":false,"time":2,"station_name":"Duren Kalibata","is_transit":false,"station_id":"DRN","distance":824,"i_long":106.85449,"line":2,"i_lat":-6.255332},{"distance":1546,"i_long":106.856607,"is_transit":false,"station_id":"CW","line":2,"time":3,"i_lat":-6.242512,"transit":false,"station_name":"Cawang"},{"line":2,"transit":false,"time":2,"distance":1230,"i_long":106.857948,"station_id":"TEB","i_lat":-6.226659,"is_transit":false,"station_name":"Tebet"},{"station_id":"MRI","is_transit":false,"i_long":106.84912,"station_name":"Manggarai","distance":2610,"line":2,"transit":false,"i_lat":-6.209883,"time":4},{"time":4,"i_long":106.840169,"line":2,"transit":false,"distance":1590,"is_transit":false,"station_name":"Cikini","station_id":"CKI","i_lat":-6.198556},{"i_long":106.832183,"station_name":"Gondangdia","time":3,"i_lat":-6.186295,"is_transit":false,"station_id":"GDD","distance":1750,"line":2,"transit":false},{"is_transit":false,"line":2,"time":4,"distance":2015,"transit":false,"station_name":"Juanda","station_id":"JUA","i_long":106.828284,"i_lat":-6.166716},{"time":2,"station_name":"Sawah Besar","transit":false,"line":2,"is_transit":false,"station_id":"SW","i_long":106.827103,"distance":1149,"i_lat":-6.160725},{"station_name":"Manggabesar","i_lat":-6.149769,"distance":906,"station_id":"MGB","i_long":106.82482,"is_transit":false,"time":2,"transit":false,"line":2},{"is_transit":false,"time":2,"transit":false,"distance":1080,"i_long":106.820901,"station_id":"JAY","line":2,"i_lat":-6.141205,"station_name":"Jayakarta"},{"station_name":"Jakarta Kota","time":4,"distance":1264,"is_transit":true,"station_id":"JAKK","transit":true,"i_lat":-6.137569,"i_long":106.812439,"line":2},{"station_name":"Kampung Bandan","transit":true,"i_lat":-6.132549,"station_id":"KPB","i_long":106.826365,"distance":1364,"is_transit":true,"time":3,"line":4},{"station_id":"AK","line":1,"time":9,"distance":4102,"station_name":"Angke","transit":false,"is_transit":false,"i_lat":-6.144674,"i_long":106.79867},{"time":4,"line":1,"station_name":"Duri","i_lat":-6.155215,"distance":1230,"i_long":106.800832,"station_id":"DU","transit":true,"is_transit":true},{"time":3,"is_transit":false,"distance":1700,"station_name":"Grogol","transit":false,"i_long":106.788277,"station_id":"GGL","i_lat":-6.162021,"line":5},{"is_transit":false,"i_lat":-6.161433,"distance":2036,"i_long":106.771379,"station_name":"Pesing","station_id":"PSG","transit":false,"line":5,"time":2},{"line":5,"is_transit":false,"station_name":"Taman Kota","i_long":106.756522,"transit":false,"i_lat":-6.1587309999999995,"time":2,"station_id":"TKO","distance":1614},{"transit":false,"i_lat":-6.159876,"i_long":106.737035,"time":2,"line":5,"is_transit":false,"distance":2334,"station_id":"BOI","station_name":"Bojongindah"},{"i_lat":-6.162758,"distance":1152,"line":5,"is_transit":false,"time":4,"station_id":"RW","transit":false,"i_long":106.723064,"station_name":"Rawa Buaya"}],[{"i_long":106.790574,"time":0,"line":2,"station_id":"BOO","station_name":"Bogor","is_transit":false,"distance":0,"transit":false,"i_lat":-6.594596},{"distance":7514,"i_long":106.800016,"time":9,"station_name":"Cilebut","is_transit":false,"station_id":"CLT","transit":false,"i_lat":-6.530544,"line":2},{"time":5,"distance":4331,"station_name":"Bojonggede","is_transit":false,"station_id":"BJD","transit":false,"i_long":106.792719,"i_lat":-6.493243,"line":2},{"is_transit":false,"time":5,"distance":5197,"station_name":"Citayam","transit":false,"i_long":106.800298,"station_id":"CTA","i_lat":-6.448811,"line":2},{"transit":false,"line":2,"distance":5084,"time":6,"station_id":"DP","is_transit":false,"i_lat":-6.405256,"station_name":"Depok","i_long":106.816926},{"time":3,"transit":false,"i_lat":-6.391065,"station_id":"DPB","i_long":106.819451,"station_name":"Depokbaru","line":2,"is_transit":false,"distance":1584},{"time":4,"station_name":"Pondok Cina","transit":false,"i_lat":-6.369073,"line":2,"station_id":"POC","i_long":106.831114,"distance":2727,"is_transit":false},{"i_lat":-6.360749,"is_transit":false,"line":2,"distance":1109,"station_name":"Univ. Indonesia","station_id":"UI","transit":false,"i_long":106.831474,"time":2},{"time":3,"is_transit":false,"station_name":"Univ. Pancasila","i_lat":-6.339291,"distance":2264,"i_long":106.834175,"station_id":"UP","line":2,"transit":false},{"i_lat":-6.330363,"station_name":"Lenteng Agung","station_id":"LNA","time":2,"distance":1029,"transit":false,"i_long":106.832616,"is_transit":false,"line":2},{"is_transit":false,"station_name":"Tanjung Barat","i_long":106.838896,"time":3,"station_id":"TNT","distance":2671,"i_lat":-6.3080680000000005,"transit":false,"line":2},{"station_id":"PSM","transit":false,"time":4,"i_lat":-6.2842400000000005,"distance":2820,"station_name":"Pasar Minggu","is_transit":false,"i_long":106.843999,"line":2},{"station_name":"Pasar Minggu Baru","transit":false,"i_lat":-6.263214,"line":2,"i_long":106.851577,"station_id":"PSMB","is_transit":false,"time":2,"distance":2380},{"is_transit":false,"station_name":"Duren Kalibata","i_lat":-6.255332,"station_id":"DRN","i_long":106.85449,"time":2,"transit":false,"line":2,"distance":824},{"time":3,"transit":false,"line":2,"is_transit":false,"i_lat":-6.242512,"station_id":"CW","station_name":"Cawang","i_long":106.856607,"distance":1546},{"time":2,"distance":1230,"is_transit":false,"station_id":"TEB","station_name":"Tebet","transit":false,"line":2,"i_long":106.857948,"i_lat":-6.226659},{"distance":2610,"line":2,"is_transit":true,"station_name":"Manggarai","time":4,"station_id":"MRI","i_lat":-6.209883,"i_long":106.84912,"transit":true},{"time":2,"distance":1275,"transit":false,"is_transit":false,"i_long":106.858896,"i_lat":-6.212485,"station_name":"Matraman","station_id":"MTR","line":1},{"i_long":106.86807400000001,"distance":1377,"line":1,"time":8,"station_name":"Jatinegara","i_lat":-6.215091,"station_id":"JNG","transit":true,"is_transit":true},{"i_lat":-6.209188,"i_long":106.861737,"time":2,"is_transit":false,"station_name":"Pondok Jati","transit":false,"distance":1236,"station_id":"POK","line":11},{"i_long":106.855437,"distance":1829,"time":2,"transit":false,"station_id":"KMT","station_name":"Kramat","line":11,"i_lat":-6.193792,"is_transit":false},{"distance":973,"line":11,"station_name":"Gang Sentiong","transit":false,"i_lat":-6.185975,"station_id":"GST","is_transit":false,"time":1,"i_long":106.850107},{"transit":false,"i_long":106.84368,"is_transit":false,"i_lat":-6.174784,"time":8,"station_id":"PSE","distance":1567,"station_name":"Pasar Senen","line":11},{"is_transit":false,"station_name":"Kemayoran","time":4,"i_long":106.839204,"station_id":"KMO","transit":false,"distance":1436,"i_lat":-6.161728,"line":11},{"is_transit":false,"distance":1901,"station_id":"RJW","time":5,"i_lat":-6.14505,"transit":false,"i_long":106.836569,"station_name":"Rajawali","line":11},{"transit":true,"i_lat":-6.132549,"i_long":106.826365,"station_id":"KPB","line":4,"station_name":"Kampung Bandan","distance":1444,"time":3,"is_transit":true},{"transit":false,"time":9,"i_lat":-6.144674,"is_transit":false,"distance":4102,"line":1,"i_long":106.79867,"station_name":"Angke","station_id":"AK"},{"i_long":106.800832,"station_id":"DU","i_lat":-6.155215,"line":1,"is_transit":true,"station_name":"Duri","time":4,"distance":1230,"transit":true},{"line":5,"time":3,"transit":false,"station_name":"Grogol","distance":1700,"station_id":"GGL","is_transit":false,"i_lat":-6.162021,"i_long":106.788277},{"station_id":"PSG","i_long":106.771379,"is_transit":false,"transit":false,"i_lat":-6.161433,"line":5,"station_name":"Pesing","time":2,"distance":2036},{"time":2,"station_id":"TKO","transit":false,"line":5,"distance":1614,"is_transit":false,"i_lat":-6.1587309999999995,"i_long":106.756522,"station_name":"Taman Kota"},{"time":2,"is_transit":false,"station_name":"Bojongindah","i_lat":-6.159876,"distance":2334,"transit":false,"i_long":106.737035,"station_id":"BOI","line":5},{"is_transit":false,"time":4,"station_id":"RW","i_lat":-6.162758,"transit":false,"line":5,"i_long":106.723064,"station_name":"Rawa Buaya","distance":1152}]]}