{"data":[[{"i_long":106.790574,"line":1,"station_name":"Bogor","distance":0,"station_id":"BOO","time":0,"transit":false,"i_lat":-6.594596,"is_transit":true},{"line":0,"station_name":"Cilebut","i_lat":-6.530544,"time":9,"distance":7514,"transit":false,"i_long":106.800016,"station_id":"CLT","is_transit":false},{"time":5,"line":0,"i_lat":-6.493243,"is_transit":false,"station_id":"BJD","station_name":"Bojonggede","distance":4331,"transit":false,"i_long":106.792719},{"station_name":"Citayam","time":5,"i_lat":-6.448811,"is_transit":true,"distance":5197,"i_long":106.800298,"line":1,"station_id":"CTA","transit":false},{"station_name":"Depok","transit":false,"time":6,"is_transit":false,"distance":5084,"station_id":"DP","line":0,"i_long":106.816926,"i_lat":-6.405256},{"station_id":"DPB","station_name":"Depokbaru","transit":false,"i_lat":-6.391065,"distance":1584,"line":0,"i_long":106.819451,"time":3,"is_transit":false},{"line":2,"transit":false,"time":4,"is_transit":false,"station_id":"POC","station_name":"Pondok Cina","i_lat":-6.369073,"i_long":106.831114,"distance":2727},{"station_id":"UI","transit":false,"time":2,"i_long":106.831474,"station_name":"Univ. Indonesia","is_transit":false,"i_lat":-6.360749,"distance":1109,"line":2},{"station_id":"UP","i_lat":-6.339291,"i_long":106.834175,"station_name":"Univ. Pancasila","transit":false,"is_transit":false,"time":3,"line":2,"distance":2264},{"distance":1029,"transit":false,"line":2,"station_name":"Lenteng Agung","i_lat":-6.330363,"i_long":106.832616,"station_id":"LNA","time":2,"is_transit":false},{"station_id":"TNT","line":2,"station_name":"Tanjung Barat","transit":false,"is_transit":false,"time":3,"distance":2671,"i_lat":-6.3080680000000005,"i_long":106.838896},{"distance":2820,"station_name":"Pasar Minggu","i_long":106.843999,"transit":false,"is_transit":false,"time":4,"i_lat":-6.2842400000000005,"line":2,"station_id":"PSM"},{"i_lat":-6.263214,"i_long":106.851577,"station_id":"PSMB","is_transit":false,"time":2,"station_name":"Pasar Minggu Baru","transit":false,"line":2,"distance":2380},{"time":2,"station_name":"Duren Kalibata","is_transit":false,"i_lat":-6.255332,"transit":false,"station_id":"DRN","distance":824,"i_long":106.85449,"line":0},{"time":3,"line":0,"transit":false,"station_name":"Cawang","i_lat":-6.242512,"is_transit":false,"i_long":106.856607,"distance":1546,"station_id":"CW"},{"time":2,"i_lat":-6.226659,"is_transit":false,"transit":false,"station_id":"TEB","i_long":106.857948,"station_name":"Tebet","distance":1230,"line":2},{"time":4,"i_long":106.84912,"station_id":"MRI","line":0,"distance":2610,"is_transit":true,"transit":true,"station_name":"Manggarai","i_lat":-6.209883},{"is_transit":false,"transit":false,"i_lat":-6.202263,"line":1,"station_name":"Sudirman","station_id":"SUD","distance":3186,"i_long":106.822649,"time":4},{"line":1,"station_id":"SUDB","is_transit":false,"time":1,"distance":280,"station_name":"Sudirman Baru","transit":false,"i_lat":-6.201433,"i_long":106.819881},{"i_lat":-6.20132,"station_name":"Karet","distance":471,"station_id":"KAT","transit":false,"i_long":106.816351,"time":1,"is_transit":false,"line":1},{"line":1,"transit":false,"distance":2029,"station_name":"Tanah Abang","time":5,"station_id":"THB","i_long":106.811091,"is_transit":true,"i_lat":-6.185545},{"i_lat":-6.155215,"time":8,"station_name":"Duri","i_long":106.800832,"distance":3632,"station_id":"DU","is_transit":true,"line":1,"transit":true},{"transit":false,"distance":1700,"station_id":"GGL","line":5,"is_transit":false,"time":3,"i_long":106.788277,"station_name":"Grogol","i_lat":-6.162021},{"i_lat":-6.161433,"is_transit":false,"distance":2036,"station_id":"PSG","station_name":"Pesing","transit":false,"time":2,"line":5,"i_long":106.771379},{"transit":false,"line":5,"is_transit":false,"i_lat":-6.1587309999999995,"i_long":106.756522,"time":2,"distance":1614,"station_id":"TKO","station_name":"Taman Kota"},{"i_long":106.737035,"i_lat":-6.159876,"station_id":"BOI","time":2,"is_transit":false,"distance":2334,"line":0,"transit":false,"station_name":"Bojongindah"},{"time":4,"station_id":"RW","i_lat":-6.162758,"is_transit":false,"distance":1152,"i_long":106.723064,"station_name":"Rawa Buaya","transit":false,"line":5},{"line":5,"station_id":"KDS","station_name":"Kalideres","is_transit":false,"transit":false,"distance":2504,"i_long":106.701612,"time":3,"i_lat":-6.166068},{"i_long":106.679458,"station_name":"Poris","transit":false,"line":5,"i_lat":-6.169933,"distance":2548,"time":3,"station_id":"PI","is_transit":false},{"transit":false,"station_name":"Batuceper","line":0,"i_long":106.665036,"is_transit":false,"distance":1834,"time":3,"i_lat":-6.171811,"station_id":"BPR"},{"line":5,"i_lat":-6.17331,"i_long":106.64657,"distance":2028,"time":3,"station_id":"TTI","is_transit":false,"transit":false,"station_name":"Tanah Tinggi"}],[{"line":1,"station_name":"Bogor","distance":0,"station_id":"BOO","is_transit":true,"i_lat":-6.594596,"transit":false,"i_long":106.790574,"time":0},{"i_long":106.800016,"station_id":"CLT","distance":7514,"i_lat":-6.530544,"transit":false,"line":0,"is_transit":false,"station_name":"Cilebut","time":9},{"is_transit":false,"station_id":"BJD","transit":false,"i_lat":-6.493243,"distance":4331,"time":5,"station_name":"Bojonggede","i_long":106.792719,"line":0},{"i_long":106.800298,"line":1,"distance":5197,"station_id":"CTA","time":5,"station_name":"Citayam","is_transit":true,"transit":false,"i_lat":-6.448811},{"line":0,"time":6,"i_lat":-6.405256,"distance":5084,"is_transit":false,"station_name":"Depok","transit":false,"i_long":106.816926,"station_id":"DP"},{"is_transit":false,"i_long":106.819451,"line":0,"station_name":"Depokbaru","distance":1584,"time":3,"station_id":"DPB","transit":false,"i_lat":-6.391065},{"is_transit":false,"i_long":106.831114,"line":2,"distance":2727,"station_id":"POC","time":4,"i_lat":-6.369073,"station_name":"Pondok Cina","transit":false},{"station_id":"UI","line":2,"i_long":106.831474,"is_transit":false,"time":2,"station_name":"Univ. Indonesia","distance":1109,"i_lat":-6.360749,"transit":false},{"time":3,"station_name":"Univ. Pancasila","transit":false,"station_id":"UP","is_transit":false,"i_lat":-6.339291,"i_long":106.834175,"line":2,"distance":2264},{"station_name":"Lenteng Agung","time":2,"i_long":106.832616,"transit":false,"station_id":"LNA","is_transit":false,"i_lat":-6.330363,"line":2,"distance":1029},{"time":3,"i_lat":-6.3080680000000005,"is_transit":false,"distance":2671,"station_id":"TNT","i_long":106.838896,"station_name":"Tanjung Barat","transit":false,"line":2},{"i_lat":-6.2842400000000005,"distance":2820,"is_transit":false,"station_name":"Pasar Minggu","line":2,"i_long":106.843999,"station_id":"PSM","time":4,"transit":false},{"transit":false,"line":2,"station_id":"PSMB","time":2,"station_name":"Pasar Minggu Baru","i_lat":-6.263214,"i_long":106.851577,"distance":2380,"is_transit":false},{"time":2,"i_long":106.85449,"station_name":"Duren Kalibata","transit":false,"i_lat":-6.255332,"is_transit":false,"line":0,"station_id":"DRN","distance":824},{"transit":false,"station_name":"Cawang","i_lat":-6.242512,"i_long":106.856607,"is_transit":false,"station_id":"CW","line":0,"distance":1546,"time":3},{"i_lat":-6.226659,"is_transit":false,"station_name":"Tebet","i_long":106.857948,"time":2,"transit":false,"station_id":"TEB","line":2,"distance":1230},{"station_id":"MRI","i_lat":-6.209883,"line":0,"is_transit":true,"time":4,"i_long":106.84912,"station_name":"Manggarai","distance":2610,"transit":true},{"station_id":"CKI","transit":false,"line":0,"i_lat":-6.198556,"distance":1590,"station_name":"Cikini","time":4,"is_transit":false,"i_long":106.840169},{"station_id":"GDD","i_lat":-6.186295,"is_transit":false,"transit":false,"distance":1750,"station_name":"Gondangdia","line":2,"i_long":106.832183,"time":3},{"station_name":"Juanda","is_transit":false,"time":4,"i_lat":-6.166716,"distance":2015,"station_id":"JUA","i_long":106.828284,"transit":false,"line":2},{"station_id":"SW","distance":1149,"is_transit":false,"i_lat":-6.160725,"transit":false,"time":2,"i_long":106.827103,"station_name":"Sawah Besar","line":2},{"line":2,"station_id":"MGB","i_long":106.82482,"station_name":"Manggabesar","time":2,"distance":906,"is_transit":false,"transit":false,"i_lat":-6.149769},{"station_id":"JAY","station_name":"Jayakarta","is_transit":false,"transit":false,"i_lat":-6.141205,"distance":1080,"line":7,"i_long":106.820901,"time":2},{"i_long":106.812439,"distance":1264,"time":4,"transit":true,"line":0,"station_name":"Jakarta Kota","i_lat":-6.137569,"is_transit":true,"station_id":"JAKK"},{"station_id":"KPB","is_transit":true,"distance":1364,"i_long":106.826365,"i_lat":-6.132549,"line":0,"station_name":"Kampung Bandan","transit":false,"time":3},{"is_transit":false,"distance":4102,"line":0,"i_lat":-6.144674,"time":9,"station_id":"AK","transit":false,"i_long":106.79867,"station_name":"Angke"},{"line":1,"station_id":"DU","i_lat":-6.155215,"time":4,"distance":1230,"station_name":"Duri","transit":true,"is_transit":true,"i_long":106.800832},{"time":3,"station_id":"GGL","is_transit":false,"i_lat":-6.162021,"distance":1700,"station_name":"Grogol","transit":false,"i_long":106.788277,"line":5},{"i_long":106.771379,"distance":2036,"time":2,"line":5,"i_lat":-6.161433,"transit":false,"station_id":"PSG","is_transit":false,"station_name":"Pesing"},{"station_id":"TKO","station_name":"Taman Kota","is_transit":false,"time":2,"distance":1614,"transit":false,"i_lat":-6.1587309999999995,"i_long":106.756522,"line":5},{"transit":false,"distance":2334,"line":0,"station_name":"Bojongindah","station_id":"BOI","time":2,"i_lat":-6.159876,"is_transit":false,"i_long":106.737035},{"station_name":"Rawa Buaya","line":5,"distance":1152,"station_id":"RW","time":4,"i_long":106.723064,"is_transit":false,"transit":false,"i_lat":-6.162758},{"transit":false,"line":5,"is_transit":false,"time":3,"distance":2504,"i_lat":-6.166068,"i_long":106.701612,"station_id":"KDS","station_name":"Kalideres"},{"time":3,"i_long":106.679458,"is_transit":false,"line":5,"station_id":"PI","station_name":"Poris","transit":false,"distance":2548,"i_lat":-6.169933},{"station_name":"Batuceper","distance":1834,"station_id":"BPR","i_lat":-6.171811,"transit":false,"time":3,"is_transit":false,"line":0,"i_long":106.665036},{"station_id":"TTI","transit":false,"i_lat":-6.17331,"is_transit":false,"i_long":106.64657,"time":3,"distance":2028,"station_name":"Tanah Tinggi","line":5}],[{"station_id":"BOO","time":0,"distance":0,"i_long":106.790574,"transit":false,"i_lat":-6.594596,"line":1,"station_name":"Bogor","is_transit":true},{"distance":7514,"is_transit":false,"line":0,"i_long":106.800016,"station_id":"CLT","i_lat":-6.530544,"station_name":"Cilebut","transit":false,"time":9},{"transit":false,"line":0,"i_long":106.792719,"time":5,"station_name":"Bojonggede","i_lat":-6.493243,"distance":4331,"station_id":"BJD","is_transit":false},{"station_id":"CTA","distance":5197,"line":1,"transit":false,"i_long":106.800298,"station_name":"Citayam","time":5,"is_transit":true,"i_lat":-6.448811},{"station_id":"DP","transit":false,"distance":5084,"is_transit":false,"i_long":106.816926,"line":0,"time":6,"i_lat":-6.405256,"station_name":"Depok"},{"station_id":"DPB","station_name":"Depokbaru","distance":1584,"i_long":106.819451,"time":3,"is_transit":false,"i_lat":-6.391065,"line":0,"transit":false},{"station_id":"POC","transit":false,"time":4,"distance":2727,"station_name":"Pondok Cina","i_lat":-6.369073,"i_long":106.831114,"line":2,"is_transit":false},{"station_id":"UI","time":2,"is_transit":false,"i_lat":-6.360749,"line":2,"distance":1109,"station_name":"Univ. Indonesia","transit":false,"i_long":106.831474},{"i_long":106.834175,"i_lat":-6.339291,"time":3,"distance":2264,"is_transit":false,"station_name":"Univ. Pancasila","transit":false,"line":2,"station_id":"UP"},{"transit":false,"time":2,"i_long":106.832616,"i_lat":-6.330363,"line":2,"station_name":"Lenteng Agung","station_id":"LNA","is_transit":false,"distance":1029},{"time":3,"transit":false,"i_long":106.838896,"line":2,"station_name":"Tanjung Barat","distance":2671,"station_id":"TNT","is_transit":false,"i_lat":-6.3080680000000005},{"station_id":"PSM","i_long":106.843999,"time":4,"transit":false,"station_name":"Pasar Minggu","i_lat":-6.2842400000000005,"line":2,"is_transit":false,"distance":2820},{"time":2,"line":2,"is_transit":false,"i_lat":-6.263214,"station_name":"Pasar Minggu Baru","transit":false,"i_long":106.851577,"station_id":"PSMB","distance":2380},{"time":2,"line":0,"station_id":"DRN","distance":824,"station_name":"Duren Kalibata","transit":false,"i_long":106.85449,"i_lat":-6.255332,"is_transit":false},{"station_id":"CW","i_long":106.856607,"line":0,"is_transit":false,"transit":false,"station_name":"Cawang","i_lat":-6.242512,"distance":1546,"time":3},{"station_id":"TEB","i_lat":-6.226659,"station_name":"Tebet","line":2,"i_long":106.857948,"is_transit":false,"time":2,"distance":1230,"transit":false},{"i_long":106.84912,"time":4,"distance":2610,"station_name":"Manggarai","transit":true,"station_id":"MRI","is_transit":true,"i_lat":-6.209883,"line":0},{"line":1,"distance":1275,"time":2,"station_name":"Matraman","transit":false,"i_long":106.858896,"is_transit":false,"i_lat":-6.212485,"station_id":"MTR"},{"i_long":106.86807400000001,"line":0,"time":8,"station_name":"Jatinegara","distance":1377,"station_id":"JNG","is_transit":true,"transit":true,"i_lat":-6.215091},{"transit":false,"station_name":"Pondok Jati","i_lat":-6.209188,"time":2,"station_id":"POK","i_long":106.861737,"is_transit":false,"line":11,"distance":1236},{"i_lat":-6.193792,"i_long":106.855437,"transit":false,"time":2,"line":11,"station_id":"KMT","is_transit":false,"distance":1829,"station_name":"Kramat"},{"station_id":"GST","i_lat":-6.185975,"is_transit":false,"transit":false,"line":11,"time":1,"i_long":106.850107,"distance":973,"station_name":"Gang Sentiong"},{"distance":1567,"station_name":"Pasar Senen","station_id":"PSE","transit":false,"line":11,"is_transit":false,"i_lat":-6.174784,"time":8,"i_long":106.84368},{"distance":1436,"i_lat":-6.161728,"time":4,"is_transit":false,"station_id":"KMO","station_name":"Kemayoran","i_long":106.839204,"transit":false,"line":11},{"line":11,"is_transit":false,"station_name":"Rajawali","transit":false,"i_long":106.836569,"station_id":"RJW","distance":1901,"i_lat":-6.14505,"time":5},{"i_long":106.826365,"distance":1444,"transit":true,"line":0,"station_id":"KPB","time":3,"i_lat":-6.132549,"is_transit":true,"station_name":"Kampung Bandan"},{"i_lat":-6.144674,"station_name":"Angke","station_id":"AK","is_transit":false,"time":9,"line":0,"i_long":106.79867,"distance":4102,"transit":false},{"station_name":"Duri","transit":true,"i_lat":-6.155215,"station_id":"DU","line":1,"time":4,"is_transit":true,"distance":1230,"i_long":106.800832},{"station_id":"GGL","station_name":"Grogol","i_lat":-6.162021,"i_long":106.788277,"line":5,"time":3,"is_transit":false,"distance":1700,"transit":false},{"line":5,"is_transit":false,"time":2,"distance":2036,"station_id":"PSG","station_name":"Pesing","i_lat":-6.161433,"i_long":106.771379,"transit":false},{"i_lat":-6.1587309999999995,"time":2,"transit":false,"station_id":"TKO","i_long":106.756522,"line":5,"is_transit":false,"distance":1614,"station_name":"Taman Kota"},{"time":2,"i_lat":-6.159876,"line":0,"station_id":"BOI","station_name":"Bojongindah","transit":false,"i_long":106.737035,"is_transit":false,"distance":2334},{"station_name":"Rawa Buaya","line":5,"station_id":"RW","is_transit":false,"transit":false,"distance":1152,"i_long":106.723064,"time":4,"i_lat":-6.162758},{"is_transit":false,"i_lat":-6.166068,"station_id":"KDS","time":3,"transit":false,"station_name":"Kalideres","distance":2504,"i_long":106.701612,"line":5},{"line":5,"distance":2548,"station_name":"Poris","station_id":"PI","i_lat":-6.169933,"transit":false,"time":3,"i_long":106.679458,"is_transit":false},{"i_long":106.665036,"i_lat":-6.171811,"distance":1834,"time":3,"is_transit":false,"station_id":"BPR","station_name":"Batuceper","line":0,"transit":false},{"time":3,"station_name":"Tanah Tinggi","transit":false,"station_id":"TTI","i_long":106.64657,"distance":2028,"line":5,"i_lat":-6.17331,"is_transit":false}]]}