{"data":[[{"is_transit":true,"distance":0,"transit":false,"station_name":"Bogor","i_lat":-6.594596,"station_id":"BOO","time":0,"i_long":106.790574,"line":1},{"time":9,"line":0,"i_lat":-6.530544,"is_transit":false,"distance":7514,"station_id":"CLT","transit":false,"i_long":106.800016,"station_name":"Cilebut"},{"transit":false,"distance":4331,"i_lat":-6.493243,"station_id":"BJD","time":5,"station_name":"Bojonggede","line":0,"i_long":106.792719,"is_transit":false},{"line":1,"distance":5197,"is_transit":true,"time":5,"i_lat":-6.448811,"i_long":106.800298,"station_id":"CTA","transit":false,"station_name":"Citayam"},{"line":0,"transit":false,"station_id":"DP","is_transit":false,"i_lat":-6.405256,"time":6,"i_long":106.816926,"distance":5084,"station_name":"Depok"},{"line":0,"station_name":"Depokbaru","transit":false,"station_id":"DPB","i_long":106.819451,"i_lat":-6.391065,"time":3,"distance":1584,"is_transit":false},{"station_id":"POC","i_lat":-6.369073,"time":4,"station_name":"Pondok Cina","transit":false,"is_transit":false,"line":2,"distance":2727,"i_long":106.831114},{"i_long":106.831474,"station_name":"Univ. Indonesia","distance":1109,"is_transit":false,"i_lat":-6.360749,"transit":false,"time":2,"line":2,"station_id":"UI"},{"line":2,"i_lat":-6.339291,"i_long":106.834175,"is_transit":false,"time":3,"transit":false,"station_id":"UP","station_name":"Univ. Pancasila","distance":2264},{"station_id":"LNA","i_long":106.832616,"distance":1029,"time":2,"is_transit":false,"station_name":"Lenteng Agung","transit":false,"i_lat":-6.330363,"line":2},{"line":2,"station_name":"Tanjung Barat","is_transit":false,"time":3,"distance":2671,"i_lat":-6.3080680000000005,"transit":false,"station_id":"TNT","i_long":106.838896},{"time":4,"is_transit":false,"i_lat":-6.2842400000000005,"i_long":106.843999,"station_name":"Pasar Minggu","line":2,"transit":false,"station_id":"PSM","distance":2820},{"time":2,"station_id":"PSMB","i_long":106.851577,"is_transit":false,"line":2,"distance":2380,"i_lat":-6.263214,"station_name":"Pasar Minggu Baru","transit":false},{"is_transit":false,"time":2,"station_id":"DRN","station_name":"Duren Kalibata","transit":false,"i_long":106.85449,"i_lat":-6.255332,"distance":824,"line":0},{"station_id":"CW","transit":false,"i_long":106.856607,"line":0,"is_transit":false,"station_name":"Cawang","i_lat":-6.242512,"distance":1546,"time":3},{"distance":1230,"i_long":106.857948,"i_lat":-6.226659,"is_transit":false,"line":2,"station_id":"TEB","transit":false,"station_name":"Tebet","time":2},{"transit":true,"distance":2610,"time":4,"i_long":106.84912,"station_id":"MRI","i_lat":-6.209883,"is_transit":true,"line":0,"station_name":"Manggarai"},{"time":4,"i_lat":-6.202263,"i_long":106.822649,"station_name":"Sudirman","distance":3186,"station_id":"SUD","transit":false,"line":1,"is_transit":false},{"time":1,"station_id":"SUDB","line":1,"station_name":"Sudirman Baru","transit":false,"i_long":106.819881,"distance":280,"is_transit":false,"i_lat":-6.201433},{"station_name":"Karet","i_long":106.816351,"i_lat":-6.20132,"transit":false,"distance":471,"is_transit":false,"station_id":"KAT","line":1,"time":1},{"is_transit":true,"station_id":"THB","station_name":"Tanah Abang","line":1,"time":5,"distance":2029,"i_lat":-6.185545,"transit":false,"i_long":106.811091},{"line":1,"transit":false,"i_lat":-6.155215,"station_name":"Duri","i_long":106.800832,"time":8,"distance":3632,"is_transit":true,"station_id":"DU"}],[{"i_lat":-6.594596,"station_name":"Bogor","station_id":"BOO","is_transit":true,"i_long":106.790574,"line":1,"transit":false,"distance":0,"time":0},{"time":9,"distance":7514,"is_transit":false,"transit":false,"i_long":106.800016,"line":0,"station_name":"Cilebut","station_id":"CLT","i_lat":-6.530544},{"station_name":"Bojonggede","i_long":106.792719,"distance":4331,"line":0,"station_id":"BJD","i_lat":-6.493243,"transit":false,"time":5,"is_transit":false},{"time":5,"transit":false,"is_transit":true,"station_id":"CTA","station_name":"Citayam","line":1,"i_lat":-6.448811,"i_long":106.800298,"distance":5197},{"station_id":"DP","is_transit":false,"distance":5084,"time":6,"i_lat":-6.405256,"transit":false,"line":0,"i_long":106.816926,"station_name":"Depok"},{"i_lat":-6.391065,"line":0,"i_long":106.819451,"is_transit":false,"distance":1584,"transit":false,"time":3,"station_name":"Depokbaru","station_id":"DPB"},{"station_id":"POC","i_lat":-6.369073,"i_long":106.831114,"distance":2727,"is_transit":false,"line":2,"time":4,"transit":false,"station_name":"Pondok Cina"},{"i_long":106.831474,"time":2,"station_name":"Univ. Indonesia","station_id":"UI","is_transit":false,"i_lat":-6.360749,"line":2,"distance":1109,"transit":false},{"time":3,"line":2,"i_lat":-6.339291,"station_name":"Univ. Pancasila","is_transit":false,"distance":2264,"transit":false,"station_id":"UP","i_long":106.834175},{"time":2,"is_transit":false,"transit":false,"i_lat":-6.330363,"i_long":106.832616,"station_id":"LNA","station_name":"Lenteng Agung","line":2,"distance":1029},{"station_name":"Tanjung Barat","i_long":106.838896,"transit":false,"line":2,"is_transit":false,"distance":2671,"time":3,"station_id":"TNT","i_lat":-6.3080680000000005},{"station_id":"PSM","i_long":106.843999,"time":4,"transit":false,"station_name":"Pasar Minggu","is_transit":false,"distance":2820,"line":2,"i_lat":-6.2842400000000005},{"i_lat":-6.263214,"station_id":"PSMB","station_name":"Pasar Minggu Baru","is_transit":false,"transit":false,"i_long":106.851577,"line":2,"distance":2380,"time":2},{"station_id":"DRN","station_name":"Duren Kalibata","transit":false,"distance":824,"i_lat":-6.255332,"line":0,"is_transit":false,"i_long":106.85449,"time":2},{"station_name":"Cawang","i_long":106.856607,"time":3,"is_transit":false,"line":0,"transit":false,"station_id":"CW","i_lat":-6.242512,"distance":1546},{"transit":false,"station_name":"Tebet","station_id":"TEB","is_transit":false,"i_long":106.857948,"line":2,"time":2,"i_lat":-6.226659,"distance":1230},{"transit":true,"station_name":"Manggarai","time":4,"i_long":106.84912,"line":0,"i_lat":-6.209883,"is_transit":true,"station_id":"MRI","distance":2610},{"i_long":106.840169,"line":0,"i_lat":-6.198556,"is_transit":false,"time":4,"station_id":"CKI","distance":1590,"station_name":"Cikini","transit":false},{"i_lat":-6.186295,"line":2,"station_name":"Gondangdia","transit":false,"distance":1750,"is_transit":false,"station_id":"GDD","i_long":106.832183,"time":3},{"is_transit":false,"transit":false,"i_long":106.828284,"line":2,"time":4,"station_name":"Juanda","station_id":"JUA","i_lat":-6.166716,"distance":2015},{"station_name":"Sawah Besar","transit":false,"station_id":"SW","distance":1149,"i_long":106.827103,"line":2,"i_lat":-6.160725,"time":2,"is_transit":false},{"station_name":"Manggabesar","transit":false,"i_long":106.82482,"distance":906,"station_id":"MGB","is_transit":false,"line":2,"time":2,"i_lat":-6.149769},{"is_transit":false,"i_lat":-6.141205,"station_name":"Jayakarta","line":7,"time":2,"station_id":"JAY","i_long":106.820901,"transit":false,"distance":1080},{"i_long":106.812439,"transit":true,"line":0,"distance":1264,"station_id":"JAKK","i_lat":-6.137569,"is_transit":true,"station_name":"Jakarta Kota","time":4},{"station_id":"KPB","transit":false,"line":0,"station_name":"Kampung Bandan","time":3,"distance":1364,"i_long":106.826365,"is_transit":true,"i_lat":-6.132549},{"line":0,"transit":false,"distance":4102,"i_long":106.79867,"is_transit":false,"station_id":"AK","station_name":"Angke","i_lat":-6.144674,"time":9},{"distance":1230,"station_id":"DU","i_lat":-6.155215,"time":4,"station_name":"Duri","line":1,"transit":false,"is_transit":true,"i_long":106.800832}],[{"line":1,"station_id":"BOO","i_lat":-6.594596,"time":0,"i_long":106.790574,"is_transit":true,"transit":false,"station_name":"Bogor","distance":0},{"is_transit":false,"i_lat":-6.530544,"distance":7514,"station_id":"CLT","i_long":106.800016,"station_name":"Cilebut","transit":false,"line":0,"time":9},{"is_transit":false,"time":5,"transit":false,"line":0,"station_name":"Bojonggede","station_id":"BJD","i_long":106.792719,"distance":4331,"i_lat":-6.493243},{"i_long":106.800298,"i_lat":-6.448811,"line":1,"station_id":"CTA","station_name":"Citayam","transit":false,"is_transit":true,"distance":5197,"time":5},{"distance":5084,"is_transit":false,"i_long":106.816926,"transit":false,"station_name":"Depok","station_id":"DP","i_lat":-6.405256,"line":0,"time":6},{"distance":1584,"is_transit":false,"station_id":"DPB","station_name":"Depokbaru","i_lat":-6.391065,"time":3,"transit":false,"i_long":106.819451,"line":0},{"distance":2727,"time":4,"i_lat":-6.369073,"station_id":"POC","line":2,"transit":false,"station_name":"Pondok Cina","is_transit":false,"i_long":106.831114},{"i_long":106.831474,"distance":1109,"line":2,"transit":false,"is_transit":false,"station_id":"UI","station_name":"Univ. Indonesia","time":2,"i_lat":-6.360749},{"transit":false,"distance":2264,"station_id":"UP","line":2,"time":3,"is_transit":false,"i_long":106.834175,"station_name":"Univ. Pancasila","i_lat":-6.339291},{"time":2,"station_name":"Lenteng Agung","i_lat":-6.330363,"i_long":106.832616,"line":2,"station_id":"LNA","is_transit":false,"transit":false,"distance":1029},{"station_id":"TNT","line":2,"time":3,"transit":false,"i_long":106.838896,"i_lat":-6.3080680000000005,"station_name":"Tanjung Barat","distance":2671,"is_transit":false},{"distance":2820,"transit":false,"is_transit":false,"station_id":"PSM","i_lat":-6.2842400000000005,"time":4,"line":2,"i_long":106.843999,"station_name":"Pasar Minggu"},{"distance":2380,"station_name":"Pasar Minggu Baru","is_transit":false,"transit":false,"station_id":"PSMB","i_long":106.851577,"i_lat":-6.263214,"time":2,"line":2},{"i_long":106.85449,"transit":false,"station_name":"Duren Kalibata","i_lat":-6.255332,"time":2,"line":0,"is_transit":false,"distance":824,"station_id":"DRN"},{"i_lat":-6.242512,"line":0,"distance":1546,"time":3,"is_transit":false,"station_id":"CW","transit":false,"i_long":106.856607,"station_name":"Cawang"},{"station_id":"TEB","time":2,"i_long":106.857948,"transit":false,"i_lat":-6.226659,"line":2,"station_name":"Tebet","distance":1230,"is_transit":false},{"distance":2610,"is_transit":true,"station_id":"MRI","station_name":"Manggarai","line":0,"time":4,"i_long":106.84912,"transit":true,"i_lat":-6.209883},{"station_name":"Matraman","i_long":106.858896,"time":2,"distance":1275,"transit":false,"is_transit":false,"i_lat":-6.212485,"station_id":"MTR","line":1},{"station_id":"JNG","time":8,"distance":1377,"transit":true,"i_lat":-6.215091,"line":0,"station_name":"Jatinegara","is_transit":true,"i_long":106.86807400000001},{"station_name":"Pondok Jati","line":11,"transit":false,"i_long":106.861737,"distance":1236,"time":2,"is_transit":false,"i_lat":-6.209188,"station_id":"POK"},{"distance":1829,"i_lat":-6.193792,"time":2,"transit":false,"station_id":"KMT","i_long":106.855437,"station_name":"Kramat","is_transit":false,"line":11},{"transit":false,"time":1,"i_lat":-6.185975,"distance":973,"station_name":"Gang Sentiong","i_long":106.850107,"line":11,"station_id":"GST","is_transit":false},{"line":11,"time":8,"is_transit":false,"station_name":"Pasar Senen","i_long":106.84368,"distance":1567,"transit":false,"station_id":"PSE","i_lat":-6.174784},{"distance":1436,"station_id":"KMO","line":11,"transit":false,"time":4,"station_name":"Kemayoran","is_transit":false,"i_long":106.839204,"i_lat":-6.161728},{"distance":1901,"is_transit":false,"i_lat":-6.14505,"transit":false,"i_long":106.836569,"time":5,"station_name":"Rajawali","line":11,"station_id":"RJW"},{"station_id":"KPB","i_long":106.826365,"line":0,"distance":1444,"transit":true,"i_lat":-6.132549,"time":3,"is_transit":true,"station_name":"Kampung Bandan"},{"transit":false,"station_name":"Angke","i_long":106.79867,"distance":4102,"station_id":"AK","line":0,"i_lat":-6.144674,"time":9,"is_transit":false},{"transit":false,"distance":1230,"station_id":"DU","i_long":106.800832,"station_name":"Duri","i_lat":-6.155215,"line":1,"is_transit":true,"time":4}]]}