{"data":[[{"station_name":"Bogor","transit":false,"station_id":"BOO","i_lat":-6.594596,"line":1,"is_transit":true,"time":0,"i_long":106.790574,"distance":0},{"i_lat":-6.530544,"is_transit":false,"distance":7514,"line":0,"transit":false,"time":9,"station_id":"CLT","station_name":"Cilebut","i_long":106.800016},{"i_long":106.792719,"is_transit":false,"station_id":"BJD","line":0,"i_lat":-6.493243,"distance":4331,"station_name":"Bojonggede","time":5,"transit":false},{"transit":false,"time":5,"i_long":106.800298,"is_transit":true,"i_lat":-6.448811,"line":1,"distance":5197,"station_id":"CTA","station_name":"Citayam"},{"station_name":"Depok","station_id":"DP","is_transit":false,"transit":false,"i_lat":-6.405256,"line":0,"i_long":106.816926,"distance":5084,"time":6},{"distance":1584,"line":0,"is_transit":false,"time":3,"station_id":"DPB","i_lat":-6.391065,"station_name":"Depokbaru","i_long":106.819451,"transit":false},{"distance":2727,"time":4,"station_name":"Pondok Cina","transit":false,"line":2,"i_lat":-6.369073,"is_transit":false,"station_id":"POC","i_long":106.831114},{"distance":1109,"station_id":"UI","is_transit":false,"transit":false,"i_lat":-6.360749,"line":2,"station_name":"Univ. Indonesia","time":2,"i_long":106.831474},{"is_transit":false,"i_long":106.834175,"time":3,"station_name":"Univ. Pancasila","station_id":"UP","distance":2264,"i_lat":-6.339291,"transit":false,"line":2},{"i_long":106.832616,"is_transit":false,"station_name":"Lenteng Agung","station_id":"LNA","line":2,"distance":1029,"transit":false,"time":2,"i_lat":-6.330363},{"is_transit":false,"distance":2671,"time":3,"i_long":106.838896,"i_lat":-6.3080680000000005,"transit":false,"line":2,"station_name":"Tanjung Barat","station_id":"TNT"},{"station_name":"Pasar Minggu","line":2,"is_transit":false,"transit":false,"i_long":106.843999,"time":4,"distance":2820,"i_lat":-6.2842400000000005,"station_id":"PSM"},{"station_id":"PSMB","i_long":106.851577,"i_lat":-6.263214,"distance":2380,"time":2,"station_name":"Pasar Minggu Baru","is_transit":false,"line":2,"transit":false},{"i_long":106.85449,"line":0,"distance":824,"time":2,"is_transit":false,"station_name":"Duren Kalibata","station_id":"DRN","transit":false,"i_lat":-6.255332},{"time":3,"station_id":"CW","is_transit":false,"i_lat":-6.242512,"distance":1546,"i_long":106.856607,"line":0,"transit":false,"station_name":"Cawang"},{"station_name":"Tebet","is_transit":false,"station_id":"TEB","i_long":106.857948,"distance":1230,"i_lat":-6.226659,"transit":false,"time":2,"line":2},{"station_name":"Manggarai","is_transit":true,"line":0,"distance":2610,"time":4,"i_lat":-6.209883,"transit":true,"i_long":106.84912,"station_id":"MRI"},{"is_transit":false,"time":4,"transit":false,"distance":3186,"station_id":"SUD","line":1,"i_long":106.822649,"station_name":"Sudirman","i_lat":-6.202263},{"is_transit":false,"time":1,"station_name":"Sudirman Baru","transit":false,"i_long":106.819881,"line":1,"station_id":"SUDB","i_lat":-6.201433,"distance":280},{"time":1,"station_name":"Karet","line":1,"transit":false,"distance":471,"is_transit":false,"i_lat":-6.20132,"i_long":106.816351,"station_id":"KAT"},{"i_lat":-6.185545,"i_long":106.811091,"transit":false,"station_id":"THB","is_transit":true,"station_name":"Tanah Abang","time":5,"distance":2029,"line":1},{"i_long":106.800832,"is_transit":true,"i_lat":-6.155215,"transit":true,"line":1,"distance":3632,"station_name":"Duri","time":8,"station_id":"DU"},{"is_transit":false,"line":5,"distance":1700,"station_id":"GGL","i_long":106.788277,"station_name":"Grogol","i_lat":-6.162021,"time":3,"transit":false},{"station_id":"PSG","line":5,"distance":2036,"time":2,"i_lat":-6.161433,"station_name":"Pesing","i_long":106.771379,"is_transit":false,"transit":false},{"station_name":"Taman Kota","time":2,"transit":false,"i_lat":-6.1587309999999995,"i_long":106.756522,"is_transit":false,"line":5,"distance":1614,"station_id":"TKO"}],[{"station_name":"Bogor","i_long":106.790574,"time":0,"station_id":"BOO","i_lat":-6.594596,"is_transit":true,"line":1,"transit":false,"distance":0},{"time":9,"transit":false,"line":0,"is_transit":false,"station_id":"CLT","i_lat":-6.530544,"i_long":106.800016,"distance":7514,"station_name":"Cilebut"},{"station_name":"Bojonggede","station_id":"BJD","distance":4331,"i_lat":-6.493243,"i_long":106.792719,"is_transit":false,"transit":false,"time":5,"line":0},{"i_long":106.800298,"transit":false,"is_transit":true,"line":1,"station_id":"CTA","distance":5197,"i_lat":-6.448811,"station_name":"Citayam","time":5},{"time":6,"transit":false,"i_long":106.816926,"is_transit":false,"station_name":"Depok","i_lat":-6.405256,"line":0,"distance":5084,"station_id":"DP"},{"station_id":"DPB","line":0,"station_name":"Depokbaru","is_transit":false,"distance":1584,"i_lat":-6.391065,"i_long":106.819451,"time":3,"transit":false},{"i_lat":-6.369073,"line":2,"time":4,"distance":2727,"i_long":106.831114,"is_transit":false,"station_name":"Pondok Cina","transit":false,"station_id":"POC"},{"time":2,"distance":1109,"i_long":106.831474,"transit":false,"i_lat":-6.360749,"line":2,"is_transit":false,"station_name":"Univ. Indonesia","station_id":"UI"},{"i_long":106.834175,"line":2,"time":3,"is_transit":false,"transit":false,"station_name":"Univ. Pancasila","distance":2264,"station_id":"UP","i_lat":-6.339291},{"station_id":"LNA","distance":1029,"station_name":"Lenteng Agung","transit":false,"time":2,"line":2,"is_transit":false,"i_lat":-6.330363,"i_long":106.832616},{"station_name":"Tanjung Barat","time":3,"transit":false,"i_lat":-6.3080680000000005,"line":2,"station_id":"TNT","is_transit":false,"i_long":106.838896,"distance":2671},{"distance":2820,"i_long":106.843999,"is_transit":false,"time":4,"station_name":"Pasar Minggu","transit":false,"i_lat":-6.2842400000000005,"line":2,"station_id":"PSM"},{"line":2,"station_id":"PSMB","time":2,"transit":false,"distance":2380,"is_transit":false,"station_name":"Pasar Minggu Baru","i_lat":-6.263214,"i_long":106.851577},{"line":0,"time":2,"i_long":106.85449,"station_name":"Duren Kalibata","is_transit":false,"transit":false,"i_lat":-6.255332,"distance":824,"station_id":"DRN"},{"i_long":106.856607,"time":3,"station_id":"CW","transit":false,"line":0,"is_transit":false,"distance":1546,"i_lat":-6.242512,"station_name":"Cawang"},{"time":2,"is_transit":false,"i_lat":-6.226659,"station_name":"Tebet","i_long":106.857948,"transit":false,"station_id":"TEB","distance":1230,"line":2},{"distance":2610,"station_name":"Manggarai","transit":true,"station_id":"MRI","line":0,"i_lat":-6.209883,"time":4,"i_long":106.84912,"is_transit":true},{"i_lat":-6.198556,"is_transit":false,"distance":1590,"station_name":"Cikini","line":0,"station_id":"CKI","i_long":106.840169,"time":4,"transit":false},{"time":3,"transit":false,"i_lat":-6.186295,"station_name":"Gondangdia","station_id":"GDD","i_long":106.832183,"is_transit":false,"line":2,"distance":1750},{"station_name":"Juanda","time":4,"is_transit":false,"distance":2015,"transit":false,"station_id":"JUA","i_long":106.828284,"line":2,"i_lat":-6.166716},{"is_transit":false,"station_name":"Sawah Besar","station_id":"SW","i_long":106.827103,"line":2,"distance":1149,"time":2,"transit":false,"i_lat":-6.160725},{"i_long":106.82482,"i_lat":-6.149769,"station_name":"Manggabesar","distance":906,"time":2,"transit":false,"station_id":"MGB","line":2,"is_transit":false},{"distance":1080,"time":2,"station_name":"Jayakarta","transit":false,"is_transit":false,"station_id":"JAY","i_long":106.820901,"line":7,"i_lat":-6.141205},{"i_long":106.812439,"distance":1264,"line":0,"is_transit":true,"transit":true,"station_id":"JAKK","time":4,"i_lat":-6.137569,"station_name":"Jakarta Kota"},{"station_id":"KPB","i_long":106.826365,"is_transit":true,"line":0,"transit":false,"station_name":"Kampung Bandan","distance":1364,"time":3,"i_lat":-6.132549},{"i_long":106.79867,"is_transit":false,"i_lat":-6.144674,"station_id":"AK","distance":4102,"transit":false,"line":0,"station_name":"Angke","time":9},{"station_id":"DU","i_long":106.800832,"transit":true,"i_lat":-6.155215,"line":1,"distance":1230,"is_transit":true,"time":4,"station_name":"Duri"},{"distance":1700,"i_lat":-6.162021,"line":5,"time":3,"i_long":106.788277,"station_name":"Grogol","transit":false,"station_id":"GGL","is_transit":false},{"transit":false,"is_transit":false,"line":5,"i_long":106.771379,"station_name":"Pesing","time":2,"station_id":"PSG","distance":2036,"i_lat":-6.161433},{"i_lat":-6.1587309999999995,"distance":1614,"time":2,"i_long":106.756522,"station_name":"Taman Kota","line":5,"transit":false,"station_id":"TKO","is_transit":false}],[{"i_lat":-6.594596,"station_name":"Bogor","distance":0,"i_long":106.790574,"time":0,"station_id":"BOO","line":1,"transit":false,"is_transit":true},{"line":0,"i_long":106.800016,"station_id":"CLT","time":9,"distance":7514,"i_lat":-6.530544,"station_name":"Cilebut","transit":false,"is_transit":false},{"i_lat":-6.493243,"line":0,"station_name":"Bojonggede","transit":false,"i_long":106.792719,"time":5,"is_transit":false,"distance":4331,"station_id":"BJD"},{"line":1,"i_lat":-6.448811,"transit":false,"distance":5197,"station_name":"Citayam","is_transit":true,"station_id":"CTA","time":5,"i_long":106.800298},{"station_id":"DP","time":6,"transit":false,"is_transit":false,"i_lat":-6.405256,"i_long":106.816926,"line":0,"station_name":"Depok","distance":5084},{"time":3,"is_transit":false,"distance":1584,"i_long":106.819451,"line":0,"i_lat":-6.391065,"transit":false,"station_name":"Depokbaru","station_id":"DPB"},{"is_transit":false,"distance":2727,"transit":false,"station_name":"Pondok Cina","station_id":"POC","i_long":106.831114,"i_lat":-6.369073,"time":4,"line":2},{"distance":1109,"time":2,"station_id":"UI","i_lat":-6.360749,"station_name":"Univ. Indonesia","line":2,"is_transit":false,"transit":false,"i_long":106.831474},{"i_long":106.834175,"is_transit":false,"line":2,"transit":false,"distance":2264,"station_name":"Univ. Pancasila","time":3,"station_id":"UP","i_lat":-6.339291},{"i_lat":-6.330363,"time":2,"i_long":106.832616,"line":2,"is_transit":false,"distance":1029,"station_id":"LNA","station_name":"Lenteng Agung","transit":false},{"station_name":"Tanjung Barat","time":3,"line":2,"distance":2671,"station_id":"TNT","i_lat":-6.3080680000000005,"is_transit":false,"i_long":106.838896,"transit":false},{"is_transit":false,"i_long":106.843999,"transit":false,"distance":2820,"station_id":"PSM","i_lat":-6.2842400000000005,"line":2,"station_name":"Pasar Minggu","time":4},{"i_long":106.851577,"distance":2380,"i_lat":-6.263214,"station_id":"PSMB","line":2,"time":2,"transit":false,"is_transit":false,"station_name":"Pasar Minggu Baru"},{"distance":824,"station_name":"Duren Kalibata","i_long":106.85449,"is_transit":false,"i_lat":-6.255332,"line":0,"station_id":"DRN","transit":false,"time":2},{"line":0,"time":3,"i_long":106.856607,"is_transit":false,"station_name":"Cawang","station_id":"CW","distance":1546,"i_lat":-6.242512,"transit":false},{"i_lat":-6.226659,"distance":1230,"line":2,"station_name":"Tebet","is_transit":false,"transit":false,"station_id":"TEB","i_long":106.857948,"time":2},{"station_name":"Manggarai","distance":2610,"is_transit":true,"line":0,"time":4,"i_lat":-6.209883,"transit":true,"station_id":"MRI","i_long":106.84912},{"time":2,"station_id":"MTR","i_lat":-6.212485,"transit":false,"is_transit":false,"distance":1275,"i_long":106.858896,"line":1,"station_name":"Matraman"},{"station_id":"JNG","distance":1377,"time":8,"transit":true,"i_lat":-6.215091,"station_name":"Jatinegara","i_long":106.86807400000001,"line":0,"is_transit":true},{"i_long":106.861737,"line":11,"distance":1236,"i_lat":-6.209188,"station_name":"Pondok Jati","station_id":"POK","is_transit":false,"time":2,"transit":false},{"is_transit":false,"transit":false,"distance":1829,"station_name":"Kramat","i_lat":-6.193792,"station_id":"KMT","line":11,"i_long":106.855437,"time":2},{"time":1,"i_lat":-6.185975,"i_long":106.850107,"is_transit":false,"line":11,"station_id":"GST","distance":973,"transit":false,"station_name":"Gang Sentiong"},{"station_id":"PSE","time":8,"i_lat":-6.174784,"station_name":"Pasar Senen","is_transit":false,"distance":1567,"i_long":106.84368,"line":11,"transit":false},{"is_transit":false,"i_lat":-6.161728,"transit":false,"time":4,"station_id":"KMO","station_name":"Kemayoran","distance":1436,"line":11,"i_long":106.839204},{"station_id":"RJW","distance":1901,"station_name":"Rajawali","is_transit":false,"transit":false,"time":5,"i_lat":-6.14505,"i_long":106.836569,"line":11},{"line":0,"time":3,"distance":1444,"station_name":"Kampung Bandan","i_lat":-6.132549,"transit":true,"is_transit":true,"i_long":106.826365,"station_id":"KPB"},{"distance":4102,"is_transit":false,"transit":false,"i_lat":-6.144674,"time":9,"station_name":"Angke","station_id":"AK","line":0,"i_long":106.79867},{"station_name":"Duri","time":4,"i_lat":-6.155215,"distance":1230,"station_id":"DU","i_long":106.800832,"line":1,"transit":true,"is_transit":true},{"transit":false,"station_id":"GGL","line":5,"is_transit":false,"time":3,"distance":1700,"i_long":106.788277,"i_lat":-6.162021,"station_name":"Grogol"},{"transit":false,"distance":2036,"station_name":"Pesing","i_lat":-6.161433,"i_long":106.771379,"is_transit":false,"time":2,"station_id":"PSG","line":5},{"time":2,"distance":1614,"station_name":"Taman Kota","transit":false,"station_id":"TKO","is_transit":false,"i_lat":-6.1587309999999995,"i_long":106.756522,"line":5}]]}