{"data":[[{"line":2,"is_transit":false,"time":0,"i_long":106.790574,"transit":false,"distance":0,"station_id":"BOO","station_name":"Bogor","i_lat":-6.594596},{"station_name":"Cilebut","i_lat":-6.530544,"distance":7514,"i_long":106.800016,"transit":false,"line":2,"is_transit":false,"station_id":"CLT","time":9},{"i_lat":-6.493243,"i_long":106.792719,"line":2,"station_name":"Bojonggede","station_id":"BJD","distance":4331,"is_transit":false,"transit":false,"time":5},{"time":5,"i_lat":-6.448811,"station_name":"Citayam","i_long":106.800298,"is_transit":false,"distance":5197,"line":2,"station_id":"CTA","transit":false},{"distance":5084,"line":2,"i_lat":-6.405256,"transit":false,"station_name":"Depok","is_transit":false,"i_long":106.816926,"station_id":"DP","time":6},{"is_transit":false,"i_lat":-6.391065,"i_long":106.819451,"transit":false,"station_name":"Depokbaru","distance":1584,"line":2,"time":3,"station_id":"DPB"},{"i_lat":-6.369073,"line":2,"distance":2727,"transit":false,"station_name":"Pondok Cina","i_long":106.831114,"station_id":"POC","is_transit":false,"time":4},{"time":2,"transit":false,"station_id":"UI","i_long":106.831474,"distance":1109,"is_transit":false,"i_lat":-6.360749,"station_name":"Univ. Indonesia","line":2},{"transit":false,"line":2,"i_lat":-6.339291,"station_name":"Univ. Pancasila","is_transit":false,"station_id":"UP","time":3,"distance":2264,"i_long":106.834175},{"transit":false,"is_transit":false,"i_lat":-6.330363,"time":2,"distance":1029,"i_long":106.832616,"line":2,"station_name":"Lenteng Agung","station_id":"LNA"},{"station_id":"TNT","time":3,"is_transit":false,"line":2,"station_name":"Tanjung Barat","distance":2671,"i_lat":-6.3080680000000005,"transit":false,"i_long":106.838896},{"is_transit":false,"i_long":106.843999,"station_name":"Pasar Minggu","transit":false,"line":2,"time":4,"i_lat":-6.2842400000000005,"distance":2820,"station_id":"PSM"},{"time":2,"i_long":106.851577,"station_id":"PSMB","station_name":"Pasar Minggu Baru","distance":2380,"i_lat":-6.263214,"line":2,"is_transit":false,"transit":false},{"is_transit":false,"transit":false,"station_name":"Duren Kalibata","time":2,"distance":824,"i_lat":-6.255332,"i_long":106.85449,"line":2,"station_id":"DRN"},{"i_long":106.856607,"distance":1546,"i_lat":-6.242512,"station_id":"CW","transit":false,"is_transit":false,"time":3,"station_name":"Cawang","line":2},{"i_lat":-6.226659,"line":2,"station_id":"TEB","transit":false,"is_transit":false,"i_long":106.857948,"time":2,"station_name":"Tebet","distance":1230},{"transit":true,"station_id":"MRI","distance":2610,"is_transit":true,"i_long":106.84912,"i_lat":-6.209883,"time":4,"line":2,"station_name":"Manggarai"},{"distance":3186,"is_transit":false,"transit":false,"station_id":"SUD","time":4,"i_lat":-6.202263,"i_long":106.822649,"line":1,"station_name":"Sudirman"},{"i_long":106.819881,"line":1,"i_lat":-6.201433,"station_name":"Sudirman Baru","transit":false,"station_id":"SUDB","time":1,"is_transit":false,"distance":280},{"i_long":106.816351,"station_name":"Karet","transit":false,"distance":471,"i_lat":-6.20132,"is_transit":false,"line":1,"station_id":"KAT","time":1},{"i_lat":-6.185545,"transit":false,"station_id":"THB","line":1,"i_long":106.811091,"station_name":"Tanah Abang","distance":2029,"time":5,"is_transit":false},{"is_transit":true,"distance":3632,"i_lat":-6.155215,"i_long":106.800832,"station_name":"Duri","time":8,"transit":true,"station_id":"DU","line":1},{"time":3,"i_lat":-6.162021,"distance":1700,"line":5,"transit":false,"i_long":106.788277,"station_name":"Grogol","station_id":"GGL","is_transit":false},{"transit":false,"time":2,"i_long":106.771379,"station_id":"PSG","i_lat":-6.161433,"distance":2036,"line":5,"station_name":"Pesing","is_transit":false},{"time":2,"station_id":"TKO","transit":false,"is_transit":false,"i_lat":-6.1587309999999995,"line":5,"station_name":"Taman Kota","distance":1614,"i_long":106.756522},{"station_name":"Bojongindah","time":2,"transit":false,"is_transit":false,"distance":2334,"i_lat":-6.159876,"i_long":106.737035,"station_id":"BOI","line":5},{"distance":1152,"i_lat":-6.162758,"time":4,"station_id":"RW","station_name":"Rawa Buaya","is_transit":false,"line":5,"i_long":106.723064,"transit":false},{"distance":2504,"station_id":"KDS","station_name":"Kalideres","time":3,"transit":false,"i_lat":-6.166068,"is_transit":false,"i_long":106.701612,"line":5},{"station_id":"PI","line":5,"time":3,"is_transit":false,"transit":false,"distance":2548,"station_name":"Poris","i_lat":-6.169933,"i_long":106.679458},{"station_name":"Batuceper","i_lat":-6.171811,"station_id":"BPR","transit":false,"distance":1834,"line":5,"time":3,"i_long":106.665036,"is_transit":false}],[{"i_long":106.790574,"transit":false,"is_transit":false,"station_name":"Bogor","distance":0,"i_lat":-6.594596,"time":0,"station_id":"BOO","line":2},{"i_lat":-6.530544,"station_id":"CLT","line":2,"station_name":"Cilebut","time":9,"distance":7514,"i_long":106.800016,"is_transit":false,"transit":false},{"is_transit":false,"line":2,"i_long":106.792719,"station_id":"BJD","time":5,"distance":4331,"transit":false,"i_lat":-6.493243,"station_name":"Bojonggede"},{"transit":false,"line":2,"i_lat":-6.448811,"is_transit":false,"i_long":106.800298,"station_name":"Citayam","time":5,"station_id":"CTA","distance":5197},{"station_id":"DP","i_lat":-6.405256,"i_long":106.816926,"is_transit":false,"time":6,"line":2,"station_name":"Depok","distance":5084,"transit":false},{"i_long":106.819451,"time":3,"station_id":"DPB","transit":false,"is_transit":false,"distance":1584,"i_lat":-6.391065,"line":2,"station_name":"Depokbaru"},{"station_name":"Pondok Cina","time":4,"distance":2727,"line":2,"station_id":"POC","i_long":106.831114,"i_lat":-6.369073,"is_transit":false,"transit":false},{"i_lat":-6.360749,"station_name":"Univ. Indonesia","time":2,"i_long":106.831474,"line":2,"transit":false,"distance":1109,"station_id":"UI","is_transit":false},{"transit":false,"i_long":106.834175,"station_name":"Univ. Pancasila","distance":2264,"line":2,"i_lat":-6.339291,"time":3,"is_transit":false,"station_id":"UP"},{"line":2,"time":2,"i_lat":-6.330363,"station_name":"Lenteng Agung","transit":false,"i_long":106.832616,"station_id":"LNA","is_transit":false,"distance":1029},{"distance":2671,"i_long":106.838896,"transit":false,"i_lat":-6.3080680000000005,"time":3,"line":2,"station_name":"Tanjung Barat","station_id":"TNT","is_transit":false},{"station_name":"Pasar Minggu","i_long":106.843999,"distance":2820,"time":4,"i_lat":-6.2842400000000005,"line":2,"transit":false,"station_id":"PSM","is_transit":false},{"time":2,"i_lat":-6.263214,"distance":2380,"station_name":"Pasar Minggu Baru","line":2,"i_long":106.851577,"is_transit":false,"station_id":"PSMB","transit":false},{"station_name":"Duren Kalibata","time":2,"line":2,"transit":false,"is_transit":false,"station_id":"DRN","i_lat":-6.255332,"distance":824,"i_long":106.85449},{"station_id":"CW","time":3,"transit":false,"i_long":106.856607,"i_lat":-6.242512,"distance":1546,"station_name":"Cawang","is_transit":false,"line":2},{"is_transit":false,"station_id":"TEB","distance":1230,"i_long":106.857948,"transit":false,"line":2,"i_lat":-6.226659,"time":2,"station_name":"Tebet"},{"line":2,"i_lat":-6.209883,"time":4,"station_name":"Manggarai","station_id":"MRI","is_transit":false,"distance":2610,"i_long":106.84912,"transit":false},{"distance":1590,"station_name":"Cikini","i_long":106.840169,"time":4,"station_id":"CKI","transit":false,"line":2,"i_lat":-6.198556,"is_transit":false},{"is_transit":false,"i_lat":-6.186295,"time":3,"station_id":"GDD","transit":false,"i_long":106.832183,"station_name":"Gondangdia","line":2,"distance":1750},{"distance":2015,"station_name":"Juanda","station_id":"JUA","line":2,"is_transit":false,"i_lat":-6.166716,"i_long":106.828284,"time":4,"transit":false},{"station_id":"SW","i_lat":-6.160725,"is_transit":false,"i_long":106.827103,"transit":false,"distance":1149,"station_name":"Sawah Besar","line":2,"time":2},{"i_long":106.82482,"transit":false,"line":2,"station_id":"MGB","i_lat":-6.149769,"station_name":"Manggabesar","time":2,"distance":906,"is_transit":false},{"i_long":106.820901,"station_name":"Jayakarta","distance":1080,"line":2,"time":2,"i_lat":-6.141205,"is_transit":false,"station_id":"JAY","transit":false},{"station_id":"JAKK","is_transit":true,"line":2,"time":4,"i_long":106.812439,"transit":true,"station_name":"Jakarta Kota","distance":1264,"i_lat":-6.137569},{"transit":true,"time":3,"distance":1364,"i_lat":-6.132549,"station_id":"KPB","i_long":106.826365,"line":4,"station_name":"Kampung Bandan","is_transit":true},{"distance":4102,"i_long":106.79867,"line":1,"time":9,"transit":false,"station_id":"AK","station_name":"Angke","is_transit":false,"i_lat":-6.144674},{"distance":1230,"i_lat":-6.155215,"station_id":"DU","i_long":106.800832,"station_name":"Duri","transit":true,"is_transit":true,"line":1,"time":4},{"distance":1700,"transit":false,"station_id":"GGL","i_long":106.788277,"i_lat":-6.162021,"station_name":"Grogol","line":5,"is_transit":false,"time":3},{"distance":2036,"line":5,"station_name":"Pesing","station_id":"PSG","time":2,"i_long":106.771379,"transit":false,"i_lat":-6.161433,"is_transit":false},{"station_id":"TKO","station_name":"Taman Kota","is_transit":false,"transit":false,"time":2,"distance":1614,"i_lat":-6.1587309999999995,"i_long":106.756522,"line":5},{"time":2,"distance":2334,"line":5,"is_transit":false,"i_lat":-6.159876,"station_id":"BOI","i_long":106.737035,"station_name":"Bojongindah","transit":false},{"station_id":"RW","time":4,"transit":false,"station_name":"Rawa Buaya","is_transit":false,"i_long":106.723064,"distance":1152,"line":5,"i_lat":-6.162758},{"distance":2504,"i_long":106.701612,"transit":false,"station_id":"KDS","station_name":"Kalideres","i_lat":-6.166068,"line":5,"time":3,"is_transit":false},{"station_id":"PI","line":5,"station_name":"Poris","is_transit":false,"distance":2548,"time":3,"i_long":106.679458,"transit":false,"i_lat":-6.169933},{"transit":false,"distance":1834,"line":5,"station_id":"BPR","station_name":"Batuceper","is_transit":false,"i_lat":-6.171811,"time":3,"i_long":106.665036}],[{"is_transit":false,"station_id":"BOO","station_name":"Bogor","time":0,"transit":false,"distance":0,"i_long":106.790574,"line":2,"i_lat":-6.594596},{"station_id":"CLT","line":2,"distance":7514,"station_name":"Cilebut","i_long":106.800016,"transit":false,"is_transit":false,"i_lat":-6.530544,"time":9},{"distance":4331,"i_long":106.792719,"station_name":"Bojonggede","is_transit":false,"i_lat":-6.493243,"transit":false,"time":5,"station_id":"BJD","line":2},{"i_lat":-6.448811,"station_id":"CTA","i_long":106.800298,"time":5,"transit":false,"distance":5197,"line":2,"is_transit":false,"station_name":"Citayam"},{"station_name":"Depok","is_transit":false,"i_lat":-6.405256,"i_long":106.816926,"line":2,"distance":5084,"time":6,"station_id":"DP","transit":false},{"station_id":"DPB","i_long":106.819451,"line":2,"station_name":"Depokbaru","transit":false,"time":3,"is_transit":false,"distance":1584,"i_lat":-6.391065},{"distance":2727,"line":2,"station_name":"Pondok Cina","i_lat":-6.369073,"transit":false,"i_long":106.831114,"is_transit":false,"time":4,"station_id":"POC"},{"time":2,"i_long":106.831474,"station_name":"Univ. Indonesia","distance":1109,"is_transit":false,"station_id":"UI","transit":false,"i_lat":-6.360749,"line":2},{"i_lat":-6.339291,"transit":false,"distance":2264,"line":2,"is_transit":false,"i_long":106.834175,"station_name":"Univ. Pancasila","time":3,"station_id":"UP"},{"line":2,"station_id":"LNA","i_long":106.832616,"transit":false,"is_transit":false,"station_name":"Lenteng Agung","time":2,"distance":1029,"i_lat":-6.330363},{"station_name":"Tanjung Barat","station_id":"TNT","transit":false,"time":3,"i_long":106.838896,"line":2,"is_transit":false,"distance":2671,"i_lat":-6.3080680000000005},{"transit":false,"i_lat":-6.2842400000000005,"i_long":106.843999,"time":4,"is_transit":false,"distance":2820,"station_id":"PSM","line":2,"station_name":"Pasar Minggu"},{"station_name":"Pasar Minggu Baru","station_id":"PSMB","i_lat":-6.263214,"distance":2380,"time":2,"is_transit":false,"line":2,"i_long":106.851577,"transit":false},{"is_transit":false,"station_name":"Duren Kalibata","transit":false,"time":2,"i_long":106.85449,"line":2,"distance":824,"station_id":"DRN","i_lat":-6.255332},{"station_id":"CW","time":3,"line":2,"is_transit":false,"station_name":"Cawang","distance":1546,"i_lat":-6.242512,"i_long":106.856607,"transit":false},{"line":2,"transit":false,"i_lat":-6.226659,"time":2,"i_long":106.857948,"distance":1230,"is_transit":false,"station_id":"TEB","station_name":"Tebet"},{"i_lat":-6.209883,"transit":true,"distance":2610,"line":2,"is_transit":true,"station_id":"MRI","station_name":"Manggarai","time":4,"i_long":106.84912},{"is_transit":false,"i_lat":-6.212485,"station_name":"Matraman","time":2,"distance":1275,"i_long":106.858896,"line":1,"station_id":"MTR","transit":false},{"station_id":"JNG","station_name":"Jatinegara","is_transit":true,"line":1,"i_lat":-6.215091,"transit":true,"time":8,"i_long":106.86807400000001,"distance":1377},{"line":11,"transit":false,"i_lat":-6.209188,"station_id":"POK","is_transit":false,"station_name":"Pondok Jati","distance":1236,"time":2,"i_long":106.861737},{"station_id":"KMT","time":2,"is_transit":false,"distance":1829,"station_name":"Kramat","transit":false,"i_lat":-6.193792,"line":11,"i_long":106.855437},{"distance":973,"i_long":106.850107,"station_name":"Gang Sentiong","i_lat":-6.185975,"transit":false,"line":11,"time":1,"station_id":"GST","is_transit":false},{"i_lat":-6.174784,"time":8,"station_id":"PSE","transit":false,"station_name":"Pasar Senen","line":11,"is_transit":false,"distance":1567,"i_long":106.84368},{"i_long":106.839204,"station_id":"KMO","time":4,"station_name":"Kemayoran","is_transit":false,"distance":1436,"transit":false,"line":11,"i_lat":-6.161728},{"station_name":"Rajawali","i_long":106.836569,"transit":false,"i_lat":-6.14505,"line":11,"time":5,"station_id":"RJW","is_transit":false,"distance":1901},{"station_name":"Kampung Bandan","is_transit":true,"i_long":106.826365,"i_lat":-6.132549,"time":3,"line":4,"station_id":"KPB","transit":true,"distance":1444},{"line":1,"distance":4102,"i_lat":-6.144674,"station_id":"AK","station_name":"Angke","transit":false,"is_transit":false,"i_long":106.79867,"time":9},{"i_lat":-6.155215,"transit":true,"station_id":"DU","is_transit":true,"i_long":106.800832,"line":1,"time":4,"distance":1230,"station_name":"Duri"},{"transit":false,"line":5,"i_lat":-6.162021,"station_id":"GGL","station_name":"Grogol","distance":1700,"is_transit":false,"time":3,"i_long":106.788277},{"i_long":106.771379,"time":2,"station_name":"Pesing","transit":false,"i_lat":-6.161433,"line":5,"station_id":"PSG","distance":2036,"is_transit":false},{"distance":1614,"transit":false,"is_transit":false,"station_id":"TKO","time":2,"i_lat":-6.1587309999999995,"i_long":106.756522,"line":5,"station_name":"Taman Kota"},{"station_name":"Bojongindah","is_transit":false,"line":5,"distance":2334,"i_long":106.737035,"i_lat":-6.159876,"station_id":"BOI","transit":false,"time":2},{"line":5,"distance":1152,"i_lat":-6.162758,"time":4,"station_name":"Rawa Buaya","i_long":106.723064,"is_transit":false,"station_id":"RW","transit":false},{"i_long":106.701612,"distance":2504,"transit":false,"i_lat":-6.166068,"time":3,"station_name":"Kalideres","line":5,"is_transit":false,"station_id":"KDS"},{"station_id":"PI","transit":false,"i_lat":-6.169933,"i_long":106.679458,"station_name":"Poris","line":5,"is_transit":false,"distance":2548,"time":3},{"transit":false,"station_id":"BPR","distance":1834,"is_transit":false,"i_long":106.665036,"line":5,"i_lat":-6.171811,"station_name":"Batuceper","time":3}]]}