{"data":[[{"i_lat":-6.594596,"time":0,"line":2,"is_transit":false,"station_name":"Bogor","transit":false,"station_id":"BOO","distance":0,"i_long":106.790574},{"distance":7514,"transit":false,"i_long":106.800016,"line":2,"time":9,"station_name":"Cilebut","i_lat":-6.530544,"is_transit":false,"station_id":"CLT"},{"station_id":"BJD","is_transit":false,"i_long":106.792719,"station_name":"Bojonggede","transit":false,"i_lat":-6.493243,"time":5,"distance":4331,"line":2},{"i_lat":-6.448811,"i_long":106.800298,"station_name":"Citayam","transit":false,"time":5,"line":2,"station_id":"CTA","is_transit":false,"distance":5197},{"transit":false,"is_transit":false,"i_long":106.816926,"station_id":"DP","i_lat":-6.405256,"time":6,"line":2,"station_name":"Depok","distance":5084},{"is_transit":false,"i_lat":-6.391065,"distance":1584,"i_long":106.819451,"station_name":"Depokbaru","time":3,"station_id":"DPB","transit":false,"line":2},{"i_long":106.831114,"distance":2727,"time":4,"line":2,"station_id":"POC","is_transit":false,"station_name":"Pondok Cina","transit":false,"i_lat":-6.369073},{"transit":false,"station_id":"UI","i_lat":-6.360749,"i_long":106.831474,"distance":1109,"station_name":"Univ. Indonesia","line":2,"time":2,"is_transit":false},{"transit":false,"time":3,"station_name":"Univ. Pancasila","station_id":"UP","i_long":106.834175,"is_transit":false,"line":2,"i_lat":-6.339291,"distance":2264},{"time":2,"i_lat":-6.330363,"distance":1029,"station_name":"Lenteng Agung","is_transit":false,"transit":false,"station_id":"LNA","i_long":106.832616,"line":2},{"line":2,"distance":2671,"station_id":"TNT","transit":false,"station_name":"Tanjung Barat","time":3,"i_lat":-6.3080680000000005,"i_long":106.838896,"is_transit":false},{"time":4,"distance":2820,"station_name":"Pasar Minggu","i_lat":-6.2842400000000005,"station_id":"PSM","transit":false,"line":2,"is_transit":false,"i_long":106.843999},{"station_id":"PSMB","line":2,"distance":2380,"station_name":"Pasar Minggu Baru","time":2,"i_lat":-6.263214,"transit":false,"is_transit":false,"i_long":106.851577},{"line":2,"distance":824,"time":2,"is_transit":false,"station_name":"Duren Kalibata","station_id":"DRN","i_long":106.85449,"transit":false,"i_lat":-6.255332},{"station_id":"CW","transit":false,"is_transit":false,"i_lat":-6.242512,"station_name":"Cawang","time":3,"line":2,"distance":1546,"i_long":106.856607},{"station_id":"TEB","line":2,"time":2,"station_name":"Tebet","i_lat":-6.226659,"is_transit":false,"i_long":106.857948,"transit":false,"distance":1230},{"line":2,"station_name":"Manggarai","station_id":"MRI","i_long":106.84912,"distance":2610,"time":4,"is_transit":true,"i_lat":-6.209883,"transit":true},{"transit":false,"distance":1275,"station_id":"MTR","is_transit":false,"i_lat":-6.212485,"time":2,"line":1,"station_name":"Matraman","i_long":106.858896},{"station_name":"Jatinegara","transit":false,"station_id":"JNG","is_transit":false,"time":8,"i_lat":-6.215091,"distance":1377,"i_long":106.86807400000001,"line":1},{"station_id":"KLD","distance":3395,"is_transit":false,"transit":false,"station_name":"Klender","i_long":106.899548,"line":1,"time":3,"i_lat":-6.2135},{"is_transit":false,"i_long":106.922662,"transit":false,"time":2,"i_lat":-6.215568,"line":1,"distance":3100,"station_name":"Buaran","station_id":"BUA"}],[{"distance":0,"line":2,"transit":false,"i_long":106.790574,"is_transit":false,"time":0,"station_id":"BOO","i_lat":-6.594596,"station_name":"Bogor"},{"transit":false,"line":2,"station_id":"CLT","is_transit":false,"i_long":106.800016,"distance":7514,"station_name":"Cilebut","time":9,"i_lat":-6.530544},{"line":2,"distance":4331,"transit":false,"station_name":"Bojonggede","is_transit":false,"i_lat":-6.493243,"time":5,"station_id":"BJD","i_long":106.792719},{"is_transit":false,"transit":false,"station_name":"Citayam","station_id":"CTA","i_lat":-6.448811,"distance":5197,"time":5,"i_long":106.800298,"line":2},{"is_transit":false,"distance":5084,"i_long":106.816926,"station_name":"Depok","time":6,"station_id":"DP","i_lat":-6.405256,"line":2,"transit":false},{"transit":false,"distance":1584,"i_lat":-6.391065,"station_name":"Depokbaru","station_id":"DPB","line":2,"is_transit":false,"i_long":106.819451,"time":3},{"is_transit":false,"i_lat":-6.369073,"i_long":106.831114,"station_id":"POC","distance":2727,"transit":false,"line":2,"time":4,"station_name":"Pondok Cina"},{"station_name":"Univ. Indonesia","time":2,"transit":false,"is_transit":false,"line":2,"station_id":"UI","distance":1109,"i_lat":-6.360749,"i_long":106.831474},{"is_transit":false,"time":3,"line":2,"transit":false,"station_name":"Univ. Pancasila","i_lat":-6.339291,"distance":2264,"station_id":"UP","i_long":106.834175},{"station_name":"Lenteng Agung","station_id":"LNA","i_long":106.832616,"transit":false,"i_lat":-6.330363,"distance":1029,"line":2,"time":2,"is_transit":false},{"station_name":"Tanjung Barat","time":3,"transit":false,"station_id":"TNT","distance":2671,"i_long":106.838896,"line":2,"is_transit":false,"i_lat":-6.3080680000000005},{"station_name":"Pasar Minggu","line":2,"time":4,"i_long":106.843999,"i_lat":-6.2842400000000005,"transit":false,"station_id":"PSM","is_transit":false,"distance":2820},{"i_long":106.851577,"is_transit":false,"station_name":"Pasar Minggu Baru","time":2,"distance":2380,"line":2,"transit":false,"i_lat":-6.263214,"station_id":"PSMB"},{"i_lat":-6.255332,"distance":824,"time":2,"i_long":106.85449,"station_id":"DRN","station_name":"Duren Kalibata","transit":false,"line":2,"is_transit":false},{"i_lat":-6.242512,"i_long":106.856607,"time":3,"station_name":"Cawang","line":2,"station_id":"CW","transit":false,"distance":1546,"is_transit":false},{"transit":false,"station_name":"Tebet","time":2,"i_lat":-6.226659,"line":2,"station_id":"TEB","distance":1230,"is_transit":false,"i_long":106.857948},{"is_transit":true,"distance":2610,"line":2,"station_name":"Manggarai","station_id":"MRI","i_lat":-6.209883,"time":4,"transit":true,"i_long":106.84912},{"transit":false,"i_lat":-6.202263,"i_long":106.822649,"line":1,"station_name":"Sudirman","station_id":"SUD","time":4,"is_transit":false,"distance":3186},{"station_name":"Sudirman Baru","station_id":"SUDB","time":1,"distance":280,"i_long":106.819881,"line":1,"i_lat":-6.201433,"is_transit":false,"transit":false},{"time":1,"station_id":"KAT","is_transit":false,"distance":471,"transit":false,"line":1,"i_lat":-6.20132,"i_long":106.816351,"station_name":"Karet"},{"distance":2029,"i_lat":-6.185545,"line":1,"station_id":"THB","time":5,"station_name":"Tanah Abang","transit":false,"i_long":106.811091,"is_transit":false},{"i_lat":-6.155215,"station_id":"DU","time":8,"is_transit":false,"transit":false,"station_name":"Duri","distance":3632,"i_long":106.800832,"line":1},{"transit":false,"station_id":"AK","distance":1230,"i_lat":-6.144674,"station_name":"Angke","line":1,"i_long":106.79867,"time":4,"is_transit":false},{"station_name":"Kampung Bandan","station_id":"KPB","is_transit":true,"transit":true,"distance":4102,"i_long":106.826365,"line":4,"time":9,"i_lat":-6.132549},{"station_id":"RJW","is_transit":false,"i_long":106.836569,"station_name":"Rajawali","transit":false,"time":3,"line":11,"distance":1444,"i_lat":-6.14505},{"transit":false,"i_lat":-6.161728,"station_name":"Kemayoran","distance":1901,"i_long":106.839204,"line":11,"is_transit":false,"station_id":"KMO","time":5},{"transit":false,"station_name":"Pasar Senen","is_transit":false,"distance":1436,"i_long":106.84368,"line":11,"i_lat":-6.174784,"station_id":"PSE","time":4},{"i_lat":-6.185975,"station_name":"Gang Sentiong","i_long":106.850107,"transit":false,"station_id":"GST","time":8,"distance":1567,"line":11,"is_transit":false},{"i_long":106.855437,"is_transit":false,"line":11,"station_name":"Kramat","station_id":"KMT","transit":false,"i_lat":-6.193792,"distance":973,"time":1},{"line":11,"transit":false,"distance":1829,"station_name":"Pondok Jati","is_transit":false,"station_id":"POK","i_lat":-6.209188,"time":2,"i_long":106.861737},{"transit":true,"time":9,"is_transit":true,"line":1,"station_id":"JNG","distance":1236,"i_lat":-6.215091,"i_long":106.86807400000001,"station_name":"Jatinegara"},{"station_id":"KLD","transit":false,"distance":3395,"line":1,"i_long":106.899548,"station_name":"Klender","is_transit":false,"time":3,"i_lat":-6.2135},{"station_name":"Buaran","station_id":"BUA","transit":false,"is_transit":false,"i_lat":-6.215568,"distance":3100,"i_long":106.922662,"time":2,"line":1}],[{"transit":false,"station_name":"Bogor","station_id":"BOO","i_lat":-6.594596,"i_long":106.790574,"time":0,"is_transit":false,"distance":0,"line":2},{"time":9,"i_lat":-6.530544,"is_transit":false,"distance":7514,"i_long":106.800016,"station_id":"CLT","station_name":"Cilebut","line":2,"transit":false},{"station_name":"Bojonggede","i_lat":-6.493243,"is_transit":false,"transit":false,"distance":4331,"i_long":106.792719,"station_id":"BJD","time":5,"line":2},{"distance":5197,"station_id":"CTA","time":5,"transit":false,"i_lat":-6.448811,"is_transit":false,"i_long":106.800298,"station_name":"Citayam","line":2},{"is_transit":false,"transit":false,"distance":5084,"i_lat":-6.405256,"i_long":106.816926,"station_name":"Depok","line":2,"time":6,"station_id":"DP"},{"is_transit":false,"transit":false,"i_long":106.819451,"time":3,"distance":1584,"station_id":"DPB","line":2,"station_name":"Depokbaru","i_lat":-6.391065},{"transit":false,"i_long":106.831114,"station_id":"POC","distance":2727,"i_lat":-6.369073,"station_name":"Pondok Cina","line":2,"is_transit":false,"time":4},{"time":2,"i_long":106.831474,"station_id":"UI","i_lat":-6.360749,"line":2,"is_transit":false,"station_name":"Univ. Indonesia","transit":false,"distance":1109},{"time":3,"distance":2264,"station_name":"Univ. Pancasila","i_lat":-6.339291,"transit":false,"i_long":106.834175,"line":2,"station_id":"UP","is_transit":false},{"transit":false,"i_lat":-6.330363,"station_id":"LNA","i_long":106.832616,"distance":1029,"is_transit":false,"station_name":"Lenteng Agung","time":2,"line":2},{"i_long":106.838896,"distance":2671,"time":3,"station_name":"Tanjung Barat","transit":false,"i_lat":-6.3080680000000005,"station_id":"TNT","line":2,"is_transit":false},{"i_long":106.843999,"line":2,"time":4,"station_name":"Pasar Minggu","station_id":"PSM","i_lat":-6.2842400000000005,"distance":2820,"is_transit":false,"transit":false},{"is_transit":false,"transit":false,"line":2,"station_name":"Pasar Minggu Baru","time":2,"distance":2380,"i_lat":-6.263214,"i_long":106.851577,"station_id":"PSMB"},{"i_long":106.85449,"station_name":"Duren Kalibata","time":2,"distance":824,"line":2,"is_transit":false,"transit":false,"station_id":"DRN","i_lat":-6.255332},{"distance":1546,"is_transit":false,"station_id":"CW","time":3,"i_lat":-6.242512,"station_name":"Cawang","transit":false,"line":2,"i_long":106.856607},{"transit":false,"station_id":"TEB","i_lat":-6.226659,"distance":1230,"line":2,"station_name":"Tebet","is_transit":false,"i_long":106.857948,"time":2},{"time":4,"station_name":"Manggarai","i_long":106.84912,"i_lat":-6.209883,"station_id":"MRI","distance":2610,"line":2,"transit":false,"is_transit":false},{"station_id":"CKI","station_name":"Cikini","i_lat":-6.198556,"time":4,"is_transit":false,"line":2,"transit":false,"distance":1590,"i_long":106.840169},{"line":2,"is_transit":false,"i_lat":-6.186295,"station_id":"GDD","distance":1750,"time":3,"station_name":"Gondangdia","transit":false,"i_long":106.832183},{"is_transit":false,"distance":2015,"station_name":"Juanda","i_lat":-6.166716,"transit":false,"line":2,"i_long":106.828284,"time":4,"station_id":"JUA"},{"station_name":"Sawah Besar","distance":1149,"is_transit":false,"line":2,"station_id":"SW","time":2,"transit":false,"i_lat":-6.160725,"i_long":106.827103},{"station_id":"MGB","i_lat":-6.149769,"line":2,"transit":false,"station_name":"Manggabesar","is_transit":false,"distance":906,"time":2,"i_long":106.82482},{"transit":false,"i_lat":-6.141205,"line":2,"i_long":106.820901,"is_transit":false,"station_id":"JAY","time":2,"distance":1080,"station_name":"Jayakarta"},{"i_long":106.812439,"line":2,"i_lat":-6.137569,"transit":true,"distance":1264,"station_name":"Jakarta Kota","is_transit":true,"time":4,"station_id":"JAKK"},{"time":3,"station_id":"KPB","is_transit":true,"i_lat":-6.132549,"station_name":"Kampung Bandan","transit":true,"i_long":106.826365,"line":4,"distance":1364},{"is_transit":false,"i_lat":-6.14505,"time":3,"distance":1444,"transit":false,"station_id":"RJW","i_long":106.836569,"station_name":"Rajawali","line":11},{"station_name":"Kemayoran","time":5,"i_long":106.839204,"transit":false,"is_transit":false,"line":11,"station_id":"KMO","distance":1901,"i_lat":-6.161728},{"station_id":"PSE","time":4,"i_lat":-6.174784,"station_name":"Pasar Senen","transit":false,"i_long":106.84368,"line":11,"distance":1436,"is_transit":false},{"transit":false,"station_id":"GST","line":11,"i_long":106.850107,"is_transit":false,"station_name":"Gang Sentiong","distance":1567,"i_lat":-6.185975,"time":8},{"time":1,"station_name":"Kramat","is_transit":false,"i_long":106.855437,"line":11,"transit":false,"distance":973,"i_lat":-6.193792,"station_id":"KMT"},{"line":11,"transit":false,"station_name":"Pondok Jati","is_transit":false,"distance":1829,"station_id":"POK","i_long":106.861737,"i_lat":-6.209188,"time":2},{"line":1,"transit":true,"station_name":"Jatinegara","time":9,"i_long":106.86807400000001,"distance":1236,"i_lat":-6.215091,"station_id":"JNG","is_transit":true},{"i_lat":-6.2135,"time":3,"transit":false,"distance":3395,"station_name":"Klender","station_id":"KLD","is_transit":false,"i_long":106.899548,"line":1},{"time":2,"distance":3100,"is_transit":false,"transit":false,"station_id":"BUA","line":1,"station_name":"Buaran","i_long":106.922662,"i_lat":-6.215568}]]}