{"data":[[{"distance":0,"station_id":"BOO","i_lat":-6.594596,"station_name":"Bogor","time":0,"transit":false,"i_long":106.790574,"is_transit":false,"line":2},{"station_name":"Cilebut","distance":7514,"transit":false,"line":2,"station_id":"CLT","i_lat":-6.530544,"i_long":106.800016,"time":9,"is_transit":false},{"i_lat":-6.493243,"transit":false,"station_name":"Bojonggede","line":2,"is_transit":false,"station_id":"BJD","time":5,"distance":4331,"i_long":106.792719},{"time":5,"transit":true,"distance":5197,"station_name":"Citayam","station_id":"CTA","i_long":106.800298,"is_transit":true,"line":2,"i_lat":-6.448811},{"transit":false,"distance":0,"line":21,"station_id":"PDRG","i_lat":-6.460735,"is_transit":false,"time":0,"i_long":106.824374,"station_name":"Pondok Rajeg"},{"transit":false,"i_long":106.851978,"i_lat":-6.46424,"distance":0,"station_name":"Cibinong","is_transit":false,"line":21,"time":0,"station_id":"CBN"},{"transit":false,"station_name":"Nambo","is_transit":false,"distance":6527,"i_long":106.905196,"line":21,"i_lat":-6.466285,"station_id":"NMO","time":10}]]}