{"data":[[{"distance":0,"is_transit":false,"i_lat":-6.594596,"station_name":"Bogor","i_long":106.790574,"station_id":"BOO","line":2,"transit":false,"time":0},{"distance":7514,"is_transit":false,"line":2,"station_name":"Cilebut","time":9,"transit":false,"i_lat":-6.530544,"i_long":106.800016,"station_id":"CLT"},{"i_long":106.792719,"distance":4331,"line":2,"station_id":"BJD","i_lat":-6.493243,"time":5,"station_name":"Bojonggede","is_transit":false,"transit":false},{"transit":false,"time":5,"distance":5197,"station_name":"Citayam","is_transit":false,"i_lat":-6.448811,"line":2,"station_id":"CTA","i_long":106.800298},{"transit":false,"i_long":106.816926,"line":2,"station_id":"DP","time":6,"station_name":"Depok","is_transit":false,"i_lat":-6.405256,"distance":5084},{"i_long":106.819451,"time":3,"is_transit":false,"i_lat":-6.391065,"line":2,"station_id":"DPB","distance":1584,"station_name":"Depokbaru","transit":false},{"station_id":"POC","i_lat":-6.369073,"time":4,"transit":false,"i_long":106.831114,"is_transit":false,"station_name":"Pondok Cina","line":2,"distance":2727},{"transit":false,"station_name":"Univ. Indonesia","i_long":106.831474,"station_id":"UI","i_lat":-6.360749,"line":2,"distance":1109,"is_transit":false,"time":2},{"transit":false,"time":3,"i_long":106.834175,"line":2,"station_id":"UP","i_lat":-6.339291,"is_transit":false,"distance":2264,"station_name":"Univ. Pancasila"},{"distance":1029,"i_long":106.832616,"station_name":"Lenteng Agung","station_id":"LNA","i_lat":-6.330363,"time":2,"is_transit":false,"transit":false,"line":2},{"distance":2671,"i_long":106.838896,"time":3,"transit":false,"i_lat":-6.3080680000000005,"station_id":"TNT","station_name":"Tanjung Barat","is_transit":false,"line":2},{"i_lat":-6.2842400000000005,"time":4,"station_id":"PSM","distance":2820,"line":2,"station_name":"Pasar Minggu","is_transit":false,"transit":false,"i_long":106.843999},{"time":2,"line":2,"distance":2380,"i_long":106.851577,"i_lat":-6.263214,"station_id":"PSMB","is_transit":false,"transit":false,"station_name":"Pasar Minggu Baru"},{"i_long":106.85449,"time":2,"station_name":"Duren Kalibata","transit":false,"is_transit":false,"i_lat":-6.255332,"line":2,"station_id":"DRN","distance":824},{"is_transit":false,"i_lat":-6.242512,"station_name":"Cawang","station_id":"CW","i_long":106.856607,"transit":false,"line":2,"time":3,"distance":1546},{"station_name":"Tebet","transit":false,"i_long":106.857948,"station_id":"TEB","distance":1230,"line":2,"is_transit":false,"i_lat":-6.226659,"time":2},{"station_id":"MRI","is_transit":true,"transit":true,"distance":2610,"time":4,"station_name":"Manggarai","i_lat":-6.209883,"i_long":106.84912,"line":2},{"i_long":106.822649,"i_lat":-6.202263,"time":4,"transit":false,"station_id":"SUD","station_name":"Sudirman","line":1,"is_transit":false,"distance":3186},{"station_id":"SUDB","i_lat":-6.201433,"time":1,"station_name":"Sudirman Baru","line":1,"distance":280,"is_transit":false,"transit":false,"i_long":106.819881},{"time":1,"i_lat":-6.20132,"station_name":"Karet","station_id":"KAT","i_long":106.816351,"transit":false,"is_transit":false,"line":1,"distance":471},{"distance":2029,"station_name":"Tanah Abang","transit":false,"station_id":"THB","line":1,"time":5,"i_lat":-6.185545,"is_transit":false,"i_long":106.811091},{"transit":true,"is_transit":true,"distance":3632,"i_long":106.800832,"time":8,"i_lat":-6.155215,"line":1,"station_id":"DU","station_name":"Duri"},{"station_name":"Grogol","i_lat":-6.162021,"i_long":106.788277,"station_id":"GRG","is_transit":false,"transit":false,"time":3,"distance":1700,"line":5},{"station_id":"PSG","is_transit":false,"transit":false,"distance":2036,"time":2,"i_lat":-6.161433,"i_long":106.771379,"line":5,"station_name":"Pesing"},{"distance":1614,"station_id":"TKO","time":2,"is_transit":false,"station_name":"Taman Kota","i_lat":-6.1587309999999995,"transit":false,"i_long":106.756522,"line":5},{"transit":false,"station_name":"Bojongindah","station_id":"BOI","i_lat":-6.159876,"line":5,"is_transit":false,"time":2,"i_long":106.737035,"distance":2334},{"distance":1152,"time":4,"transit":false,"station_id":"RW","i_long":106.723064,"station_name":"Rawa Buaya","i_lat":-6.162758,"is_transit":false,"line":5},{"time":3,"transit":false,"distance":2504,"is_transit":false,"line":5,"station_id":"KDS","station_name":"Kalideres","i_long":106.701612,"i_lat":-6.166068},{"station_id":"PI","is_transit":false,"time":3,"station_name":"Poris","i_lat":-6.169933,"transit":false,"i_long":106.679458,"line":5,"distance":2548},{"transit":false,"i_long":106.665036,"distance":1834,"line":5,"station_name":"Batuceper","i_lat":-6.171811,"is_transit":false,"station_id":"BPR","time":3},{"station_name":"Tanah Tinggi","line":5,"is_transit":false,"transit":false,"distance":2028,"i_lat":-6.17331,"i_long":106.64657,"time":3,"station_id":"THI"}],[{"is_transit":false,"time":0,"line":2,"i_lat":-6.594596,"station_id":"BOO","distance":0,"i_long":106.790574,"station_name":"Bogor","transit":false},{"i_long":106.800016,"station_name":"Cilebut","transit":false,"station_id":"CLT","time":9,"distance":7514,"i_lat":-6.530544,"is_transit":false,"line":2},{"i_long":106.792719,"station_id":"BJD","station_name":"Bojonggede","transit":false,"i_lat":-6.493243,"is_transit":false,"time":5,"distance":4331,"line":2},{"i_long":106.800298,"station_id":"CTA","transit":false,"distance":5197,"is_transit":false,"time":5,"station_name":"Citayam","i_lat":-6.448811,"line":2},{"i_lat":-6.405256,"line":2,"is_transit":false,"station_name":"Depok","transit":false,"i_long":106.816926,"time":6,"station_id":"DP","distance":5084},{"distance":1584,"i_long":106.819451,"transit":false,"is_transit":false,"station_name":"Depokbaru","i_lat":-6.391065,"line":2,"station_id":"DPB","time":3},{"line":2,"station_name":"Pondok Cina","station_id":"POC","transit":false,"i_long":106.831114,"distance":2727,"is_transit":false,"time":4,"i_lat":-6.369073},{"is_transit":false,"transit":false,"line":2,"time":2,"distance":1109,"i_lat":-6.360749,"i_long":106.831474,"station_name":"Univ. Indonesia","station_id":"UI"},{"distance":2264,"i_lat":-6.339291,"i_long":106.834175,"transit":false,"line":2,"station_name":"Univ. Pancasila","time":3,"station_id":"UP","is_transit":false},{"time":2,"station_name":"Lenteng Agung","i_long":106.832616,"distance":1029,"line":2,"transit":false,"is_transit":false,"i_lat":-6.330363,"station_id":"LNA"},{"i_long":106.838896,"transit":false,"i_lat":-6.3080680000000005,"time":3,"station_id":"TNT","station_name":"Tanjung Barat","line":2,"distance":2671,"is_transit":false},{"i_long":106.843999,"transit":false,"distance":2820,"line":2,"time":4,"station_id":"PSM","is_transit":false,"station_name":"Pasar Minggu","i_lat":-6.2842400000000005},{"line":2,"station_id":"PSMB","station_name":"Pasar Minggu Baru","distance":2380,"transit":false,"i_lat":-6.263214,"i_long":106.851577,"is_transit":false,"time":2},{"time":2,"i_lat":-6.255332,"station_name":"Duren Kalibata","distance":824,"is_transit":false,"station_id":"DRN","transit":false,"i_long":106.85449,"line":2},{"station_id":"CW","distance":1546,"time":3,"is_transit":false,"transit":false,"i_lat":-6.242512,"i_long":106.856607,"line":2,"station_name":"Cawang"},{"station_id":"TEB","is_transit":false,"transit":false,"station_name":"Tebet","time":2,"distance":1230,"i_long":106.857948,"line":2,"i_lat":-6.226659},{"i_lat":-6.209883,"i_long":106.84912,"station_name":"Manggarai","line":2,"is_transit":false,"transit":false,"station_id":"MRI","distance":2610,"time":4},{"i_lat":-6.198556,"i_long":106.840169,"station_id":"CKI","is_transit":false,"transit":false,"time":4,"line":2,"station_name":"Cikini","distance":1590},{"station_id":"GDD","is_transit":false,"station_name":"Gondangdia","time":3,"i_lat":-6.186295,"line":2,"transit":false,"distance":1750,"i_long":106.832183},{"transit":false,"i_long":106.828284,"time":4,"station_id":"JUA","is_transit":false,"distance":2015,"station_name":"Juanda","i_lat":-6.166716,"line":2},{"transit":false,"time":2,"distance":1149,"station_name":"Sawah Besar","i_long":106.827103,"line":2,"station_id":"SW","i_lat":-6.160725,"is_transit":false},{"transit":false,"time":2,"distance":906,"line":2,"i_long":106.82482,"i_lat":-6.149769,"station_name":"Manggabesar","station_id":"MGB","is_transit":false},{"distance":1080,"time":2,"i_long":106.820901,"station_id":"JAY","station_name":"Jayakarta","i_lat":-6.141205,"transit":false,"is_transit":false,"line":2},{"i_lat":-6.137569,"is_transit":true,"distance":1264,"station_id":"JAKK","transit":true,"station_name":"Jakarta Kota","i_long":106.812439,"line":2,"time":4},{"line":4,"i_long":106.826365,"i_lat":-6.132549,"distance":1364,"station_id":"KPB","time":3,"station_name":"Kampung Bandan","transit":true,"is_transit":true},{"distance":4102,"i_lat":-6.144674,"line":1,"transit":false,"time":9,"station_name":"Angke","is_transit":false,"i_long":106.79867,"station_id":"AK"},{"line":1,"transit":true,"i_long":106.800832,"distance":1230,"i_lat":-6.155215,"station_id":"DU","time":4,"station_name":"Duri","is_transit":true},{"transit":false,"station_name":"Grogol","i_lat":-6.162021,"station_id":"GRG","i_long":106.788277,"is_transit":false,"distance":1700,"line":5,"time":3},{"is_transit":false,"line":5,"distance":2036,"station_name":"Pesing","station_id":"PSG","transit":false,"i_lat":-6.161433,"time":2,"i_long":106.771379},{"transit":false,"time":2,"station_name":"Taman Kota","i_lat":-6.1587309999999995,"line":5,"distance":1614,"i_long":106.756522,"station_id":"TKO","is_transit":false},{"is_transit":false,"i_lat":-6.159876,"station_name":"Bojongindah","distance":2334,"i_long":106.737035,"station_id":"BOI","time":2,"line":5,"transit":false},{"i_lat":-6.162758,"line":5,"is_transit":false,"station_id":"RW","time":4,"distance":1152,"station_name":"Rawa Buaya","transit":false,"i_long":106.723064},{"is_transit":false,"i_long":106.701612,"line":5,"station_id":"KDS","station_name":"Kalideres","distance":2504,"transit":false,"time":3,"i_lat":-6.166068},{"i_long":106.679458,"station_id":"PI","transit":false,"time":3,"station_name":"Poris","i_lat":-6.169933,"distance":2548,"line":5,"is_transit":false},{"distance":1834,"transit":false,"line":5,"i_lat":-6.171811,"time":3,"is_transit":false,"i_long":106.665036,"station_id":"BPR","station_name":"Batuceper"},{"station_name":"Tanah Tinggi","i_lat":-6.17331,"station_id":"THI","line":5,"i_long":106.64657,"transit":false,"time":3,"is_transit":false,"distance":2028}],[{"i_long":106.790574,"time":0,"station_id":"BOO","line":2,"distance":0,"transit":false,"station_name":"Bogor","is_transit":false,"i_lat":-6.594596},{"is_transit":false,"i_long":106.800016,"station_name":"Cilebut","transit":false,"distance":7514,"time":9,"i_lat":-6.530544,"station_id":"CLT","line":2},{"line":2,"i_long":106.792719,"station_id":"BJD","time":5,"is_transit":false,"transit":false,"station_name":"Bojonggede","distance":4331,"i_lat":-6.493243},{"is_transit":false,"line":2,"time":5,"i_lat":-6.448811,"transit":false,"station_name":"Citayam","station_id":"CTA","distance":5197,"i_long":106.800298},{"distance":5084,"time":6,"station_name":"Depok","is_transit":false,"line":2,"i_lat":-6.405256,"i_long":106.816926,"station_id":"DP","transit":false},{"i_long":106.819451,"station_id":"DPB","distance":1584,"line":2,"i_lat":-6.391065,"transit":false,"is_transit":false,"time":3,"station_name":"Depokbaru"},{"station_name":"Pondok Cina","i_lat":-6.369073,"i_long":106.831114,"station_id":"POC","line":2,"distance":2727,"is_transit":false,"transit":false,"time":4},{"station_id":"UI","station_name":"Univ. Indonesia","distance":1109,"line":2,"i_long":106.831474,"i_lat":-6.360749,"time":2,"is_transit":false,"transit":false},{"line":2,"time":3,"i_lat":-6.339291,"station_id":"UP","is_transit":false,"transit":false,"station_name":"Univ. Pancasila","distance":2264,"i_long":106.834175},{"distance":1029,"line":2,"station_id":"LNA","station_name":"Lenteng Agung","i_lat":-6.330363,"is_transit":false,"time":2,"transit":false,"i_long":106.832616},{"line":2,"station_name":"Tanjung Barat","time":3,"station_id":"TNT","i_long":106.838896,"distance":2671,"is_transit":false,"i_lat":-6.3080680000000005,"transit":false},{"is_transit":false,"line":2,"station_name":"Pasar Minggu","time":4,"transit":false,"i_lat":-6.2842400000000005,"i_long":106.843999,"station_id":"PSM","distance":2820},{"distance":2380,"station_id":"PSMB","time":2,"station_name":"Pasar Minggu Baru","i_long":106.851577,"transit":false,"line":2,"is_transit":false,"i_lat":-6.263214},{"transit":false,"distance":824,"line":2,"is_transit":false,"time":2,"station_id":"DRN","i_lat":-6.255332,"station_name":"Duren Kalibata","i_long":106.85449},{"line":2,"distance":1546,"i_long":106.856607,"station_id":"CW","is_transit":false,"station_name":"Cawang","i_lat":-6.242512,"transit":false,"time":3},{"is_transit":false,"line":2,"i_long":106.857948,"station_id":"TEB","distance":1230,"transit":false,"time":2,"station_name":"Tebet","i_lat":-6.226659},{"is_transit":true,"i_long":106.84912,"distance":2610,"transit":true,"station_name":"Manggarai","line":2,"i_lat":-6.209883,"station_id":"MRI","time":4},{"line":1,"i_lat":-6.212485,"time":2,"transit":false,"station_name":"Matraman","is_transit":false,"i_long":106.858896,"station_id":"MTR","distance":1275},{"time":8,"transit":true,"i_long":106.86807400000001,"line":1,"distance":1377,"i_lat":-6.215091,"station_id":"JNG","station_name":"Jatinegara","is_transit":true},{"i_long":106.861737,"station_name":"Pondok Jati","i_lat":-6.209188,"is_transit":false,"station_id":"POK","transit":false,"time":2,"line":11,"distance":1236},{"i_lat":-6.193792,"is_transit":false,"station_name":"Kramat","station_id":"KMT","distance":1829,"line":11,"transit":false,"time":2,"i_long":106.855437},{"station_name":"Gang Sentiong","i_long":106.850107,"i_lat":-6.185975,"line":11,"is_transit":false,"station_id":"GST","time":1,"distance":973,"transit":false},{"time":8,"transit":false,"distance":1567,"station_name":"Pasar Senen","station_id":"PSE","is_transit":false,"i_lat":-6.174784,"line":11,"i_long":106.84368},{"is_transit":false,"line":11,"station_id":"KMO","transit":false,"i_lat":-6.161728,"time":4,"distance":1436,"station_name":"Kemayoran","i_long":106.839204},{"distance":1901,"time":5,"station_id":"RJW","transit":false,"line":11,"i_lat":-6.14505,"station_name":"Rajawali","i_long":106.836569,"is_transit":false},{"distance":1444,"i_lat":-6.132549,"transit":true,"i_long":106.826365,"line":4,"is_transit":true,"station_name":"Kampung Bandan","time":3,"station_id":"KPB"},{"time":9,"transit":false,"station_id":"AK","is_transit":false,"line":1,"distance":4102,"station_name":"Angke","i_long":106.79867,"i_lat":-6.144674},{"station_name":"Duri","transit":true,"i_lat":-6.155215,"i_long":106.800832,"line":1,"time":4,"is_transit":true,"distance":1230,"station_id":"DU"},{"distance":1700,"line":5,"i_lat":-6.162021,"transit":false,"station_name":"Grogol","i_long":106.788277,"is_transit":false,"time":3,"station_id":"GRG"},{"station_name":"Pesing","i_lat":-6.161433,"distance":2036,"station_id":"PSG","i_long":106.771379,"transit":false,"line":5,"time":2,"is_transit":false},{"transit":false,"distance":1614,"line":5,"station_name":"Taman Kota","i_lat":-6.1587309999999995,"i_long":106.756522,"is_transit":false,"station_id":"TKO","time":2},{"i_lat":-6.159876,"is_transit":false,"distance":2334,"station_id":"BOI","i_long":106.737035,"transit":false,"station_name":"Bojongindah","time":2,"line":5},{"transit":false,"is_transit":false,"i_lat":-6.162758,"station_name":"Rawa Buaya","station_id":"RW","i_long":106.723064,"time":4,"line":5,"distance":1152},{"is_transit":false,"time":3,"distance":2504,"transit":false,"station_id":"KDS","i_long":106.701612,"station_name":"Kalideres","i_lat":-6.166068,"line":5},{"station_name":"Poris","time":3,"is_transit":false,"distance":2548,"transit":false,"i_lat":-6.169933,"i_long":106.679458,"station_id":"PI","line":5},{"distance":1834,"line":5,"i_lat":-6.171811,"is_transit":false,"i_long":106.665036,"time":3,"station_name":"Batuceper","station_id":"BPR","transit":false},{"line":5,"station_id":"THI","distance":2028,"i_lat":-6.17331,"time":3,"station_name":"Tanah Tinggi","transit":false,"i_long":106.64657,"is_transit":false}]]}