{"data":[[{"is_transit":false,"transit":false,"time":0,"distance":0,"line":2,"station_id":"BOO","i_lat":-6.594596,"station_name":"Bogor","i_long":106.790574},{"i_lat":-6.530544,"station_name":"Cilebut","station_id":"CLT","time":9,"distance":7514,"line":2,"i_long":106.800016,"transit":false,"is_transit":false},{"i_lat":-6.493243,"station_name":"Bojonggede","i_long":106.792719,"distance":4331,"line":2,"transit":false,"is_transit":false,"time":5,"station_id":"BJD"},{"transit":false,"is_transit":false,"time":5,"line":2,"distance":5197,"i_lat":-6.448811,"station_name":"Citayam","station_id":"CTA","i_long":106.800298},{"transit":false,"is_transit":false,"station_id":"DP","station_name":"Depok","i_long":106.816926,"line":2,"distance":5084,"time":6,"i_lat":-6.405256},{"station_name":"Depokbaru","distance":1584,"transit":false,"time":3,"i_long":106.819451,"i_lat":-6.391065,"is_transit":false,"station_id":"DPB","line":2},{"distance":2727,"i_lat":-6.369073,"i_long":106.831114,"transit":false,"station_name":"Pondok Cina","time":4,"station_id":"POC","line":2,"is_transit":false},{"i_long":106.831474,"i_lat":-6.360749,"station_name":"Univ. Indonesia","transit":false,"is_transit":false,"time":2,"station_id":"UI","line":2,"distance":1109},{"station_id":"UP","i_long":106.834175,"i_lat":-6.339291,"line":2,"time":3,"transit":false,"station_name":"Univ. Pancasila","distance":2264,"is_transit":false},{"time":2,"distance":1029,"i_long":106.832616,"station_name":"Lenteng Agung","is_transit":false,"i_lat":-6.330363,"station_id":"LNA","line":2,"transit":false},{"i_long":106.838896,"i_lat":-6.3080680000000005,"transit":false,"is_transit":false,"station_name":"Tanjung Barat","station_id":"TNT","time":3,"distance":2671,"line":2},{"station_name":"Pasar Minggu","transit":false,"i_long":106.843999,"i_lat":-6.2842400000000005,"line":2,"distance":2820,"time":4,"station_id":"PSM","is_transit":false},{"station_id":"PSMB","i_lat":-6.263214,"is_transit":false,"station_name":"Pasar Minggu Baru","transit":false,"i_long":106.851577,"line":2,"time":2,"distance":2380},{"line":2,"station_name":"Duren Kalibata","time":2,"i_long":106.85449,"transit":false,"is_transit":false,"distance":824,"station_id":"DRN","i_lat":-6.255332},{"time":3,"station_name":"Cawang","station_id":"CW","line":2,"transit":false,"i_long":106.856607,"i_lat":-6.242512,"distance":1546,"is_transit":false},{"station_name":"Tebet","time":2,"line":2,"distance":1230,"transit":false,"station_id":"TEB","i_lat":-6.226659,"i_long":106.857948,"is_transit":false},{"distance":2610,"time":4,"i_long":106.84912,"transit":true,"line":2,"i_lat":-6.209883,"station_id":"MRI","is_transit":true,"station_name":"Manggarai"},{"i_lat":-6.202263,"is_transit":false,"line":1,"i_long":106.822649,"station_id":"SUD","transit":false,"station_name":"Sudirman","distance":3186,"time":4},{"line":1,"is_transit":false,"time":1,"station_id":"SUDB","transit":false,"i_long":106.819881,"station_name":"Sudirman Baru","distance":280,"i_lat":-6.201433},{"distance":471,"transit":false,"station_id":"KAT","i_lat":-6.20132,"i_long":106.816351,"time":1,"station_name":"Karet","line":1,"is_transit":false},{"station_name":"Tanah Abang","station_id":"THB","time":5,"is_transit":false,"distance":2029,"transit":false,"i_long":106.811091,"i_lat":-6.185545,"line":1},{"time":8,"distance":3632,"i_lat":-6.155215,"station_id":"DU","transit":true,"station_name":"Duri","is_transit":true,"i_long":106.800832,"line":1},{"distance":1700,"transit":false,"station_name":"Grogol","is_transit":false,"i_lat":-6.162021,"i_long":106.788277,"station_id":"GGL","time":3,"line":5},{"is_transit":false,"station_id":"PSG","i_long":106.771379,"time":2,"distance":2036,"transit":false,"i_lat":-6.161433,"station_name":"Pesing","line":5},{"distance":1614,"station_id":"TKO","transit":false,"is_transit":false,"i_long":106.756522,"time":2,"line":5,"station_name":"Taman Kota","i_lat":-6.1587309999999995},{"time":2,"transit":false,"is_transit":false,"distance":2334,"i_lat":-6.159876,"station_name":"Bojongindah","line":5,"i_long":106.737035,"station_id":"BOI"},{"time":4,"distance":1152,"i_lat":-6.162758,"is_transit":false,"station_id":"RW","transit":false,"station_name":"Rawa Buaya","line":5,"i_long":106.723064},{"station_name":"Kalideres","is_transit":false,"i_lat":-6.166068,"time":3,"i_long":106.701612,"transit":false,"distance":2504,"station_id":"KDS","line":5},{"i_long":106.679458,"time":3,"line":5,"station_name":"Poris","is_transit":false,"distance":2548,"station_id":"PI","i_lat":-6.169933,"transit":false},{"i_long":106.665036,"is_transit":false,"transit":false,"time":3,"i_lat":-6.171811,"distance":1834,"station_name":"Batuceper","line":5,"station_id":"BPR"},{"station_name":"Tanah Tinggi","i_lat":-6.17331,"station_id":"TTI","i_long":106.64657,"line":5,"transit":false,"distance":2028,"time":3,"is_transit":false}],[{"transit":false,"station_name":"Bogor","time":0,"line":2,"is_transit":false,"distance":0,"station_id":"BOO","i_lat":-6.594596,"i_long":106.790574},{"transit":false,"distance":7514,"i_lat":-6.530544,"time":9,"is_transit":false,"line":2,"station_name":"Cilebut","i_long":106.800016,"station_id":"CLT"},{"station_id":"BJD","time":5,"transit":false,"station_name":"Bojonggede","distance":4331,"i_long":106.792719,"is_transit":false,"line":2,"i_lat":-6.493243},{"transit":false,"is_transit":false,"station_name":"Citayam","i_long":106.800298,"station_id":"CTA","distance":5197,"time":5,"line":2,"i_lat":-6.448811},{"station_name":"Depok","distance":5084,"transit":false,"time":6,"is_transit":false,"station_id":"DP","i_lat":-6.405256,"i_long":106.816926,"line":2},{"is_transit":false,"station_id":"DPB","time":3,"distance":1584,"i_long":106.819451,"transit":false,"line":2,"i_lat":-6.391065,"station_name":"Depokbaru"},{"is_transit":false,"transit":false,"station_id":"POC","line":2,"distance":2727,"i_long":106.831114,"i_lat":-6.369073,"time":4,"station_name":"Pondok Cina"},{"station_name":"Univ. Indonesia","i_long":106.831474,"is_transit":false,"distance":1109,"station_id":"UI","i_lat":-6.360749,"time":2,"line":2,"transit":false},{"time":3,"i_long":106.834175,"i_lat":-6.339291,"station_name":"Univ. Pancasila","transit":false,"station_id":"UP","line":2,"is_transit":false,"distance":2264},{"station_name":"Lenteng Agung","i_lat":-6.330363,"line":2,"is_transit":false,"distance":1029,"station_id":"LNA","i_long":106.832616,"time":2,"transit":false},{"is_transit":false,"transit":false,"i_long":106.838896,"station_id":"TNT","i_lat":-6.3080680000000005,"line":2,"time":3,"station_name":"Tanjung Barat","distance":2671},{"time":4,"i_lat":-6.2842400000000005,"transit":false,"station_id":"PSM","station_name":"Pasar Minggu","line":2,"distance":2820,"i_long":106.843999,"is_transit":false},{"station_id":"PSMB","line":2,"transit":false,"i_long":106.851577,"distance":2380,"station_name":"Pasar Minggu Baru","time":2,"i_lat":-6.263214,"is_transit":false},{"i_long":106.85449,"distance":824,"line":2,"station_name":"Duren Kalibata","station_id":"DRN","i_lat":-6.255332,"time":2,"is_transit":false,"transit":false},{"line":2,"i_long":106.856607,"station_name":"Cawang","distance":1546,"station_id":"CW","time":3,"i_lat":-6.242512,"is_transit":false,"transit":false},{"station_id":"TEB","transit":false,"time":2,"station_name":"Tebet","is_transit":false,"i_lat":-6.226659,"i_long":106.857948,"line":2,"distance":1230},{"transit":false,"station_name":"Manggarai","i_lat":-6.209883,"time":4,"is_transit":false,"distance":2610,"station_id":"MRI","i_long":106.84912,"line":2},{"i_lat":-6.198556,"i_long":106.840169,"transit":false,"line":2,"is_transit":false,"station_id":"CKI","station_name":"Cikini","distance":1590,"time":4},{"station_id":"GDD","transit":false,"station_name":"Gondangdia","time":3,"line":2,"is_transit":false,"i_lat":-6.186295,"distance":1750,"i_long":106.832183},{"station_name":"Juanda","transit":false,"distance":2015,"is_transit":false,"i_long":106.828284,"station_id":"JUA","i_lat":-6.166716,"line":2,"time":4},{"is_transit":false,"time":2,"station_id":"SW","transit":false,"distance":1149,"station_name":"Sawah Besar","i_lat":-6.160725,"line":2,"i_long":106.827103},{"is_transit":false,"station_name":"Manggabesar","distance":906,"station_id":"MGB","i_long":106.82482,"line":2,"i_lat":-6.149769,"transit":false,"time":2},{"i_lat":-6.141205,"line":2,"distance":1080,"time":2,"transit":false,"is_transit":false,"station_id":"JAY","station_name":"Jayakarta","i_long":106.820901},{"i_lat":-6.137569,"line":2,"distance":1264,"station_id":"JAKK","station_name":"Jakarta Kota","i_long":106.812439,"is_transit":true,"time":4,"transit":true},{"time":3,"distance":1364,"line":4,"station_name":"Kampung Bandan","i_lat":-6.132549,"is_transit":true,"transit":true,"station_id":"KPB","i_long":106.826365},{"line":1,"i_long":106.79867,"station_name":"Angke","i_lat":-6.144674,"is_transit":false,"time":9,"station_id":"AK","transit":false,"distance":4102},{"transit":true,"station_name":"Duri","i_lat":-6.155215,"i_long":106.800832,"is_transit":true,"distance":1230,"time":4,"station_id":"DU","line":1},{"transit":false,"is_transit":false,"station_id":"GGL","line":5,"time":3,"i_long":106.788277,"distance":1700,"station_name":"Grogol","i_lat":-6.162021},{"transit":false,"time":2,"is_transit":false,"station_name":"Pesing","i_long":106.771379,"line":5,"station_id":"PSG","distance":2036,"i_lat":-6.161433},{"is_transit":false,"time":2,"distance":1614,"i_lat":-6.1587309999999995,"transit":false,"station_name":"Taman Kota","i_long":106.756522,"line":5,"station_id":"TKO"},{"time":2,"i_lat":-6.159876,"station_id":"BOI","line":5,"distance":2334,"transit":false,"i_long":106.737035,"is_transit":false,"station_name":"Bojongindah"},{"time":4,"is_transit":false,"line":5,"i_long":106.723064,"station_id":"RW","transit":false,"distance":1152,"station_name":"Rawa Buaya","i_lat":-6.162758},{"distance":2504,"time":3,"is_transit":false,"i_long":106.701612,"transit":false,"line":5,"i_lat":-6.166068,"station_id":"KDS","station_name":"Kalideres"},{"line":5,"time":3,"transit":false,"station_name":"Poris","is_transit":false,"distance":2548,"station_id":"PI","i_lat":-6.169933,"i_long":106.679458},{"station_name":"Batuceper","transit":false,"is_transit":false,"i_long":106.665036,"time":3,"distance":1834,"station_id":"BPR","i_lat":-6.171811,"line":5},{"is_transit":false,"station_name":"Tanah Tinggi","distance":2028,"time":3,"transit":false,"i_lat":-6.17331,"line":5,"i_long":106.64657,"station_id":"TTI"}],[{"i_lat":-6.594596,"station_id":"BOO","i_long":106.790574,"is_transit":false,"line":2,"transit":false,"station_name":"Bogor","time":0,"distance":0},{"station_name":"Cilebut","distance":7514,"is_transit":false,"time":9,"i_lat":-6.530544,"i_long":106.800016,"line":2,"station_id":"CLT","transit":false},{"i_long":106.792719,"i_lat":-6.493243,"time":5,"is_transit":false,"transit":false,"distance":4331,"station_id":"BJD","station_name":"Bojonggede","line":2},{"distance":5197,"time":5,"transit":false,"line":2,"i_long":106.800298,"i_lat":-6.448811,"is_transit":false,"station_id":"CTA","station_name":"Citayam"},{"station_name":"Depok","time":6,"distance":5084,"station_id":"DP","i_lat":-6.405256,"line":2,"i_long":106.816926,"transit":false,"is_transit":false},{"time":3,"station_id":"DPB","i_lat":-6.391065,"is_transit":false,"station_name":"Depokbaru","i_long":106.819451,"distance":1584,"transit":false,"line":2},{"i_lat":-6.369073,"station_name":"Pondok Cina","station_id":"POC","line":2,"is_transit":false,"time":4,"distance":2727,"i_long":106.831114,"transit":false},{"i_long":106.831474,"distance":1109,"station_id":"UI","i_lat":-6.360749,"station_name":"Univ. Indonesia","time":2,"line":2,"is_transit":false,"transit":false},{"is_transit":false,"station_name":"Univ. Pancasila","line":2,"i_lat":-6.339291,"distance":2264,"i_long":106.834175,"time":3,"station_id":"UP","transit":false},{"station_name":"Lenteng Agung","is_transit":false,"i_long":106.832616,"distance":1029,"station_id":"LNA","line":2,"transit":false,"time":2,"i_lat":-6.330363},{"i_long":106.838896,"time":3,"i_lat":-6.3080680000000005,"station_name":"Tanjung Barat","transit":false,"is_transit":false,"distance":2671,"station_id":"TNT","line":2},{"station_name":"Pasar Minggu","i_lat":-6.2842400000000005,"station_id":"PSM","i_long":106.843999,"transit":false,"time":4,"is_transit":false,"distance":2820,"line":2},{"distance":2380,"transit":false,"time":2,"i_lat":-6.263214,"is_transit":false,"line":2,"station_name":"Pasar Minggu Baru","station_id":"PSMB","i_long":106.851577},{"station_id":"DRN","i_lat":-6.255332,"transit":false,"i_long":106.85449,"station_name":"Duren Kalibata","line":2,"distance":824,"is_transit":false,"time":2},{"i_long":106.856607,"station_name":"Cawang","distance":1546,"line":2,"time":3,"station_id":"CW","is_transit":false,"transit":false,"i_lat":-6.242512},{"station_id":"TEB","time":2,"line":2,"transit":false,"station_name":"Tebet","is_transit":false,"i_lat":-6.226659,"i_long":106.857948,"distance":1230},{"transit":true,"distance":2610,"is_transit":true,"time":4,"station_name":"Manggarai","station_id":"MRI","i_lat":-6.209883,"line":2,"i_long":106.84912},{"station_id":"MTR","station_name":"Matraman","is_transit":false,"line":1,"i_long":106.858896,"distance":1275,"transit":false,"i_lat":-6.212485,"time":2},{"time":8,"is_transit":true,"distance":1377,"station_name":"Jatinegara","transit":true,"station_id":"JNG","i_long":106.86807400000001,"i_lat":-6.215091,"line":1},{"transit":false,"i_long":106.861737,"line":11,"time":2,"i_lat":-6.209188,"distance":1236,"is_transit":false,"station_id":"POK","station_name":"Pondok Jati"},{"i_lat":-6.193792,"distance":1829,"transit":false,"station_name":"Kramat","time":2,"i_long":106.855437,"station_id":"KMT","line":11,"is_transit":false},{"i_lat":-6.185975,"time":1,"distance":973,"transit":false,"station_name":"Gang Sentiong","i_long":106.850107,"line":11,"is_transit":false,"station_id":"GST"},{"time":8,"transit":false,"is_transit":false,"i_lat":-6.174784,"i_long":106.84368,"station_id":"PSE","line":11,"station_name":"Pasar Senen","distance":1567},{"i_lat":-6.161728,"station_name":"Kemayoran","time":4,"is_transit":false,"station_id":"KMO","i_long":106.839204,"line":11,"transit":false,"distance":1436},{"line":11,"time":5,"i_long":106.836569,"distance":1901,"station_name":"Rajawali","transit":false,"is_transit":false,"station_id":"RJW","i_lat":-6.14505},{"station_id":"KPB","line":4,"is_transit":true,"transit":true,"distance":1444,"station_name":"Kampung Bandan","time":3,"i_long":106.826365,"i_lat":-6.132549},{"i_lat":-6.144674,"station_id":"AK","line":1,"transit":false,"is_transit":false,"time":9,"distance":4102,"i_long":106.79867,"station_name":"Angke"},{"transit":true,"station_id":"DU","line":1,"station_name":"Duri","is_transit":true,"i_lat":-6.155215,"distance":1230,"i_long":106.800832,"time":4},{"distance":1700,"transit":false,"station_name":"Grogol","i_lat":-6.162021,"time":3,"i_long":106.788277,"line":5,"is_transit":false,"station_id":"GGL"},{"station_id":"PSG","time":2,"i_lat":-6.161433,"is_transit":false,"distance":2036,"transit":false,"line":5,"i_long":106.771379,"station_name":"Pesing"},{"transit":false,"station_name":"Taman Kota","distance":1614,"line":5,"i_long":106.756522,"station_id":"TKO","time":2,"is_transit":false,"i_lat":-6.1587309999999995},{"i_lat":-6.159876,"distance":2334,"station_name":"Bojongindah","line":5,"time":2,"station_id":"BOI","i_long":106.737035,"transit":false,"is_transit":false},{"station_id":"RW","time":4,"distance":1152,"i_lat":-6.162758,"transit":false,"line":5,"station_name":"Rawa Buaya","i_long":106.723064,"is_transit":false},{"is_transit":false,"station_name":"Kalideres","station_id":"KDS","i_lat":-6.166068,"i_long":106.701612,"line":5,"time":3,"distance":2504,"transit":false},{"line":5,"i_long":106.679458,"transit":false,"i_lat":-6.169933,"station_name":"Poris","is_transit":false,"time":3,"distance":2548,"station_id":"PI"},{"transit":false,"line":5,"i_long":106.665036,"time":3,"station_id":"BPR","station_name":"Batuceper","is_transit":false,"distance":1834,"i_lat":-6.171811},{"station_id":"TTI","station_name":"Tanah Tinggi","is_transit":false,"distance":2028,"time":3,"i_lat":-6.17331,"i_long":106.64657,"line":5,"transit":false}]]}