{"data":[[{"transit":false,"i_lat":-6.594596,"distance":0,"station_id":"BOO","i_long":106.790574,"is_transit":false,"time":0,"line":2,"station_name":"Bogor"},{"i_long":106.800016,"transit":false,"i_lat":-6.530544,"line":2,"station_name":"Cilebut","time":9,"distance":7514,"is_transit":false,"station_id":"CLT"},{"transit":false,"station_id":"BJD","station_name":"Bojonggede","i_lat":-6.493243,"i_long":106.792719,"line":2,"is_transit":false,"time":5,"distance":4331},{"station_id":"CTA","time":5,"line":2,"transit":false,"i_long":106.800298,"distance":5197,"i_lat":-6.448811,"station_name":"Citayam","is_transit":false},{"transit":false,"distance":5084,"i_lat":-6.405256,"i_long":106.816926,"is_transit":false,"time":6,"station_name":"Depok","line":2,"station_id":"DP"},{"is_transit":false,"station_id":"DPB","station_name":"Depokbaru","transit":false,"distance":1584,"i_long":106.819451,"line":2,"time":3,"i_lat":-6.391065},{"transit":false,"line":2,"i_lat":-6.369073,"time":4,"station_id":"POC","station_name":"Pondok Cina","is_transit":false,"distance":2727,"i_long":106.831114},{"station_id":"UI","line":2,"station_name":"Univ. Indonesia","i_lat":-6.360749,"transit":false,"i_long":106.831474,"is_transit":false,"distance":1109,"time":2},{"is_transit":false,"station_name":"Univ. Pancasila","i_lat":-6.339291,"i_long":106.834175,"distance":2264,"time":3,"station_id":"UP","transit":false,"line":2},{"time":2,"distance":1029,"station_id":"LNA","is_transit":false,"transit":false,"i_lat":-6.330363,"line":2,"i_long":106.832616,"station_name":"Lenteng Agung"},{"station_name":"Tanjung Barat","time":3,"station_id":"TNT","transit":false,"i_long":106.838896,"i_lat":-6.3080680000000005,"line":2,"distance":2671,"is_transit":false},{"time":4,"station_id":"PSM","station_name":"Pasar Minggu","i_lat":-6.2842400000000005,"line":2,"transit":false,"distance":2820,"is_transit":false,"i_long":106.843999},{"time":2,"distance":2380,"transit":false,"i_long":106.851577,"station_name":"Pasar Minggu Baru","line":2,"i_lat":-6.263214,"is_transit":false,"station_id":"PSMB"},{"distance":824,"line":2,"i_long":106.85449,"is_transit":false,"station_id":"DRN","station_name":"Duren Kalibata","transit":false,"time":2,"i_lat":-6.255332},{"is_transit":false,"transit":false,"time":3,"station_id":"CW","i_lat":-6.242512,"distance":1546,"line":2,"station_name":"Cawang","i_long":106.856607},{"transit":false,"i_lat":-6.226659,"distance":1230,"is_transit":false,"i_long":106.857948,"time":2,"station_name":"Tebet","line":2,"station_id":"TEB"},{"time":4,"i_long":106.84912,"station_id":"MRI","line":2,"distance":2610,"is_transit":true,"transit":true,"i_lat":-6.209883,"station_name":"Manggarai"},{"is_transit":false,"i_lat":-6.202263,"i_long":106.822649,"distance":3186,"line":1,"station_name":"Sudirman","time":4,"station_id":"SUD","transit":false},{"i_lat":-6.201433,"station_name":"Sudirman Baru","station_id":"SUDB","line":1,"time":1,"i_long":106.819881,"transit":false,"is_transit":false,"distance":280},{"i_lat":-6.20132,"distance":471,"i_long":106.816351,"station_name":"Karet","line":1,"transit":false,"station_id":"KAT","is_transit":false,"time":1},{"i_lat":-6.185545,"station_name":"Tanah Abang","time":5,"line":1,"transit":false,"distance":2029,"is_transit":false,"station_id":"THB","i_long":106.811091},{"station_id":"DU","station_name":"Duri","is_transit":true,"i_lat":-6.155215,"time":8,"i_long":106.800832,"line":1,"distance":3632,"transit":true},{"i_long":106.788277,"station_id":"GGL","time":3,"transit":false,"line":5,"station_name":"Grogol","distance":1700,"is_transit":false,"i_lat":-6.162021},{"is_transit":false,"i_long":106.771379,"line":5,"station_id":"PSG","transit":false,"time":2,"distance":2036,"i_lat":-6.161433,"station_name":"Pesing"},{"i_lat":-6.1587309999999995,"is_transit":false,"time":2,"station_name":"Taman Kota","distance":1614,"station_id":"TKO","line":5,"i_long":106.756522,"transit":false}],[{"transit":false,"distance":0,"time":0,"i_long":106.790574,"is_transit":false,"i_lat":-6.594596,"station_id":"BOO","station_name":"Bogor","line":2},{"distance":7514,"station_id":"CLT","station_name":"Cilebut","time":9,"transit":false,"line":2,"is_transit":false,"i_lat":-6.530544,"i_long":106.800016},{"time":5,"station_name":"Bojonggede","transit":false,"line":2,"is_transit":false,"station_id":"BJD","distance":4331,"i_lat":-6.493243,"i_long":106.792719},{"line":2,"is_transit":false,"i_lat":-6.448811,"i_long":106.800298,"transit":false,"station_id":"CTA","station_name":"Citayam","distance":5197,"time":5},{"distance":5084,"station_id":"DP","transit":false,"is_transit":false,"line":2,"i_long":106.816926,"i_lat":-6.405256,"station_name":"Depok","time":6},{"station_name":"Depokbaru","is_transit":false,"line":2,"transit":false,"i_long":106.819451,"distance":1584,"i_lat":-6.391065,"time":3,"station_id":"DPB"},{"line":2,"time":4,"station_id":"POC","distance":2727,"i_lat":-6.369073,"i_long":106.831114,"station_name":"Pondok Cina","transit":false,"is_transit":false},{"i_lat":-6.360749,"is_transit":false,"line":2,"time":2,"i_long":106.831474,"station_name":"Univ. Indonesia","station_id":"UI","distance":1109,"transit":false},{"distance":2264,"transit":false,"i_long":106.834175,"station_name":"Univ. Pancasila","line":2,"station_id":"UP","i_lat":-6.339291,"time":3,"is_transit":false},{"distance":1029,"line":2,"i_long":106.832616,"time":2,"transit":false,"i_lat":-6.330363,"station_id":"LNA","is_transit":false,"station_name":"Lenteng Agung"},{"i_long":106.838896,"distance":2671,"line":2,"transit":false,"time":3,"is_transit":false,"station_name":"Tanjung Barat","i_lat":-6.3080680000000005,"station_id":"TNT"},{"distance":2820,"i_long":106.843999,"i_lat":-6.2842400000000005,"station_id":"PSM","time":4,"transit":false,"is_transit":false,"station_name":"Pasar Minggu","line":2},{"distance":2380,"transit":false,"station_id":"PSMB","line":2,"i_lat":-6.263214,"time":2,"i_long":106.851577,"station_name":"Pasar Minggu Baru","is_transit":false},{"is_transit":false,"station_id":"DRN","distance":824,"line":2,"i_long":106.85449,"station_name":"Duren Kalibata","time":2,"i_lat":-6.255332,"transit":false},{"is_transit":false,"transit":false,"line":2,"distance":1546,"i_long":106.856607,"station_id":"CW","station_name":"Cawang","time":3,"i_lat":-6.242512},{"i_long":106.857948,"transit":false,"time":2,"i_lat":-6.226659,"distance":1230,"line":2,"station_name":"Tebet","is_transit":false,"station_id":"TEB"},{"time":4,"station_id":"MRI","i_lat":-6.209883,"distance":2610,"station_name":"Manggarai","is_transit":false,"line":2,"transit":false,"i_long":106.84912},{"transit":false,"distance":1590,"is_transit":false,"line":2,"station_name":"Cikini","i_long":106.840169,"i_lat":-6.198556,"time":4,"station_id":"CKI"},{"line":2,"station_name":"Gondangdia","station_id":"GDD","transit":false,"time":3,"i_lat":-6.186295,"distance":1750,"is_transit":false,"i_long":106.832183},{"transit":false,"is_transit":false,"i_lat":-6.166716,"distance":2015,"i_long":106.828284,"line":2,"station_name":"Juanda","station_id":"JUA","time":4},{"line":2,"is_transit":false,"station_id":"SW","station_name":"Sawah Besar","transit":false,"distance":1149,"i_lat":-6.160725,"i_long":106.827103,"time":2},{"distance":906,"station_name":"Manggabesar","station_id":"MGB","line":2,"transit":false,"time":2,"is_transit":false,"i_lat":-6.149769,"i_long":106.82482},{"i_long":106.820901,"line":2,"distance":1080,"station_name":"Jayakarta","i_lat":-6.141205,"station_id":"JAY","time":2,"transit":false,"is_transit":false},{"i_long":106.812439,"station_name":"Jakarta Kota","station_id":"JAKK","distance":1264,"is_transit":true,"line":2,"transit":true,"i_lat":-6.137569,"time":4},{"is_transit":true,"i_long":106.826365,"station_name":"Kampung Bandan","i_lat":-6.132549,"time":3,"line":4,"transit":true,"station_id":"KPB","distance":1364},{"station_id":"AK","station_name":"Angke","is_transit":false,"line":1,"time":9,"i_lat":-6.144674,"i_long":106.79867,"distance":4102,"transit":false},{"station_id":"DU","i_lat":-6.155215,"station_name":"Duri","time":4,"transit":true,"distance":1230,"i_long":106.800832,"is_transit":true,"line":1},{"station_id":"GGL","i_long":106.788277,"is_transit":false,"time":3,"distance":1700,"transit":false,"station_name":"Grogol","i_lat":-6.162021,"line":5},{"distance":2036,"transit":false,"is_transit":false,"i_lat":-6.161433,"i_long":106.771379,"station_name":"Pesing","line":5,"time":2,"station_id":"PSG"},{"time":2,"distance":1614,"transit":false,"station_id":"TKO","is_transit":false,"i_long":106.756522,"station_name":"Taman Kota","i_lat":-6.1587309999999995,"line":5}],[{"i_lat":-6.594596,"distance":0,"line":2,"station_name":"Bogor","i_long":106.790574,"time":0,"station_id":"BOO","is_transit":false,"transit":false},{"transit":false,"station_id":"CLT","station_name":"Cilebut","i_lat":-6.530544,"line":2,"is_transit":false,"i_long":106.800016,"time":9,"distance":7514},{"distance":4331,"transit":false,"i_long":106.792719,"station_name":"Bojonggede","line":2,"station_id":"BJD","is_transit":false,"i_lat":-6.493243,"time":5},{"time":5,"station_name":"Citayam","i_long":106.800298,"distance":5197,"station_id":"CTA","is_transit":false,"i_lat":-6.448811,"line":2,"transit":false},{"time":6,"station_name":"Depok","i_lat":-6.405256,"i_long":106.816926,"station_id":"DP","is_transit":false,"transit":false,"line":2,"distance":5084},{"station_name":"Depokbaru","station_id":"DPB","transit":false,"i_long":106.819451,"line":2,"time":3,"i_lat":-6.391065,"distance":1584,"is_transit":false},{"time":4,"line":2,"distance":2727,"i_lat":-6.369073,"transit":false,"station_id":"POC","is_transit":false,"i_long":106.831114,"station_name":"Pondok Cina"},{"distance":1109,"line":2,"i_long":106.831474,"i_lat":-6.360749,"station_id":"UI","is_transit":false,"transit":false,"station_name":"Univ. Indonesia","time":2},{"station_name":"Univ. Pancasila","transit":false,"is_transit":false,"time":3,"i_long":106.834175,"i_lat":-6.339291,"line":2,"station_id":"UP","distance":2264},{"i_lat":-6.330363,"is_transit":false,"time":2,"station_id":"LNA","transit":false,"i_long":106.832616,"line":2,"distance":1029,"station_name":"Lenteng Agung"},{"is_transit":false,"i_lat":-6.3080680000000005,"station_id":"TNT","time":3,"distance":2671,"station_name":"Tanjung Barat","i_long":106.838896,"transit":false,"line":2},{"is_transit":false,"line":2,"time":4,"distance":2820,"station_name":"Pasar Minggu","i_long":106.843999,"station_id":"PSM","transit":false,"i_lat":-6.2842400000000005},{"distance":2380,"transit":false,"is_transit":false,"i_lat":-6.263214,"station_id":"PSMB","station_name":"Pasar Minggu Baru","i_long":106.851577,"line":2,"time":2},{"i_long":106.85449,"i_lat":-6.255332,"time":2,"transit":false,"station_id":"DRN","line":2,"is_transit":false,"station_name":"Duren Kalibata","distance":824},{"line":2,"distance":1546,"i_lat":-6.242512,"transit":false,"time":3,"station_id":"CW","station_name":"Cawang","is_transit":false,"i_long":106.856607},{"station_id":"TEB","line":2,"station_name":"Tebet","time":2,"distance":1230,"is_transit":false,"i_long":106.857948,"transit":false,"i_lat":-6.226659},{"station_name":"Manggarai","time":4,"i_long":106.84912,"is_transit":true,"distance":2610,"i_lat":-6.209883,"transit":true,"line":2,"station_id":"MRI"},{"is_transit":false,"station_id":"MTR","station_name":"Matraman","i_lat":-6.212485,"i_long":106.858896,"time":2,"distance":1275,"transit":false,"line":1},{"i_lat":-6.215091,"station_id":"JNG","line":1,"distance":1377,"station_name":"Jatinegara","time":8,"transit":true,"i_long":106.86807400000001,"is_transit":true},{"is_transit":false,"i_long":106.861737,"line":11,"distance":1236,"transit":false,"station_id":"POK","time":2,"station_name":"Pondok Jati","i_lat":-6.209188},{"station_name":"Kramat","distance":1829,"i_long":106.855437,"transit":false,"station_id":"KMT","is_transit":false,"line":11,"time":2,"i_lat":-6.193792},{"distance":973,"transit":false,"station_name":"Gang Sentiong","line":11,"i_long":106.850107,"station_id":"GST","time":1,"is_transit":false,"i_lat":-6.185975},{"time":8,"distance":1567,"line":11,"transit":false,"is_transit":false,"station_name":"Pasar Senen","i_long":106.84368,"station_id":"PSE","i_lat":-6.174784},{"line":11,"time":4,"transit":false,"station_name":"Kemayoran","station_id":"KMO","distance":1436,"is_transit":false,"i_lat":-6.161728,"i_long":106.839204},{"is_transit":false,"i_lat":-6.14505,"i_long":106.836569,"line":11,"station_id":"RJW","time":5,"distance":1901,"transit":false,"station_name":"Rajawali"},{"transit":true,"line":4,"is_transit":true,"station_name":"Kampung Bandan","station_id":"KPB","time":3,"distance":1444,"i_lat":-6.132549,"i_long":106.826365},{"transit":false,"i_long":106.79867,"time":9,"distance":4102,"station_id":"AK","station_name":"Angke","is_transit":false,"line":1,"i_lat":-6.144674},{"i_long":106.800832,"transit":true,"i_lat":-6.155215,"station_id":"DU","line":1,"time":4,"distance":1230,"station_name":"Duri","is_transit":true},{"is_transit":false,"station_id":"GGL","station_name":"Grogol","i_lat":-6.162021,"distance":1700,"transit":false,"line":5,"time":3,"i_long":106.788277},{"transit":false,"i_lat":-6.161433,"time":2,"station_id":"PSG","distance":2036,"is_transit":false,"line":5,"i_long":106.771379,"station_name":"Pesing"},{"line":5,"i_long":106.756522,"is_transit":false,"distance":1614,"time":2,"i_lat":-6.1587309999999995,"station_id":"TKO","transit":false,"station_name":"Taman Kota"}]]}