{"data":[[{"time":0,"station_id":"BOO","i_long":106.790574,"station_name":"Bogor","is_transit":true,"transit":false,"line":1,"distance":0,"i_lat":-6.594596},{"i_lat":-6.530544,"distance":7514,"line":0,"transit":false,"i_long":106.800016,"station_id":"CLT","station_name":"Cilebut","is_transit":false,"time":9},{"line":0,"i_long":106.792719,"transit":false,"station_name":"Bojonggede","is_transit":false,"distance":4331,"time":5,"station_id":"BJD","i_lat":-6.493243},{"transit":false,"i_lat":-6.448811,"line":1,"station_name":"Citayam","i_long":106.800298,"is_transit":true,"station_id":"CTA","distance":5197,"time":5},{"station_id":"DP","i_long":106.816926,"station_name":"Depok","time":6,"is_transit":false,"transit":false,"distance":5084,"i_lat":-6.405256,"line":0},{"time":3,"is_transit":false,"distance":1584,"station_name":"Depokbaru","i_lat":-6.391065,"line":0,"transit":false,"i_long":106.819451,"station_id":"DPB"},{"distance":2727,"station_id":"POC","transit":false,"i_long":106.831114,"time":4,"i_lat":-6.369073,"is_transit":false,"station_name":"Pondok Cina","line":2},{"i_lat":-6.360749,"station_name":"Univ. Indonesia","transit":false,"time":2,"i_long":106.831474,"is_transit":false,"station_id":"UI","distance":1109,"line":2},{"i_lat":-6.339291,"is_transit":false,"station_name":"Univ. Pancasila","i_long":106.834175,"station_id":"UP","line":2,"distance":2264,"transit":false,"time":3},{"line":2,"time":2,"station_id":"LNA","transit":false,"is_transit":false,"station_name":"Lenteng Agung","i_lat":-6.330363,"distance":1029,"i_long":106.832616},{"transit":false,"time":3,"distance":2671,"station_id":"TNT","line":2,"i_lat":-6.3080680000000005,"i_long":106.838896,"station_name":"Tanjung Barat","is_transit":false},{"i_long":106.843999,"time":4,"station_name":"Pasar Minggu","station_id":"PSM","distance":2820,"is_transit":false,"transit":false,"line":2,"i_lat":-6.2842400000000005},{"is_transit":false,"station_id":"PSMB","i_lat":-6.263214,"transit":false,"line":2,"distance":2380,"i_long":106.851577,"time":2,"station_name":"Pasar Minggu Baru"},{"i_lat":-6.255332,"distance":824,"line":0,"station_id":"DRN","time":2,"station_name":"Duren Kalibata","i_long":106.85449,"is_transit":false,"transit":false},{"transit":false,"line":0,"station_id":"CW","is_transit":false,"i_lat":-6.242512,"distance":1546,"i_long":106.856607,"station_name":"Cawang","time":3},{"i_long":106.857948,"distance":1230,"station_id":"TEB","station_name":"Tebet","time":2,"i_lat":-6.226659,"line":2,"transit":false,"is_transit":false},{"station_name":"Manggarai","transit":true,"is_transit":true,"station_id":"MRI","i_long":106.84912,"distance":2610,"i_lat":-6.209883,"line":0,"time":4},{"time":2,"distance":1275,"station_id":"MTR","i_lat":-6.212485,"station_name":"Matraman","i_long":106.858896,"transit":false,"line":1,"is_transit":false},{"station_id":"JNG","time":8,"i_long":106.86807400000001,"is_transit":true,"station_name":"Jatinegara","distance":1377,"transit":false,"i_lat":-6.215091,"line":0},{"line":1,"time":3,"station_id":"KLD","i_long":106.899548,"transit":false,"distance":3395,"station_name":"Klender","i_lat":-6.2135,"is_transit":false},{"i_lat":-6.215568,"is_transit":false,"i_long":106.922662,"line":0,"station_id":"BUA","distance":3100,"station_name":"Buaran","time":2,"transit":false},{"i_lat":-6.217455,"transit":false,"station_name":"Klenderbaru","distance":1305,"is_transit":false,"i_long":106.939679,"line":1,"time":1,"station_id":"KLDB"}],[{"line":1,"is_transit":true,"distance":0,"time":0,"station_id":"BOO","station_name":"Bogor","i_lat":-6.594596,"transit":false,"i_long":106.790574},{"time":9,"station_id":"CLT","is_transit":false,"i_lat":-6.530544,"transit":false,"station_name":"Cilebut","i_long":106.800016,"distance":7514,"line":0},{"distance":4331,"station_id":"BJD","is_transit":false,"i_lat":-6.493243,"line":0,"i_long":106.792719,"station_name":"Bojonggede","transit":false,"time":5},{"station_name":"Citayam","transit":false,"i_lat":-6.448811,"distance":5197,"i_long":106.800298,"is_transit":true,"station_id":"CTA","time":5,"line":1},{"station_id":"DP","transit":false,"i_lat":-6.405256,"is_transit":false,"station_name":"Depok","i_long":106.816926,"line":0,"time":6,"distance":5084},{"time":3,"i_lat":-6.391065,"i_long":106.819451,"station_name":"Depokbaru","distance":1584,"station_id":"DPB","line":0,"is_transit":false,"transit":false},{"time":4,"i_long":106.831114,"station_name":"Pondok Cina","distance":2727,"i_lat":-6.369073,"is_transit":false,"transit":false,"line":2,"station_id":"POC"},{"is_transit":false,"distance":1109,"line":2,"station_name":"Univ. Indonesia","transit":false,"i_long":106.831474,"i_lat":-6.360749,"station_id":"UI","time":2},{"transit":false,"is_transit":false,"i_long":106.834175,"station_name":"Univ. Pancasila","distance":2264,"i_lat":-6.339291,"time":3,"line":2,"station_id":"UP"},{"station_id":"LNA","transit":false,"time":2,"station_name":"Lenteng Agung","i_lat":-6.330363,"line":2,"i_long":106.832616,"distance":1029,"is_transit":false},{"is_transit":false,"time":3,"transit":false,"i_long":106.838896,"station_name":"Tanjung Barat","i_lat":-6.3080680000000005,"distance":2671,"station_id":"TNT","line":2},{"is_transit":false,"station_id":"PSM","distance":2820,"station_name":"Pasar Minggu","transit":false,"i_long":106.843999,"time":4,"line":2,"i_lat":-6.2842400000000005},{"time":2,"is_transit":false,"transit":false,"station_id":"PSMB","i_long":106.851577,"distance":2380,"station_name":"Pasar Minggu Baru","i_lat":-6.263214,"line":2},{"station_id":"DRN","is_transit":false,"station_name":"Duren Kalibata","transit":false,"time":2,"i_lat":-6.255332,"distance":824,"i_long":106.85449,"line":0},{"time":3,"station_name":"Cawang","station_id":"CW","transit":false,"line":0,"i_long":106.856607,"i_lat":-6.242512,"distance":1546,"is_transit":false},{"line":2,"i_long":106.857948,"is_transit":false,"station_id":"TEB","station_name":"Tebet","distance":1230,"transit":false,"i_lat":-6.226659,"time":2},{"station_id":"MRI","transit":true,"is_transit":true,"distance":2610,"line":0,"time":4,"station_name":"Manggarai","i_lat":-6.209883,"i_long":106.84912},{"station_id":"SUD","is_transit":false,"transit":false,"i_long":106.822649,"line":1,"i_lat":-6.202263,"distance":3186,"station_name":"Sudirman","time":4},{"is_transit":false,"line":1,"i_lat":-6.201433,"distance":280,"station_id":"SUDB","time":1,"station_name":"Sudirman Baru","i_long":106.819881,"transit":false},{"time":1,"transit":false,"line":1,"is_transit":false,"i_long":106.816351,"distance":471,"station_name":"Karet","station_id":"KAT","i_lat":-6.20132},{"time":5,"distance":2029,"transit":false,"i_long":106.811091,"is_transit":true,"station_id":"THB","station_name":"Tanah Abang","i_lat":-6.185545,"line":1},{"time":8,"i_lat":-6.155215,"transit":true,"is_transit":true,"i_long":106.800832,"station_name":"Duri","line":1,"distance":3632,"station_id":"DU"},{"station_name":"Angke","transit":false,"is_transit":false,"time":4,"station_id":"AK","distance":1230,"i_long":106.79867,"i_lat":-6.144674,"line":0},{"i_lat":-6.132549,"line":0,"station_name":"Kampung Bandan","i_long":106.826365,"station_id":"KPB","time":9,"transit":true,"is_transit":true,"distance":4102},{"time":3,"line":11,"i_lat":-6.14505,"i_long":106.836569,"distance":1444,"is_transit":false,"station_id":"RJW","transit":false,"station_name":"Rajawali"},{"line":11,"distance":1901,"station_name":"Kemayoran","station_id":"KMO","time":5,"transit":false,"i_lat":-6.161728,"is_transit":false,"i_long":106.839204},{"station_id":"PSE","line":11,"i_long":106.84368,"time":4,"station_name":"Pasar Senen","distance":1436,"transit":false,"is_transit":false,"i_lat":-6.174784},{"time":8,"line":11,"is_transit":false,"transit":false,"station_name":"Gang Sentiong","distance":1567,"station_id":"GST","i_lat":-6.185975,"i_long":106.850107},{"i_long":106.855437,"transit":false,"station_id":"KMT","line":11,"station_name":"Kramat","is_transit":false,"i_lat":-6.193792,"distance":973,"time":1},{"is_transit":false,"transit":false,"distance":1829,"station_name":"Pondok Jati","time":2,"line":11,"i_long":106.861737,"station_id":"POK","i_lat":-6.209188},{"is_transit":true,"distance":1236,"transit":true,"i_lat":-6.215091,"time":9,"i_long":106.86807400000001,"station_name":"Jatinegara","line":0,"station_id":"JNG"},{"station_id":"KLD","is_transit":false,"i_lat":-6.2135,"station_name":"Klender","distance":3395,"transit":false,"line":1,"i_long":106.899548,"time":3},{"time":2,"transit":false,"station_id":"BUA","line":0,"i_lat":-6.215568,"i_long":106.922662,"distance":3100,"is_transit":false,"station_name":"Buaran"},{"time":1,"is_transit":false,"i_lat":-6.217455,"station_name":"Klenderbaru","i_long":106.939679,"station_id":"KLDB","transit":false,"distance":1305,"line":1}],[{"distance":0,"station_name":"Bogor","station_id":"BOO","transit":false,"line":1,"i_lat":-6.594596,"time":0,"i_long":106.790574,"is_transit":true},{"i_lat":-6.530544,"transit":false,"station_id":"CLT","i_long":106.800016,"station_name":"Cilebut","distance":7514,"time":9,"line":0,"is_transit":false},{"station_id":"BJD","line":0,"distance":4331,"time":5,"is_transit":false,"station_name":"Bojonggede","i_lat":-6.493243,"i_long":106.792719,"transit":false},{"station_name":"Citayam","station_id":"CTA","i_long":106.800298,"i_lat":-6.448811,"time":5,"distance":5197,"transit":false,"line":1,"is_transit":true},{"distance":5084,"time":6,"is_transit":false,"station_name":"Depok","i_lat":-6.405256,"transit":false,"station_id":"DP","i_long":106.816926,"line":0},{"i_lat":-6.391065,"transit":false,"station_id":"DPB","station_name":"Depokbaru","line":0,"is_transit":false,"time":3,"distance":1584,"i_long":106.819451},{"line":2,"transit":false,"distance":2727,"is_transit":false,"station_name":"Pondok Cina","station_id":"POC","i_lat":-6.369073,"i_long":106.831114,"time":4},{"i_long":106.831474,"distance":1109,"line":2,"time":2,"station_name":"Univ. Indonesia","station_id":"UI","i_lat":-6.360749,"is_transit":false,"transit":false},{"time":3,"transit":false,"i_lat":-6.339291,"station_id":"UP","station_name":"Univ. Pancasila","distance":2264,"i_long":106.834175,"is_transit":false,"line":2},{"station_name":"Lenteng Agung","station_id":"LNA","transit":false,"i_long":106.832616,"is_transit":false,"time":2,"i_lat":-6.330363,"distance":1029,"line":2},{"i_long":106.838896,"station_id":"TNT","distance":2671,"i_lat":-6.3080680000000005,"line":2,"time":3,"station_name":"Tanjung Barat","transit":false,"is_transit":false},{"is_transit":false,"i_lat":-6.2842400000000005,"transit":false,"distance":2820,"i_long":106.843999,"station_id":"PSM","time":4,"line":2,"station_name":"Pasar Minggu"},{"i_lat":-6.263214,"transit":false,"station_id":"PSMB","is_transit":false,"station_name":"Pasar Minggu Baru","time":2,"distance":2380,"i_long":106.851577,"line":2},{"transit":false,"line":0,"is_transit":false,"distance":824,"i_lat":-6.255332,"time":2,"station_name":"Duren Kalibata","station_id":"DRN","i_long":106.85449},{"distance":1546,"station_id":"CW","transit":false,"is_transit":false,"i_long":106.856607,"i_lat":-6.242512,"line":0,"time":3,"station_name":"Cawang"},{"time":2,"is_transit":false,"distance":1230,"station_name":"Tebet","i_long":106.857948,"line":2,"transit":false,"station_id":"TEB","i_lat":-6.226659},{"i_lat":-6.209883,"time":4,"transit":true,"i_long":106.84912,"is_transit":true,"line":0,"distance":2610,"station_name":"Manggarai","station_id":"MRI"},{"i_lat":-6.198556,"line":0,"time":4,"distance":1590,"i_long":106.840169,"station_id":"CKI","station_name":"Cikini","is_transit":false,"transit":false},{"transit":false,"line":2,"is_transit":false,"station_id":"GDD","i_lat":-6.186295,"time":3,"distance":1750,"station_name":"Gondangdia","i_long":106.832183},{"station_name":"Juanda","i_long":106.828284,"transit":false,"station_id":"JUA","i_lat":-6.166716,"time":4,"line":2,"is_transit":false,"distance":2015},{"station_id":"SW","time":2,"distance":1149,"i_lat":-6.160725,"transit":false,"is_transit":false,"station_name":"Sawah Besar","i_long":106.827103,"line":2},{"line":2,"i_lat":-6.149769,"transit":false,"i_long":106.82482,"is_transit":false,"time":2,"distance":906,"station_name":"Manggabesar","station_id":"MGB"},{"station_name":"Jayakarta","line":7,"station_id":"JAY","distance":1080,"i_long":106.820901,"transit":false,"i_lat":-6.141205,"is_transit":false,"time":2},{"i_long":106.812439,"station_name":"Jakarta Kota","line":0,"transit":true,"station_id":"JAKK","time":4,"is_transit":true,"i_lat":-6.137569,"distance":1264},{"station_name":"Kampung Bandan","i_long":106.826365,"time":3,"station_id":"KPB","i_lat":-6.132549,"is_transit":true,"distance":1364,"line":0,"transit":true},{"station_name":"Rajawali","line":11,"transit":false,"time":3,"i_lat":-6.14505,"distance":1444,"is_transit":false,"station_id":"RJW","i_long":106.836569},{"station_name":"Kemayoran","line":11,"is_transit":false,"distance":1901,"time":5,"station_id":"KMO","transit":false,"i_lat":-6.161728,"i_long":106.839204},{"distance":1436,"line":11,"time":4,"transit":false,"is_transit":false,"i_long":106.84368,"station_name":"Pasar Senen","i_lat":-6.174784,"station_id":"PSE"},{"transit":false,"time":8,"station_name":"Gang Sentiong","station_id":"GST","line":11,"distance":1567,"is_transit":false,"i_lat":-6.185975,"i_long":106.850107},{"line":11,"distance":973,"i_long":106.855437,"transit":false,"is_transit":false,"station_name":"Kramat","station_id":"KMT","i_lat":-6.193792,"time":1},{"station_name":"Pondok Jati","station_id":"POK","i_lat":-6.209188,"time":2,"transit":false,"distance":1829,"i_long":106.861737,"is_transit":false,"line":11},{"is_transit":true,"distance":1236,"i_lat":-6.215091,"time":9,"station_id":"JNG","transit":true,"i_long":106.86807400000001,"line":0,"station_name":"Jatinegara"},{"transit":false,"station_id":"KLD","i_long":106.899548,"is_transit":false,"station_name":"Klender","time":3,"distance":3395,"i_lat":-6.2135,"line":1},{"is_transit":false,"transit":false,"station_id":"BUA","distance":3100,"i_lat":-6.215568,"i_long":106.922662,"line":0,"time":2,"station_name":"Buaran"},{"time":1,"station_id":"KLDB","transit":false,"i_long":106.939679,"line":1,"is_transit":false,"station_name":"Klenderbaru","i_lat":-6.217455,"distance":1305}]]}