{"data":[[{"is_transit":false,"i_long":106.790574,"station_id":"BOO","distance":0,"i_lat":-6.594596,"station_name":"Bogor","transit":false,"time":0,"line":2},{"i_lat":-6.530544,"is_transit":false,"station_id":"CLT","distance":7514,"line":2,"station_name":"Cilebut","transit":false,"time":9,"i_long":106.800016},{"i_long":106.792719,"station_id":"BJD","time":5,"transit":false,"i_lat":-6.493243,"station_name":"Bojonggede","is_transit":false,"distance":4331,"line":2},{"station_name":"Citayam","distance":5197,"station_id":"CTA","is_transit":false,"line":2,"i_lat":-6.448811,"transit":false,"i_long":106.800298,"time":5},{"is_transit":false,"distance":5084,"transit":false,"station_name":"Depok","station_id":"DP","time":6,"i_long":106.816926,"i_lat":-6.405256,"line":2},{"i_long":106.819451,"transit":false,"distance":1584,"line":2,"station_name":"Depokbaru","is_transit":false,"i_lat":-6.391065,"station_id":"DPB","time":3},{"i_lat":-6.369073,"line":2,"station_name":"Pondok Cina","distance":2727,"transit":false,"time":4,"station_id":"POC","is_transit":false,"i_long":106.831114},{"distance":1109,"i_lat":-6.360749,"transit":false,"station_name":"Univ. Indonesia","station_id":"UI","is_transit":false,"i_long":106.831474,"time":2,"line":2},{"time":3,"transit":false,"station_name":"Univ. Pancasila","is_transit":false,"distance":2264,"i_lat":-6.339291,"i_long":106.834175,"line":2,"station_id":"UP"},{"transit":false,"is_transit":false,"i_lat":-6.330363,"station_id":"LNA","distance":1029,"line":2,"time":2,"i_long":106.832616,"station_name":"Lenteng Agung"},{"station_name":"Tanjung Barat","is_transit":false,"line":2,"station_id":"TNT","time":3,"distance":2671,"transit":false,"i_lat":-6.3080680000000005,"i_long":106.838896},{"i_long":106.843999,"line":2,"i_lat":-6.2842400000000005,"time":4,"station_id":"PSM","station_name":"Pasar Minggu","is_transit":false,"transit":false,"distance":2820},{"i_lat":-6.263214,"time":2,"station_name":"Pasar Minggu Baru","transit":false,"station_id":"PSMB","i_long":106.851577,"line":2,"distance":2380,"is_transit":false},{"i_long":106.85449,"time":2,"station_name":"Duren Kalibata","station_id":"DRN","is_transit":false,"transit":false,"line":2,"distance":824,"i_lat":-6.255332},{"station_id":"CW","time":3,"is_transit":false,"transit":false,"station_name":"Cawang","i_lat":-6.242512,"distance":1546,"line":2,"i_long":106.856607},{"time":2,"transit":false,"distance":1230,"station_name":"Tebet","station_id":"TEB","i_lat":-6.226659,"is_transit":false,"i_long":106.857948,"line":2},{"time":4,"station_name":"Manggarai","line":2,"i_long":106.84912,"transit":true,"distance":2610,"i_lat":-6.209883,"station_id":"MRI","is_transit":true},{"station_id":"SUD","transit":false,"i_long":106.822649,"is_transit":false,"time":4,"distance":3186,"i_lat":-6.202263,"line":1,"station_name":"Sudirman"},{"distance":280,"line":1,"station_id":"SUDB","i_lat":-6.201433,"time":1,"station_name":"Sudirman Baru","i_long":106.819881,"transit":false,"is_transit":false},{"transit":false,"station_name":"Karet","distance":471,"i_long":106.816351,"time":1,"line":1,"i_lat":-6.20132,"is_transit":false,"station_id":"KAT"},{"station_name":"Tanah Abang","is_transit":false,"station_id":"THB","distance":2029,"line":1,"time":5,"i_long":106.811091,"i_lat":-6.185545,"transit":false},{"is_transit":true,"line":1,"distance":3632,"transit":true,"station_id":"DU","i_lat":-6.155215,"i_long":106.800832,"station_name":"Duri","time":8},{"time":3,"i_lat":-6.162021,"transit":false,"is_transit":false,"distance":1700,"i_long":106.788277,"station_name":"Grogol","station_id":"GGL","line":5},{"transit":false,"time":2,"station_name":"Pesing","station_id":"PSG","is_transit":false,"distance":2036,"i_lat":-6.161433,"i_long":106.771379,"line":5},{"distance":1614,"i_lat":-6.1587309999999995,"is_transit":false,"station_id":"TKO","time":2,"transit":false,"i_long":106.756522,"line":5,"station_name":"Taman Kota"},{"station_id":"BOI","i_long":106.737035,"time":2,"station_name":"Bojongindah","transit":false,"is_transit":false,"line":5,"i_lat":-6.159876,"distance":2334},{"is_transit":false,"transit":false,"station_name":"Rawa Buaya","station_id":"RW","distance":1152,"i_lat":-6.162758,"line":5,"time":4,"i_long":106.723064}],[{"transit":false,"station_name":"Bogor","time":0,"i_long":106.790574,"distance":0,"line":2,"station_id":"BOO","is_transit":false,"i_lat":-6.594596},{"line":2,"time":9,"station_name":"Cilebut","i_long":106.800016,"distance":7514,"station_id":"CLT","is_transit":false,"transit":false,"i_lat":-6.530544},{"distance":4331,"station_id":"BJD","line":2,"station_name":"Bojonggede","is_transit":false,"i_long":106.792719,"time":5,"transit":false,"i_lat":-6.493243},{"station_id":"CTA","transit":false,"is_transit":false,"station_name":"Citayam","i_long":106.800298,"i_lat":-6.448811,"time":5,"line":2,"distance":5197},{"time":6,"distance":5084,"station_name":"Depok","i_lat":-6.405256,"i_long":106.816926,"transit":false,"station_id":"DP","line":2,"is_transit":false},{"is_transit":false,"i_lat":-6.391065,"station_id":"DPB","time":3,"i_long":106.819451,"transit":false,"station_name":"Depokbaru","distance":1584,"line":2},{"station_id":"POC","line":2,"time":4,"distance":2727,"station_name":"Pondok Cina","i_lat":-6.369073,"is_transit":false,"i_long":106.831114,"transit":false},{"station_id":"UI","time":2,"i_lat":-6.360749,"distance":1109,"transit":false,"i_long":106.831474,"line":2,"station_name":"Univ. Indonesia","is_transit":false},{"i_long":106.834175,"is_transit":false,"transit":false,"station_name":"Univ. Pancasila","distance":2264,"line":2,"i_lat":-6.339291,"station_id":"UP","time":3},{"station_name":"Lenteng Agung","is_transit":false,"i_long":106.832616,"i_lat":-6.330363,"time":2,"distance":1029,"transit":false,"line":2,"station_id":"LNA"},{"i_lat":-6.3080680000000005,"line":2,"station_id":"TNT","time":3,"is_transit":false,"distance":2671,"transit":false,"station_name":"Tanjung Barat","i_long":106.838896},{"time":4,"station_name":"Pasar Minggu","transit":false,"distance":2820,"i_lat":-6.2842400000000005,"i_long":106.843999,"line":2,"station_id":"PSM","is_transit":false},{"distance":2380,"i_long":106.851577,"time":2,"station_id":"PSMB","i_lat":-6.263214,"station_name":"Pasar Minggu Baru","transit":false,"is_transit":false,"line":2},{"line":2,"distance":824,"time":2,"i_long":106.85449,"transit":false,"station_name":"Duren Kalibata","station_id":"DRN","i_lat":-6.255332,"is_transit":false},{"line":2,"is_transit":false,"distance":1546,"i_lat":-6.242512,"station_id":"CW","station_name":"Cawang","time":3,"transit":false,"i_long":106.856607},{"station_name":"Tebet","is_transit":false,"i_lat":-6.226659,"i_long":106.857948,"line":2,"time":2,"station_id":"TEB","transit":false,"distance":1230},{"distance":2610,"i_lat":-6.209883,"i_long":106.84912,"time":4,"transit":false,"station_name":"Manggarai","station_id":"MRI","line":2,"is_transit":false},{"transit":false,"station_name":"Cikini","is_transit":false,"time":4,"i_long":106.840169,"station_id":"CKI","line":2,"distance":1590,"i_lat":-6.198556},{"time":3,"line":2,"station_id":"GDD","i_long":106.832183,"station_name":"Gondangdia","distance":1750,"i_lat":-6.186295,"is_transit":false,"transit":false},{"i_long":106.828284,"station_id":"JUA","i_lat":-6.166716,"station_name":"Juanda","time":4,"transit":false,"distance":2015,"line":2,"is_transit":false},{"is_transit":false,"station_id":"SW","time":2,"distance":1149,"i_lat":-6.160725,"i_long":106.827103,"line":2,"station_name":"Sawah Besar","transit":false},{"i_long":106.82482,"line":2,"transit":false,"i_lat":-6.149769,"is_transit":false,"station_name":"Manggabesar","station_id":"MGB","time":2,"distance":906},{"station_name":"Jayakarta","time":2,"station_id":"JAY","i_lat":-6.141205,"i_long":106.820901,"distance":1080,"line":2,"transit":false,"is_transit":false},{"i_lat":-6.137569,"i_long":106.812439,"line":2,"transit":true,"station_name":"Jakarta Kota","station_id":"JAKK","time":4,"is_transit":true,"distance":1264},{"is_transit":true,"i_long":106.826365,"station_name":"Kampung Bandan","station_id":"KPB","distance":1364,"i_lat":-6.132549,"line":4,"transit":true,"time":3},{"is_transit":false,"line":1,"transit":false,"station_name":"Angke","station_id":"AK","time":9,"distance":4102,"i_lat":-6.144674,"i_long":106.79867},{"station_id":"DU","i_long":106.800832,"time":4,"i_lat":-6.155215,"line":1,"transit":true,"distance":1230,"is_transit":true,"station_name":"Duri"},{"i_long":106.788277,"is_transit":false,"line":5,"transit":false,"time":3,"distance":1700,"station_name":"Grogol","station_id":"GGL","i_lat":-6.162021},{"i_lat":-6.161433,"is_transit":false,"distance":2036,"i_long":106.771379,"line":5,"station_id":"PSG","station_name":"Pesing","transit":false,"time":2},{"station_name":"Taman Kota","distance":1614,"line":5,"station_id":"TKO","is_transit":false,"i_lat":-6.1587309999999995,"transit":false,"time":2,"i_long":106.756522},{"time":2,"i_lat":-6.159876,"i_long":106.737035,"transit":false,"distance":2334,"station_name":"Bojongindah","station_id":"BOI","line":5,"is_transit":false},{"transit":false,"is_transit":false,"station_id":"RW","line":5,"time":4,"i_long":106.723064,"station_name":"Rawa Buaya","i_lat":-6.162758,"distance":1152}],[{"station_name":"Bogor","distance":0,"station_id":"BOO","i_long":106.790574,"i_lat":-6.594596,"line":2,"is_transit":false,"transit":false,"time":0},{"line":2,"station_name":"Cilebut","i_lat":-6.530544,"time":9,"distance":7514,"is_transit":false,"station_id":"CLT","i_long":106.800016,"transit":false},{"transit":false,"line":2,"is_transit":false,"time":5,"i_lat":-6.493243,"station_name":"Bojonggede","distance":4331,"i_long":106.792719,"station_id":"BJD"},{"i_lat":-6.448811,"station_name":"Citayam","i_long":106.800298,"is_transit":false,"transit":false,"station_id":"CTA","time":5,"distance":5197,"line":2},{"station_id":"DP","i_lat":-6.405256,"station_name":"Depok","transit":false,"is_transit":false,"distance":5084,"time":6,"i_long":106.816926,"line":2},{"station_name":"Depokbaru","is_transit":false,"transit":false,"i_long":106.819451,"line":2,"time":3,"i_lat":-6.391065,"station_id":"DPB","distance":1584},{"line":2,"is_transit":false,"time":4,"transit":false,"i_long":106.831114,"station_name":"Pondok Cina","distance":2727,"station_id":"POC","i_lat":-6.369073},{"transit":false,"station_name":"Univ. Indonesia","distance":1109,"i_long":106.831474,"line":2,"time":2,"station_id":"UI","i_lat":-6.360749,"is_transit":false},{"station_name":"Univ. Pancasila","transit":false,"is_transit":false,"time":3,"i_long":106.834175,"distance":2264,"i_lat":-6.339291,"station_id":"UP","line":2},{"transit":false,"i_long":106.832616,"line":2,"i_lat":-6.330363,"station_id":"LNA","time":2,"is_transit":false,"station_name":"Lenteng Agung","distance":1029},{"i_long":106.838896,"i_lat":-6.3080680000000005,"line":2,"station_id":"TNT","time":3,"station_name":"Tanjung Barat","transit":false,"is_transit":false,"distance":2671},{"station_id":"PSM","station_name":"Pasar Minggu","line":2,"is_transit":false,"distance":2820,"i_long":106.843999,"transit":false,"time":4,"i_lat":-6.2842400000000005},{"distance":2380,"i_lat":-6.263214,"i_long":106.851577,"line":2,"transit":false,"is_transit":false,"station_name":"Pasar Minggu Baru","station_id":"PSMB","time":2},{"station_id":"DRN","i_lat":-6.255332,"transit":false,"is_transit":false,"line":2,"i_long":106.85449,"station_name":"Duren Kalibata","time":2,"distance":824},{"transit":false,"is_transit":false,"distance":1546,"i_long":106.856607,"line":2,"time":3,"i_lat":-6.242512,"station_name":"Cawang","station_id":"CW"},{"station_id":"TEB","line":2,"time":2,"is_transit":false,"distance":1230,"i_lat":-6.226659,"i_long":106.857948,"station_name":"Tebet","transit":false},{"station_name":"Manggarai","transit":true,"is_transit":true,"station_id":"MRI","time":4,"distance":2610,"i_long":106.84912,"i_lat":-6.209883,"line":2},{"time":2,"i_long":106.858896,"station_id":"MTR","is_transit":false,"distance":1275,"i_lat":-6.212485,"line":1,"transit":false,"station_name":"Matraman"},{"distance":1377,"station_name":"Jatinegara","i_lat":-6.215091,"line":1,"i_long":106.86807400000001,"time":8,"is_transit":true,"transit":true,"station_id":"JNG"},{"is_transit":false,"distance":1236,"transit":false,"i_lat":-6.209188,"line":11,"i_long":106.861737,"station_id":"POK","time":2,"station_name":"Pondok Jati"},{"station_id":"KMT","is_transit":false,"i_long":106.855437,"line":11,"station_name":"Kramat","transit":false,"time":2,"i_lat":-6.193792,"distance":1829},{"i_lat":-6.185975,"distance":973,"i_long":106.850107,"line":11,"transit":false,"station_name":"Gang Sentiong","is_transit":false,"station_id":"GST","time":1},{"time":8,"station_id":"PSE","station_name":"Pasar Senen","distance":1567,"is_transit":false,"transit":false,"i_lat":-6.174784,"line":11,"i_long":106.84368},{"i_lat":-6.161728,"is_transit":false,"transit":false,"station_name":"Kemayoran","line":11,"station_id":"KMO","i_long":106.839204,"time":4,"distance":1436},{"station_name":"Rajawali","i_long":106.836569,"transit":false,"distance":1901,"line":11,"is_transit":false,"time":5,"station_id":"RJW","i_lat":-6.14505},{"station_name":"Kampung Bandan","i_lat":-6.132549,"transit":true,"is_transit":true,"time":3,"line":4,"station_id":"KPB","distance":1444,"i_long":106.826365},{"line":1,"station_id":"AK","i_long":106.79867,"transit":false,"distance":4102,"is_transit":false,"i_lat":-6.144674,"station_name":"Angke","time":9},{"station_id":"DU","transit":true,"i_lat":-6.155215,"station_name":"Duri","i_long":106.800832,"distance":1230,"is_transit":true,"time":4,"line":1},{"line":5,"distance":1700,"station_name":"Grogol","station_id":"GGL","time":3,"transit":false,"is_transit":false,"i_lat":-6.162021,"i_long":106.788277},{"distance":2036,"is_transit":false,"line":5,"station_name":"Pesing","i_long":106.771379,"transit":false,"station_id":"PSG","time":2,"i_lat":-6.161433},{"station_id":"TKO","i_long":106.756522,"is_transit":false,"line":5,"station_name":"Taman Kota","distance":1614,"i_lat":-6.1587309999999995,"time":2,"transit":false},{"line":5,"transit":false,"station_id":"BOI","is_transit":false,"station_name":"Bojongindah","distance":2334,"time":2,"i_lat":-6.159876,"i_long":106.737035},{"distance":1152,"transit":false,"is_transit":false,"line":5,"station_name":"Rawa Buaya","station_id":"RW","time":4,"i_long":106.723064,"i_lat":-6.162758}]]}