{"data":[[{"station_name":"Bogor","is_transit":false,"distance":0,"line":2,"i_lat":-6.594596,"station_id":"BOO","i_long":106.790574,"time":0,"transit":false},{"station_name":"Cilebut","i_lat":-6.530544,"line":2,"transit":false,"distance":7514,"i_long":106.800016,"time":9,"station_id":"CLT","is_transit":false},{"i_long":106.792719,"line":2,"transit":false,"distance":4331,"station_id":"BJD","i_lat":-6.493243,"station_name":"Bojonggede","is_transit":false,"time":5},{"time":5,"station_id":"CTA","station_name":"Citayam","transit":false,"is_transit":false,"line":2,"i_long":106.800298,"i_lat":-6.448811,"distance":5197},{"station_id":"DP","i_long":106.816926,"transit":false,"time":6,"is_transit":false,"distance":5084,"station_name":"Depok","line":2,"i_lat":-6.405256},{"distance":1584,"i_lat":-6.391065,"time":3,"is_transit":false,"i_long":106.819451,"transit":false,"station_name":"Depokbaru","station_id":"DPB","line":2},{"i_lat":-6.369073,"i_long":106.831114,"is_transit":false,"transit":false,"time":4,"station_id":"POC","distance":2727,"line":2,"station_name":"Pondok Cina"}]]}