{"data":[[{"transit":false,"time":0,"station_name":"Bogor","distance":0,"is_transit":true,"i_lat":-6.594596,"station_id":"BOO","i_long":106.790574,"line":1},{"station_id":"CLT","transit":false,"time":9,"i_lat":-6.530544,"is_transit":false,"i_long":106.800016,"line":0,"station_name":"Cilebut","distance":7514},{"i_long":106.792719,"distance":4331,"line":0,"i_lat":-6.493243,"transit":false,"is_transit":false,"time":5,"station_id":"BJD","station_name":"Bojonggede"},{"station_name":"Citayam","distance":5197,"station_id":"CTA","i_long":106.800298,"line":1,"time":5,"is_transit":true,"transit":false,"i_lat":-6.448811},{"time":6,"i_long":106.816926,"distance":5084,"station_name":"Depok","is_transit":false,"transit":false,"station_id":"DP","i_lat":-6.405256,"line":0},{"i_lat":-6.391065,"distance":1584,"is_transit":false,"line":0,"i_long":106.819451,"station_id":"DPB","station_name":"Depokbaru","transit":false,"time":3},{"line":2,"distance":2727,"is_transit":false,"i_lat":-6.369073,"i_long":106.831114,"transit":false,"station_id":"POC","time":4,"station_name":"Pondok Cina"},{"is_transit":false,"transit":false,"time":2,"station_id":"UI","i_lat":-6.360749,"line":2,"i_long":106.831474,"station_name":"Univ. Indonesia","distance":1109},{"i_lat":-6.339291,"distance":2264,"i_long":106.834175,"line":2,"transit":false,"station_name":"Univ. Pancasila","station_id":"UP","is_transit":false,"time":3},{"station_name":"Lenteng Agung","station_id":"LNA","distance":1029,"transit":false,"time":2,"i_long":106.832616,"i_lat":-6.330363,"line":2,"is_transit":false},{"is_transit":false,"i_long":106.838896,"i_lat":-6.3080680000000005,"station_name":"Tanjung Barat","station_id":"TNT","time":3,"line":2,"transit":false,"distance":2671},{"distance":2820,"transit":false,"time":4,"line":2,"i_long":106.843999,"is_transit":false,"station_id":"PSM","station_name":"Pasar Minggu","i_lat":-6.2842400000000005},{"transit":false,"line":2,"station_name":"Pasar Minggu Baru","time":2,"i_lat":-6.263214,"distance":2380,"i_long":106.851577,"station_id":"PSMB","is_transit":false},{"station_id":"DRN","transit":false,"i_long":106.85449,"i_lat":-6.255332,"station_name":"Duren Kalibata","time":2,"is_transit":false,"line":0,"distance":824},{"i_long":106.856607,"is_transit":false,"station_id":"CW","time":3,"transit":false,"distance":1546,"i_lat":-6.242512,"line":0,"station_name":"Cawang"},{"distance":1230,"station_name":"Tebet","transit":false,"i_lat":-6.226659,"time":2,"station_id":"TEB","i_long":106.857948,"line":2,"is_transit":false},{"station_name":"Manggarai","time":4,"i_lat":-6.209883,"station_id":"MRI","distance":2610,"is_transit":true,"transit":true,"i_long":106.84912,"line":0},{"i_lat":-6.198556,"station_name":"Cikini","is_transit":false,"station_id":"CKI","time":4,"transit":false,"i_long":106.840169,"distance":1590,"line":0},{"line":2,"station_id":"GDD","station_name":"Gondangdia","is_transit":false,"transit":false,"i_lat":-6.186295,"i_long":106.832183,"time":3,"distance":1750},{"i_lat":-6.166716,"i_long":106.828284,"time":4,"station_id":"JUA","distance":2015,"transit":false,"is_transit":false,"line":2,"station_name":"Juanda"}],[{"is_transit":true,"i_long":106.790574,"i_lat":-6.594596,"station_name":"Bogor","time":0,"distance":0,"station_id":"BOO","line":1,"transit":false},{"transit":false,"station_id":"CLT","i_long":106.800016,"is_transit":false,"station_name":"Cilebut","time":9,"i_lat":-6.530544,"line":0,"distance":7514},{"station_name":"Bojonggede","is_transit":false,"transit":false,"i_long":106.792719,"station_id":"BJD","distance":4331,"line":0,"i_lat":-6.493243,"time":5},{"time":5,"i_long":106.800298,"station_name":"Citayam","station_id":"CTA","transit":false,"is_transit":true,"i_lat":-6.448811,"distance":5197,"line":1},{"distance":5084,"i_lat":-6.405256,"station_id":"DP","station_name":"Depok","is_transit":false,"transit":false,"time":6,"line":0,"i_long":106.816926},{"line":0,"time":3,"distance":1584,"transit":false,"is_transit":false,"station_id":"DPB","i_long":106.819451,"station_name":"Depokbaru","i_lat":-6.391065},{"line":2,"station_name":"Pondok Cina","distance":2727,"is_transit":false,"i_long":106.831114,"i_lat":-6.369073,"transit":false,"station_id":"POC","time":4},{"time":2,"i_lat":-6.360749,"i_long":106.831474,"distance":1109,"line":2,"station_id":"UI","is_transit":false,"station_name":"Univ. Indonesia","transit":false},{"line":2,"distance":2264,"is_transit":false,"station_id":"UP","transit":false,"i_lat":-6.339291,"i_long":106.834175,"station_name":"Univ. Pancasila","time":3},{"i_lat":-6.330363,"station_name":"Lenteng Agung","is_transit":false,"i_long":106.832616,"distance":1029,"transit":false,"line":2,"station_id":"LNA","time":2},{"is_transit":false,"i_long":106.838896,"line":2,"i_lat":-6.3080680000000005,"station_name":"Tanjung Barat","time":3,"distance":2671,"transit":false,"station_id":"TNT"},{"i_lat":-6.2842400000000005,"line":2,"i_long":106.843999,"is_transit":false,"distance":2820,"transit":false,"time":4,"station_id":"PSM","station_name":"Pasar Minggu"},{"is_transit":false,"i_lat":-6.263214,"station_name":"Pasar Minggu Baru","line":2,"i_long":106.851577,"station_id":"PSMB","distance":2380,"transit":false,"time":2},{"is_transit":false,"line":0,"transit":false,"station_name":"Duren Kalibata","i_long":106.85449,"i_lat":-6.255332,"time":2,"station_id":"DRN","distance":824},{"transit":false,"is_transit":false,"station_id":"CW","i_lat":-6.242512,"line":0,"time":3,"distance":1546,"i_long":106.856607,"station_name":"Cawang"},{"station_name":"Tebet","station_id":"TEB","time":2,"transit":false,"distance":1230,"i_lat":-6.226659,"i_long":106.857948,"is_transit":false,"line":2},{"station_name":"Manggarai","line":0,"time":4,"is_transit":true,"distance":2610,"transit":true,"station_id":"MRI","i_lat":-6.209883,"i_long":106.84912},{"distance":3186,"time":4,"station_name":"Sudirman","i_long":106.822649,"transit":false,"i_lat":-6.202263,"line":1,"station_id":"SUD","is_transit":false},{"is_transit":false,"distance":280,"station_id":"SUDB","transit":false,"time":1,"i_lat":-6.201433,"line":1,"i_long":106.819881,"station_name":"Sudirman Baru"},{"i_lat":-6.20132,"distance":471,"station_name":"Karet","is_transit":false,"line":1,"time":1,"i_long":106.816351,"station_id":"KAT","transit":false},{"i_lat":-6.185545,"transit":false,"line":1,"is_transit":true,"distance":2029,"i_long":106.811091,"time":5,"station_id":"THB","station_name":"Tanah Abang"},{"i_long":106.800832,"distance":3632,"time":8,"i_lat":-6.155215,"station_name":"Duri","station_id":"DU","is_transit":true,"line":1,"transit":true},{"station_id":"AK","time":4,"line":0,"distance":1230,"station_name":"Angke","transit":false,"i_lat":-6.144674,"is_transit":false,"i_long":106.79867},{"station_name":"Kampung Bandan","distance":4102,"station_id":"KPB","i_long":106.826365,"i_lat":-6.132549,"line":0,"is_transit":true,"transit":false,"time":9},{"line":0,"distance":1364,"station_name":"Jakarta Kota","i_long":106.812439,"station_id":"JAKK","is_transit":true,"time":3,"transit":true,"i_lat":-6.137569},{"time":4,"distance":1264,"is_transit":false,"i_lat":-6.141205,"line":7,"station_id":"JAY","transit":false,"station_name":"Jayakarta","i_long":106.820901},{"station_name":"Manggabesar","time":2,"is_transit":false,"line":2,"transit":false,"distance":1080,"i_long":106.82482,"station_id":"MGB","i_lat":-6.149769},{"transit":false,"distance":906,"time":2,"i_lat":-6.160725,"is_transit":false,"line":2,"station_id":"SW","station_name":"Sawah Besar","i_long":106.827103},{"line":2,"is_transit":false,"i_long":106.828284,"station_name":"Juanda","distance":1149,"transit":false,"time":2,"i_lat":-6.166716,"station_id":"JUA"}],[{"i_long":106.790574,"distance":0,"station_name":"Bogor","station_id":"BOO","i_lat":-6.594596,"line":1,"is_transit":true,"transit":false,"time":0},{"time":9,"is_transit":false,"transit":false,"i_lat":-6.530544,"i_long":106.800016,"distance":7514,"station_name":"Cilebut","line":0,"station_id":"CLT"},{"time":5,"transit":false,"distance":4331,"i_long":106.792719,"station_id":"BJD","line":0,"is_transit":false,"i_lat":-6.493243,"station_name":"Bojonggede"},{"is_transit":true,"transit":false,"distance":5197,"station_id":"CTA","i_long":106.800298,"station_name":"Citayam","time":5,"i_lat":-6.448811,"line":1},{"is_transit":false,"i_lat":-6.405256,"transit":false,"time":6,"station_name":"Depok","i_long":106.816926,"distance":5084,"station_id":"DP","line":0},{"distance":1584,"transit":false,"station_name":"Depokbaru","station_id":"DPB","i_long":106.819451,"is_transit":false,"i_lat":-6.391065,"line":0,"time":3},{"transit":false,"station_name":"Pondok Cina","station_id":"POC","i_lat":-6.369073,"is_transit":false,"distance":2727,"line":2,"time":4,"i_long":106.831114},{"line":2,"distance":1109,"time":2,"is_transit":false,"station_id":"UI","station_name":"Univ. Indonesia","transit":false,"i_lat":-6.360749,"i_long":106.831474},{"distance":2264,"transit":false,"i_long":106.834175,"i_lat":-6.339291,"time":3,"line":2,"station_id":"UP","station_name":"Univ. Pancasila","is_transit":false},{"is_transit":false,"i_long":106.832616,"time":2,"line":2,"i_lat":-6.330363,"station_name":"Lenteng Agung","transit":false,"distance":1029,"station_id":"LNA"},{"station_id":"TNT","is_transit":false,"line":2,"time":3,"i_lat":-6.3080680000000005,"i_long":106.838896,"station_name":"Tanjung Barat","transit":false,"distance":2671},{"distance":2820,"transit":false,"is_transit":false,"station_name":"Pasar Minggu","i_lat":-6.2842400000000005,"time":4,"line":2,"i_long":106.843999,"station_id":"PSM"},{"distance":2380,"i_long":106.851577,"time":2,"station_id":"PSMB","transit":false,"is_transit":false,"i_lat":-6.263214,"station_name":"Pasar Minggu Baru","line":2},{"station_id":"DRN","distance":824,"station_name":"Duren Kalibata","i_long":106.85449,"line":0,"time":2,"is_transit":false,"transit":false,"i_lat":-6.255332},{"station_name":"Cawang","i_lat":-6.242512,"is_transit":false,"time":3,"i_long":106.856607,"station_id":"CW","distance":1546,"transit":false,"line":0},{"i_long":106.857948,"is_transit":false,"station_id":"TEB","transit":false,"time":2,"i_lat":-6.226659,"distance":1230,"station_name":"Tebet","line":2},{"i_lat":-6.209883,"transit":true,"station_name":"Manggarai","time":4,"station_id":"MRI","is_transit":true,"line":0,"distance":2610,"i_long":106.84912},{"transit":false,"i_long":106.858896,"is_transit":false,"time":2,"line":1,"station_id":"MTR","distance":1275,"station_name":"Matraman","i_lat":-6.212485},{"time":8,"line":0,"i_long":106.86807400000001,"distance":1377,"station_id":"JNG","station_name":"Jatinegara","is_transit":true,"i_lat":-6.215091,"transit":true},{"i_lat":-6.209188,"line":11,"station_name":"Pondok Jati","is_transit":false,"time":2,"i_long":106.861737,"transit":false,"distance":1236,"station_id":"POK"},{"i_long":106.855437,"station_id":"KMT","i_lat":-6.193792,"line":11,"distance":1829,"transit":false,"station_name":"Kramat","time":2,"is_transit":false},{"station_id":"GST","time":1,"i_lat":-6.185975,"distance":973,"i_long":106.850107,"transit":false,"station_name":"Gang Sentiong","line":11,"is_transit":false},{"line":11,"distance":1567,"station_name":"Pasar Senen","i_long":106.84368,"i_lat":-6.174784,"is_transit":false,"station_id":"PSE","time":8,"transit":false},{"station_name":"Kemayoran","time":4,"is_transit":false,"transit":false,"station_id":"KMO","line":11,"i_lat":-6.161728,"distance":1436,"i_long":106.839204},{"line":11,"transit":false,"distance":1901,"i_lat":-6.14505,"station_id":"RJW","i_long":106.836569,"station_name":"Rajawali","is_transit":false,"time":5},{"is_transit":true,"station_id":"KPB","time":3,"line":0,"i_long":106.826365,"i_lat":-6.132549,"transit":true,"distance":1444,"station_name":"Kampung Bandan"},{"i_long":106.812439,"line":0,"transit":true,"distance":1364,"is_transit":true,"time":3,"station_name":"Jakarta Kota","i_lat":-6.137569,"station_id":"JAKK"},{"station_id":"JAY","i_lat":-6.141205,"i_long":106.820901,"distance":1264,"line":7,"is_transit":false,"station_name":"Jayakarta","transit":false,"time":4},{"time":2,"is_transit":false,"distance":1080,"transit":false,"i_long":106.82482,"i_lat":-6.149769,"station_name":"Manggabesar","station_id":"MGB","line":2},{"is_transit":false,"i_lat":-6.160725,"line":2,"distance":906,"station_name":"Sawah Besar","transit":false,"station_id":"SW","time":2,"i_long":106.827103},{"station_name":"Juanda","transit":false,"distance":1149,"line":2,"i_long":106.828284,"time":2,"i_lat":-6.166716,"station_id":"JUA","is_transit":false}]]}