{"data":[[{"time":0,"i_lat":-6.594596,"i_long":106.790574,"distance":0,"station_id":"BOO","is_transit":false,"station_name":"Bogor","line":2,"transit":false},{"is_transit":false,"transit":false,"time":9,"distance":7514,"station_id":"CLT","station_name":"Cilebut","i_lat":-6.530544,"line":2,"i_long":106.800016},{"i_lat":-6.493243,"station_name":"Bojonggede","transit":false,"is_transit":false,"line":2,"time":5,"distance":4331,"i_long":106.792719,"station_id":"BJD"},{"time":5,"station_id":"CTA","i_long":106.800298,"line":2,"i_lat":-6.448811,"station_name":"Citayam","transit":false,"distance":5197,"is_transit":false},{"station_name":"Depok","is_transit":false,"distance":5084,"time":6,"i_lat":-6.405256,"transit":false,"line":2,"station_id":"DP","i_long":106.816926},{"distance":1584,"station_id":"DPB","i_lat":-6.391065,"line":2,"is_transit":false,"transit":false,"station_name":"Depokbaru","i_long":106.819451,"time":3},{"distance":2727,"i_lat":-6.369073,"i_long":106.831114,"is_transit":false,"station_id":"POC","time":4,"transit":false,"line":2,"station_name":"Pondok Cina"},{"station_id":"UI","station_name":"Univ. Indonesia","time":2,"i_lat":-6.360749,"line":2,"distance":1109,"is_transit":false,"transit":false,"i_long":106.831474},{"station_id":"UP","transit":false,"is_transit":false,"i_lat":-6.339291,"i_long":106.834175,"station_name":"Univ. Pancasila","time":3,"distance":2264,"line":2},{"i_lat":-6.330363,"station_id":"LNA","i_long":106.832616,"line":2,"time":2,"transit":false,"distance":1029,"is_transit":false,"station_name":"Lenteng Agung"},{"station_name":"Tanjung Barat","i_lat":-6.3080680000000005,"i_long":106.838896,"line":2,"station_id":"TNT","time":3,"distance":2671,"is_transit":false,"transit":false},{"i_lat":-6.2842400000000005,"station_name":"Pasar Minggu","is_transit":false,"i_long":106.843999,"station_id":"PSM","transit":false,"distance":2820,"line":2,"time":4},{"distance":2380,"station_name":"Pasar Minggu Baru","is_transit":false,"time":2,"station_id":"PSMB","line":2,"i_long":106.851577,"i_lat":-6.263214,"transit":false},{"i_lat":-6.255332,"station_name":"Duren Kalibata","i_long":106.85449,"time":2,"is_transit":false,"line":2,"distance":824,"transit":false,"station_id":"DRN"},{"transit":false,"i_long":106.856607,"is_transit":false,"time":3,"i_lat":-6.242512,"line":2,"station_id":"CW","distance":1546,"station_name":"Cawang"},{"is_transit":false,"station_name":"Tebet","i_lat":-6.226659,"line":2,"transit":false,"time":2,"distance":1230,"station_id":"TEB","i_long":106.857948},{"station_id":"MRI","i_lat":-6.209883,"i_long":106.84912,"line":2,"time":4,"is_transit":true,"distance":2610,"station_name":"Manggarai","transit":true},{"time":4,"i_lat":-6.202263,"line":1,"is_transit":false,"station_id":"SUD","station_name":"Sudirman","transit":false,"i_long":106.822649,"distance":3186},{"i_long":106.819881,"is_transit":false,"time":1,"station_id":"SUDB","i_lat":-6.201433,"line":1,"transit":false,"distance":280,"station_name":"Sudirman Baru"},{"line":1,"transit":false,"station_name":"Karet","is_transit":false,"time":1,"i_long":106.816351,"station_id":"KAT","i_lat":-6.20132,"distance":471},{"i_lat":-6.185545,"station_id":"THB","transit":true,"i_long":106.811091,"line":1,"time":5,"distance":2029,"station_name":"Tanah Abang","is_transit":true},{"is_transit":false,"time":6,"transit":false,"distance":3191,"i_long":106.79689,"i_lat":-6.207404,"line":6,"station_id":"PLM","station_name":"Palmerah"},{"station_id":"KBY","distance":3737,"i_lat":-6.237242,"i_long":106.780334,"station_name":"Kebayoran","is_transit":false,"line":6,"time":7,"transit":false},{"i_lat":-6.276362,"station_name":"Pondokranji","station_id":"PDJ","time":8,"distance":6218,"is_transit":false,"i_long":106.74273,"transit":false,"line":6},{"is_transit":false,"station_id":"JMU","time":3,"i_lat":-6.288927,"distance":2179,"line":6,"transit":false,"station_name":"Jurangmangu","i_long":106.728916}],[{"time":0,"is_transit":false,"i_long":106.790574,"line":2,"distance":0,"transit":false,"station_name":"Bogor","i_lat":-6.594596,"station_id":"BOO"},{"transit":false,"line":2,"station_name":"Cilebut","time":9,"is_transit":false,"distance":7514,"i_lat":-6.530544,"i_long":106.800016,"station_id":"CLT"},{"is_transit":false,"time":5,"i_lat":-6.493243,"station_id":"BJD","station_name":"Bojonggede","line":2,"i_long":106.792719,"transit":false,"distance":4331},{"station_name":"Citayam","time":5,"i_lat":-6.448811,"is_transit":false,"distance":5197,"i_long":106.800298,"station_id":"CTA","transit":false,"line":2},{"line":2,"station_name":"Depok","time":6,"distance":5084,"transit":false,"is_transit":false,"i_long":106.816926,"station_id":"DP","i_lat":-6.405256},{"is_transit":false,"i_lat":-6.391065,"line":2,"time":3,"station_name":"Depokbaru","i_long":106.819451,"transit":false,"station_id":"DPB","distance":1584},{"i_long":106.831114,"station_name":"Pondok Cina","time":4,"transit":false,"is_transit":false,"i_lat":-6.369073,"distance":2727,"line":2,"station_id":"POC"},{"time":2,"transit":false,"distance":1109,"station_name":"Univ. Indonesia","station_id":"UI","line":2,"i_lat":-6.360749,"i_long":106.831474,"is_transit":false},{"distance":2264,"i_lat":-6.339291,"transit":false,"i_long":106.834175,"line":2,"station_name":"Univ. Pancasila","is_transit":false,"station_id":"UP","time":3},{"is_transit":false,"station_name":"Lenteng Agung","time":2,"i_lat":-6.330363,"station_id":"LNA","i_long":106.832616,"line":2,"distance":1029,"transit":false},{"distance":2671,"station_name":"Tanjung Barat","i_lat":-6.3080680000000005,"is_transit":false,"time":3,"transit":false,"line":2,"station_id":"TNT","i_long":106.838896},{"line":2,"station_id":"PSM","transit":false,"i_long":106.843999,"distance":2820,"is_transit":false,"i_lat":-6.2842400000000005,"station_name":"Pasar Minggu","time":4},{"i_lat":-6.263214,"distance":2380,"station_name":"Pasar Minggu Baru","station_id":"PSMB","time":2,"transit":false,"i_long":106.851577,"is_transit":false,"line":2},{"station_name":"Duren Kalibata","transit":false,"i_lat":-6.255332,"is_transit":false,"station_id":"DRN","line":2,"time":2,"distance":824,"i_long":106.85449},{"line":2,"station_id":"CW","transit":false,"time":3,"distance":1546,"station_name":"Cawang","i_lat":-6.242512,"is_transit":false,"i_long":106.856607},{"distance":1230,"transit":false,"i_lat":-6.226659,"station_name":"Tebet","i_long":106.857948,"time":2,"is_transit":false,"line":2,"station_id":"TEB"},{"distance":2610,"time":4,"i_long":106.84912,"is_transit":false,"station_name":"Manggarai","line":2,"station_id":"MRI","i_lat":-6.209883,"transit":false},{"station_name":"Cikini","is_transit":false,"distance":1590,"i_long":106.840169,"station_id":"CKI","i_lat":-6.198556,"line":2,"time":4,"transit":false},{"i_long":106.832183,"line":2,"station_name":"Gondangdia","transit":false,"i_lat":-6.186295,"station_id":"GDD","time":3,"is_transit":false,"distance":1750},{"station_id":"JUA","time":4,"distance":2015,"i_lat":-6.166716,"line":2,"is_transit":false,"transit":false,"i_long":106.828284,"station_name":"Juanda"},{"line":2,"distance":1149,"is_transit":false,"i_lat":-6.160725,"transit":false,"time":2,"i_long":106.827103,"station_id":"SW","station_name":"Sawah Besar"},{"is_transit":false,"i_long":106.82482,"line":2,"i_lat":-6.149769,"time":2,"transit":false,"distance":906,"station_name":"Manggabesar","station_id":"MGB"},{"i_long":106.820901,"time":2,"line":2,"transit":false,"distance":1080,"station_name":"Jayakarta","station_id":"JAY","is_transit":false,"i_lat":-6.141205},{"distance":1264,"time":4,"i_long":106.812439,"line":2,"transit":true,"station_name":"Jakarta Kota","station_id":"JAKK","i_lat":-6.137569,"is_transit":true},{"station_id":"KPB","station_name":"Kampung Bandan","transit":true,"line":4,"distance":1364,"time":3,"i_lat":-6.132549,"is_transit":true,"i_long":106.826365},{"station_name":"Angke","transit":false,"i_long":106.79867,"i_lat":-6.144674,"line":1,"station_id":"AK","is_transit":false,"distance":4102,"time":9},{"station_id":"DU","is_transit":false,"time":4,"i_long":106.800832,"distance":1230,"transit":false,"station_name":"Duri","line":1,"i_lat":-6.155215},{"distance":3632,"line":1,"i_lat":-6.185545,"time":8,"station_id":"THB","transit":true,"is_transit":true,"station_name":"Tanah Abang","i_long":106.811091},{"transit":false,"i_lat":-6.207404,"time":6,"is_transit":false,"station_name":"Palmerah","line":6,"station_id":"PLM","i_long":106.79689,"distance":3191},{"station_name":"Kebayoran","is_transit":false,"time":7,"line":6,"i_long":106.780334,"i_lat":-6.237242,"distance":3737,"station_id":"KBY","transit":false},{"i_lat":-6.276362,"transit":false,"i_long":106.74273,"is_transit":false,"line":6,"station_id":"PDJ","distance":6218,"time":8,"station_name":"Pondokranji"},{"transit":false,"station_name":"Jurangmangu","is_transit":false,"time":3,"i_long":106.728916,"station_id":"JMU","line":6,"distance":2179,"i_lat":-6.288927}],[{"line":2,"distance":0,"station_id":"BOO","i_lat":-6.594596,"transit":false,"station_name":"Bogor","time":0,"is_transit":false,"i_long":106.790574},{"transit":false,"line":2,"i_long":106.800016,"time":9,"station_name":"Cilebut","i_lat":-6.530544,"is_transit":false,"station_id":"CLT","distance":7514},{"is_transit":false,"station_id":"BJD","i_lat":-6.493243,"distance":4331,"station_name":"Bojonggede","i_long":106.792719,"line":2,"time":5,"transit":false},{"time":5,"station_name":"Citayam","i_lat":-6.448811,"i_long":106.800298,"is_transit":false,"line":2,"transit":false,"distance":5197,"station_id":"CTA"},{"line":2,"is_transit":false,"station_id":"DP","time":6,"distance":5084,"station_name":"Depok","i_lat":-6.405256,"transit":false,"i_long":106.816926},{"time":3,"is_transit":false,"distance":1584,"i_long":106.819451,"station_name":"Depokbaru","station_id":"DPB","transit":false,"i_lat":-6.391065,"line":2},{"station_id":"POC","is_transit":false,"i_long":106.831114,"time":4,"station_name":"Pondok Cina","i_lat":-6.369073,"line":2,"transit":false,"distance":2727},{"distance":1109,"transit":false,"station_name":"Univ. Indonesia","i_long":106.831474,"is_transit":false,"station_id":"UI","i_lat":-6.360749,"line":2,"time":2},{"distance":2264,"station_name":"Univ. Pancasila","station_id":"UP","transit":false,"line":2,"i_lat":-6.339291,"i_long":106.834175,"time":3,"is_transit":false},{"station_id":"LNA","time":2,"is_transit":false,"distance":1029,"transit":false,"line":2,"station_name":"Lenteng Agung","i_lat":-6.330363,"i_long":106.832616},{"station_name":"Tanjung Barat","i_lat":-6.3080680000000005,"time":3,"i_long":106.838896,"line":2,"station_id":"TNT","transit":false,"distance":2671,"is_transit":false},{"station_id":"PSM","transit":false,"station_name":"Pasar Minggu","line":2,"is_transit":false,"i_long":106.843999,"time":4,"i_lat":-6.2842400000000005,"distance":2820},{"is_transit":false,"station_name":"Pasar Minggu Baru","i_lat":-6.263214,"i_long":106.851577,"distance":2380,"line":2,"time":2,"station_id":"PSMB","transit":false},{"i_long":106.85449,"time":2,"station_name":"Duren Kalibata","line":2,"is_transit":false,"station_id":"DRN","transit":false,"i_lat":-6.255332,"distance":824},{"time":3,"i_long":106.856607,"station_id":"CW","transit":false,"is_transit":false,"distance":1546,"i_lat":-6.242512,"line":2,"station_name":"Cawang"},{"line":2,"distance":1230,"station_name":"Tebet","time":2,"is_transit":false,"i_lat":-6.226659,"transit":false,"station_id":"TEB","i_long":106.857948},{"station_id":"MRI","transit":true,"distance":2610,"i_long":106.84912,"station_name":"Manggarai","i_lat":-6.209883,"line":2,"is_transit":true,"time":4},{"transit":false,"i_lat":-6.212485,"i_long":106.858896,"is_transit":false,"line":1,"station_id":"MTR","station_name":"Matraman","distance":1275,"time":2},{"distance":1377,"line":1,"time":8,"i_lat":-6.215091,"transit":true,"is_transit":true,"station_id":"JNG","i_long":106.86807400000001,"station_name":"Jatinegara"},{"distance":1236,"i_long":106.861737,"time":2,"transit":false,"line":11,"station_id":"POK","is_transit":false,"i_lat":-6.209188,"station_name":"Pondok Jati"},{"i_lat":-6.193792,"is_transit":false,"line":11,"distance":1829,"time":2,"transit":false,"station_id":"KMT","station_name":"Kramat","i_long":106.855437},{"i_long":106.850107,"is_transit":false,"station_id":"GST","station_name":"Gang Sentiong","distance":973,"i_lat":-6.185975,"line":11,"transit":false,"time":1},{"transit":false,"station_id":"PSE","i_long":106.84368,"line":11,"is_transit":false,"time":8,"distance":1567,"station_name":"Pasar Senen","i_lat":-6.174784},{"station_id":"KMO","transit":false,"distance":1436,"is_transit":false,"station_name":"Kemayoran","i_lat":-6.161728,"i_long":106.839204,"line":11,"time":4},{"is_transit":false,"station_name":"Rajawali","transit":false,"distance":1901,"i_long":106.836569,"station_id":"RJW","time":5,"line":11,"i_lat":-6.14505},{"is_transit":true,"station_id":"KPB","i_lat":-6.132549,"line":4,"distance":1444,"transit":true,"time":3,"station_name":"Kampung Bandan","i_long":106.826365},{"i_lat":-6.144674,"i_long":106.79867,"line":1,"station_id":"AK","is_transit":false,"distance":4102,"station_name":"Angke","time":9,"transit":false},{"station_id":"DU","station_name":"Duri","distance":1230,"line":1,"transit":false,"is_transit":false,"i_long":106.800832,"time":4,"i_lat":-6.155215},{"station_id":"THB","transit":true,"is_transit":true,"distance":3632,"i_long":106.811091,"time":8,"line":1,"station_name":"Tanah Abang","i_lat":-6.185545},{"time":6,"station_id":"PLM","distance":3191,"i_lat":-6.207404,"is_transit":false,"i_long":106.79689,"line":6,"transit":false,"station_name":"Palmerah"},{"i_long":106.780334,"is_transit":false,"distance":3737,"time":7,"station_name":"Kebayoran","transit":false,"i_lat":-6.237242,"line":6,"station_id":"KBY"},{"station_id":"PDJ","i_long":106.74273,"time":8,"line":6,"transit":false,"is_transit":false,"distance":6218,"station_name":"Pondokranji","i_lat":-6.276362},{"is_transit":false,"station_name":"Jurangmangu","i_lat":-6.288927,"line":6,"distance":2179,"i_long":106.728916,"station_id":"JMU","time":3,"transit":false}]]}