{"data":[[{"transit":false,"distance":0,"time":0,"station_id":"BPR","i_long":106.665036,"line":5,"station_name":"Batuceper","is_transit":false,"i_lat":-6.171811},{"station_id":"PI","i_lat":-6.169933,"time":3,"transit":false,"is_transit":false,"i_long":106.679458,"distance":1834,"line":5,"station_name":"Poris"},{"line":5,"i_lat":-6.166068,"i_long":106.701612,"station_name":"Kalideres","station_id":"KDS","is_transit":false,"time":3,"transit":false,"distance":2548},{"station_id":"RW","time":3,"i_lat":-6.162758,"i_long":106.723064,"distance":2504,"transit":false,"line":5,"is_transit":false,"station_name":"Rawa Buaya"},{"line":5,"is_transit":false,"station_id":"BOI","i_lat":-6.159876,"i_long":106.737035,"distance":1152,"time":4,"station_name":"Bojongindah","transit":false},{"line":5,"distance":2334,"time":2,"station_name":"Taman Kota","transit":false,"station_id":"TKO","i_lat":-6.1587309999999995,"is_transit":false,"i_long":106.756522},{"is_transit":false,"i_lat":-6.161433,"line":5,"time":2,"station_id":"PSG","distance":1614,"station_name":"Pesing","transit":false,"i_long":106.771379},{"transit":false,"is_transit":false,"station_id":"GGL","time":2,"i_long":106.788277,"station_name":"Grogol","distance":2036,"i_lat":-6.162021,"line":5},{"station_name":"Duri","distance":1700,"time":3,"transit":true,"i_lat":-6.155215,"is_transit":true,"i_long":106.800832,"station_id":"DU","line":1},{"i_lat":-6.185545,"distance":3632,"line":1,"transit":false,"i_long":106.811091,"station_id":"THB","time":8,"is_transit":false,"station_name":"Tanah Abang"},{"i_long":106.816351,"line":1,"time":5,"station_id":"KAT","station_name":"Karet","is_transit":false,"distance":2029,"transit":false,"i_lat":-6.20132},{"station_name":"Sudirman Baru","i_lat":-6.201433,"line":1,"i_long":106.819881,"distance":471,"is_transit":false,"station_id":"SUDB","time":1,"transit":false},{"i_lat":-6.202263,"station_id":"SUD","is_transit":false,"i_long":106.822649,"line":1,"distance":280,"time":1,"station_name":"Sudirman","transit":false},{"distance":3186,"is_transit":true,"time":4,"line":2,"station_id":"MRI","i_lat":-6.209883,"station_name":"Manggarai","transit":true,"i_long":106.84912},{"time":4,"station_name":"Tebet","transit":false,"is_transit":false,"station_id":"TEB","i_long":106.857948,"line":2,"distance":2610,"i_lat":-6.226659},{"line":2,"distance":1230,"station_name":"Cawang","i_lat":-6.242512,"transit":false,"time":2,"station_id":"CW","is_transit":false,"i_long":106.856607},{"station_name":"Duren Kalibata","is_transit":false,"transit":false,"i_lat":-6.255332,"line":2,"distance":1546,"station_id":"DRN","time":3,"i_long":106.85449},{"is_transit":false,"transit":false,"time":2,"i_long":106.851577,"station_id":"PSMB","distance":824,"station_name":"Pasar Minggu Baru","i_lat":-6.263214,"line":2},{"line":2,"station_id":"PSM","i_lat":-6.2842400000000005,"distance":2380,"i_long":106.843999,"transit":false,"is_transit":false,"time":2,"station_name":"Pasar Minggu"},{"station_name":"Tanjung Barat","distance":2820,"line":2,"time":4,"station_id":"TNT","transit":false,"i_long":106.838896,"is_transit":false,"i_lat":-6.3080680000000005},{"station_name":"Lenteng Agung","i_long":106.832616,"i_lat":-6.330363,"transit":false,"station_id":"LNA","is_transit":false,"distance":2671,"time":3,"line":2},{"transit":false,"station_id":"UP","line":2,"distance":1029,"is_transit":false,"time":2,"station_name":"Univ. Pancasila","i_lat":-6.339291,"i_long":106.834175},{"is_transit":false,"i_lat":-6.360749,"transit":false,"time":3,"i_long":106.831474,"line":2,"distance":2264,"station_name":"Univ. Indonesia","station_id":"UI"},{"is_transit":false,"line":2,"station_id":"POC","i_long":106.831114,"distance":1109,"station_name":"Pondok Cina","i_lat":-6.369073,"time":2,"transit":false},{"i_long":106.819451,"is_transit":false,"i_lat":-6.391065,"transit":false,"time":4,"line":2,"station_name":"Depokbaru","distance":2727,"station_id":"DPB"}],[{"i_long":106.665036,"station_name":"Batuceper","station_id":"BPR","is_transit":false,"i_lat":-6.171811,"transit":false,"time":0,"line":5,"distance":0},{"station_name":"Poris","i_lat":-6.169933,"time":3,"i_long":106.679458,"line":5,"is_transit":false,"distance":1834,"station_id":"PI","transit":false},{"i_lat":-6.166068,"station_id":"KDS","is_transit":false,"transit":false,"line":5,"distance":2548,"station_name":"Kalideres","i_long":106.701612,"time":3},{"i_long":106.723064,"line":5,"distance":2504,"station_name":"Rawa Buaya","i_lat":-6.162758,"transit":false,"station_id":"RW","is_transit":false,"time":3},{"time":4,"distance":1152,"station_name":"Bojongindah","transit":false,"i_lat":-6.159876,"station_id":"BOI","is_transit":false,"line":5,"i_long":106.737035},{"line":5,"station_id":"TKO","i_lat":-6.1587309999999995,"station_name":"Taman Kota","is_transit":false,"i_long":106.756522,"transit":false,"distance":2334,"time":2},{"line":5,"transit":false,"station_name":"Pesing","station_id":"PSG","is_transit":false,"time":2,"i_long":106.771379,"distance":1614,"i_lat":-6.161433},{"station_name":"Grogol","is_transit":false,"station_id":"GGL","time":2,"transit":false,"distance":2036,"i_lat":-6.162021,"i_long":106.788277,"line":5},{"station_id":"DU","transit":true,"i_long":106.800832,"is_transit":true,"distance":1700,"time":3,"station_name":"Duri","i_lat":-6.155215,"line":1},{"transit":false,"is_transit":false,"time":4,"station_name":"Angke","station_id":"AK","i_lat":-6.144674,"distance":1230,"i_long":106.79867,"line":1},{"i_lat":-6.132549,"is_transit":true,"distance":4102,"time":9,"station_id":"KPB","transit":true,"i_long":106.826365,"line":4,"station_name":"Kampung Bandan"},{"i_long":106.812439,"station_name":"Jakarta Kota","distance":1364,"is_transit":true,"time":3,"line":2,"i_lat":-6.137569,"transit":true,"station_id":"JAKK"},{"station_id":"JAY","transit":false,"line":2,"is_transit":false,"i_long":106.820901,"time":4,"station_name":"Jayakarta","i_lat":-6.141205,"distance":1264},{"station_id":"MGB","distance":1080,"is_transit":false,"time":2,"station_name":"Manggabesar","i_lat":-6.149769,"i_long":106.82482,"transit":false,"line":2},{"station_id":"SW","transit":false,"distance":906,"time":2,"is_transit":false,"station_name":"Sawah Besar","i_lat":-6.160725,"i_long":106.827103,"line":2},{"is_transit":false,"time":2,"i_lat":-6.166716,"transit":false,"station_id":"JUA","station_name":"Juanda","distance":1149,"line":2,"i_long":106.828284},{"is_transit":false,"time":4,"i_lat":-6.186295,"line":2,"distance":2015,"i_long":106.832183,"station_id":"GDD","transit":false,"station_name":"Gondangdia"},{"distance":1750,"station_name":"Cikini","transit":false,"line":2,"time":3,"station_id":"CKI","i_lat":-6.198556,"is_transit":false,"i_long":106.840169},{"distance":1590,"i_long":106.84912,"time":4,"station_name":"Manggarai","transit":false,"line":2,"is_transit":false,"station_id":"MRI","i_lat":-6.209883},{"distance":2610,"station_id":"TEB","i_lat":-6.226659,"i_long":106.857948,"station_name":"Tebet","time":4,"is_transit":false,"line":2,"transit":false},{"i_lat":-6.242512,"transit":false,"time":2,"line":2,"station_id":"CW","station_name":"Cawang","is_transit":false,"i_long":106.856607,"distance":1230},{"time":3,"is_transit":false,"station_name":"Duren Kalibata","transit":false,"line":2,"i_lat":-6.255332,"distance":1546,"station_id":"DRN","i_long":106.85449},{"station_name":"Pasar Minggu Baru","distance":824,"station_id":"PSMB","transit":false,"i_long":106.851577,"is_transit":false,"i_lat":-6.263214,"line":2,"time":2},{"station_id":"PSM","is_transit":false,"i_lat":-6.2842400000000005,"transit":false,"i_long":106.843999,"line":2,"distance":2380,"station_name":"Pasar Minggu","time":2},{"distance":2820,"station_id":"TNT","is_transit":false,"time":4,"transit":false,"i_lat":-6.3080680000000005,"i_long":106.838896,"line":2,"station_name":"Tanjung Barat"},{"transit":false,"is_transit":false,"station_id":"LNA","i_lat":-6.330363,"i_long":106.832616,"line":2,"station_name":"Lenteng Agung","time":3,"distance":2671},{"line":2,"i_long":106.834175,"station_name":"Univ. Pancasila","station_id":"UP","time":2,"transit":false,"is_transit":false,"distance":1029,"i_lat":-6.339291},{"i_lat":-6.360749,"distance":2264,"line":2,"is_transit":false,"time":3,"station_name":"Univ. Indonesia","station_id":"UI","transit":false,"i_long":106.831474},{"i_lat":-6.369073,"line":2,"distance":1109,"time":2,"station_name":"Pondok Cina","is_transit":false,"station_id":"POC","transit":false,"i_long":106.831114},{"i_lat":-6.391065,"distance":2727,"station_id":"DPB","line":2,"is_transit":false,"i_long":106.819451,"transit":false,"time":4,"station_name":"Depokbaru"}],[{"station_id":"BPR","transit":false,"time":0,"i_long":106.665036,"station_name":"Batuceper","distance":0,"i_lat":-6.171811,"line":5,"is_transit":false},{"i_long":106.679458,"station_name":"Poris","station_id":"PI","distance":1834,"is_transit":false,"time":3,"transit":false,"i_lat":-6.169933,"line":5},{"is_transit":false,"station_name":"Kalideres","line":5,"transit":false,"i_lat":-6.166068,"time":3,"i_long":106.701612,"station_id":"KDS","distance":2548},{"i_long":106.723064,"transit":false,"is_transit":false,"distance":2504,"station_name":"Rawa Buaya","station_id":"RW","line":5,"i_lat":-6.162758,"time":3},{"transit":false,"line":5,"i_long":106.737035,"i_lat":-6.159876,"station_id":"BOI","time":4,"distance":1152,"station_name":"Bojongindah","is_transit":false},{"i_lat":-6.1587309999999995,"i_long":106.756522,"line":5,"station_name":"Taman Kota","time":2,"is_transit":false,"station_id":"TKO","distance":2334,"transit":false},{"distance":1614,"line":5,"is_transit":false,"station_id":"PSG","i_lat":-6.161433,"transit":false,"station_name":"Pesing","i_long":106.771379,"time":2},{"is_transit":false,"station_name":"Grogol","station_id":"GGL","i_lat":-6.162021,"i_long":106.788277,"time":2,"distance":2036,"transit":false,"line":5},{"i_long":106.800832,"transit":true,"distance":1700,"line":1,"time":3,"i_lat":-6.155215,"is_transit":true,"station_name":"Duri","station_id":"DU"},{"is_transit":false,"i_long":106.79867,"i_lat":-6.144674,"station_id":"AK","time":4,"station_name":"Angke","line":1,"transit":false,"distance":1230},{"distance":4102,"station_name":"Kampung Bandan","station_id":"KPB","line":4,"time":9,"transit":true,"is_transit":true,"i_long":106.826365,"i_lat":-6.132549},{"is_transit":false,"distance":1444,"time":3,"station_name":"Rajawali","i_long":106.836569,"line":11,"station_id":"RJW","i_lat":-6.14505,"transit":false},{"line":11,"i_long":106.839204,"station_id":"KMO","time":5,"i_lat":-6.161728,"station_name":"Kemayoran","distance":1901,"is_transit":false,"transit":false},{"i_lat":-6.174784,"transit":false,"station_name":"Pasar Senen","station_id":"PSE","distance":1436,"is_transit":false,"time":4,"i_long":106.84368,"line":11},{"station_name":"Gang Sentiong","distance":1567,"is_transit":false,"i_long":106.850107,"transit":false,"time":8,"station_id":"GST","i_lat":-6.185975,"line":11},{"is_transit":false,"time":1,"station_id":"KMT","transit":false,"i_long":106.855437,"i_lat":-6.193792,"distance":973,"station_name":"Kramat","line":11},{"station_id":"POK","distance":1829,"line":11,"i_long":106.861737,"station_name":"Pondok Jati","transit":false,"is_transit":false,"i_lat":-6.209188,"time":2},{"line":1,"station_name":"Jatinegara","time":9,"i_long":106.86807400000001,"transit":true,"station_id":"JNG","distance":1236,"i_lat":-6.215091,"is_transit":true},{"i_lat":-6.212485,"line":1,"is_transit":false,"time":2,"transit":false,"distance":1377,"i_long":106.858896,"station_id":"MTR","station_name":"Matraman"},{"i_lat":-6.209883,"line":2,"is_transit":true,"i_long":106.84912,"distance":1275,"station_name":"Manggarai","time":2,"transit":true,"station_id":"MRI"},{"station_name":"Tebet","transit":false,"is_transit":false,"line":2,"station_id":"TEB","i_long":106.857948,"distance":2610,"i_lat":-6.226659,"time":4},{"transit":false,"time":2,"distance":1230,"station_id":"CW","i_lat":-6.242512,"i_long":106.856607,"is_transit":false,"line":2,"station_name":"Cawang"},{"station_name":"Duren Kalibata","transit":false,"time":3,"station_id":"DRN","i_lat":-6.255332,"i_long":106.85449,"line":2,"is_transit":false,"distance":1546},{"station_name":"Pasar Minggu Baru","station_id":"PSMB","line":2,"distance":824,"time":2,"transit":false,"i_lat":-6.263214,"i_long":106.851577,"is_transit":false},{"is_transit":false,"transit":false,"i_lat":-6.2842400000000005,"station_id":"PSM","i_long":106.843999,"distance":2380,"time":2,"line":2,"station_name":"Pasar Minggu"},{"station_id":"TNT","i_lat":-6.3080680000000005,"transit":false,"is_transit":false,"time":4,"distance":2820,"i_long":106.838896,"line":2,"station_name":"Tanjung Barat"},{"station_id":"LNA","distance":2671,"transit":false,"i_lat":-6.330363,"time":3,"is_transit":false,"i_long":106.832616,"line":2,"station_name":"Lenteng Agung"},{"time":2,"station_id":"UP","station_name":"Univ. Pancasila","transit":false,"i_long":106.834175,"i_lat":-6.339291,"distance":1029,"is_transit":false,"line":2},{"is_transit":false,"station_name":"Univ. Indonesia","transit":false,"i_lat":-6.360749,"line":2,"i_long":106.831474,"time":3,"station_id":"UI","distance":2264},{"station_name":"Pondok Cina","transit":false,"i_long":106.831114,"line":2,"time":2,"station_id":"POC","distance":1109,"is_transit":false,"i_lat":-6.369073},{"distance":2727,"i_lat":-6.391065,"line":2,"station_name":"Depokbaru","time":4,"i_long":106.819451,"station_id":"DPB","transit":false,"is_transit":false}]]}