{"data":[[{"line":5,"station_id":"BPR","distance":0,"station_name":"Batuceper","transit":false,"is_transit":false,"time":0,"i_long":106.665036,"i_lat":-6.171811},{"is_transit":false,"i_lat":-6.169933,"line":5,"transit":false,"distance":1834,"time":3,"station_id":"PI","i_long":106.679458,"station_name":"Poris"},{"time":3,"station_name":"Kalideres","is_transit":false,"i_lat":-6.166068,"i_long":106.701612,"line":5,"station_id":"KDS","transit":false,"distance":2548},{"time":3,"station_id":"RW","i_lat":-6.162758,"distance":2504,"i_long":106.723064,"line":5,"station_name":"Rawa Buaya","is_transit":false,"transit":false},{"is_transit":false,"station_id":"BOI","distance":1152,"i_long":106.737035,"transit":false,"i_lat":-6.159876,"time":4,"line":5,"station_name":"Bojongindah"},{"station_id":"TKO","is_transit":false,"distance":2334,"time":2,"i_long":106.756522,"line":5,"transit":false,"station_name":"Taman Kota","i_lat":-6.1587309999999995},{"distance":1614,"transit":false,"i_lat":-6.161433,"station_name":"Pesing","line":5,"time":2,"is_transit":false,"station_id":"PSG","i_long":106.771379},{"i_long":106.788277,"station_id":"GRG","distance":2036,"line":5,"is_transit":false,"transit":false,"i_lat":-6.162021,"time":2,"station_name":"Grogol"},{"distance":1700,"line":1,"station_id":"DU","station_name":"Duri","i_lat":-6.155215,"i_long":106.800832,"time":3,"is_transit":true,"transit":true},{"is_transit":false,"transit":false,"i_long":106.79867,"distance":1230,"station_name":"Angke","line":1,"i_lat":-6.144674,"time":4,"station_id":"AK"},{"i_lat":-6.132549,"station_name":"Kampung Bandan","is_transit":true,"i_long":106.826365,"line":4,"time":9,"station_id":"KPB","transit":true,"distance":4102},{"station_id":"RJW","i_lat":-6.14505,"line":11,"i_long":106.836569,"transit":false,"station_name":"Rajawali","distance":1444,"time":3,"is_transit":false},{"station_name":"Kemayoran","i_long":106.839204,"i_lat":-6.161728,"station_id":"KMO","time":5,"distance":1901,"transit":false,"line":11,"is_transit":false},{"i_long":106.84368,"station_id":"PSE","distance":1436,"station_name":"Pasar Senen","line":11,"i_lat":-6.174784,"time":4,"transit":false,"is_transit":false},{"distance":1567,"i_lat":-6.185975,"station_name":"Gang Sentiong","i_long":106.850107,"station_id":"GST","transit":false,"line":11,"time":8,"is_transit":false},{"is_transit":false,"time":1,"station_id":"KMT","i_long":106.855437,"line":11,"station_name":"Kramat","transit":false,"i_lat":-6.193792,"distance":973}],[{"station_name":"Batuceper","station_id":"BPR","is_transit":false,"i_lat":-6.171811,"i_long":106.665036,"time":0,"distance":0,"line":5,"transit":false},{"station_id":"PI","i_lat":-6.169933,"time":3,"transit":false,"distance":1834,"i_long":106.679458,"line":5,"is_transit":false,"station_name":"Poris"},{"station_id":"KDS","distance":2548,"i_long":106.701612,"line":5,"i_lat":-6.166068,"is_transit":false,"station_name":"Kalideres","time":3,"transit":false},{"station_id":"RW","i_lat":-6.162758,"i_long":106.723064,"line":5,"time":3,"is_transit":false,"transit":false,"distance":2504,"station_name":"Rawa Buaya"},{"is_transit":false,"station_id":"BOI","station_name":"Bojongindah","i_lat":-6.159876,"line":5,"distance":1152,"time":4,"transit":false,"i_long":106.737035},{"is_transit":false,"time":2,"transit":false,"distance":2334,"station_name":"Taman Kota","i_lat":-6.1587309999999995,"line":5,"i_long":106.756522,"station_id":"TKO"},{"i_lat":-6.161433,"i_long":106.771379,"station_name":"Pesing","is_transit":false,"time":2,"distance":1614,"line":5,"station_id":"PSG","transit":false},{"is_transit":false,"time":2,"transit":false,"distance":2036,"station_name":"Grogol","i_lat":-6.162021,"station_id":"GRG","line":5,"i_long":106.788277},{"i_long":106.800832,"i_lat":-6.155215,"time":3,"line":1,"station_name":"Duri","station_id":"DU","is_transit":true,"distance":1700,"transit":true},{"time":8,"i_lat":-6.185545,"i_long":106.811091,"is_transit":false,"transit":false,"line":1,"distance":3632,"station_name":"Tanah Abang","station_id":"THB"},{"station_name":"Karet","i_lat":-6.20132,"is_transit":false,"i_long":106.816351,"station_id":"KAT","transit":false,"line":1,"time":5,"distance":2029},{"station_name":"Sudirman Baru","is_transit":false,"time":1,"distance":471,"i_long":106.819881,"station_id":"SUDB","transit":false,"line":1,"i_lat":-6.201433},{"station_name":"Sudirman","i_long":106.822649,"i_lat":-6.202263,"is_transit":false,"station_id":"SUD","line":1,"transit":false,"time":1,"distance":280},{"i_long":106.84912,"distance":3186,"station_name":"Manggarai","line":2,"time":4,"station_id":"MRI","i_lat":-6.209883,"is_transit":false,"transit":false},{"distance":1275,"i_long":106.858896,"line":1,"time":2,"transit":false,"station_name":"Matraman","station_id":"MTR","is_transit":false,"i_lat":-6.212485},{"i_long":106.86807400000001,"i_lat":-6.215091,"distance":1377,"transit":true,"station_id":"JNG","time":8,"station_name":"Jatinegara","is_transit":true,"line":1},{"station_id":"POK","station_name":"Pondok Jati","line":11,"time":2,"distance":1236,"is_transit":false,"i_long":106.861737,"i_lat":-6.209188,"transit":false},{"line":11,"station_id":"KMT","i_long":106.855437,"i_lat":-6.193792,"distance":1829,"is_transit":false,"transit":false,"station_name":"Kramat","time":2}],[{"line":5,"distance":0,"transit":false,"is_transit":false,"station_id":"BPR","station_name":"Batuceper","i_lat":-6.171811,"time":0,"i_long":106.665036},{"transit":false,"station_id":"PI","is_transit":false,"i_lat":-6.169933,"distance":1834,"station_name":"Poris","i_long":106.679458,"line":5,"time":3},{"transit":false,"distance":2548,"i_long":106.701612,"station_id":"KDS","station_name":"Kalideres","i_lat":-6.166068,"line":5,"is_transit":false,"time":3},{"i_long":106.723064,"transit":false,"i_lat":-6.162758,"line":5,"is_transit":false,"station_id":"RW","time":3,"distance":2504,"station_name":"Rawa Buaya"},{"distance":1152,"i_long":106.737035,"station_name":"Bojongindah","is_transit":false,"line":5,"station_id":"BOI","time":4,"i_lat":-6.159876,"transit":false},{"station_name":"Taman Kota","i_long":106.756522,"time":2,"is_transit":false,"transit":false,"i_lat":-6.1587309999999995,"line":5,"distance":2334,"station_id":"TKO"},{"transit":false,"distance":1614,"line":5,"is_transit":false,"i_lat":-6.161433,"i_long":106.771379,"time":2,"station_id":"PSG","station_name":"Pesing"},{"line":5,"time":2,"is_transit":false,"station_id":"GRG","i_lat":-6.162021,"i_long":106.788277,"transit":false,"distance":2036,"station_name":"Grogol"},{"is_transit":true,"station_id":"DU","i_lat":-6.155215,"station_name":"Duri","time":3,"distance":1700,"i_long":106.800832,"transit":true,"line":1},{"i_long":106.79867,"station_name":"Angke","station_id":"AK","time":4,"distance":1230,"line":1,"i_lat":-6.144674,"is_transit":false,"transit":false},{"i_long":106.826365,"distance":4102,"time":9,"line":4,"transit":true,"is_transit":true,"station_id":"KPB","i_lat":-6.132549,"station_name":"Kampung Bandan"},{"station_id":"JAKK","line":2,"i_long":106.812439,"is_transit":true,"station_name":"Jakarta Kota","time":3,"i_lat":-6.137569,"transit":true,"distance":1364},{"i_lat":-6.141205,"distance":1264,"i_long":106.820901,"time":4,"line":2,"station_id":"JAY","is_transit":false,"transit":false,"station_name":"Jayakarta"},{"transit":false,"i_lat":-6.149769,"station_id":"MGB","is_transit":false,"time":2,"station_name":"Manggabesar","i_long":106.82482,"line":2,"distance":1080},{"i_long":106.827103,"line":2,"station_name":"Sawah Besar","station_id":"SW","distance":906,"transit":false,"time":2,"i_lat":-6.160725,"is_transit":false},{"station_id":"JUA","station_name":"Juanda","i_long":106.828284,"i_lat":-6.166716,"is_transit":false,"line":2,"distance":1149,"transit":false,"time":2},{"transit":false,"station_name":"Gondangdia","distance":2015,"i_long":106.832183,"line":2,"time":4,"i_lat":-6.186295,"station_id":"GDD","is_transit":false},{"i_lat":-6.198556,"distance":1750,"station_id":"CKI","transit":false,"time":3,"station_name":"Cikini","i_long":106.840169,"is_transit":false,"line":2},{"station_name":"Manggarai","line":2,"transit":true,"distance":1590,"time":4,"i_lat":-6.209883,"i_long":106.84912,"station_id":"MRI","is_transit":true},{"distance":1275,"time":2,"line":1,"i_long":106.858896,"is_transit":false,"station_id":"MTR","transit":false,"station_name":"Matraman","i_lat":-6.212485},{"station_name":"Jatinegara","transit":true,"i_long":106.86807400000001,"line":1,"distance":1377,"i_lat":-6.215091,"is_transit":true,"station_id":"JNG","time":8},{"i_long":106.861737,"i_lat":-6.209188,"time":2,"distance":1236,"is_transit":false,"transit":false,"station_id":"POK","line":11,"station_name":"Pondok Jati"},{"station_name":"Kramat","distance":1829,"is_transit":false,"time":2,"i_long":106.855437,"line":11,"i_lat":-6.193792,"station_id":"KMT","transit":false}],[{"i_lat":-6.171811,"is_transit":false,"distance":0,"station_id":"BPR","line":5,"station_name":"Batuceper","time":0,"i_long":106.665036,"transit":false},{"time":3,"station_name":"Poris","i_long":106.679458,"line":5,"distance":1834,"is_transit":false,"transit":false,"i_lat":-6.169933,"station_id":"PI"},{"line":5,"station_id":"KDS","distance":2548,"is_transit":false,"station_name":"Kalideres","time":3,"i_long":106.701612,"transit":false,"i_lat":-6.166068},{"i_lat":-6.162758,"i_long":106.723064,"transit":false,"distance":2504,"line":5,"station_id":"RW","is_transit":false,"time":3,"station_name":"Rawa Buaya"},{"time":4,"i_long":106.737035,"station_name":"Bojongindah","i_lat":-6.159876,"line":5,"distance":1152,"is_transit":false,"station_id":"BOI","transit":false},{"is_transit":false,"i_long":106.756522,"distance":2334,"station_name":"Taman Kota","transit":false,"station_id":"TKO","time":2,"i_lat":-6.1587309999999995,"line":5},{"station_name":"Pesing","i_long":106.771379,"transit":false,"line":5,"distance":1614,"i_lat":-6.161433,"station_id":"PSG","is_transit":false,"time":2},{"station_name":"Grogol","distance":2036,"is_transit":false,"i_lat":-6.162021,"line":5,"time":2,"transit":false,"station_id":"GRG","i_long":106.788277},{"line":1,"is_transit":true,"i_lat":-6.155215,"distance":1700,"i_long":106.800832,"station_id":"DU","time":3,"transit":true,"station_name":"Duri"},{"distance":3632,"station_id":"THB","is_transit":false,"i_long":106.811091,"line":1,"transit":false,"station_name":"Tanah Abang","time":8,"i_lat":-6.185545},{"transit":false,"distance":2029,"station_id":"KAT","i_long":106.816351,"line":1,"is_transit":false,"station_name":"Karet","i_lat":-6.20132,"time":5},{"time":1,"i_lat":-6.201433,"line":1,"distance":471,"station_id":"SUDB","station_name":"Sudirman Baru","transit":false,"i_long":106.819881,"is_transit":false},{"line":1,"station_id":"SUD","i_lat":-6.202263,"transit":false,"distance":280,"time":1,"station_name":"Sudirman","i_long":106.822649,"is_transit":false},{"station_name":"Manggarai","station_id":"MRI","line":2,"distance":3186,"time":4,"i_long":106.84912,"i_lat":-6.209883,"is_transit":true,"transit":true},{"is_transit":false,"line":2,"distance":1590,"i_lat":-6.198556,"station_id":"CKI","i_long":106.840169,"time":4,"transit":false,"station_name":"Cikini"},{"distance":1750,"i_lat":-6.186295,"line":2,"time":3,"i_long":106.832183,"station_name":"Gondangdia","is_transit":false,"station_id":"GDD","transit":false},{"is_transit":false,"transit":false,"station_name":"Juanda","time":4,"i_lat":-6.166716,"line":2,"distance":2015,"i_long":106.828284,"station_id":"JUA"},{"line":2,"i_lat":-6.160725,"is_transit":false,"distance":1149,"station_name":"Sawah Besar","station_id":"SW","transit":false,"time":2,"i_long":106.827103},{"i_long":106.82482,"station_id":"MGB","transit":false,"distance":906,"is_transit":false,"i_lat":-6.149769,"station_name":"Manggabesar","line":2,"time":2},{"station_id":"JAY","is_transit":false,"i_lat":-6.141205,"time":2,"station_name":"Jayakarta","i_long":106.820901,"distance":1080,"transit":false,"line":2},{"is_transit":true,"i_lat":-6.137569,"distance":1264,"transit":true,"station_id":"JAKK","time":4,"i_long":106.812439,"station_name":"Jakarta Kota","line":2},{"time":3,"i_lat":-6.132549,"transit":true,"i_long":106.826365,"is_transit":true,"station_id":"KPB","station_name":"Kampung Bandan","line":4,"distance":1364},{"distance":1444,"station_name":"Rajawali","i_long":106.836569,"line":11,"station_id":"RJW","transit":false,"is_transit":false,"time":3,"i_lat":-6.14505},{"transit":false,"station_id":"KMO","line":11,"station_name":"Kemayoran","i_long":106.839204,"time":5,"i_lat":-6.161728,"is_transit":false,"distance":1901},{"i_long":106.84368,"line":11,"i_lat":-6.174784,"distance":1436,"time":4,"station_id":"PSE","is_transit":false,"transit":false,"station_name":"Pasar Senen"},{"time":8,"station_name":"Gang Sentiong","station_id":"GST","is_transit":false,"distance":1567,"i_lat":-6.185975,"transit":false,"i_long":106.850107,"line":11},{"time":1,"i_long":106.855437,"i_lat":-6.193792,"station_id":"KMT","transit":false,"station_name":"Kramat","line":11,"is_transit":false,"distance":973}]]}