{"data":[[{"i_long":106.665036,"line":5,"i_lat":-6.171811,"time":0,"is_transit":false,"station_name":"Batuceper","station_id":"BPR","transit":false,"distance":0},{"transit":false,"distance":1834,"station_name":"Poris","is_transit":false,"station_id":"PI","i_lat":-6.169933,"line":5,"time":3,"i_long":106.679458},{"line":5,"time":3,"distance":2548,"is_transit":false,"station_name":"Kalideres","i_long":106.701612,"i_lat":-6.166068,"station_id":"KDS","transit":false},{"station_id":"RW","i_long":106.723064,"time":3,"station_name":"Rawa Buaya","transit":false,"i_lat":-6.162758,"is_transit":false,"distance":2504,"line":5},{"station_id":"BOI","distance":1152,"transit":false,"time":4,"is_transit":false,"station_name":"Bojongindah","i_long":106.737035,"line":5,"i_lat":-6.159876},{"i_lat":-6.1587309999999995,"time":2,"distance":2334,"transit":false,"line":5,"station_id":"TKO","i_long":106.756522,"station_name":"Taman Kota","is_transit":false},{"station_name":"Pesing","is_transit":false,"transit":false,"i_long":106.771379,"line":5,"time":2,"distance":1614,"i_lat":-6.161433,"station_id":"PSG"},{"transit":false,"i_lat":-6.162021,"station_id":"GGL","station_name":"Grogol","is_transit":false,"i_long":106.788277,"line":5,"time":2,"distance":2036},{"i_lat":-6.155215,"is_transit":true,"i_long":106.800832,"distance":1700,"transit":true,"time":3,"line":1,"station_id":"DU","station_name":"Duri"},{"distance":1230,"transit":false,"station_id":"AK","i_long":106.79867,"line":1,"station_name":"Angke","i_lat":-6.144674,"time":4,"is_transit":false},{"is_transit":true,"i_lat":-6.132549,"station_id":"KPB","transit":true,"line":4,"distance":4102,"station_name":"Kampung Bandan","i_long":106.826365,"time":9},{"distance":1444,"line":11,"transit":false,"i_long":106.836569,"is_transit":false,"i_lat":-6.14505,"station_name":"Rajawali","station_id":"RJW","time":3},{"is_transit":false,"distance":1901,"station_name":"Kemayoran","time":5,"transit":false,"i_lat":-6.161728,"station_id":"KMO","line":11,"i_long":106.839204},{"station_id":"PSE","is_transit":false,"time":4,"station_name":"Pasar Senen","line":11,"transit":false,"i_lat":-6.174784,"i_long":106.84368,"distance":1436},{"line":11,"is_transit":false,"transit":false,"i_long":106.850107,"time":8,"distance":1567,"station_id":"GST","station_name":"Gang Sentiong","i_lat":-6.185975}],[{"station_id":"BPR","line":5,"i_long":106.665036,"time":0,"transit":false,"station_name":"Batuceper","distance":0,"is_transit":false,"i_lat":-6.171811},{"line":5,"i_lat":-6.169933,"station_name":"Poris","transit":false,"time":3,"distance":1834,"station_id":"PI","i_long":106.679458,"is_transit":false},{"i_lat":-6.166068,"line":5,"station_id":"KDS","is_transit":false,"transit":false,"station_name":"Kalideres","i_long":106.701612,"time":3,"distance":2548},{"i_long":106.723064,"distance":2504,"is_transit":false,"station_id":"RW","time":3,"station_name":"Rawa Buaya","transit":false,"i_lat":-6.162758,"line":5},{"time":4,"line":5,"distance":1152,"i_long":106.737035,"is_transit":false,"station_id":"BOI","station_name":"Bojongindah","i_lat":-6.159876,"transit":false},{"transit":false,"station_id":"TKO","line":5,"time":2,"distance":2334,"is_transit":false,"i_lat":-6.1587309999999995,"i_long":106.756522,"station_name":"Taman Kota"},{"line":5,"i_long":106.771379,"station_id":"PSG","station_name":"Pesing","time":2,"i_lat":-6.161433,"transit":false,"distance":1614,"is_transit":false},{"distance":2036,"i_long":106.788277,"time":2,"station_name":"Grogol","is_transit":false,"i_lat":-6.162021,"station_id":"GGL","transit":false,"line":5},{"transit":true,"i_long":106.800832,"station_id":"DU","i_lat":-6.155215,"line":1,"time":3,"distance":1700,"station_name":"Duri","is_transit":true},{"line":1,"station_id":"THB","station_name":"Tanah Abang","i_lat":-6.185545,"i_long":106.811091,"time":8,"is_transit":false,"transit":false,"distance":3632},{"i_lat":-6.20132,"is_transit":false,"transit":false,"i_long":106.816351,"time":5,"distance":2029,"station_name":"Karet","station_id":"KAT","line":1},{"distance":471,"station_id":"SUDB","time":1,"station_name":"Sudirman Baru","i_long":106.819881,"line":1,"i_lat":-6.201433,"transit":false,"is_transit":false},{"i_lat":-6.202263,"distance":280,"i_long":106.822649,"line":1,"time":1,"transit":false,"is_transit":false,"station_id":"SUD","station_name":"Sudirman"},{"is_transit":false,"line":2,"distance":3186,"station_id":"MRI","time":4,"transit":false,"i_lat":-6.209883,"station_name":"Manggarai","i_long":106.84912},{"i_lat":-6.212485,"i_long":106.858896,"time":2,"transit":false,"line":1,"station_name":"Matraman","station_id":"MTR","distance":1275,"is_transit":false},{"i_lat":-6.215091,"is_transit":true,"transit":true,"line":1,"time":8,"distance":1377,"station_name":"Jatinegara","i_long":106.86807400000001,"station_id":"JNG"},{"time":2,"i_long":106.861737,"line":11,"is_transit":false,"station_id":"POK","i_lat":-6.209188,"station_name":"Pondok Jati","distance":1236,"transit":false},{"station_id":"KMT","i_long":106.855437,"time":2,"transit":false,"station_name":"Kramat","distance":1829,"line":11,"is_transit":false,"i_lat":-6.193792},{"transit":false,"time":1,"is_transit":false,"station_id":"GST","i_lat":-6.185975,"line":11,"distance":973,"i_long":106.850107,"station_name":"Gang Sentiong"}],[{"station_id":"BPR","i_long":106.665036,"station_name":"Batuceper","transit":false,"i_lat":-6.171811,"is_transit":false,"distance":0,"line":5,"time":0},{"i_long":106.679458,"station_id":"PI","distance":1834,"line":5,"is_transit":false,"time":3,"station_name":"Poris","i_lat":-6.169933,"transit":false},{"station_id":"KDS","station_name":"Kalideres","is_transit":false,"distance":2548,"time":3,"i_lat":-6.166068,"i_long":106.701612,"line":5,"transit":false},{"station_id":"RW","transit":false,"time":3,"station_name":"Rawa Buaya","line":5,"distance":2504,"is_transit":false,"i_long":106.723064,"i_lat":-6.162758},{"station_id":"BOI","i_long":106.737035,"station_name":"Bojongindah","i_lat":-6.159876,"is_transit":false,"distance":1152,"line":5,"transit":false,"time":4},{"time":2,"i_lat":-6.1587309999999995,"line":5,"station_id":"TKO","distance":2334,"is_transit":false,"transit":false,"station_name":"Taman Kota","i_long":106.756522},{"distance":1614,"transit":false,"i_lat":-6.161433,"i_long":106.771379,"is_transit":false,"station_name":"Pesing","line":5,"time":2,"station_id":"PSG"},{"transit":false,"line":5,"is_transit":false,"station_id":"GGL","station_name":"Grogol","i_lat":-6.162021,"distance":2036,"i_long":106.788277,"time":2},{"line":1,"is_transit":true,"distance":1700,"transit":true,"station_name":"Duri","time":3,"station_id":"DU","i_lat":-6.155215,"i_long":106.800832},{"i_long":106.79867,"i_lat":-6.144674,"line":1,"station_name":"Angke","time":4,"station_id":"AK","is_transit":false,"transit":false,"distance":1230},{"i_long":106.826365,"line":4,"station_name":"Kampung Bandan","transit":true,"is_transit":true,"time":9,"station_id":"KPB","distance":4102,"i_lat":-6.132549},{"i_lat":-6.137569,"i_long":106.812439,"is_transit":true,"station_id":"JAKK","station_name":"Jakarta Kota","transit":true,"line":2,"time":3,"distance":1364},{"is_transit":false,"i_long":106.820901,"distance":1264,"time":4,"station_name":"Jayakarta","transit":false,"station_id":"JAY","i_lat":-6.141205,"line":2},{"station_name":"Manggabesar","transit":false,"i_lat":-6.149769,"i_long":106.82482,"distance":1080,"time":2,"station_id":"MGB","line":2,"is_transit":false},{"is_transit":false,"i_long":106.827103,"time":2,"i_lat":-6.160725,"station_id":"SW","transit":false,"line":2,"distance":906,"station_name":"Sawah Besar"},{"line":2,"transit":false,"distance":1149,"station_name":"Juanda","time":2,"station_id":"JUA","is_transit":false,"i_lat":-6.166716,"i_long":106.828284},{"station_id":"GDD","time":4,"distance":2015,"is_transit":false,"i_lat":-6.186295,"i_long":106.832183,"station_name":"Gondangdia","line":2,"transit":false},{"line":2,"station_id":"CKI","i_long":106.840169,"i_lat":-6.198556,"distance":1750,"station_name":"Cikini","is_transit":false,"transit":false,"time":3},{"line":2,"distance":1590,"transit":true,"is_transit":true,"station_name":"Manggarai","station_id":"MRI","i_lat":-6.209883,"time":4,"i_long":106.84912},{"transit":false,"station_id":"MTR","is_transit":false,"i_lat":-6.212485,"distance":1275,"station_name":"Matraman","i_long":106.858896,"line":1,"time":2},{"transit":true,"distance":1377,"i_long":106.86807400000001,"station_name":"Jatinegara","station_id":"JNG","i_lat":-6.215091,"line":1,"is_transit":true,"time":8},{"i_long":106.861737,"transit":false,"i_lat":-6.209188,"line":11,"is_transit":false,"time":2,"station_id":"POK","distance":1236,"station_name":"Pondok Jati"},{"distance":1829,"i_long":106.855437,"station_name":"Kramat","is_transit":false,"line":11,"time":2,"station_id":"KMT","i_lat":-6.193792,"transit":false},{"station_id":"GST","i_long":106.850107,"time":1,"is_transit":false,"transit":false,"i_lat":-6.185975,"line":11,"station_name":"Gang Sentiong","distance":973}],[{"transit":false,"distance":0,"line":5,"is_transit":false,"i_lat":-6.171811,"i_long":106.665036,"time":0,"station_id":"BPR","station_name":"Batuceper"},{"line":5,"time":3,"is_transit":false,"station_id":"PI","i_lat":-6.169933,"i_long":106.679458,"transit":false,"distance":1834,"station_name":"Poris"},{"is_transit":false,"station_id":"KDS","i_lat":-6.166068,"station_name":"Kalideres","time":3,"distance":2548,"i_long":106.701612,"transit":false,"line":5},{"i_long":106.723064,"station_name":"Rawa Buaya","time":3,"station_id":"RW","distance":2504,"line":5,"i_lat":-6.162758,"is_transit":false,"transit":false},{"i_long":106.737035,"distance":1152,"time":4,"line":5,"transit":false,"is_transit":false,"station_id":"BOI","i_lat":-6.159876,"station_name":"Bojongindah"},{"station_id":"TKO","line":5,"i_long":106.756522,"is_transit":false,"station_name":"Taman Kota","time":2,"i_lat":-6.1587309999999995,"transit":false,"distance":2334},{"i_lat":-6.161433,"distance":1614,"i_long":106.771379,"time":2,"line":5,"is_transit":false,"transit":false,"station_id":"PSG","station_name":"Pesing"},{"transit":false,"i_lat":-6.162021,"station_name":"Grogol","is_transit":false,"time":2,"station_id":"GGL","i_long":106.788277,"line":5,"distance":2036},{"i_long":106.800832,"line":1,"station_name":"Duri","station_id":"DU","distance":1700,"time":3,"transit":true,"i_lat":-6.155215,"is_transit":true},{"station_id":"THB","station_name":"Tanah Abang","i_long":106.811091,"i_lat":-6.185545,"is_transit":false,"line":1,"distance":3632,"transit":false,"time":8},{"transit":false,"station_name":"Karet","distance":2029,"i_long":106.816351,"line":1,"time":5,"i_lat":-6.20132,"station_id":"KAT","is_transit":false},{"station_id":"SUDB","line":1,"i_long":106.819881,"station_name":"Sudirman Baru","distance":471,"transit":false,"time":1,"i_lat":-6.201433,"is_transit":false},{"distance":280,"i_long":106.822649,"station_name":"Sudirman","is_transit":false,"line":1,"i_lat":-6.202263,"time":1,"transit":false,"station_id":"SUD"},{"line":2,"transit":true,"time":4,"i_lat":-6.209883,"is_transit":true,"station_name":"Manggarai","station_id":"MRI","distance":3186,"i_long":106.84912},{"transit":false,"time":4,"distance":1590,"station_name":"Cikini","station_id":"CKI","i_lat":-6.198556,"i_long":106.840169,"is_transit":false,"line":2},{"line":2,"station_name":"Gondangdia","station_id":"GDD","i_lat":-6.186295,"distance":1750,"is_transit":false,"transit":false,"i_long":106.832183,"time":3},{"distance":2015,"line":2,"station_id":"JUA","i_long":106.828284,"is_transit":false,"station_name":"Juanda","time":4,"i_lat":-6.166716,"transit":false},{"i_lat":-6.160725,"is_transit":false,"distance":1149,"station_id":"SW","line":2,"station_name":"Sawah Besar","time":2,"i_long":106.827103,"transit":false},{"station_id":"MGB","station_name":"Manggabesar","i_long":106.82482,"line":2,"distance":906,"is_transit":false,"transit":false,"i_lat":-6.149769,"time":2},{"line":2,"station_id":"JAY","distance":1080,"station_name":"Jayakarta","is_transit":false,"time":2,"i_long":106.820901,"transit":false,"i_lat":-6.141205},{"i_lat":-6.137569,"i_long":106.812439,"transit":true,"distance":1264,"line":2,"station_id":"JAKK","is_transit":true,"time":4,"station_name":"Jakarta Kota"},{"station_id":"KPB","i_long":106.826365,"station_name":"Kampung Bandan","i_lat":-6.132549,"line":4,"distance":1364,"is_transit":true,"transit":true,"time":3},{"is_transit":false,"i_long":106.836569,"distance":1444,"station_name":"Rajawali","transit":false,"time":3,"station_id":"RJW","i_lat":-6.14505,"line":11},{"station_name":"Kemayoran","i_long":106.839204,"transit":false,"line":11,"distance":1901,"i_lat":-6.161728,"is_transit":false,"station_id":"KMO","time":5},{"station_name":"Pasar Senen","distance":1436,"is_transit":false,"i_lat":-6.174784,"line":11,"time":4,"transit":false,"station_id":"PSE","i_long":106.84368},{"line":11,"is_transit":false,"i_lat":-6.185975,"distance":1567,"i_long":106.850107,"station_id":"GST","time":8,"transit":false,"station_name":"Gang Sentiong"}]]}