{"data":[[{"i_long":106.665036,"transit":false,"station_id":"BPR","time":0,"i_lat":-6.171811,"station_name":"Batuceper","line":5,"distance":0,"is_transit":false},{"station_id":"PI","time":3,"station_name":"Poris","transit":false,"is_transit":false,"i_lat":-6.169933,"line":5,"distance":1834,"i_long":106.679458},{"station_id":"KDS","station_name":"Kalideres","time":3,"distance":2548,"i_lat":-6.166068,"transit":false,"line":5,"i_long":106.701612,"is_transit":false},{"is_transit":false,"station_name":"Rawa Buaya","distance":2504,"i_lat":-6.162758,"time":3,"transit":false,"station_id":"RW","i_long":106.723064,"line":5},{"station_name":"Bojongindah","line":5,"time":4,"i_long":106.737035,"distance":1152,"i_lat":-6.159876,"station_id":"BOI","transit":false,"is_transit":false},{"i_long":106.756522,"distance":2334,"i_lat":-6.1587309999999995,"time":2,"is_transit":false,"line":5,"station_id":"TKO","station_name":"Taman Kota","transit":false},{"time":2,"station_name":"Pesing","is_transit":false,"station_id":"PSG","distance":1614,"i_lat":-6.161433,"i_long":106.771379,"transit":false,"line":5},{"distance":2036,"line":5,"station_name":"Grogol","i_long":106.788277,"transit":false,"time":2,"i_lat":-6.162021,"is_transit":false,"station_id":"GGL"},{"station_name":"Duri","station_id":"DU","i_long":106.800832,"time":3,"transit":true,"distance":1700,"is_transit":true,"i_lat":-6.155215,"line":1},{"i_lat":-6.185545,"station_name":"Tanah Abang","i_long":106.811091,"time":8,"line":1,"is_transit":false,"transit":false,"station_id":"THB","distance":3632},{"time":5,"transit":false,"i_lat":-6.20132,"is_transit":false,"line":1,"distance":2029,"i_long":106.816351,"station_name":"Karet","station_id":"KAT"},{"transit":false,"station_id":"SUDB","line":1,"i_long":106.819881,"time":1,"station_name":"Sudirman Baru","i_lat":-6.201433,"distance":471,"is_transit":false},{"line":1,"i_lat":-6.202263,"is_transit":false,"i_long":106.822649,"transit":false,"station_name":"Sudirman","time":1,"distance":280,"station_id":"SUD"},{"time":4,"i_lat":-6.209883,"station_name":"Manggarai","i_long":106.84912,"line":2,"is_transit":true,"station_id":"MRI","transit":true,"distance":3186},{"i_long":106.857948,"station_id":"TEB","transit":false,"distance":2610,"line":2,"is_transit":false,"station_name":"Tebet","i_lat":-6.226659,"time":4},{"transit":false,"time":2,"station_name":"Cawang","i_lat":-6.242512,"line":2,"station_id":"CW","is_transit":false,"i_long":106.856607,"distance":1230},{"is_transit":false,"i_lat":-6.255332,"distance":1546,"time":3,"station_id":"DRN","station_name":"Duren Kalibata","i_long":106.85449,"transit":false,"line":2},{"i_lat":-6.263214,"is_transit":false,"station_id":"PSMB","line":2,"transit":false,"time":2,"station_name":"Pasar Minggu Baru","distance":824,"i_long":106.851577},{"i_lat":-6.2842400000000005,"transit":false,"line":2,"time":2,"station_name":"Pasar Minggu","station_id":"PSM","is_transit":false,"distance":2380,"i_long":106.843999},{"line":2,"distance":2820,"station_name":"Tanjung Barat","time":4,"is_transit":false,"i_lat":-6.3080680000000005,"transit":false,"station_id":"TNT","i_long":106.838896},{"distance":2671,"station_id":"LNA","time":3,"station_name":"Lenteng Agung","i_lat":-6.330363,"line":2,"transit":false,"is_transit":false,"i_long":106.832616},{"i_lat":-6.339291,"station_id":"UP","is_transit":false,"transit":false,"station_name":"Univ. Pancasila","i_long":106.834175,"time":2,"line":2,"distance":1029},{"i_lat":-6.360749,"time":3,"station_name":"Univ. Indonesia","transit":false,"is_transit":false,"distance":2264,"line":2,"station_id":"UI","i_long":106.831474},{"i_lat":-6.369073,"line":2,"station_name":"Pondok Cina","transit":false,"time":2,"i_long":106.831114,"is_transit":false,"distance":1109,"station_id":"POC"},{"is_transit":false,"i_lat":-6.391065,"station_name":"Depokbaru","time":4,"transit":false,"station_id":"DPB","i_long":106.819451,"distance":2727,"line":2},{"line":2,"i_lat":-6.405256,"station_name":"Depok","is_transit":false,"station_id":"DP","i_long":106.816926,"time":3,"transit":false,"distance":1584}],[{"transit":false,"time":0,"station_name":"Batuceper","i_long":106.665036,"i_lat":-6.171811,"station_id":"BPR","line":5,"is_transit":false,"distance":0},{"is_transit":false,"i_long":106.679458,"station_name":"Poris","transit":false,"line":5,"station_id":"PI","time":3,"distance":1834,"i_lat":-6.169933},{"is_transit":false,"i_long":106.701612,"station_id":"KDS","distance":2548,"transit":false,"time":3,"station_name":"Kalideres","i_lat":-6.166068,"line":5},{"station_id":"RW","distance":2504,"transit":false,"i_lat":-6.162758,"is_transit":false,"station_name":"Rawa Buaya","i_long":106.723064,"line":5,"time":3},{"time":4,"i_lat":-6.159876,"i_long":106.737035,"distance":1152,"transit":false,"station_name":"Bojongindah","station_id":"BOI","is_transit":false,"line":5},{"line":5,"distance":2334,"transit":false,"is_transit":false,"station_name":"Taman Kota","station_id":"TKO","i_lat":-6.1587309999999995,"time":2,"i_long":106.756522},{"transit":false,"station_name":"Pesing","i_lat":-6.161433,"is_transit":false,"line":5,"time":2,"i_long":106.771379,"distance":1614,"station_id":"PSG"},{"is_transit":false,"transit":false,"station_id":"GGL","time":2,"i_lat":-6.162021,"station_name":"Grogol","i_long":106.788277,"line":5,"distance":2036},{"is_transit":true,"time":3,"transit":true,"station_name":"Duri","i_lat":-6.155215,"i_long":106.800832,"line":1,"station_id":"DU","distance":1700},{"station_name":"Angke","distance":1230,"i_long":106.79867,"line":1,"transit":false,"station_id":"AK","time":4,"is_transit":false,"i_lat":-6.144674},{"station_name":"Kampung Bandan","distance":4102,"i_long":106.826365,"transit":true,"i_lat":-6.132549,"line":4,"station_id":"KPB","time":9,"is_transit":true},{"transit":true,"distance":1364,"station_name":"Jakarta Kota","is_transit":true,"line":2,"station_id":"JAKK","i_long":106.812439,"time":3,"i_lat":-6.137569},{"transit":false,"station_id":"JAY","is_transit":false,"distance":1264,"i_lat":-6.141205,"line":2,"i_long":106.820901,"time":4,"station_name":"Jayakarta"},{"distance":1080,"is_transit":false,"i_lat":-6.149769,"line":2,"transit":false,"station_id":"MGB","i_long":106.82482,"station_name":"Manggabesar","time":2},{"station_id":"SW","line":2,"i_long":106.827103,"is_transit":false,"i_lat":-6.160725,"transit":false,"distance":906,"time":2,"station_name":"Sawah Besar"},{"time":2,"station_name":"Juanda","distance":1149,"i_lat":-6.166716,"i_long":106.828284,"line":2,"is_transit":false,"station_id":"JUA","transit":false},{"transit":false,"is_transit":false,"distance":2015,"i_lat":-6.186295,"station_name":"Gondangdia","station_id":"GDD","time":4,"i_long":106.832183,"line":2},{"station_name":"Cikini","distance":1750,"time":3,"station_id":"CKI","is_transit":false,"i_lat":-6.198556,"i_long":106.840169,"transit":false,"line":2},{"is_transit":false,"station_id":"MRI","station_name":"Manggarai","line":2,"time":4,"i_long":106.84912,"transit":false,"i_lat":-6.209883,"distance":1590},{"transit":false,"station_name":"Tebet","is_transit":false,"i_long":106.857948,"i_lat":-6.226659,"line":2,"distance":2610,"station_id":"TEB","time":4},{"transit":false,"station_id":"CW","station_name":"Cawang","i_lat":-6.242512,"line":2,"time":2,"is_transit":false,"distance":1230,"i_long":106.856607},{"i_long":106.85449,"transit":false,"line":2,"i_lat":-6.255332,"time":3,"station_name":"Duren Kalibata","station_id":"DRN","distance":1546,"is_transit":false},{"i_long":106.851577,"station_id":"PSMB","time":2,"i_lat":-6.263214,"transit":false,"station_name":"Pasar Minggu Baru","line":2,"is_transit":false,"distance":824},{"transit":false,"distance":2380,"i_lat":-6.2842400000000005,"i_long":106.843999,"line":2,"station_name":"Pasar Minggu","time":2,"station_id":"PSM","is_transit":false},{"is_transit":false,"i_long":106.838896,"distance":2820,"line":2,"transit":false,"station_id":"TNT","time":4,"i_lat":-6.3080680000000005,"station_name":"Tanjung Barat"},{"line":2,"i_long":106.832616,"station_id":"LNA","station_name":"Lenteng Agung","transit":false,"time":3,"is_transit":false,"i_lat":-6.330363,"distance":2671},{"is_transit":false,"station_name":"Univ. Pancasila","i_long":106.834175,"i_lat":-6.339291,"transit":false,"station_id":"UP","line":2,"time":2,"distance":1029},{"line":2,"is_transit":false,"distance":2264,"station_id":"UI","i_lat":-6.360749,"time":3,"i_long":106.831474,"station_name":"Univ. Indonesia","transit":false},{"i_long":106.831114,"distance":1109,"i_lat":-6.369073,"station_id":"POC","time":2,"transit":false,"station_name":"Pondok Cina","line":2,"is_transit":false},{"i_lat":-6.391065,"transit":false,"is_transit":false,"station_id":"DPB","time":4,"station_name":"Depokbaru","distance":2727,"i_long":106.819451,"line":2},{"i_long":106.816926,"is_transit":false,"station_name":"Depok","time":3,"transit":false,"i_lat":-6.405256,"line":2,"station_id":"DP","distance":1584}],[{"i_long":106.665036,"line":5,"distance":0,"station_name":"Batuceper","is_transit":false,"transit":false,"station_id":"BPR","i_lat":-6.171811,"time":0},{"line":5,"transit":false,"station_name":"Poris","time":3,"i_long":106.679458,"i_lat":-6.169933,"station_id":"PI","is_transit":false,"distance":1834},{"station_name":"Kalideres","station_id":"KDS","i_lat":-6.166068,"line":5,"transit":false,"is_transit":false,"i_long":106.701612,"time":3,"distance":2548},{"station_id":"RW","line":5,"is_transit":false,"i_long":106.723064,"station_name":"Rawa Buaya","time":3,"transit":false,"distance":2504,"i_lat":-6.162758},{"is_transit":false,"line":5,"transit":false,"i_lat":-6.159876,"i_long":106.737035,"distance":1152,"time":4,"station_id":"BOI","station_name":"Bojongindah"},{"station_name":"Taman Kota","transit":false,"line":5,"distance":2334,"is_transit":false,"station_id":"TKO","i_lat":-6.1587309999999995,"i_long":106.756522,"time":2},{"is_transit":false,"distance":1614,"i_long":106.771379,"time":2,"station_id":"PSG","transit":false,"station_name":"Pesing","line":5,"i_lat":-6.161433},{"line":5,"time":2,"is_transit":false,"i_long":106.788277,"station_id":"GGL","transit":false,"station_name":"Grogol","i_lat":-6.162021,"distance":2036},{"station_name":"Duri","i_lat":-6.155215,"station_id":"DU","is_transit":true,"distance":1700,"time":3,"line":1,"i_long":106.800832,"transit":true},{"line":1,"is_transit":false,"transit":false,"distance":1230,"station_name":"Angke","i_long":106.79867,"station_id":"AK","time":4,"i_lat":-6.144674},{"i_long":106.826365,"distance":4102,"i_lat":-6.132549,"transit":true,"time":9,"line":4,"station_name":"Kampung Bandan","station_id":"KPB","is_transit":true},{"time":3,"i_lat":-6.14505,"transit":false,"station_name":"Rajawali","is_transit":false,"distance":1444,"station_id":"RJW","i_long":106.836569,"line":11},{"line":11,"transit":false,"i_lat":-6.161728,"station_name":"Kemayoran","distance":1901,"station_id":"KMO","is_transit":false,"time":5,"i_long":106.839204},{"station_id":"PSE","is_transit":false,"station_name":"Pasar Senen","time":4,"i_lat":-6.174784,"i_long":106.84368,"distance":1436,"transit":false,"line":11},{"time":8,"station_name":"Gang Sentiong","is_transit":false,"distance":1567,"i_lat":-6.185975,"i_long":106.850107,"line":11,"transit":false,"station_id":"GST"},{"is_transit":false,"distance":973,"line":11,"transit":false,"i_long":106.855437,"station_id":"KMT","time":1,"i_lat":-6.193792,"station_name":"Kramat"},{"line":11,"station_id":"POK","is_transit":false,"i_long":106.861737,"distance":1829,"time":2,"i_lat":-6.209188,"station_name":"Pondok Jati","transit":false},{"transit":true,"line":1,"station_id":"JNG","is_transit":true,"distance":1236,"station_name":"Jatinegara","i_long":106.86807400000001,"time":9,"i_lat":-6.215091},{"time":2,"station_id":"MTR","is_transit":false,"i_lat":-6.212485,"i_long":106.858896,"line":1,"transit":false,"station_name":"Matraman","distance":1377},{"transit":true,"distance":1275,"line":2,"i_lat":-6.209883,"time":2,"is_transit":true,"i_long":106.84912,"station_id":"MRI","station_name":"Manggarai"},{"station_id":"TEB","i_lat":-6.226659,"i_long":106.857948,"is_transit":false,"transit":false,"station_name":"Tebet","distance":2610,"time":4,"line":2},{"transit":false,"distance":1230,"station_name":"Cawang","i_lat":-6.242512,"is_transit":false,"i_long":106.856607,"line":2,"station_id":"CW","time":2},{"is_transit":false,"i_long":106.85449,"i_lat":-6.255332,"time":3,"transit":false,"line":2,"distance":1546,"station_name":"Duren Kalibata","station_id":"DRN"},{"time":2,"transit":false,"i_lat":-6.263214,"i_long":106.851577,"line":2,"station_name":"Pasar Minggu Baru","distance":824,"station_id":"PSMB","is_transit":false},{"is_transit":false,"time":2,"i_lat":-6.2842400000000005,"station_id":"PSM","station_name":"Pasar Minggu","transit":false,"distance":2380,"line":2,"i_long":106.843999},{"i_lat":-6.3080680000000005,"is_transit":false,"i_long":106.838896,"station_id":"TNT","line":2,"time":4,"distance":2820,"transit":false,"station_name":"Tanjung Barat"},{"station_id":"LNA","is_transit":false,"transit":false,"time":3,"i_long":106.832616,"station_name":"Lenteng Agung","i_lat":-6.330363,"distance":2671,"line":2},{"station_name":"Univ. Pancasila","is_transit":false,"distance":1029,"line":2,"transit":false,"i_long":106.834175,"station_id":"UP","time":2,"i_lat":-6.339291},{"time":3,"distance":2264,"i_lat":-6.360749,"station_name":"Univ. Indonesia","i_long":106.831474,"transit":false,"station_id":"UI","is_transit":false,"line":2},{"line":2,"i_lat":-6.369073,"time":2,"distance":1109,"i_long":106.831114,"station_id":"POC","station_name":"Pondok Cina","transit":false,"is_transit":false},{"station_id":"DPB","time":4,"station_name":"Depokbaru","transit":false,"is_transit":false,"i_lat":-6.391065,"i_long":106.819451,"line":2,"distance":2727},{"time":3,"is_transit":false,"transit":false,"station_id":"DP","station_name":"Depok","i_lat":-6.405256,"i_long":106.816926,"distance":1584,"line":2}]]}