{"data":[[{"line":5,"distance":0,"is_transit":false,"station_name":"Batuceper","i_long":106.665036,"transit":false,"i_lat":-6.171811,"station_id":"BPR","time":0},{"i_long":106.679458,"is_transit":false,"distance":1834,"line":5,"transit":false,"time":3,"i_lat":-6.169933,"station_id":"PI","station_name":"Poris"},{"station_id":"KDS","is_transit":false,"station_name":"Kalideres","i_lat":-6.166068,"distance":2548,"i_long":106.701612,"line":5,"time":3,"transit":false},{"time":3,"i_lat":-6.162758,"i_long":106.723064,"is_transit":false,"line":5,"transit":false,"station_name":"Rawa Buaya","station_id":"RW","distance":2504},{"station_id":"BOI","i_long":106.737035,"distance":1152,"station_name":"Bojongindah","transit":false,"is_transit":false,"i_lat":-6.159876,"time":4,"line":5},{"station_id":"TKO","i_long":106.756522,"station_name":"Taman Kota","transit":false,"distance":2334,"is_transit":false,"line":5,"time":2,"i_lat":-6.1587309999999995},{"station_name":"Pesing","i_lat":-6.161433,"time":2,"line":5,"station_id":"PSG","i_long":106.771379,"transit":false,"is_transit":false,"distance":1614},{"distance":2036,"i_long":106.788277,"transit":false,"line":5,"station_id":"GGL","i_lat":-6.162021,"station_name":"Grogol","time":2,"is_transit":false},{"is_transit":true,"line":1,"transit":true,"i_long":106.800832,"i_lat":-6.155215,"time":3,"station_name":"Duri","station_id":"DU","distance":1700},{"distance":3632,"transit":true,"time":8,"i_lat":-6.185545,"station_id":"THB","i_long":106.811091,"station_name":"Tanah Abang","line":1,"is_transit":true},{"line":6,"station_name":"Palmerah","transit":false,"is_transit":false,"station_id":"PLM","distance":3191,"time":6,"i_long":106.79689,"i_lat":-6.207404},{"time":7,"distance":3737,"i_long":106.780334,"is_transit":false,"line":6,"transit":false,"station_id":"KBY","i_lat":-6.237242,"station_name":"Kebayoran"},{"transit":false,"i_lat":-6.276362,"time":8,"line":6,"is_transit":false,"i_long":106.74273,"station_name":"Pondokranji","distance":6218,"station_id":"PDJ"},{"is_transit":false,"distance":2179,"i_long":106.728916,"line":6,"transit":false,"station_name":"Jurangmangu","station_id":"JMU","time":3,"i_lat":-6.288927},{"transit":false,"time":4,"station_name":"Sudimara","line":6,"station_id":"SDM","is_transit":false,"i_lat":-6.296963,"distance":1994,"i_long":106.712277},{"distance":4566,"i_lat":-6.314823,"time":6,"station_id":"RU","transit":false,"station_name":"Rawa Buntu","i_long":106.675475,"is_transit":false,"line":6},{"station_id":"SRP","transit":false,"time":4,"i_lat":-6.319871,"i_long":106.66566,"is_transit":false,"distance":2413,"line":6,"station_name":"Serpong"},{"distance":1784,"is_transit":false,"i_long":106.640411,"time":4,"line":3,"station_id":"CSK","transit":false,"station_name":"Cisauk","i_lat":-6.32484},{"transit":false,"distance":2519,"line":3,"station_name":"Cicayur","station_id":"CC","is_transit":false,"time":4,"i_lat":-6.329547,"i_long":106.617853},{"is_transit":false,"transit":false,"time":8,"station_name":"Parung Panjang","station_id":"PRP","distance":5968,"i_lat":-6.3441410000000005,"line":6,"i_long":106.568863},{"is_transit":false,"station_id":"CJT","line":3,"i_lat":-6.354349,"i_long":106.508482,"transit":false,"station_name":"Cilejit","time":9,"distance":7025},{"i_long":106.491338,"is_transit":false,"station_name":"Daru","line":0,"distance":2675,"time":6,"transit":false,"station_id":"DAR","i_lat":-6.338021}],[{"station_id":"BPR","distance":0,"line":5,"i_lat":-6.171811,"station_name":"Batuceper","i_long":106.665036,"transit":false,"is_transit":false,"time":0},{"station_name":"Poris","transit":false,"distance":1834,"i_lat":-6.169933,"i_long":106.679458,"time":3,"station_id":"PI","line":5,"is_transit":false},{"line":5,"station_name":"Kalideres","transit":false,"time":3,"i_lat":-6.166068,"station_id":"KDS","is_transit":false,"distance":2548,"i_long":106.701612},{"time":3,"i_lat":-6.162758,"line":5,"is_transit":false,"distance":2504,"transit":false,"station_id":"RW","i_long":106.723064,"station_name":"Rawa Buaya"},{"station_id":"BOI","transit":false,"time":4,"station_name":"Bojongindah","distance":1152,"i_lat":-6.159876,"is_transit":false,"line":5,"i_long":106.737035},{"time":2,"station_name":"Taman Kota","station_id":"TKO","i_long":106.756522,"transit":false,"i_lat":-6.1587309999999995,"is_transit":false,"distance":2334,"line":5},{"distance":1614,"station_name":"Pesing","is_transit":false,"line":5,"time":2,"i_lat":-6.161433,"transit":false,"station_id":"PSG","i_long":106.771379},{"station_id":"GGL","time":2,"i_long":106.788277,"i_lat":-6.162021,"distance":2036,"station_name":"Grogol","is_transit":false,"line":5,"transit":false},{"transit":true,"station_name":"Duri","time":3,"station_id":"DU","is_transit":true,"i_lat":-6.155215,"i_long":106.800832,"distance":1700,"line":1},{"station_id":"AK","is_transit":false,"time":4,"distance":1230,"i_lat":-6.144674,"i_long":106.79867,"station_name":"Angke","transit":false,"line":1},{"transit":true,"time":9,"station_name":"Kampung Bandan","i_lat":-6.132549,"is_transit":true,"distance":4102,"station_id":"KPB","line":4,"i_long":106.826365},{"distance":1364,"is_transit":true,"i_lat":-6.137569,"station_name":"Jakarta Kota","line":2,"transit":true,"station_id":"JAKK","i_long":106.812439,"time":3},{"station_name":"Jayakarta","i_lat":-6.141205,"transit":false,"is_transit":false,"time":4,"distance":1264,"station_id":"JAY","i_long":106.820901,"line":2},{"station_id":"MGB","transit":false,"i_lat":-6.149769,"line":2,"is_transit":false,"i_long":106.82482,"station_name":"Manggabesar","distance":1080,"time":2},{"station_id":"SW","time":2,"i_lat":-6.160725,"transit":false,"station_name":"Sawah Besar","distance":906,"line":2,"i_long":106.827103,"is_transit":false},{"distance":1149,"is_transit":false,"i_long":106.828284,"station_id":"JUA","time":2,"i_lat":-6.166716,"line":2,"station_name":"Juanda","transit":false},{"station_name":"Gondangdia","station_id":"GDD","distance":2015,"is_transit":false,"time":4,"i_long":106.832183,"i_lat":-6.186295,"line":2,"transit":false},{"time":3,"i_lat":-6.198556,"station_name":"Cikini","i_long":106.840169,"station_id":"CKI","transit":false,"is_transit":false,"distance":1750,"line":2},{"i_long":106.84912,"distance":1590,"i_lat":-6.209883,"station_id":"MRI","line":2,"transit":true,"station_name":"Manggarai","time":4,"is_transit":true},{"station_name":"Sudirman","i_long":106.822649,"distance":3186,"station_id":"SUD","time":4,"line":1,"i_lat":-6.202263,"transit":false,"is_transit":false},{"line":1,"time":1,"station_id":"SUDB","distance":280,"station_name":"Sudirman Baru","transit":false,"is_transit":false,"i_lat":-6.201433,"i_long":106.819881},{"i_long":106.816351,"station_id":"KAT","is_transit":false,"time":1,"station_name":"Karet","transit":false,"i_lat":-6.20132,"distance":471,"line":1},{"is_transit":true,"time":5,"i_lat":-6.185545,"station_name":"Tanah Abang","i_long":106.811091,"transit":true,"station_id":"THB","distance":2029,"line":1},{"station_id":"PLM","station_name":"Palmerah","i_long":106.79689,"line":6,"i_lat":-6.207404,"transit":false,"is_transit":false,"time":6,"distance":3191},{"distance":3737,"station_name":"Kebayoran","i_long":106.780334,"line":6,"transit":false,"station_id":"KBY","i_lat":-6.237242,"is_transit":false,"time":7},{"time":8,"is_transit":false,"transit":false,"i_long":106.74273,"line":6,"distance":6218,"station_name":"Pondokranji","i_lat":-6.276362,"station_id":"PDJ"},{"station_id":"JMU","time":3,"distance":2179,"i_lat":-6.288927,"i_long":106.728916,"line":6,"is_transit":false,"transit":false,"station_name":"Jurangmangu"},{"i_lat":-6.296963,"is_transit":false,"station_name":"Sudimara","time":4,"transit":false,"i_long":106.712277,"station_id":"SDM","distance":1994,"line":6},{"transit":false,"station_id":"RU","station_name":"Rawa Buntu","i_long":106.675475,"distance":4566,"line":6,"i_lat":-6.314823,"time":6,"is_transit":false},{"is_transit":false,"transit":false,"i_long":106.66566,"station_name":"Serpong","time":4,"station_id":"SRP","line":6,"distance":2413,"i_lat":-6.319871},{"i_lat":-6.32484,"transit":false,"station_id":"CSK","station_name":"Cisauk","time":4,"line":3,"is_transit":false,"distance":1784,"i_long":106.640411},{"is_transit":false,"station_id":"CC","transit":false,"line":3,"distance":2519,"time":4,"i_lat":-6.329547,"station_name":"Cicayur","i_long":106.617853},{"i_lat":-6.3441410000000005,"transit":false,"distance":5968,"line":6,"station_id":"PRP","station_name":"Parung Panjang","time":8,"i_long":106.568863,"is_transit":false},{"line":3,"is_transit":false,"i_lat":-6.354349,"i_long":106.508482,"station_id":"CJT","station_name":"Cilejit","time":9,"distance":7025,"transit":false},{"i_lat":-6.338021,"i_long":106.491338,"line":0,"transit":false,"station_id":"DAR","station_name":"Daru","time":6,"is_transit":false,"distance":2675}],[{"time":0,"distance":0,"i_long":106.665036,"is_transit":false,"line":5,"i_lat":-6.171811,"station_id":"BPR","station_name":"Batuceper","transit":false},{"i_lat":-6.169933,"distance":1834,"station_name":"Poris","station_id":"PI","time":3,"i_long":106.679458,"transit":false,"is_transit":false,"line":5},{"is_transit":false,"transit":false,"i_lat":-6.166068,"distance":2548,"station_id":"KDS","i_long":106.701612,"time":3,"line":5,"station_name":"Kalideres"},{"line":5,"time":3,"transit":false,"i_lat":-6.162758,"i_long":106.723064,"is_transit":false,"station_id":"RW","distance":2504,"station_name":"Rawa Buaya"},{"is_transit":false,"station_id":"BOI","time":4,"transit":false,"station_name":"Bojongindah","distance":1152,"i_long":106.737035,"line":5,"i_lat":-6.159876},{"distance":2334,"station_id":"TKO","line":5,"time":2,"transit":false,"i_lat":-6.1587309999999995,"station_name":"Taman Kota","i_long":106.756522,"is_transit":false},{"i_lat":-6.161433,"line":5,"station_name":"Pesing","station_id":"PSG","is_transit":false,"transit":false,"distance":1614,"time":2,"i_long":106.771379},{"station_name":"Grogol","line":5,"i_lat":-6.162021,"distance":2036,"i_long":106.788277,"time":2,"is_transit":false,"station_id":"GGL","transit":false},{"is_transit":true,"transit":true,"station_name":"Duri","time":3,"distance":1700,"i_long":106.800832,"line":1,"i_lat":-6.155215,"station_id":"DU"},{"is_transit":false,"station_id":"AK","time":4,"transit":false,"station_name":"Angke","i_lat":-6.144674,"line":1,"i_long":106.79867,"distance":1230},{"station_id":"KPB","distance":4102,"line":4,"station_name":"Kampung Bandan","time":9,"transit":true,"is_transit":true,"i_long":106.826365,"i_lat":-6.132549},{"is_transit":false,"distance":1444,"i_long":106.836569,"station_id":"RJW","time":3,"line":11,"i_lat":-6.14505,"transit":false,"station_name":"Rajawali"},{"i_long":106.839204,"station_id":"KMO","station_name":"Kemayoran","is_transit":false,"distance":1901,"time":5,"line":11,"transit":false,"i_lat":-6.161728},{"i_lat":-6.174784,"station_name":"Pasar Senen","transit":false,"distance":1436,"i_long":106.84368,"line":11,"time":4,"is_transit":false,"station_id":"PSE"},{"is_transit":false,"i_lat":-6.185975,"station_id":"GST","i_long":106.850107,"station_name":"Gang Sentiong","line":11,"time":8,"distance":1567,"transit":false},{"line":11,"is_transit":false,"time":1,"distance":973,"i_lat":-6.193792,"station_name":"Kramat","transit":false,"i_long":106.855437,"station_id":"KMT"},{"i_lat":-6.209188,"distance":1829,"i_long":106.861737,"station_id":"POK","line":11,"transit":false,"is_transit":false,"time":2,"station_name":"Pondok Jati"},{"station_id":"JNG","transit":true,"time":9,"i_long":106.86807400000001,"i_lat":-6.215091,"line":1,"station_name":"Jatinegara","is_transit":true,"distance":1236},{"i_lat":-6.212485,"is_transit":false,"distance":1377,"time":2,"transit":false,"station_id":"MTR","i_long":106.858896,"line":1,"station_name":"Matraman"},{"station_id":"MRI","time":2,"station_name":"Manggarai","distance":1275,"i_lat":-6.209883,"line":2,"transit":false,"i_long":106.84912,"is_transit":false},{"is_transit":false,"line":1,"transit":false,"time":4,"i_lat":-6.202263,"station_id":"SUD","i_long":106.822649,"distance":3186,"station_name":"Sudirman"},{"is_transit":false,"i_long":106.819881,"station_id":"SUDB","i_lat":-6.201433,"line":1,"transit":false,"distance":280,"time":1,"station_name":"Sudirman Baru"},{"station_id":"KAT","transit":false,"is_transit":false,"i_long":106.816351,"station_name":"Karet","line":1,"distance":471,"time":1,"i_lat":-6.20132},{"station_id":"THB","line":1,"transit":true,"i_long":106.811091,"time":5,"distance":2029,"is_transit":true,"station_name":"Tanah Abang","i_lat":-6.185545},{"is_transit":false,"station_id":"PLM","i_long":106.79689,"station_name":"Palmerah","transit":false,"i_lat":-6.207404,"time":6,"distance":3191,"line":6},{"distance":3737,"time":7,"is_transit":false,"i_lat":-6.237242,"transit":false,"line":6,"station_name":"Kebayoran","station_id":"KBY","i_long":106.780334},{"transit":false,"station_id":"PDJ","time":8,"distance":6218,"i_lat":-6.276362,"i_long":106.74273,"line":6,"station_name":"Pondokranji","is_transit":false},{"station_id":"JMU","distance":2179,"station_name":"Jurangmangu","transit":false,"i_lat":-6.288927,"i_long":106.728916,"line":6,"time":3,"is_transit":false},{"station_name":"Sudimara","time":4,"station_id":"SDM","line":6,"distance":1994,"i_lat":-6.296963,"transit":false,"is_transit":false,"i_long":106.712277},{"line":6,"transit":false,"station_name":"Rawa Buntu","distance":4566,"is_transit":false,"time":6,"station_id":"RU","i_lat":-6.314823,"i_long":106.675475},{"station_id":"SRP","time":4,"i_long":106.66566,"line":6,"distance":2413,"is_transit":false,"i_lat":-6.319871,"transit":false,"station_name":"Serpong"},{"is_transit":false,"time":4,"i_lat":-6.32484,"i_long":106.640411,"distance":1784,"line":3,"station_name":"Cisauk","transit":false,"station_id":"CSK"},{"transit":false,"time":4,"line":3,"is_transit":false,"station_id":"CC","i_long":106.617853,"station_name":"Cicayur","distance":2519,"i_lat":-6.329547},{"station_id":"PRP","transit":false,"is_transit":false,"distance":5968,"line":6,"i_lat":-6.3441410000000005,"station_name":"Parung Panjang","i_long":106.568863,"time":8},{"transit":false,"station_id":"CJT","distance":7025,"i_lat":-6.354349,"is_transit":false,"i_long":106.508482,"time":9,"station_name":"Cilejit","line":3},{"is_transit":false,"station_id":"DAR","time":6,"i_long":106.491338,"transit":false,"line":0,"distance":2675,"i_lat":-6.338021,"station_name":"Daru"}]]}