{"data":[[{"is_transit":false,"transit":false,"time":0,"distance":0,"i_lat":-6.171811,"station_name":"Batuceper","line":5,"station_id":"BPR","i_long":106.665036},{"is_transit":false,"line":5,"station_name":"Poris","i_long":106.679458,"distance":1834,"time":3,"i_lat":-6.169933,"transit":false,"station_id":"PI"},{"station_name":"Kalideres","i_long":106.701612,"line":5,"station_id":"KDS","time":3,"distance":2548,"is_transit":false,"transit":false,"i_lat":-6.166068},{"transit":false,"i_long":106.723064,"line":5,"time":3,"is_transit":false,"station_id":"RW","station_name":"Rawa Buaya","distance":2504,"i_lat":-6.162758},{"station_name":"Bojongindah","i_lat":-6.159876,"i_long":106.737035,"transit":false,"line":5,"time":4,"distance":1152,"is_transit":false,"station_id":"BOI"},{"i_lat":-6.1587309999999995,"station_name":"Taman Kota","distance":2334,"station_id":"TKO","is_transit":false,"transit":false,"i_long":106.756522,"line":5,"time":2},{"station_id":"PSG","line":5,"is_transit":false,"transit":false,"i_long":106.771379,"time":2,"station_name":"Pesing","distance":1614,"i_lat":-6.161433},{"station_name":"Grogol","i_lat":-6.162021,"transit":false,"distance":2036,"station_id":"GGL","time":2,"is_transit":false,"i_long":106.788277,"line":5},{"time":3,"i_lat":-6.155215,"station_name":"Duri","i_long":106.800832,"line":1,"is_transit":true,"transit":true,"station_id":"DU","distance":1700},{"i_lat":-6.185545,"time":8,"station_name":"Tanah Abang","transit":false,"i_long":106.811091,"is_transit":false,"station_id":"THB","line":1,"distance":3632},{"station_id":"KAT","line":1,"distance":2029,"i_lat":-6.20132,"time":5,"is_transit":false,"i_long":106.816351,"station_name":"Karet","transit":false},{"i_long":106.819881,"station_name":"Sudirman Baru","time":1,"station_id":"SUDB","line":1,"transit":false,"is_transit":false,"distance":471,"i_lat":-6.201433},{"station_id":"SUD","i_lat":-6.202263,"distance":280,"is_transit":false,"time":1,"transit":false,"line":1,"i_long":106.822649,"station_name":"Sudirman"},{"is_transit":false,"station_name":"Manggarai","i_long":106.84912,"time":4,"i_lat":-6.209883,"line":2,"transit":false,"distance":3186,"station_id":"MRI"},{"transit":false,"line":1,"station_name":"Matraman","station_id":"MTR","distance":1275,"i_lat":-6.212485,"time":2,"is_transit":false,"i_long":106.858896},{"i_lat":-6.215091,"is_transit":false,"time":8,"distance":1377,"station_name":"Jatinegara","station_id":"JNG","i_long":106.86807400000001,"transit":false,"line":1},{"line":1,"is_transit":false,"station_id":"KLD","station_name":"Klender","distance":3395,"transit":false,"i_long":106.899548,"i_lat":-6.2135,"time":3},{"time":2,"station_name":"Buaran","is_transit":false,"transit":false,"i_long":106.922662,"line":1,"distance":3100,"station_id":"BUA","i_lat":-6.215568},{"distance":1305,"line":1,"time":1,"station_id":"KLDB","station_name":"Klenderbaru","transit":false,"i_long":106.939679,"is_transit":false,"i_lat":-6.217455},{"station_name":"Cakung","is_transit":false,"station_id":"CUK","distance":1385,"i_lat":-6.219053,"transit":false,"line":1,"time":8,"i_long":106.951283},{"station_name":"Kranji","i_lat":-6.224515,"line":1,"time":3,"distance":3097,"station_id":"KRI","i_long":106.977657,"is_transit":false,"transit":false}],[{"station_id":"BPR","i_long":106.665036,"i_lat":-6.171811,"station_name":"Batuceper","distance":0,"transit":false,"line":5,"time":0,"is_transit":false},{"is_transit":false,"i_long":106.679458,"i_lat":-6.169933,"time":3,"distance":1834,"transit":false,"line":5,"station_id":"PI","station_name":"Poris"},{"time":3,"is_transit":false,"i_lat":-6.166068,"station_id":"KDS","i_long":106.701612,"station_name":"Kalideres","distance":2548,"transit":false,"line":5},{"i_long":106.723064,"distance":2504,"station_id":"RW","is_transit":false,"transit":false,"i_lat":-6.162758,"time":3,"station_name":"Rawa Buaya","line":5},{"distance":1152,"station_name":"Bojongindah","station_id":"BOI","time":4,"i_lat":-6.159876,"i_long":106.737035,"is_transit":false,"transit":false,"line":5},{"i_lat":-6.1587309999999995,"is_transit":false,"station_id":"TKO","i_long":106.756522,"time":2,"distance":2334,"line":5,"station_name":"Taman Kota","transit":false},{"station_id":"PSG","i_lat":-6.161433,"distance":1614,"transit":false,"is_transit":false,"i_long":106.771379,"line":5,"station_name":"Pesing","time":2},{"distance":2036,"is_transit":false,"i_long":106.788277,"transit":false,"time":2,"line":5,"i_lat":-6.162021,"station_id":"GGL","station_name":"Grogol"},{"line":1,"distance":1700,"station_name":"Duri","station_id":"DU","transit":true,"i_lat":-6.155215,"is_transit":true,"i_long":106.800832,"time":3},{"station_id":"AK","i_long":106.79867,"transit":false,"line":1,"i_lat":-6.144674,"station_name":"Angke","is_transit":false,"distance":1230,"time":4},{"line":4,"i_lat":-6.132549,"time":9,"i_long":106.826365,"station_name":"Kampung Bandan","transit":true,"station_id":"KPB","is_transit":true,"distance":4102},{"is_transit":false,"station_id":"RJW","station_name":"Rajawali","i_lat":-6.14505,"line":11,"time":3,"distance":1444,"i_long":106.836569,"transit":false},{"i_long":106.839204,"is_transit":false,"station_id":"KMO","transit":false,"i_lat":-6.161728,"line":11,"distance":1901,"station_name":"Kemayoran","time":5},{"i_long":106.84368,"station_name":"Pasar Senen","i_lat":-6.174784,"line":11,"distance":1436,"station_id":"PSE","time":4,"is_transit":false,"transit":false},{"i_long":106.850107,"transit":false,"is_transit":false,"time":8,"line":11,"distance":1567,"i_lat":-6.185975,"station_id":"GST","station_name":"Gang Sentiong"},{"station_name":"Kramat","time":1,"i_lat":-6.193792,"distance":973,"line":11,"transit":false,"is_transit":false,"station_id":"KMT","i_long":106.855437},{"station_name":"Pondok Jati","i_long":106.861737,"transit":false,"i_lat":-6.209188,"is_transit":false,"time":2,"station_id":"POK","line":11,"distance":1829},{"transit":true,"i_lat":-6.215091,"line":1,"station_name":"Jatinegara","time":9,"distance":1236,"i_long":106.86807400000001,"station_id":"JNG","is_transit":true},{"station_name":"Klender","station_id":"KLD","transit":false,"is_transit":false,"time":3,"line":1,"i_lat":-6.2135,"distance":3395,"i_long":106.899548},{"i_lat":-6.215568,"time":2,"line":1,"i_long":106.922662,"transit":false,"distance":3100,"station_name":"Buaran","is_transit":false,"station_id":"BUA"},{"station_name":"Klenderbaru","is_transit":false,"distance":1305,"transit":false,"time":1,"i_lat":-6.217455,"station_id":"KLDB","i_long":106.939679,"line":1},{"line":1,"distance":1385,"i_long":106.951283,"station_id":"CUK","transit":false,"i_lat":-6.219053,"station_name":"Cakung","is_transit":false,"time":8},{"time":3,"station_name":"Kranji","station_id":"KRI","is_transit":false,"i_lat":-6.224515,"i_long":106.977657,"distance":3097,"transit":false,"line":1}],[{"distance":0,"is_transit":false,"line":5,"time":0,"i_long":106.665036,"i_lat":-6.171811,"station_id":"BPR","station_name":"Batuceper","transit":false},{"line":5,"i_long":106.679458,"time":3,"is_transit":false,"transit":false,"i_lat":-6.169933,"station_name":"Poris","distance":1834,"station_id":"PI"},{"transit":false,"i_lat":-6.166068,"station_name":"Kalideres","station_id":"KDS","distance":2548,"i_long":106.701612,"line":5,"time":3,"is_transit":false},{"station_id":"RW","station_name":"Rawa Buaya","distance":2504,"is_transit":false,"i_long":106.723064,"line":5,"time":3,"transit":false,"i_lat":-6.162758},{"is_transit":false,"station_name":"Bojongindah","i_lat":-6.159876,"i_long":106.737035,"station_id":"BOI","distance":1152,"time":4,"transit":false,"line":5},{"station_name":"Taman Kota","distance":2334,"transit":false,"station_id":"TKO","time":2,"i_lat":-6.1587309999999995,"is_transit":false,"line":5,"i_long":106.756522},{"station_name":"Pesing","distance":1614,"is_transit":false,"line":5,"i_long":106.771379,"time":2,"station_id":"PSG","i_lat":-6.161433,"transit":false},{"distance":2036,"time":2,"is_transit":false,"i_lat":-6.162021,"i_long":106.788277,"line":5,"transit":false,"station_id":"GGL","station_name":"Grogol"},{"transit":true,"line":1,"station_name":"Duri","i_long":106.800832,"i_lat":-6.155215,"station_id":"DU","time":3,"distance":1700,"is_transit":true},{"line":1,"i_long":106.79867,"i_lat":-6.144674,"station_name":"Angke","distance":1230,"is_transit":false,"transit":false,"time":4,"station_id":"AK"},{"station_name":"Kampung Bandan","i_long":106.826365,"line":4,"station_id":"KPB","transit":true,"distance":4102,"i_lat":-6.132549,"time":9,"is_transit":true},{"line":2,"station_id":"JAKK","station_name":"Jakarta Kota","is_transit":true,"i_lat":-6.137569,"time":3,"transit":true,"i_long":106.812439,"distance":1364},{"transit":false,"i_long":106.820901,"time":4,"station_name":"Jayakarta","distance":1264,"i_lat":-6.141205,"line":2,"is_transit":false,"station_id":"JAY"},{"i_lat":-6.149769,"distance":1080,"station_name":"Manggabesar","i_long":106.82482,"line":2,"station_id":"MGB","is_transit":false,"time":2,"transit":false},{"distance":906,"transit":false,"station_id":"SW","time":2,"i_lat":-6.160725,"line":2,"station_name":"Sawah Besar","i_long":106.827103,"is_transit":false},{"station_id":"JUA","time":2,"station_name":"Juanda","i_long":106.828284,"line":2,"is_transit":false,"transit":false,"distance":1149,"i_lat":-6.166716},{"line":2,"station_id":"GDD","time":4,"transit":false,"station_name":"Gondangdia","is_transit":false,"distance":2015,"i_long":106.832183,"i_lat":-6.186295},{"time":3,"is_transit":false,"station_name":"Cikini","line":2,"transit":false,"distance":1750,"i_lat":-6.198556,"station_id":"CKI","i_long":106.840169},{"distance":1590,"i_lat":-6.209883,"is_transit":true,"station_name":"Manggarai","i_long":106.84912,"line":2,"transit":true,"time":4,"station_id":"MRI"},{"transit":false,"station_id":"MTR","is_transit":false,"distance":1275,"i_lat":-6.212485,"station_name":"Matraman","line":1,"time":2,"i_long":106.858896},{"line":1,"transit":false,"is_transit":false,"station_id":"JNG","i_long":106.86807400000001,"station_name":"Jatinegara","time":8,"distance":1377,"i_lat":-6.215091},{"is_transit":false,"i_long":106.899548,"station_id":"KLD","time":3,"transit":false,"i_lat":-6.2135,"line":1,"station_name":"Klender","distance":3395},{"i_long":106.922662,"line":1,"distance":3100,"is_transit":false,"time":2,"station_name":"Buaran","i_lat":-6.215568,"transit":false,"station_id":"BUA"},{"i_lat":-6.217455,"i_long":106.939679,"station_name":"Klenderbaru","distance":1305,"is_transit":false,"line":1,"time":1,"station_id":"KLDB","transit":false},{"i_lat":-6.219053,"transit":false,"station_id":"CUK","distance":1385,"is_transit":false,"i_long":106.951283,"line":1,"time":8,"station_name":"Cakung"},{"is_transit":false,"station_name":"Kranji","station_id":"KRI","distance":3097,"i_lat":-6.224515,"line":1,"time":3,"i_long":106.977657,"transit":false}],[{"time":0,"is_transit":false,"transit":false,"station_id":"BPR","i_lat":-6.171811,"distance":0,"line":5,"station_name":"Batuceper","i_long":106.665036},{"station_id":"PI","transit":false,"station_name":"Poris","time":3,"is_transit":false,"distance":1834,"i_lat":-6.169933,"i_long":106.679458,"line":5},{"transit":false,"i_lat":-6.166068,"i_long":106.701612,"line":5,"is_transit":false,"distance":2548,"time":3,"station_name":"Kalideres","station_id":"KDS"},{"time":3,"i_lat":-6.162758,"is_transit":false,"distance":2504,"station_name":"Rawa Buaya","transit":false,"station_id":"RW","i_long":106.723064,"line":5},{"time":4,"distance":1152,"station_name":"Bojongindah","station_id":"BOI","is_transit":false,"i_long":106.737035,"i_lat":-6.159876,"transit":false,"line":5},{"station_id":"TKO","transit":false,"station_name":"Taman Kota","i_lat":-6.1587309999999995,"is_transit":false,"time":2,"i_long":106.756522,"line":5,"distance":2334},{"i_long":106.771379,"time":2,"transit":false,"station_id":"PSG","station_name":"Pesing","i_lat":-6.161433,"distance":1614,"is_transit":false,"line":5},{"station_name":"Grogol","station_id":"GGL","is_transit":false,"i_long":106.788277,"transit":false,"i_lat":-6.162021,"time":2,"distance":2036,"line":5},{"station_name":"Duri","is_transit":true,"station_id":"DU","i_long":106.800832,"i_lat":-6.155215,"line":1,"time":3,"transit":true,"distance":1700},{"time":8,"station_id":"THB","distance":3632,"line":1,"i_lat":-6.185545,"station_name":"Tanah Abang","is_transit":false,"i_long":106.811091,"transit":false},{"transit":false,"i_lat":-6.20132,"station_name":"Karet","distance":2029,"station_id":"KAT","is_transit":false,"i_long":106.816351,"line":1,"time":5},{"distance":471,"i_lat":-6.201433,"i_long":106.819881,"station_id":"SUDB","line":1,"station_name":"Sudirman Baru","time":1,"transit":false,"is_transit":false},{"time":1,"station_id":"SUD","is_transit":false,"line":1,"i_long":106.822649,"station_name":"Sudirman","distance":280,"i_lat":-6.202263,"transit":false},{"transit":true,"distance":3186,"is_transit":true,"station_name":"Manggarai","time":4,"i_lat":-6.209883,"i_long":106.84912,"station_id":"MRI","line":2},{"transit":false,"station_id":"CKI","is_transit":false,"distance":1590,"i_long":106.840169,"time":4,"station_name":"Cikini","i_lat":-6.198556,"line":2},{"station_name":"Gondangdia","line":2,"time":3,"i_lat":-6.186295,"distance":1750,"is_transit":false,"transit":false,"station_id":"GDD","i_long":106.832183},{"is_transit":false,"line":2,"transit":false,"station_id":"JUA","distance":2015,"station_name":"Juanda","time":4,"i_lat":-6.166716,"i_long":106.828284},{"station_id":"SW","transit":false,"time":2,"i_lat":-6.160725,"line":2,"is_transit":false,"i_long":106.827103,"station_name":"Sawah Besar","distance":1149},{"station_name":"Manggabesar","is_transit":false,"transit":false,"distance":906,"time":2,"i_lat":-6.149769,"station_id":"MGB","i_long":106.82482,"line":2},{"i_lat":-6.141205,"is_transit":false,"station_name":"Jayakarta","line":2,"i_long":106.820901,"station_id":"JAY","distance":1080,"time":2,"transit":false},{"i_long":106.812439,"transit":true,"is_transit":true,"time":4,"distance":1264,"i_lat":-6.137569,"line":2,"station_id":"JAKK","station_name":"Jakarta Kota"},{"is_transit":true,"i_lat":-6.132549,"time":3,"station_id":"KPB","line":4,"distance":1364,"station_name":"Kampung Bandan","i_long":106.826365,"transit":true},{"transit":false,"i_long":106.836569,"i_lat":-6.14505,"distance":1444,"station_name":"Rajawali","is_transit":false,"line":11,"station_id":"RJW","time":3},{"station_name":"Kemayoran","transit":false,"i_lat":-6.161728,"distance":1901,"is_transit":false,"i_long":106.839204,"line":11,"time":5,"station_id":"KMO"},{"i_long":106.84368,"station_name":"Pasar Senen","station_id":"PSE","transit":false,"is_transit":false,"time":4,"i_lat":-6.174784,"line":11,"distance":1436},{"transit":false,"is_transit":false,"time":8,"station_id":"GST","distance":1567,"line":11,"i_lat":-6.185975,"station_name":"Gang Sentiong","i_long":106.850107},{"station_name":"Kramat","is_transit":false,"i_lat":-6.193792,"transit":false,"station_id":"KMT","time":1,"distance":973,"i_long":106.855437,"line":11},{"distance":1829,"station_name":"Pondok Jati","station_id":"POK","transit":false,"time":2,"i_long":106.861737,"line":11,"i_lat":-6.209188,"is_transit":false},{"i_long":106.86807400000001,"station_name":"Jatinegara","transit":true,"station_id":"JNG","distance":1236,"time":9,"line":1,"is_transit":true,"i_lat":-6.215091},{"time":3,"i_long":106.899548,"station_name":"Klender","station_id":"KLD","is_transit":false,"transit":false,"line":1,"distance":3395,"i_lat":-6.2135},{"time":2,"station_id":"BUA","i_long":106.922662,"line":1,"distance":3100,"is_transit":false,"transit":false,"station_name":"Buaran","i_lat":-6.215568},{"time":1,"line":1,"distance":1305,"station_id":"KLDB","transit":false,"i_lat":-6.217455,"i_long":106.939679,"station_name":"Klenderbaru","is_transit":false},{"is_transit":false,"station_name":"Cakung","station_id":"CUK","distance":1385,"i_long":106.951283,"time":8,"transit":false,"i_lat":-6.219053,"line":1},{"is_transit":false,"i_lat":-6.224515,"transit":false,"distance":3097,"station_name":"Kranji","i_long":106.977657,"station_id":"KRI","line":1,"time":3}]]}