{"data":[[{"i_long":106.665036,"line":0,"station_id":"BPR","station_name":"Batuceper","is_transit":false,"transit":false,"time":0,"distance":0,"i_lat":-6.171811},{"transit":false,"time":3,"distance":1834,"station_name":"Poris","i_lat":-6.169933,"station_id":"PI","is_transit":false,"i_long":106.679458,"line":5},{"is_transit":false,"station_name":"Kalideres","i_lat":-6.166068,"i_long":106.701612,"distance":2548,"station_id":"KDS","time":3,"transit":false,"line":5},{"i_long":106.723064,"line":5,"time":3,"distance":2504,"station_id":"RW","transit":false,"station_name":"Rawa Buaya","is_transit":false,"i_lat":-6.162758},{"transit":false,"distance":1152,"i_lat":-6.159876,"i_long":106.737035,"station_id":"BOI","line":0,"station_name":"Bojongindah","time":4,"is_transit":false},{"is_transit":false,"transit":false,"time":2,"distance":2334,"i_lat":-6.1587309999999995,"station_name":"Taman Kota","line":5,"i_long":106.756522,"station_id":"TKO"},{"distance":1614,"i_lat":-6.161433,"line":5,"transit":false,"time":2,"i_long":106.771379,"station_name":"Pesing","is_transit":false,"station_id":"PSG"},{"is_transit":false,"distance":2036,"i_lat":-6.162021,"line":5,"transit":false,"station_id":"GGL","station_name":"Grogol","i_long":106.788277,"time":2},{"station_name":"Duri","station_id":"DU","time":3,"distance":1700,"i_lat":-6.155215,"i_long":106.800832,"transit":true,"line":1,"is_transit":true},{"time":8,"transit":false,"distance":3632,"station_id":"THB","is_transit":true,"station_name":"Tanah Abang","i_lat":-6.185545,"i_long":106.811091,"line":1},{"i_lat":-6.20132,"line":1,"i_long":106.816351,"time":5,"station_name":"Karet","is_transit":false,"station_id":"KAT","distance":2029,"transit":false},{"time":1,"transit":false,"i_lat":-6.201433,"i_long":106.819881,"station_name":"Sudirman Baru","line":1,"is_transit":false,"station_id":"SUDB","distance":471},{"i_lat":-6.202263,"distance":280,"i_long":106.822649,"line":1,"station_id":"SUD","is_transit":false,"transit":false,"time":1,"station_name":"Sudirman"},{"station_name":"Manggarai","i_lat":-6.209883,"time":4,"transit":true,"line":0,"distance":3186,"station_id":"MRI","i_long":106.84912,"is_transit":true},{"station_name":"Tebet","line":2,"transit":false,"distance":2610,"station_id":"TEB","is_transit":false,"i_lat":-6.226659,"time":4,"i_long":106.857948},{"distance":1230,"i_long":106.856607,"station_id":"CW","time":2,"station_name":"Cawang","transit":false,"line":0,"is_transit":false,"i_lat":-6.242512},{"distance":1546,"station_name":"Duren Kalibata","i_long":106.85449,"transit":false,"line":0,"station_id":"DRN","time":3,"is_transit":false,"i_lat":-6.255332}],[{"distance":0,"is_transit":false,"i_lat":-6.171811,"line":0,"transit":false,"time":0,"station_name":"Batuceper","i_long":106.665036,"station_id":"BPR"},{"i_lat":-6.169933,"line":5,"transit":false,"station_id":"PI","station_name":"Poris","i_long":106.679458,"distance":1834,"time":3,"is_transit":false},{"station_id":"KDS","i_long":106.701612,"i_lat":-6.166068,"time":3,"is_transit":false,"distance":2548,"line":5,"station_name":"Kalideres","transit":false},{"line":5,"is_transit":false,"time":3,"transit":false,"i_long":106.723064,"distance":2504,"station_id":"RW","station_name":"Rawa Buaya","i_lat":-6.162758},{"i_long":106.737035,"is_transit":false,"line":0,"station_name":"Bojongindah","station_id":"BOI","distance":1152,"time":4,"i_lat":-6.159876,"transit":false},{"time":2,"i_lat":-6.1587309999999995,"is_transit":false,"station_name":"Taman Kota","transit":false,"i_long":106.756522,"line":5,"station_id":"TKO","distance":2334},{"is_transit":false,"distance":1614,"station_id":"PSG","time":2,"station_name":"Pesing","transit":false,"i_lat":-6.161433,"i_long":106.771379,"line":5},{"station_id":"GGL","distance":2036,"time":2,"transit":false,"i_lat":-6.162021,"is_transit":false,"station_name":"Grogol","i_long":106.788277,"line":5},{"station_name":"Duri","line":1,"transit":true,"station_id":"DU","i_long":106.800832,"distance":1700,"i_lat":-6.155215,"is_transit":true,"time":3},{"transit":false,"station_id":"AK","is_transit":false,"station_name":"Angke","i_lat":-6.144674,"i_long":106.79867,"line":0,"time":4,"distance":1230},{"i_lat":-6.132549,"i_long":106.826365,"station_id":"KPB","line":0,"time":9,"is_transit":true,"distance":4102,"station_name":"Kampung Bandan","transit":false},{"station_id":"JAKK","is_transit":true,"station_name":"Jakarta Kota","i_lat":-6.137569,"line":0,"time":3,"transit":true,"distance":1364,"i_long":106.812439},{"is_transit":false,"line":7,"transit":false,"station_id":"JAY","i_lat":-6.141205,"time":4,"i_long":106.820901,"distance":1264,"station_name":"Jayakarta"},{"i_lat":-6.149769,"line":2,"transit":false,"is_transit":false,"time":2,"i_long":106.82482,"station_id":"MGB","station_name":"Manggabesar","distance":1080},{"station_name":"Sawah Besar","i_long":106.827103,"i_lat":-6.160725,"time":2,"distance":906,"transit":false,"line":2,"is_transit":false,"station_id":"SW"},{"i_lat":-6.166716,"station_id":"JUA","time":2,"i_long":106.828284,"station_name":"Juanda","line":2,"is_transit":false,"transit":false,"distance":1149},{"line":2,"distance":2015,"station_name":"Gondangdia","i_lat":-6.186295,"is_transit":false,"station_id":"GDD","time":4,"transit":false,"i_long":106.832183},{"i_long":106.840169,"line":0,"is_transit":false,"i_lat":-6.198556,"time":3,"station_name":"Cikini","station_id":"CKI","distance":1750,"transit":false},{"transit":true,"is_transit":true,"i_lat":-6.209883,"distance":1590,"time":4,"station_name":"Manggarai","i_long":106.84912,"station_id":"MRI","line":0},{"is_transit":false,"distance":2610,"transit":false,"i_lat":-6.226659,"station_id":"TEB","time":4,"line":2,"station_name":"Tebet","i_long":106.857948},{"is_transit":false,"i_long":106.856607,"station_name":"Cawang","time":2,"i_lat":-6.242512,"station_id":"CW","distance":1230,"transit":false,"line":0},{"station_name":"Duren Kalibata","station_id":"DRN","is_transit":false,"transit":false,"i_long":106.85449,"time":3,"line":0,"distance":1546,"i_lat":-6.255332}],[{"station_id":"BPR","transit":false,"line":0,"time":0,"distance":0,"station_name":"Batuceper","is_transit":false,"i_lat":-6.171811,"i_long":106.665036},{"is_transit":false,"transit":false,"i_lat":-6.169933,"station_name":"Poris","line":5,"distance":1834,"i_long":106.679458,"time":3,"station_id":"PI"},{"station_id":"KDS","i_long":106.701612,"distance":2548,"station_name":"Kalideres","time":3,"transit":false,"is_transit":false,"i_lat":-6.166068,"line":5},{"i_long":106.723064,"station_id":"RW","is_transit":false,"i_lat":-6.162758,"station_name":"Rawa Buaya","distance":2504,"line":5,"time":3,"transit":false},{"is_transit":false,"station_name":"Bojongindah","line":0,"distance":1152,"time":4,"station_id":"BOI","i_long":106.737035,"i_lat":-6.159876,"transit":false},{"i_lat":-6.1587309999999995,"is_transit":false,"transit":false,"i_long":106.756522,"distance":2334,"station_id":"TKO","time":2,"station_name":"Taman Kota","line":5},{"time":2,"distance":1614,"line":5,"station_id":"PSG","transit":false,"station_name":"Pesing","i_long":106.771379,"is_transit":false,"i_lat":-6.161433},{"station_name":"Grogol","i_lat":-6.162021,"station_id":"GGL","time":2,"distance":2036,"line":5,"is_transit":false,"transit":false,"i_long":106.788277},{"transit":true,"station_name":"Duri","line":1,"time":3,"station_id":"DU","is_transit":true,"i_long":106.800832,"distance":1700,"i_lat":-6.155215},{"time":4,"is_transit":false,"station_name":"Angke","station_id":"AK","i_lat":-6.144674,"transit":false,"i_long":106.79867,"line":0,"distance":1230},{"line":0,"is_transit":true,"time":9,"i_long":106.826365,"i_lat":-6.132549,"transit":true,"station_id":"KPB","distance":4102,"station_name":"Kampung Bandan"},{"i_long":106.836569,"line":11,"station_name":"Rajawali","time":3,"i_lat":-6.14505,"transit":false,"is_transit":false,"station_id":"RJW","distance":1444},{"i_lat":-6.161728,"line":11,"i_long":106.839204,"station_id":"KMO","distance":1901,"station_name":"Kemayoran","is_transit":false,"transit":false,"time":5},{"is_transit":false,"transit":false,"i_long":106.84368,"station_id":"PSE","distance":1436,"station_name":"Pasar Senen","i_lat":-6.174784,"line":11,"time":4},{"i_lat":-6.185975,"distance":1567,"station_name":"Gang Sentiong","line":11,"transit":false,"time":8,"is_transit":false,"station_id":"GST","i_long":106.850107},{"i_lat":-6.193792,"time":1,"station_name":"Kramat","i_long":106.855437,"station_id":"KMT","distance":973,"transit":false,"line":11,"is_transit":false},{"station_id":"POK","line":11,"time":2,"distance":1829,"i_lat":-6.209188,"station_name":"Pondok Jati","is_transit":false,"transit":false,"i_long":106.861737},{"time":9,"is_transit":true,"station_name":"Jatinegara","station_id":"JNG","transit":true,"i_lat":-6.215091,"line":0,"i_long":106.86807400000001,"distance":1236},{"time":2,"distance":1377,"station_name":"Matraman","transit":false,"station_id":"MTR","i_long":106.858896,"line":1,"is_transit":false,"i_lat":-6.212485},{"transit":true,"i_long":106.84912,"time":2,"station_name":"Manggarai","i_lat":-6.209883,"line":0,"distance":1275,"is_transit":true,"station_id":"MRI"},{"line":2,"i_long":106.857948,"time":4,"i_lat":-6.226659,"transit":false,"station_id":"TEB","is_transit":false,"distance":2610,"station_name":"Tebet"},{"is_transit":false,"line":0,"time":2,"i_lat":-6.242512,"station_name":"Cawang","station_id":"CW","transit":false,"i_long":106.856607,"distance":1230},{"station_id":"DRN","transit":false,"i_lat":-6.255332,"i_long":106.85449,"is_transit":false,"distance":1546,"station_name":"Duren Kalibata","time":3,"line":0}]]}