{"data":[[{"i_lat":-6.171811,"is_transit":false,"transit":false,"time":0,"distance":0,"station_id":"BPR","station_name":"Batuceper","i_long":106.665036,"line":5},{"is_transit":false,"station_id":"PI","time":3,"i_long":106.679458,"i_lat":-6.169933,"transit":false,"station_name":"Poris","line":5,"distance":1834},{"station_name":"Kalideres","line":5,"station_id":"KDS","i_lat":-6.166068,"time":3,"i_long":106.701612,"transit":false,"distance":2548,"is_transit":false},{"line":5,"station_id":"RW","time":3,"station_name":"Rawa Buaya","transit":false,"i_long":106.723064,"distance":2504,"i_lat":-6.162758,"is_transit":false},{"transit":false,"i_long":106.737035,"time":4,"line":5,"distance":1152,"station_id":"BOI","i_lat":-6.159876,"is_transit":false,"station_name":"Bojongindah"},{"time":2,"transit":false,"distance":2334,"station_id":"TKO","is_transit":false,"i_lat":-6.1587309999999995,"station_name":"Taman Kota","i_long":106.756522,"line":5},{"line":5,"transit":false,"time":2,"station_name":"Pesing","station_id":"PSG","distance":1614,"i_lat":-6.161433,"i_long":106.771379,"is_transit":false},{"i_lat":-6.162021,"distance":2036,"station_id":"GRG","station_name":"Grogol","time":2,"transit":false,"i_long":106.788277,"is_transit":false,"line":5},{"time":3,"is_transit":true,"i_lat":-6.155215,"i_long":106.800832,"station_name":"Duri","station_id":"DU","distance":1700,"transit":true,"line":1},{"i_long":106.811091,"line":1,"station_id":"THB","i_lat":-6.185545,"distance":3632,"station_name":"Tanah Abang","is_transit":false,"time":8,"transit":false},{"i_lat":-6.20132,"i_long":106.816351,"line":1,"is_transit":false,"transit":false,"time":5,"distance":2029,"station_name":"Karet","station_id":"KAT"},{"i_lat":-6.201433,"i_long":106.819881,"is_transit":false,"distance":471,"station_name":"Sudirman Baru","time":1,"station_id":"SUDB","transit":false,"line":1},{"line":1,"time":1,"transit":false,"station_id":"SUD","i_lat":-6.202263,"distance":280,"i_long":106.822649,"is_transit":false,"station_name":"Sudirman"},{"distance":3186,"transit":true,"station_id":"MRI","time":4,"station_name":"Manggarai","is_transit":true,"i_long":106.84912,"line":2,"i_lat":-6.209883},{"distance":2610,"is_transit":false,"station_id":"TEB","transit":false,"i_long":106.857948,"line":2,"time":4,"i_lat":-6.226659,"station_name":"Tebet"},{"distance":1230,"line":2,"time":2,"transit":false,"is_transit":false,"i_lat":-6.242512,"station_name":"Cawang","i_long":106.856607,"station_id":"CW"},{"line":2,"time":3,"station_id":"DRN","transit":false,"i_lat":-6.255332,"distance":1546,"station_name":"Duren Kalibata","is_transit":false,"i_long":106.85449},{"transit":false,"distance":824,"line":2,"station_id":"PSMB","is_transit":false,"i_lat":-6.263214,"i_long":106.851577,"time":2,"station_name":"Pasar Minggu Baru"},{"time":2,"i_lat":-6.2842400000000005,"line":2,"station_id":"PSM","transit":false,"i_long":106.843999,"distance":2380,"is_transit":false,"station_name":"Pasar Minggu"},{"i_lat":-6.3080680000000005,"line":2,"time":4,"distance":2820,"transit":false,"station_name":"Tanjung Barat","is_transit":false,"station_id":"TNT","i_long":106.838896},{"distance":2671,"i_long":106.832616,"line":2,"station_name":"Lenteng Agung","station_id":"LNA","transit":false,"i_lat":-6.330363,"is_transit":false,"time":3},{"line":2,"station_name":"Univ. Pancasila","i_long":106.834175,"transit":false,"i_lat":-6.339291,"is_transit":false,"time":2,"distance":1029,"station_id":"UP"},{"transit":false,"station_name":"Univ. Indonesia","station_id":"UI","is_transit":false,"i_lat":-6.360749,"distance":2264,"i_long":106.831474,"line":2,"time":3},{"i_lat":-6.369073,"station_id":"POC","line":2,"station_name":"Pondok Cina","is_transit":false,"transit":false,"i_long":106.831114,"distance":1109,"time":2},{"i_lat":-6.391065,"i_long":106.819451,"station_name":"Depokbaru","time":4,"station_id":"DPB","is_transit":false,"transit":false,"line":2,"distance":2727}],[{"distance":0,"station_id":"BPR","line":5,"time":0,"is_transit":false,"i_lat":-6.171811,"station_name":"Batuceper","transit":false,"i_long":106.665036},{"i_lat":-6.169933,"transit":false,"station_id":"PI","line":5,"time":3,"i_long":106.679458,"distance":1834,"is_transit":false,"station_name":"Poris"},{"i_long":106.701612,"time":3,"station_id":"KDS","distance":2548,"transit":false,"line":5,"station_name":"Kalideres","is_transit":false,"i_lat":-6.166068},{"distance":2504,"station_id":"RW","i_long":106.723064,"station_name":"Rawa Buaya","is_transit":false,"i_lat":-6.162758,"line":5,"transit":false,"time":3},{"i_long":106.737035,"station_id":"BOI","line":5,"i_lat":-6.159876,"transit":false,"is_transit":false,"time":4,"distance":1152,"station_name":"Bojongindah"},{"transit":false,"distance":2334,"i_lat":-6.1587309999999995,"station_name":"Taman Kota","is_transit":false,"station_id":"TKO","time":2,"line":5,"i_long":106.756522},{"station_id":"PSG","transit":false,"i_lat":-6.161433,"distance":1614,"station_name":"Pesing","is_transit":false,"time":2,"i_long":106.771379,"line":5},{"time":2,"line":5,"station_name":"Grogol","i_lat":-6.162021,"i_long":106.788277,"is_transit":false,"transit":false,"station_id":"GRG","distance":2036},{"is_transit":true,"station_name":"Duri","transit":true,"distance":1700,"line":1,"i_long":106.800832,"station_id":"DU","time":3,"i_lat":-6.155215},{"i_long":106.79867,"transit":false,"distance":1230,"line":1,"time":4,"station_name":"Angke","station_id":"AK","i_lat":-6.144674,"is_transit":false},{"time":9,"i_lat":-6.132549,"station_name":"Kampung Bandan","station_id":"KPB","distance":4102,"line":4,"transit":true,"i_long":106.826365,"is_transit":true},{"line":2,"i_long":106.812439,"station_name":"Jakarta Kota","transit":true,"time":3,"i_lat":-6.137569,"distance":1364,"is_transit":true,"station_id":"JAKK"},{"i_long":106.820901,"station_name":"Jayakarta","i_lat":-6.141205,"distance":1264,"station_id":"JAY","line":2,"transit":false,"time":4,"is_transit":false},{"distance":1080,"line":2,"station_name":"Manggabesar","is_transit":false,"i_lat":-6.149769,"i_long":106.82482,"station_id":"MGB","transit":false,"time":2},{"transit":false,"station_name":"Sawah Besar","time":2,"i_lat":-6.160725,"is_transit":false,"distance":906,"line":2,"station_id":"SW","i_long":106.827103},{"time":2,"station_id":"JUA","distance":1149,"transit":false,"station_name":"Juanda","i_lat":-6.166716,"i_long":106.828284,"line":2,"is_transit":false},{"line":2,"i_long":106.832183,"time":4,"station_id":"GDD","is_transit":false,"i_lat":-6.186295,"transit":false,"distance":2015,"station_name":"Gondangdia"},{"station_name":"Cikini","distance":1750,"line":2,"station_id":"CKI","time":3,"i_lat":-6.198556,"transit":false,"is_transit":false,"i_long":106.840169},{"line":2,"station_name":"Manggarai","transit":false,"station_id":"MRI","i_long":106.84912,"i_lat":-6.209883,"is_transit":false,"distance":1590,"time":4},{"transit":false,"i_long":106.857948,"station_id":"TEB","i_lat":-6.226659,"station_name":"Tebet","is_transit":false,"time":4,"distance":2610,"line":2},{"time":2,"transit":false,"distance":1230,"i_long":106.856607,"station_id":"CW","station_name":"Cawang","is_transit":false,"i_lat":-6.242512,"line":2},{"i_lat":-6.255332,"i_long":106.85449,"line":2,"is_transit":false,"time":3,"station_id":"DRN","transit":false,"station_name":"Duren Kalibata","distance":1546},{"station_name":"Pasar Minggu Baru","is_transit":false,"line":2,"transit":false,"i_lat":-6.263214,"i_long":106.851577,"time":2,"station_id":"PSMB","distance":824},{"distance":2380,"time":2,"i_lat":-6.2842400000000005,"i_long":106.843999,"line":2,"transit":false,"station_name":"Pasar Minggu","is_transit":false,"station_id":"PSM"},{"station_id":"TNT","i_long":106.838896,"is_transit":false,"distance":2820,"time":4,"i_lat":-6.3080680000000005,"station_name":"Tanjung Barat","line":2,"transit":false},{"time":3,"distance":2671,"i_long":106.832616,"transit":false,"i_lat":-6.330363,"line":2,"station_name":"Lenteng Agung","station_id":"LNA","is_transit":false},{"i_lat":-6.339291,"i_long":106.834175,"station_name":"Univ. Pancasila","transit":false,"time":2,"is_transit":false,"station_id":"UP","line":2,"distance":1029},{"i_lat":-6.360749,"line":2,"is_transit":false,"distance":2264,"transit":false,"station_id":"UI","station_name":"Univ. Indonesia","time":3,"i_long":106.831474},{"distance":1109,"i_long":106.831114,"line":2,"station_id":"POC","transit":false,"is_transit":false,"station_name":"Pondok Cina","time":2,"i_lat":-6.369073},{"i_lat":-6.391065,"transit":false,"distance":2727,"station_name":"Depokbaru","is_transit":false,"time":4,"line":2,"i_long":106.819451,"station_id":"DPB"}],[{"time":0,"i_long":106.665036,"is_transit":false,"station_id":"BPR","line":5,"transit":false,"distance":0,"i_lat":-6.171811,"station_name":"Batuceper"},{"time":3,"transit":false,"distance":1834,"line":5,"station_id":"PI","i_lat":-6.169933,"i_long":106.679458,"is_transit":false,"station_name":"Poris"},{"is_transit":false,"station_id":"KDS","transit":false,"station_name":"Kalideres","time":3,"i_long":106.701612,"line":5,"i_lat":-6.166068,"distance":2548},{"station_name":"Rawa Buaya","distance":2504,"line":5,"transit":false,"station_id":"RW","i_lat":-6.162758,"i_long":106.723064,"is_transit":false,"time":3},{"station_id":"BOI","line":5,"station_name":"Bojongindah","is_transit":false,"transit":false,"distance":1152,"i_lat":-6.159876,"time":4,"i_long":106.737035},{"line":5,"station_name":"Taman Kota","distance":2334,"i_long":106.756522,"time":2,"i_lat":-6.1587309999999995,"transit":false,"is_transit":false,"station_id":"TKO"},{"time":2,"transit":false,"distance":1614,"i_lat":-6.161433,"station_id":"PSG","i_long":106.771379,"station_name":"Pesing","is_transit":false,"line":5},{"line":5,"distance":2036,"i_lat":-6.162021,"time":2,"transit":false,"station_name":"Grogol","station_id":"GRG","is_transit":false,"i_long":106.788277},{"time":3,"station_name":"Duri","distance":1700,"i_lat":-6.155215,"i_long":106.800832,"is_transit":true,"transit":true,"line":1,"station_id":"DU"},{"i_long":106.79867,"i_lat":-6.144674,"transit":false,"station_name":"Angke","is_transit":false,"station_id":"AK","time":4,"distance":1230,"line":1},{"is_transit":true,"distance":4102,"station_id":"KPB","transit":true,"time":9,"i_lat":-6.132549,"i_long":106.826365,"line":4,"station_name":"Kampung Bandan"},{"i_long":106.836569,"i_lat":-6.14505,"station_name":"Rajawali","transit":false,"is_transit":false,"time":3,"distance":1444,"line":11,"station_id":"RJW"},{"line":11,"station_name":"Kemayoran","i_long":106.839204,"transit":false,"station_id":"KMO","time":5,"i_lat":-6.161728,"distance":1901,"is_transit":false},{"station_name":"Pasar Senen","time":4,"line":11,"i_lat":-6.174784,"i_long":106.84368,"transit":false,"station_id":"PSE","is_transit":false,"distance":1436},{"i_long":106.850107,"distance":1567,"is_transit":false,"line":11,"time":8,"station_id":"GST","station_name":"Gang Sentiong","transit":false,"i_lat":-6.185975},{"station_name":"Kramat","is_transit":false,"time":1,"i_lat":-6.193792,"i_long":106.855437,"station_id":"KMT","transit":false,"line":11,"distance":973},{"time":2,"is_transit":false,"distance":1829,"station_name":"Pondok Jati","i_lat":-6.209188,"i_long":106.861737,"line":11,"station_id":"POK","transit":false},{"i_lat":-6.215091,"distance":1236,"station_name":"Jatinegara","line":1,"transit":true,"is_transit":true,"time":9,"i_long":106.86807400000001,"station_id":"JNG"},{"is_transit":false,"time":2,"distance":1377,"station_id":"MTR","transit":false,"i_long":106.858896,"station_name":"Matraman","i_lat":-6.212485,"line":1},{"station_name":"Manggarai","transit":true,"distance":1275,"i_lat":-6.209883,"line":2,"i_long":106.84912,"is_transit":true,"time":2,"station_id":"MRI"},{"transit":false,"station_id":"TEB","station_name":"Tebet","is_transit":false,"distance":2610,"i_long":106.857948,"line":2,"time":4,"i_lat":-6.226659},{"transit":false,"station_name":"Cawang","i_lat":-6.242512,"distance":1230,"i_long":106.856607,"line":2,"station_id":"CW","is_transit":false,"time":2},{"i_long":106.85449,"is_transit":false,"line":2,"distance":1546,"station_name":"Duren Kalibata","i_lat":-6.255332,"transit":false,"station_id":"DRN","time":3},{"line":2,"transit":false,"is_transit":false,"time":2,"station_name":"Pasar Minggu Baru","distance":824,"i_lat":-6.263214,"station_id":"PSMB","i_long":106.851577},{"i_lat":-6.2842400000000005,"station_id":"PSM","time":2,"line":2,"transit":false,"station_name":"Pasar Minggu","distance":2380,"i_long":106.843999,"is_transit":false},{"i_long":106.838896,"line":2,"distance":2820,"time":4,"station_id":"TNT","station_name":"Tanjung Barat","is_transit":false,"transit":false,"i_lat":-6.3080680000000005},{"distance":2671,"station_name":"Lenteng Agung","i_lat":-6.330363,"station_id":"LNA","transit":false,"line":2,"time":3,"i_long":106.832616,"is_transit":false},{"is_transit":false,"i_long":106.834175,"i_lat":-6.339291,"station_id":"UP","time":2,"station_name":"Univ. Pancasila","distance":1029,"line":2,"transit":false},{"distance":2264,"i_lat":-6.360749,"time":3,"i_long":106.831474,"station_id":"UI","transit":false,"station_name":"Univ. Indonesia","line":2,"is_transit":false},{"i_lat":-6.369073,"transit":false,"station_id":"POC","time":2,"is_transit":false,"station_name":"Pondok Cina","line":2,"distance":1109,"i_long":106.831114},{"is_transit":false,"station_id":"DPB","i_long":106.819451,"line":2,"station_name":"Depokbaru","time":4,"distance":2727,"transit":false,"i_lat":-6.391065}]]}