{
  "data": [
    [
      {
        "distance": 0,
        "i_lat": -6.171811,
        "i_long": 106.665036,
        "is_transit": false,
        "line": 5,
        "station_id": "BPR",
        "station_name": "Batuceper",
        "time": 0,
        "transit": false
      },
      {
        "distance": 1834,
        "i_lat": -6.169933,
        "i_long": 106.679458,
        "is_transit": false,
        "line": 5,
        "station_id": "PI",
        "station_name": "Poris",
        "time": 3,
        "transit": false
      },
      {
        "distance": 2548,
        "i_lat": -6.166068,
        "i_long": 106.701612,
        "is_transit": false,
        "line": 5,
        "station_id": "KDS",
        "station_name": "Kalideres",
        "time": 3,
        "transit": false
      },
      {
        "distance": 2504,
        "i_lat": -6.162758,
        "i_long": 106.723064,
        "is_transit": false,
        "line": 5,
        "station_id": "RW",
        "station_name": "Rawa Buaya",
        "time": 3,
        "transit": false
      },
      {
        "distance": 1152,
        "i_lat": -6.159876,
        "i_long": 106.737035,
        "is_transit": false,
        "line": 5,
        "station_id": "BOI",
        "station_name": "Bojongindah",
        "time": 4,
        "transit": false
      }
    ]
  ]
}
