{"data":[[{"time":0,"is_transit":false,"station_name":"Batuceper","station_id":"BPR","transit":false,"i_long":106.665036,"line":5,"distance":0,"i_lat":-6.171811},{"i_long":106.679458,"line":5,"time":3,"i_lat":-6.169933,"station_name":"Poris","distance":1834,"station_id":"PI","is_transit":false,"transit":false},{"transit":false,"station_id":"KDS","i_long":106.701612,"is_transit":false,"distance":2548,"time":3,"station_name":"Kalideres","i_lat":-6.166068,"line":5},{"line":5,"i_lat":-6.162758,"i_long":106.723064,"transit":false,"time":3,"station_id":"RW","distance":2504,"station_name":"Rawa Buaya","is_transit":false},{"station_name":"Bojongindah","station_id":"BOI","distance":1152,"time":4,"i_lat":-6.159876,"transit":false,"is_transit":false,"i_long":106.737035,"line":5},{"is_transit":false,"transit":false,"time":2,"i_long":106.756522,"distance":2334,"station_id":"TKO","station_name":"Taman Kota","i_lat":-6.1587309999999995,"line":5},{"transit":false,"distance":1614,"is_transit":false,"i_long":106.771379,"line":5,"time":2,"station_name":"Pesing","station_id":"PSG","i_lat":-6.161433},{"station_name":"Grogol","line":5,"transit":false,"i_long":106.788277,"time":2,"distance":2036,"station_id":"GRG","is_transit":false,"i_lat":-6.162021},{"transit":true,"i_lat":-6.155215,"i_long":106.800832,"line":1,"distance":1700,"time":3,"station_id":"DU","station_name":"Duri","is_transit":true},{"i_long":106.811091,"line":1,"station_name":"Tanah Abang","time":8,"distance":3632,"is_transit":false,"station_id":"THB","transit":false,"i_lat":-6.185545},{"time":5,"line":1,"i_lat":-6.20132,"station_name":"Karet","is_transit":false,"i_long":106.816351,"transit":false,"station_id":"KAT","distance":2029},{"line":1,"distance":471,"is_transit":false,"i_long":106.819881,"transit":false,"station_id":"SUDB","time":1,"station_name":"Sudirman Baru","i_lat":-6.201433},{"line":1,"transit":false,"time":1,"station_id":"SUD","station_name":"Sudirman","distance":280,"i_long":106.822649,"is_transit":false,"i_lat":-6.202263},{"line":2,"station_name":"Manggarai","transit":true,"distance":3186,"is_transit":true,"station_id":"MRI","i_lat":-6.209883,"time":4,"i_long":106.84912},{"line":2,"i_lat":-6.226659,"station_id":"TEB","time":4,"transit":false,"distance":2610,"station_name":"Tebet","is_transit":false,"i_long":106.857948},{"transit":false,"time":2,"i_long":106.856607,"station_name":"Cawang","station_id":"CW","i_lat":-6.242512,"distance":1230,"is_transit":false,"line":2},{"i_lat":-6.255332,"i_long":106.85449,"transit":false,"line":2,"time":3,"station_name":"Duren Kalibata","station_id":"DRN","distance":1546,"is_transit":false},{"transit":false,"is_transit":false,"station_id":"PSMB","station_name":"Pasar Minggu Baru","i_long":106.851577,"line":2,"distance":824,"time":2,"i_lat":-6.263214},{"transit":false,"time":2,"distance":2380,"station_id":"PSM","i_lat":-6.2842400000000005,"station_name":"Pasar Minggu","is_transit":false,"i_long":106.843999,"line":2},{"is_transit":false,"station_id":"TNT","distance":2820,"transit":false,"i_long":106.838896,"line":2,"station_name":"Tanjung Barat","time":4,"i_lat":-6.3080680000000005},{"station_name":"Lenteng Agung","distance":2671,"line":2,"transit":false,"time":3,"i_lat":-6.330363,"i_long":106.832616,"is_transit":false,"station_id":"LNA"}],[{"is_transit":false,"i_long":106.665036,"station_name":"Batuceper","station_id":"BPR","transit":false,"distance":0,"time":0,"i_lat":-6.171811,"line":5},{"line":5,"time":3,"is_transit":false,"station_id":"PI","station_name":"Poris","transit":false,"i_lat":-6.169933,"i_long":106.679458,"distance":1834},{"station_name":"Kalideres","transit":false,"is_transit":false,"station_id":"KDS","distance":2548,"i_long":106.701612,"time":3,"line":5,"i_lat":-6.166068},{"line":5,"i_lat":-6.162758,"transit":false,"station_id":"RW","distance":2504,"i_long":106.723064,"time":3,"station_name":"Rawa Buaya","is_transit":false},{"i_lat":-6.159876,"station_id":"BOI","station_name":"Bojongindah","distance":1152,"time":4,"line":5,"transit":false,"is_transit":false,"i_long":106.737035},{"transit":false,"is_transit":false,"line":5,"station_name":"Taman Kota","distance":2334,"time":2,"i_lat":-6.1587309999999995,"i_long":106.756522,"station_id":"TKO"},{"station_id":"PSG","i_long":106.771379,"line":5,"station_name":"Pesing","transit":false,"distance":1614,"time":2,"is_transit":false,"i_lat":-6.161433},{"distance":2036,"i_lat":-6.162021,"transit":false,"line":5,"is_transit":false,"station_id":"GRG","time":2,"i_long":106.788277,"station_name":"Grogol"},{"station_name":"Duri","i_lat":-6.155215,"station_id":"DU","i_long":106.800832,"distance":1700,"transit":true,"line":1,"time":3,"is_transit":true},{"i_long":106.79867,"time":4,"is_transit":false,"station_id":"AK","station_name":"Angke","i_lat":-6.144674,"line":1,"distance":1230,"transit":false},{"is_transit":true,"station_name":"Kampung Bandan","line":4,"station_id":"KPB","transit":true,"time":9,"i_lat":-6.132549,"i_long":106.826365,"distance":4102},{"transit":true,"line":2,"station_name":"Jakarta Kota","is_transit":true,"distance":1364,"station_id":"JAKK","i_lat":-6.137569,"time":3,"i_long":106.812439},{"transit":false,"time":4,"distance":1264,"i_lat":-6.141205,"station_id":"JAY","is_transit":false,"line":2,"i_long":106.820901,"station_name":"Jayakarta"},{"distance":1080,"station_id":"MGB","station_name":"Manggabesar","i_long":106.82482,"i_lat":-6.149769,"time":2,"line":2,"transit":false,"is_transit":false},{"station_name":"Sawah Besar","distance":906,"i_long":106.827103,"transit":false,"time":2,"is_transit":false,"station_id":"SW","i_lat":-6.160725,"line":2},{"i_lat":-6.166716,"station_id":"JUA","time":2,"is_transit":false,"i_long":106.828284,"station_name":"Juanda","transit":false,"line":2,"distance":1149},{"time":4,"is_transit":false,"station_name":"Gondangdia","transit":false,"i_long":106.832183,"i_lat":-6.186295,"distance":2015,"line":2,"station_id":"GDD"},{"time":3,"line":2,"transit":false,"station_name":"Cikini","distance":1750,"is_transit":false,"station_id":"CKI","i_lat":-6.198556,"i_long":106.840169},{"is_transit":false,"transit":false,"distance":1590,"i_long":106.84912,"station_id":"MRI","line":2,"time":4,"station_name":"Manggarai","i_lat":-6.209883},{"i_long":106.857948,"i_lat":-6.226659,"station_name":"Tebet","is_transit":false,"transit":false,"time":4,"distance":2610,"station_id":"TEB","line":2},{"time":2,"station_id":"CW","i_long":106.856607,"line":2,"transit":false,"station_name":"Cawang","is_transit":false,"i_lat":-6.242512,"distance":1230},{"station_id":"DRN","line":2,"distance":1546,"time":3,"is_transit":false,"transit":false,"station_name":"Duren Kalibata","i_lat":-6.255332,"i_long":106.85449},{"transit":false,"is_transit":false,"time":2,"station_id":"PSMB","i_long":106.851577,"distance":824,"line":2,"i_lat":-6.263214,"station_name":"Pasar Minggu Baru"},{"transit":false,"distance":2380,"i_lat":-6.2842400000000005,"line":2,"i_long":106.843999,"station_name":"Pasar Minggu","time":2,"is_transit":false,"station_id":"PSM"},{"i_long":106.838896,"time":4,"station_name":"Tanjung Barat","distance":2820,"i_lat":-6.3080680000000005,"line":2,"is_transit":false,"station_id":"TNT","transit":false},{"i_lat":-6.330363,"i_long":106.832616,"station_name":"Lenteng Agung","transit":false,"distance":2671,"station_id":"LNA","line":2,"time":3,"is_transit":false}],[{"time":0,"station_id":"BPR","distance":0,"i_lat":-6.171811,"line":5,"station_name":"Batuceper","i_long":106.665036,"transit":false,"is_transit":false},{"i_lat":-6.169933,"transit":false,"i_long":106.679458,"station_name":"Poris","is_transit":false,"line":5,"time":3,"distance":1834,"station_id":"PI"},{"is_transit":false,"distance":2548,"i_lat":-6.166068,"transit":false,"i_long":106.701612,"station_id":"KDS","time":3,"line":5,"station_name":"Kalideres"},{"station_name":"Rawa Buaya","line":5,"station_id":"RW","i_lat":-6.162758,"transit":false,"is_transit":false,"time":3,"distance":2504,"i_long":106.723064},{"i_long":106.737035,"station_name":"Bojongindah","line":5,"time":4,"transit":false,"is_transit":false,"distance":1152,"i_lat":-6.159876,"station_id":"BOI"},{"i_lat":-6.1587309999999995,"station_id":"TKO","i_long":106.756522,"station_name":"Taman Kota","is_transit":false,"transit":false,"line":5,"distance":2334,"time":2},{"time":2,"station_name":"Pesing","is_transit":false,"i_lat":-6.161433,"distance":1614,"station_id":"PSG","line":5,"i_long":106.771379,"transit":false},{"transit":false,"line":5,"i_lat":-6.162021,"station_id":"GRG","time":2,"is_transit":false,"station_name":"Grogol","distance":2036,"i_long":106.788277},{"station_name":"Duri","i_long":106.800832,"distance":1700,"time":3,"transit":true,"i_lat":-6.155215,"is_transit":true,"station_id":"DU","line":1},{"i_lat":-6.144674,"line":1,"transit":false,"distance":1230,"station_name":"Angke","is_transit":false,"station_id":"AK","time":4,"i_long":106.79867},{"distance":4102,"i_lat":-6.132549,"station_name":"Kampung Bandan","time":9,"i_long":106.826365,"station_id":"KPB","transit":true,"is_transit":true,"line":4},{"transit":false,"station_name":"Rajawali","time":3,"is_transit":false,"i_lat":-6.14505,"line":11,"distance":1444,"i_long":106.836569,"station_id":"RJW"},{"i_lat":-6.161728,"line":11,"distance":1901,"time":5,"station_id":"KMO","i_long":106.839204,"is_transit":false,"station_name":"Kemayoran","transit":false},{"i_long":106.84368,"line":11,"distance":1436,"time":4,"i_lat":-6.174784,"is_transit":false,"transit":false,"station_id":"PSE","station_name":"Pasar Senen"},{"line":11,"transit":false,"station_name":"Gang Sentiong","station_id":"GST","i_long":106.850107,"distance":1567,"is_transit":false,"time":8,"i_lat":-6.185975},{"is_transit":false,"transit":false,"distance":973,"station_id":"KMT","i_long":106.855437,"line":11,"i_lat":-6.193792,"station_name":"Kramat","time":1},{"distance":1829,"transit":false,"station_name":"Pondok Jati","time":2,"station_id":"POK","line":11,"is_transit":false,"i_lat":-6.209188,"i_long":106.861737},{"distance":1236,"i_long":106.86807400000001,"i_lat":-6.215091,"transit":true,"line":1,"station_name":"Jatinegara","time":9,"is_transit":true,"station_id":"JNG"},{"station_name":"Matraman","distance":1377,"is_transit":false,"station_id":"MTR","line":1,"i_lat":-6.212485,"transit":false,"time":2,"i_long":106.858896},{"station_name":"Manggarai","is_transit":true,"station_id":"MRI","time":2,"i_lat":-6.209883,"line":2,"distance":1275,"transit":true,"i_long":106.84912},{"station_name":"Tebet","i_long":106.857948,"distance":2610,"station_id":"TEB","i_lat":-6.226659,"line":2,"time":4,"transit":false,"is_transit":false},{"line":2,"time":2,"transit":false,"station_name":"Cawang","is_transit":false,"distance":1230,"i_lat":-6.242512,"i_long":106.856607,"station_id":"CW"},{"i_long":106.85449,"i_lat":-6.255332,"distance":1546,"transit":false,"is_transit":false,"line":2,"time":3,"station_name":"Duren Kalibata","station_id":"DRN"},{"is_transit":false,"i_long":106.851577,"time":2,"station_name":"Pasar Minggu Baru","line":2,"distance":824,"station_id":"PSMB","i_lat":-6.263214,"transit":false},{"line":2,"is_transit":false,"station_name":"Pasar Minggu","transit":false,"distance":2380,"station_id":"PSM","time":2,"i_lat":-6.2842400000000005,"i_long":106.843999},{"i_lat":-6.3080680000000005,"distance":2820,"station_id":"TNT","time":4,"i_long":106.838896,"station_name":"Tanjung Barat","is_transit":false,"line":2,"transit":false},{"i_lat":-6.330363,"time":3,"i_long":106.832616,"station_id":"LNA","line":2,"station_name":"Lenteng Agung","transit":false,"is_transit":false,"distance":2671}]]}