{"data":[[{"line":5,"distance":0,"transit":false,"is_transit":false,"i_long":106.665036,"station_name":"Batuceper","i_lat":-6.171811,"time":0,"station_id":"BPR"},{"is_transit":false,"i_lat":-6.169933,"station_name":"Poris","station_id":"PI","time":3,"i_long":106.679458,"distance":1834,"transit":false,"line":5},{"transit":false,"i_lat":-6.166068,"is_transit":false,"i_long":106.701612,"station_id":"KDS","station_name":"Kalideres","line":5,"time":3,"distance":2548},{"station_id":"RW","i_lat":-6.162758,"line":5,"station_name":"Rawa Buaya","i_long":106.723064,"transit":false,"time":3,"distance":2504,"is_transit":false},{"i_long":106.737035,"station_id":"BOI","time":4,"line":5,"distance":1152,"is_transit":false,"station_name":"Bojongindah","transit":false,"i_lat":-6.159876},{"station_name":"Taman Kota","i_lat":-6.1587309999999995,"distance":2334,"station_id":"TKO","is_transit":false,"time":2,"transit":false,"i_long":106.756522,"line":5},{"i_long":106.771379,"time":2,"i_lat":-6.161433,"station_name":"Pesing","distance":1614,"transit":false,"line":5,"station_id":"PSG","is_transit":false},{"is_transit":false,"transit":false,"time":2,"station_id":"GGL","i_long":106.788277,"station_name":"Grogol","distance":2036,"i_lat":-6.162021,"line":5},{"i_lat":-6.155215,"i_long":106.800832,"is_transit":true,"time":3,"transit":true,"line":1,"distance":1700,"station_id":"DU","station_name":"Duri"},{"time":8,"distance":3632,"transit":false,"i_long":106.811091,"station_id":"THB","line":1,"is_transit":false,"i_lat":-6.185545,"station_name":"Tanah Abang"},{"is_transit":false,"line":1,"station_name":"Karet","i_lat":-6.20132,"time":5,"station_id":"KAT","distance":2029,"transit":false,"i_long":106.816351},{"transit":false,"i_long":106.819881,"station_id":"SUDB","i_lat":-6.201433,"line":1,"time":1,"station_name":"Sudirman Baru","is_transit":false,"distance":471},{"i_lat":-6.202263,"is_transit":false,"line":1,"station_name":"Sudirman","i_long":106.822649,"time":1,"distance":280,"station_id":"SUD","transit":false},{"i_lat":-6.209883,"distance":3186,"station_id":"MRI","is_transit":true,"time":4,"transit":true,"station_name":"Manggarai","i_long":106.84912,"line":2},{"station_id":"TEB","line":2,"transit":false,"i_lat":-6.226659,"station_name":"Tebet","time":4,"is_transit":false,"distance":2610,"i_long":106.857948},{"distance":1230,"i_lat":-6.242512,"i_long":106.856607,"transit":false,"station_name":"Cawang","line":2,"station_id":"CW","time":2,"is_transit":false},{"line":2,"is_transit":false,"i_lat":-6.255332,"time":3,"distance":1546,"transit":false,"i_long":106.85449,"station_id":"DRN","station_name":"Duren Kalibata"},{"distance":824,"i_long":106.851577,"is_transit":false,"time":2,"transit":false,"station_id":"PSMB","i_lat":-6.263214,"station_name":"Pasar Minggu Baru","line":2},{"is_transit":false,"line":2,"time":2,"station_id":"PSM","station_name":"Pasar Minggu","i_lat":-6.2842400000000005,"i_long":106.843999,"transit":false,"distance":2380},{"station_name":"Tanjung Barat","distance":2820,"line":2,"transit":false,"station_id":"TNT","i_lat":-6.3080680000000005,"i_long":106.838896,"is_transit":false,"time":4},{"transit":false,"time":3,"station_name":"Lenteng Agung","i_lat":-6.330363,"line":2,"distance":2671,"station_id":"LNA","is_transit":false,"i_long":106.832616},{"transit":false,"is_transit":false,"i_long":106.834175,"station_id":"UP","station_name":"Univ. Pancasila","i_lat":-6.339291,"time":2,"line":2,"distance":1029},{"i_long":106.831474,"distance":2264,"i_lat":-6.360749,"station_name":"Univ. Indonesia","station_id":"UI","is_transit":false,"transit":false,"line":2,"time":3},{"distance":1109,"time":2,"station_name":"Pondok Cina","i_lat":-6.369073,"line":2,"is_transit":false,"transit":false,"station_id":"POC","i_long":106.831114},{"time":4,"station_id":"DPB","i_lat":-6.391065,"i_long":106.819451,"is_transit":false,"line":2,"station_name":"Depokbaru","distance":2727,"transit":false},{"i_lat":-6.405256,"line":2,"time":3,"station_id":"DP","i_long":106.816926,"station_name":"Depok","distance":1584,"transit":false,"is_transit":false},{"transit":false,"time":6,"distance":5084,"is_transit":false,"station_id":"CTA","i_lat":-6.448811,"line":2,"station_name":"Citayam","i_long":106.800298},{"time":5,"i_lat":-6.493243,"i_long":106.792719,"station_id":"BJD","transit":false,"distance":5197,"line":2,"station_name":"Bojonggede","is_transit":false}],[{"transit":false,"distance":0,"i_long":106.665036,"station_name":"Batuceper","station_id":"BPR","i_lat":-6.171811,"line":5,"is_transit":false,"time":0},{"i_long":106.679458,"station_name":"Poris","distance":1834,"line":5,"i_lat":-6.169933,"time":3,"transit":false,"is_transit":false,"station_id":"PI"},{"i_long":106.701612,"line":5,"is_transit":false,"distance":2548,"i_lat":-6.166068,"station_id":"KDS","station_name":"Kalideres","time":3,"transit":false},{"station_id":"RW","i_long":106.723064,"time":3,"transit":false,"distance":2504,"is_transit":false,"i_lat":-6.162758,"station_name":"Rawa Buaya","line":5},{"i_lat":-6.159876,"is_transit":false,"transit":false,"time":4,"distance":1152,"station_id":"BOI","station_name":"Bojongindah","i_long":106.737035,"line":5},{"is_transit":false,"station_id":"TKO","time":2,"i_long":106.756522,"i_lat":-6.1587309999999995,"transit":false,"station_name":"Taman Kota","line":5,"distance":2334},{"station_name":"Pesing","line":5,"station_id":"PSG","i_lat":-6.161433,"time":2,"i_long":106.771379,"transit":false,"distance":1614,"is_transit":false},{"line":5,"station_id":"GGL","time":2,"station_name":"Grogol","transit":false,"i_long":106.788277,"distance":2036,"i_lat":-6.162021,"is_transit":false},{"transit":true,"i_long":106.800832,"time":3,"line":1,"distance":1700,"station_id":"DU","i_lat":-6.155215,"is_transit":true,"station_name":"Duri"},{"time":4,"transit":false,"distance":1230,"station_id":"AK","is_transit":false,"i_lat":-6.144674,"station_name":"Angke","i_long":106.79867,"line":1},{"line":4,"transit":true,"time":9,"station_name":"Kampung Bandan","station_id":"KPB","distance":4102,"i_lat":-6.132549,"i_long":106.826365,"is_transit":true},{"i_lat":-6.137569,"distance":1364,"station_name":"Jakarta Kota","station_id":"JAKK","time":3,"transit":true,"i_long":106.812439,"is_transit":true,"line":2},{"time":4,"is_transit":false,"i_lat":-6.141205,"i_long":106.820901,"station_name":"Jayakarta","station_id":"JAY","distance":1264,"transit":false,"line":2},{"i_long":106.82482,"line":2,"station_id":"MGB","i_lat":-6.149769,"distance":1080,"station_name":"Manggabesar","is_transit":false,"time":2,"transit":false},{"i_lat":-6.160725,"i_long":106.827103,"line":2,"is_transit":false,"transit":false,"time":2,"station_name":"Sawah Besar","distance":906,"station_id":"SW"},{"i_lat":-6.166716,"i_long":106.828284,"is_transit":false,"distance":1149,"station_name":"Juanda","time":2,"transit":false,"station_id":"JUA","line":2},{"line":2,"time":4,"transit":false,"station_id":"GDD","i_lat":-6.186295,"distance":2015,"i_long":106.832183,"is_transit":false,"station_name":"Gondangdia"},{"time":3,"is_transit":false,"station_name":"Cikini","line":2,"station_id":"CKI","transit":false,"distance":1750,"i_lat":-6.198556,"i_long":106.840169},{"station_id":"MRI","distance":1590,"i_long":106.84912,"station_name":"Manggarai","i_lat":-6.209883,"line":2,"is_transit":false,"time":4,"transit":false},{"station_id":"TEB","transit":false,"station_name":"Tebet","is_transit":false,"time":4,"i_lat":-6.226659,"distance":2610,"i_long":106.857948,"line":2},{"station_name":"Cawang","transit":false,"station_id":"CW","line":2,"i_lat":-6.242512,"time":2,"is_transit":false,"i_long":106.856607,"distance":1230},{"time":3,"is_transit":false,"distance":1546,"transit":false,"i_lat":-6.255332,"i_long":106.85449,"line":2,"station_name":"Duren Kalibata","station_id":"DRN"},{"transit":false,"time":2,"distance":824,"i_lat":-6.263214,"station_name":"Pasar Minggu Baru","station_id":"PSMB","i_long":106.851577,"is_transit":false,"line":2},{"distance":2380,"i_lat":-6.2842400000000005,"time":2,"is_transit":false,"line":2,"station_name":"Pasar Minggu","i_long":106.843999,"transit":false,"station_id":"PSM"},{"transit":false,"station_id":"TNT","i_lat":-6.3080680000000005,"station_name":"Tanjung Barat","distance":2820,"i_long":106.838896,"line":2,"time":4,"is_transit":false},{"is_transit":false,"transit":false,"time":3,"station_id":"LNA","station_name":"Lenteng Agung","distance":2671,"line":2,"i_long":106.832616,"i_lat":-6.330363},{"is_transit":false,"station_id":"UP","time":2,"distance":1029,"i_lat":-6.339291,"line":2,"station_name":"Univ. Pancasila","transit":false,"i_long":106.834175},{"distance":2264,"station_name":"Univ. Indonesia","transit":false,"station_id":"UI","time":3,"i_lat":-6.360749,"i_long":106.831474,"line":2,"is_transit":false},{"distance":1109,"i_lat":-6.369073,"i_long":106.831114,"transit":false,"is_transit":false,"station_name":"Pondok Cina","time":2,"line":2,"station_id":"POC"},{"is_transit":false,"distance":2727,"i_lat":-6.391065,"line":2,"station_name":"Depokbaru","time":4,"transit":false,"station_id":"DPB","i_long":106.819451},{"is_transit":false,"i_lat":-6.405256,"station_id":"DP","time":3,"station_name":"Depok","transit":false,"distance":1584,"i_long":106.816926,"line":2},{"time":6,"distance":5084,"i_long":106.800298,"station_id":"CTA","i_lat":-6.448811,"line":2,"transit":false,"is_transit":false,"station_name":"Citayam"},{"station_id":"BJD","distance":5197,"time":5,"transit":false,"line":2,"i_long":106.792719,"i_lat":-6.493243,"station_name":"Bojonggede","is_transit":false}],[{"is_transit":false,"distance":0,"station_id":"BPR","transit":false,"line":5,"station_name":"Batuceper","i_lat":-6.171811,"i_long":106.665036,"time":0},{"i_lat":-6.169933,"time":3,"transit":false,"line":5,"station_name":"Poris","station_id":"PI","distance":1834,"i_long":106.679458,"is_transit":false},{"time":3,"distance":2548,"station_name":"Kalideres","i_lat":-6.166068,"transit":false,"line":5,"is_transit":false,"i_long":106.701612,"station_id":"KDS"},{"distance":2504,"i_long":106.723064,"station_name":"Rawa Buaya","line":5,"station_id":"RW","time":3,"transit":false,"is_transit":false,"i_lat":-6.162758},{"i_lat":-6.159876,"transit":false,"is_transit":false,"i_long":106.737035,"station_name":"Bojongindah","distance":1152,"station_id":"BOI","time":4,"line":5},{"transit":false,"station_name":"Taman Kota","i_lat":-6.1587309999999995,"distance":2334,"station_id":"TKO","i_long":106.756522,"is_transit":false,"line":5,"time":2},{"station_name":"Pesing","i_lat":-6.161433,"station_id":"PSG","time":2,"transit":false,"line":5,"distance":1614,"is_transit":false,"i_long":106.771379},{"i_lat":-6.162021,"station_name":"Grogol","transit":false,"line":5,"i_long":106.788277,"station_id":"GGL","is_transit":false,"distance":2036,"time":2},{"i_long":106.800832,"time":3,"transit":true,"is_transit":true,"station_name":"Duri","station_id":"DU","distance":1700,"i_lat":-6.155215,"line":1},{"transit":false,"i_lat":-6.144674,"line":1,"time":4,"is_transit":false,"station_id":"AK","distance":1230,"station_name":"Angke","i_long":106.79867},{"i_lat":-6.132549,"i_long":106.826365,"distance":4102,"station_name":"Kampung Bandan","is_transit":true,"transit":true,"station_id":"KPB","time":9,"line":4},{"is_transit":false,"distance":1444,"i_long":106.836569,"i_lat":-6.14505,"line":11,"time":3,"station_name":"Rajawali","transit":false,"station_id":"RJW"},{"station_id":"KMO","distance":1901,"i_long":106.839204,"i_lat":-6.161728,"time":5,"station_name":"Kemayoran","is_transit":false,"line":11,"transit":false},{"transit":false,"line":11,"time":4,"station_id":"PSE","i_lat":-6.174784,"distance":1436,"station_name":"Pasar Senen","is_transit":false,"i_long":106.84368},{"distance":1567,"i_long":106.850107,"transit":false,"line":11,"station_id":"GST","is_transit":false,"i_lat":-6.185975,"time":8,"station_name":"Gang Sentiong"},{"time":1,"distance":973,"station_name":"Kramat","i_long":106.855437,"line":11,"i_lat":-6.193792,"transit":false,"is_transit":false,"station_id":"KMT"},{"line":11,"i_lat":-6.209188,"station_name":"Pondok Jati","station_id":"POK","transit":false,"i_long":106.861737,"time":2,"is_transit":false,"distance":1829},{"line":1,"i_lat":-6.215091,"transit":true,"station_id":"JNG","time":9,"i_long":106.86807400000001,"distance":1236,"station_name":"Jatinegara","is_transit":true},{"line":1,"station_name":"Matraman","station_id":"MTR","transit":false,"is_transit":false,"time":2,"i_lat":-6.212485,"distance":1377,"i_long":106.858896},{"line":2,"is_transit":true,"time":2,"station_name":"Manggarai","transit":true,"i_lat":-6.209883,"station_id":"MRI","distance":1275,"i_long":106.84912},{"is_transit":false,"transit":false,"time":4,"line":2,"station_id":"TEB","station_name":"Tebet","distance":2610,"i_long":106.857948,"i_lat":-6.226659},{"station_name":"Cawang","i_long":106.856607,"time":2,"station_id":"CW","distance":1230,"line":2,"transit":false,"i_lat":-6.242512,"is_transit":false},{"is_transit":false,"transit":false,"i_lat":-6.255332,"i_long":106.85449,"distance":1546,"time":3,"line":2,"station_id":"DRN","station_name":"Duren Kalibata"},{"transit":false,"i_long":106.851577,"i_lat":-6.263214,"line":2,"station_id":"PSMB","distance":824,"station_name":"Pasar Minggu Baru","time":2,"is_transit":false},{"distance":2380,"station_name":"Pasar Minggu","station_id":"PSM","time":2,"is_transit":false,"i_lat":-6.2842400000000005,"i_long":106.843999,"transit":false,"line":2},{"distance":2820,"transit":false,"i_long":106.838896,"time":4,"is_transit":false,"line":2,"i_lat":-6.3080680000000005,"station_name":"Tanjung Barat","station_id":"TNT"},{"line":2,"is_transit":false,"distance":2671,"time":3,"station_id":"LNA","station_name":"Lenteng Agung","i_lat":-6.330363,"transit":false,"i_long":106.832616},{"station_name":"Univ. Pancasila","distance":1029,"i_lat":-6.339291,"i_long":106.834175,"is_transit":false,"station_id":"UP","transit":false,"time":2,"line":2},{"is_transit":false,"i_lat":-6.360749,"i_long":106.831474,"station_id":"UI","station_name":"Univ. Indonesia","time":3,"distance":2264,"transit":false,"line":2},{"station_id":"POC","is_transit":false,"i_lat":-6.369073,"transit":false,"i_long":106.831114,"distance":1109,"station_name":"Pondok Cina","line":2,"time":2},{"distance":2727,"i_long":106.819451,"line":2,"station_id":"DPB","transit":false,"is_transit":false,"i_lat":-6.391065,"time":4,"station_name":"Depokbaru"},{"time":3,"station_name":"Depok","transit":false,"i_lat":-6.405256,"line":2,"distance":1584,"station_id":"DP","is_transit":false,"i_long":106.816926},{"is_transit":false,"station_name":"Citayam","transit":false,"line":2,"distance":5084,"i_long":106.800298,"i_lat":-6.448811,"station_id":"CTA","time":6},{"distance":5197,"i_long":106.792719,"station_name":"Bojonggede","is_transit":false,"line":2,"time":5,"station_id":"BJD","i_lat":-6.493243,"transit":false}]]}