{"data":[[{"distance":0,"transit":false,"i_lat":-6.171811,"station_id":"BPR","time":0,"i_long":106.665036,"station_name":"Batuceper","is_transit":false,"line":0},{"station_name":"Poris","line":5,"transit":false,"station_id":"PI","distance":1834,"i_lat":-6.169933,"i_long":106.679458,"time":3,"is_transit":false},{"station_id":"KDS","time":3,"station_name":"Kalideres","i_lat":-6.166068,"is_transit":false,"distance":2548,"line":5,"i_long":106.701612,"transit":false},{"transit":false,"i_lat":-6.162758,"is_transit":false,"line":5,"i_long":106.723064,"distance":2504,"station_id":"RW","time":3,"station_name":"Rawa Buaya"},{"station_name":"Bojongindah","time":4,"distance":1152,"line":0,"is_transit":false,"transit":false,"i_lat":-6.159876,"i_long":106.737035,"station_id":"BOI"},{"station_id":"TKO","station_name":"Taman Kota","is_transit":false,"distance":2334,"transit":false,"i_lat":-6.1587309999999995,"i_long":106.756522,"time":2,"line":5},{"time":2,"is_transit":false,"i_lat":-6.161433,"i_long":106.771379,"line":5,"station_id":"PSG","transit":false,"station_name":"Pesing","distance":1614},{"time":2,"distance":2036,"station_name":"Grogol","station_id":"GGL","i_long":106.788277,"line":5,"is_transit":false,"i_lat":-6.162021,"transit":false},{"time":3,"is_transit":true,"i_lat":-6.155215,"distance":1700,"i_long":106.800832,"line":1,"station_name":"Duri","station_id":"DU","transit":true},{"i_long":106.811091,"station_id":"THB","line":1,"time":8,"i_lat":-6.185545,"distance":3632,"station_name":"Tanah Abang","is_transit":true,"transit":false},{"transit":false,"station_id":"KAT","i_lat":-6.20132,"i_long":106.816351,"line":1,"is_transit":false,"distance":2029,"time":5,"station_name":"Karet"},{"is_transit":false,"transit":false,"time":1,"i_lat":-6.201433,"i_long":106.819881,"distance":471,"station_id":"SUDB","station_name":"Sudirman Baru","line":1},{"is_transit":false,"distance":280,"station_id":"SUD","time":1,"i_long":106.822649,"line":1,"i_lat":-6.202263,"transit":false,"station_name":"Sudirman"},{"is_transit":true,"line":0,"transit":false,"i_long":106.84912,"i_lat":-6.209883,"station_name":"Manggarai","time":4,"station_id":"MRI","distance":3186},{"i_long":106.858896,"line":1,"distance":1275,"transit":false,"is_transit":false,"station_name":"Matraman","i_lat":-6.212485,"station_id":"MTR","time":2},{"i_long":106.86807400000001,"i_lat":-6.215091,"station_name":"Jatinegara","transit":false,"line":0,"time":8,"is_transit":true,"distance":1377,"station_id":"JNG"},{"i_long":106.899548,"i_lat":-6.2135,"distance":3395,"line":1,"time":3,"station_name":"Klender","transit":false,"station_id":"KLD","is_transit":false},{"line":0,"time":2,"i_lat":-6.215568,"is_transit":false,"i_long":106.922662,"distance":3100,"transit":false,"station_id":"BUA","station_name":"Buaran"},{"distance":1305,"i_lat":-6.217455,"line":1,"is_transit":false,"station_name":"Klenderbaru","time":1,"i_long":106.939679,"station_id":"KLDB","transit":false},{"transit":false,"distance":1385,"time":8,"station_name":"Cakung","i_long":106.951283,"line":0,"i_lat":-6.219053,"station_id":"CUK","is_transit":false}],[{"station_id":"BPR","line":0,"i_long":106.665036,"station_name":"Batuceper","is_transit":false,"time":0,"transit":false,"distance":0,"i_lat":-6.171811},{"i_long":106.679458,"distance":1834,"i_lat":-6.169933,"is_transit":false,"line":5,"station_id":"PI","time":3,"transit":false,"station_name":"Poris"},{"station_id":"KDS","transit":false,"station_name":"Kalideres","i_lat":-6.166068,"i_long":106.701612,"line":5,"is_transit":false,"time":3,"distance":2548},{"i_lat":-6.162758,"transit":false,"i_long":106.723064,"time":3,"station_name":"Rawa Buaya","line":5,"is_transit":false,"distance":2504,"station_id":"RW"},{"distance":1152,"station_name":"Bojongindah","is_transit":false,"line":0,"station_id":"BOI","i_long":106.737035,"i_lat":-6.159876,"time":4,"transit":false},{"station_id":"TKO","is_transit":false,"distance":2334,"i_long":106.756522,"i_lat":-6.1587309999999995,"station_name":"Taman Kota","transit":false,"time":2,"line":5},{"transit":false,"station_id":"PSG","i_long":106.771379,"is_transit":false,"distance":1614,"station_name":"Pesing","time":2,"line":5,"i_lat":-6.161433},{"line":5,"time":2,"station_id":"GGL","transit":false,"is_transit":false,"i_long":106.788277,"distance":2036,"station_name":"Grogol","i_lat":-6.162021},{"transit":true,"i_lat":-6.155215,"i_long":106.800832,"station_name":"Duri","line":1,"time":3,"is_transit":true,"distance":1700,"station_id":"DU"},{"distance":1230,"transit":false,"station_name":"Angke","line":0,"i_lat":-6.144674,"station_id":"AK","is_transit":false,"time":4,"i_long":106.79867},{"i_lat":-6.132549,"is_transit":true,"station_name":"Kampung Bandan","i_long":106.826365,"time":9,"line":0,"transit":true,"distance":4102,"station_id":"KPB"},{"station_name":"Rajawali","station_id":"RJW","is_transit":false,"line":11,"time":3,"transit":false,"i_lat":-6.14505,"distance":1444,"i_long":106.836569},{"station_name":"Kemayoran","is_transit":false,"transit":false,"line":11,"time":5,"i_long":106.839204,"station_id":"KMO","i_lat":-6.161728,"distance":1901},{"line":11,"station_name":"Pasar Senen","i_lat":-6.174784,"time":4,"distance":1436,"transit":false,"i_long":106.84368,"is_transit":false,"station_id":"PSE"},{"transit":false,"i_long":106.850107,"station_id":"GST","line":11,"distance":1567,"station_name":"Gang Sentiong","is_transit":false,"time":8,"i_lat":-6.185975},{"time":1,"station_id":"KMT","i_long":106.855437,"transit":false,"i_lat":-6.193792,"distance":973,"line":11,"is_transit":false,"station_name":"Kramat"},{"line":11,"distance":1829,"is_transit":false,"time":2,"station_name":"Pondok Jati","station_id":"POK","transit":false,"i_lat":-6.209188,"i_long":106.861737},{"time":9,"transit":true,"station_id":"JNG","i_lat":-6.215091,"i_long":106.86807400000001,"line":0,"distance":1236,"station_name":"Jatinegara","is_transit":true},{"time":3,"transit":false,"i_long":106.899548,"distance":3395,"i_lat":-6.2135,"station_name":"Klender","station_id":"KLD","line":1,"is_transit":false},{"distance":3100,"transit":false,"is_transit":false,"i_long":106.922662,"line":0,"station_id":"BUA","i_lat":-6.215568,"time":2,"station_name":"Buaran"},{"time":1,"i_lat":-6.217455,"distance":1305,"station_id":"KLDB","is_transit":false,"transit":false,"line":1,"i_long":106.939679,"station_name":"Klenderbaru"},{"line":0,"i_lat":-6.219053,"is_transit":false,"distance":1385,"transit":false,"time":8,"i_long":106.951283,"station_id":"CUK","station_name":"Cakung"}],[{"i_long":106.665036,"distance":0,"line":0,"station_id":"BPR","i_lat":-6.171811,"transit":false,"is_transit":false,"time":0,"station_name":"Batuceper"},{"time":3,"i_long":106.679458,"station_id":"PI","i_lat":-6.169933,"line":5,"distance":1834,"station_name":"Poris","is_transit":false,"transit":false},{"transit":false,"time":3,"i_lat":-6.166068,"station_id":"KDS","distance":2548,"i_long":106.701612,"station_name":"Kalideres","is_transit":false,"line":5},{"transit":false,"is_transit":false,"i_lat":-6.162758,"station_id":"RW","station_name":"Rawa Buaya","i_long":106.723064,"line":5,"distance":2504,"time":3},{"station_id":"BOI","station_name":"Bojongindah","is_transit":false,"i_lat":-6.159876,"line":0,"distance":1152,"transit":false,"i_long":106.737035,"time":4},{"distance":2334,"station_id":"TKO","station_name":"Taman Kota","transit":false,"time":2,"i_long":106.756522,"i_lat":-6.1587309999999995,"line":5,"is_transit":false},{"line":5,"i_long":106.771379,"distance":1614,"time":2,"station_name":"Pesing","transit":false,"station_id":"PSG","i_lat":-6.161433,"is_transit":false},{"line":5,"station_name":"Grogol","time":2,"is_transit":false,"distance":2036,"station_id":"GGL","transit":false,"i_lat":-6.162021,"i_long":106.788277},{"i_lat":-6.155215,"time":3,"distance":1700,"station_id":"DU","is_transit":true,"station_name":"Duri","transit":true,"line":1,"i_long":106.800832},{"line":0,"distance":1230,"time":4,"i_long":106.79867,"is_transit":false,"station_name":"Angke","transit":false,"station_id":"AK","i_lat":-6.144674},{"is_transit":true,"transit":false,"i_lat":-6.132549,"i_long":106.826365,"line":0,"station_name":"Kampung Bandan","distance":4102,"time":9,"station_id":"KPB"},{"transit":true,"i_lat":-6.137569,"station_name":"Jakarta Kota","line":0,"time":3,"is_transit":true,"station_id":"JAKK","distance":1364,"i_long":106.812439},{"i_long":106.820901,"i_lat":-6.141205,"line":7,"time":4,"transit":false,"station_id":"JAY","is_transit":false,"distance":1264,"station_name":"Jayakarta"},{"station_name":"Manggabesar","i_long":106.82482,"line":2,"i_lat":-6.149769,"time":2,"station_id":"MGB","is_transit":false,"distance":1080,"transit":false},{"line":2,"transit":false,"i_lat":-6.160725,"is_transit":false,"distance":906,"i_long":106.827103,"station_id":"SW","station_name":"Sawah Besar","time":2},{"distance":1149,"transit":false,"is_transit":false,"station_id":"JUA","time":2,"i_lat":-6.166716,"station_name":"Juanda","line":2,"i_long":106.828284},{"i_long":106.832183,"station_name":"Gondangdia","i_lat":-6.186295,"line":2,"station_id":"GDD","transit":false,"is_transit":false,"time":4,"distance":2015},{"time":3,"i_lat":-6.198556,"line":0,"station_id":"CKI","distance":1750,"station_name":"Cikini","transit":false,"is_transit":false,"i_long":106.840169},{"distance":1590,"i_long":106.84912,"station_name":"Manggarai","transit":true,"is_transit":true,"line":0,"i_lat":-6.209883,"station_id":"MRI","time":4},{"station_name":"Matraman","time":2,"station_id":"MTR","i_long":106.858896,"transit":false,"is_transit":false,"line":1,"i_lat":-6.212485,"distance":1275},{"station_id":"JNG","distance":1377,"i_lat":-6.215091,"is_transit":true,"time":8,"i_long":106.86807400000001,"station_name":"Jatinegara","line":0,"transit":false},{"time":3,"station_id":"KLD","is_transit":false,"transit":false,"i_lat":-6.2135,"i_long":106.899548,"station_name":"Klender","distance":3395,"line":1},{"time":2,"i_long":106.922662,"line":0,"transit":false,"distance":3100,"station_id":"BUA","i_lat":-6.215568,"station_name":"Buaran","is_transit":false},{"time":1,"station_id":"KLDB","transit":false,"distance":1305,"line":1,"is_transit":false,"i_long":106.939679,"i_lat":-6.217455,"station_name":"Klenderbaru"},{"distance":1385,"i_long":106.951283,"station_name":"Cakung","i_lat":-6.219053,"transit":false,"station_id":"CUK","is_transit":false,"time":8,"line":0}],[{"transit":false,"i_long":106.665036,"distance":0,"time":0,"i_lat":-6.171811,"line":0,"station_id":"BPR","is_transit":false,"station_name":"Batuceper"},{"time":3,"distance":1834,"is_transit":false,"line":5,"transit":false,"station_name":"Poris","i_lat":-6.169933,"i_long":106.679458,"station_id":"PI"},{"time":3,"is_transit":false,"distance":2548,"i_long":106.701612,"station_id":"KDS","station_name":"Kalideres","i_lat":-6.166068,"transit":false,"line":5},{"line":5,"time":3,"transit":false,"station_id":"RW","distance":2504,"station_name":"Rawa Buaya","i_long":106.723064,"i_lat":-6.162758,"is_transit":false},{"i_long":106.737035,"line":0,"i_lat":-6.159876,"station_name":"Bojongindah","is_transit":false,"station_id":"BOI","time":4,"distance":1152,"transit":false},{"station_id":"TKO","transit":false,"i_lat":-6.1587309999999995,"i_long":106.756522,"line":5,"distance":2334,"station_name":"Taman Kota","is_transit":false,"time":2},{"i_lat":-6.161433,"station_id":"PSG","is_transit":false,"time":2,"station_name":"Pesing","transit":false,"i_long":106.771379,"distance":1614,"line":5},{"time":2,"is_transit":false,"distance":2036,"station_name":"Grogol","i_long":106.788277,"station_id":"GGL","i_lat":-6.162021,"line":5,"transit":false},{"i_lat":-6.155215,"i_long":106.800832,"line":1,"is_transit":true,"transit":true,"time":3,"station_name":"Duri","station_id":"DU","distance":1700},{"time":8,"line":1,"distance":3632,"station_name":"Tanah Abang","station_id":"THB","transit":false,"i_long":106.811091,"i_lat":-6.185545,"is_transit":true},{"i_lat":-6.20132,"station_id":"KAT","time":5,"line":1,"is_transit":false,"station_name":"Karet","i_long":106.816351,"transit":false,"distance":2029},{"i_lat":-6.201433,"station_name":"Sudirman Baru","line":1,"time":1,"distance":471,"station_id":"SUDB","is_transit":false,"transit":false,"i_long":106.819881},{"transit":false,"distance":280,"i_lat":-6.202263,"station_id":"SUD","i_long":106.822649,"is_transit":false,"line":1,"station_name":"Sudirman","time":1},{"station_name":"Manggarai","i_lat":-6.209883,"time":4,"transit":true,"is_transit":true,"i_long":106.84912,"station_id":"MRI","line":0,"distance":3186},{"line":0,"station_id":"CKI","station_name":"Cikini","i_lat":-6.198556,"i_long":106.840169,"transit":false,"distance":1590,"time":4,"is_transit":false},{"transit":false,"i_lat":-6.186295,"is_transit":false,"time":3,"distance":1750,"station_id":"GDD","station_name":"Gondangdia","line":2,"i_long":106.832183},{"i_long":106.828284,"station_id":"JUA","i_lat":-6.166716,"is_transit":false,"distance":2015,"transit":false,"time":4,"line":2,"station_name":"Juanda"},{"distance":1149,"i_lat":-6.160725,"station_name":"Sawah Besar","time":2,"i_long":106.827103,"transit":false,"station_id":"SW","is_transit":false,"line":2},{"station_id":"MGB","line":2,"time":2,"i_long":106.82482,"i_lat":-6.149769,"is_transit":false,"station_name":"Manggabesar","distance":906,"transit":false},{"i_lat":-6.141205,"station_id":"JAY","i_long":106.820901,"station_name":"Jayakarta","distance":1080,"is_transit":false,"transit":false,"line":7,"time":2},{"station_id":"JAKK","is_transit":true,"i_long":106.812439,"time":4,"i_lat":-6.137569,"distance":1264,"station_name":"Jakarta Kota","line":0,"transit":true},{"distance":1364,"station_id":"KPB","line":0,"time":3,"station_name":"Kampung Bandan","transit":true,"i_long":106.826365,"i_lat":-6.132549,"is_transit":true},{"time":3,"i_long":106.836569,"i_lat":-6.14505,"is_transit":false,"station_id":"RJW","distance":1444,"station_name":"Rajawali","transit":false,"line":11},{"station_id":"KMO","time":5,"is_transit":false,"station_name":"Kemayoran","transit":false,"i_lat":-6.161728,"i_long":106.839204,"distance":1901,"line":11},{"distance":1436,"transit":false,"station_id":"PSE","i_long":106.84368,"station_name":"Pasar Senen","time":4,"i_lat":-6.174784,"line":11,"is_transit":false},{"is_transit":false,"time":8,"distance":1567,"station_id":"GST","station_name":"Gang Sentiong","transit":false,"i_lat":-6.185975,"i_long":106.850107,"line":11},{"station_id":"KMT","is_transit":false,"time":1,"station_name":"Kramat","line":11,"distance":973,"transit":false,"i_lat":-6.193792,"i_long":106.855437},{"station_name":"Pondok Jati","is_transit":false,"transit":false,"i_long":106.861737,"time":2,"line":11,"station_id":"POK","i_lat":-6.209188,"distance":1829},{"distance":1236,"i_lat":-6.215091,"is_transit":true,"transit":true,"time":9,"line":0,"station_id":"JNG","station_name":"Jatinegara","i_long":106.86807400000001},{"transit":false,"i_long":106.899548,"is_transit":false,"distance":3395,"i_lat":-6.2135,"line":1,"station_id":"KLD","time":3,"station_name":"Klender"},{"i_lat":-6.215568,"line":0,"is_transit":false,"transit":false,"distance":3100,"station_id":"BUA","station_name":"Buaran","time":2,"i_long":106.922662},{"is_transit":false,"time":1,"distance":1305,"station_name":"Klenderbaru","i_long":106.939679,"transit":false,"station_id":"KLDB","i_lat":-6.217455,"line":1},{"distance":1385,"time":8,"station_id":"CUK","i_long":106.951283,"line":0,"is_transit":false,"transit":false,"i_lat":-6.219053,"station_name":"Cakung"}]]}