{"data":[[{"i_lat":-6.171811,"station_name":"Batuceper","line":0,"station_id":"BPR","time":0,"transit":false,"i_long":106.665036,"distance":0,"is_transit":false},{"transit":false,"station_id":"PI","i_lat":-6.169933,"line":5,"station_name":"Poris","is_transit":false,"i_long":106.679458,"distance":1834,"time":3},{"station_id":"KDS","is_transit":false,"transit":false,"i_lat":-6.166068,"i_long":106.701612,"time":3,"line":5,"distance":2548,"station_name":"Kalideres"},{"station_id":"RW","line":5,"i_long":106.723064,"i_lat":-6.162758,"is_transit":false,"time":3,"distance":2504,"station_name":"Rawa Buaya","transit":false},{"time":4,"line":0,"station_id":"BOI","transit":false,"is_transit":false,"distance":1152,"i_long":106.737035,"station_name":"Bojongindah","i_lat":-6.159876}]]}