{"data":[[{"is_transit":false,"i_long":106.665036,"i_lat":-6.171811,"transit":false,"distance":0,"station_id":"BPR","time":0,"line":5,"station_name":"Batuceper"},{"i_long":106.679458,"is_transit":false,"station_id":"PI","line":5,"i_lat":-6.169933,"time":3,"transit":false,"station_name":"Poris","distance":1834},{"i_lat":-6.166068,"line":5,"station_id":"KDS","time":3,"is_transit":false,"distance":2548,"station_name":"Kalideres","transit":false,"i_long":106.701612},{"time":3,"transit":false,"station_name":"Rawa Buaya","station_id":"RW","is_transit":false,"distance":2504,"i_lat":-6.162758,"line":5,"i_long":106.723064},{"i_lat":-6.159876,"i_long":106.737035,"is_transit":false,"distance":1152,"line":5,"time":4,"station_name":"Bojongindah","transit":false,"station_id":"BOI"},{"line":5,"distance":2334,"is_transit":false,"time":2,"station_name":"Taman Kota","i_long":106.756522,"station_id":"TKO","transit":false,"i_lat":-6.1587309999999995},{"i_lat":-6.161433,"station_name":"Pesing","distance":1614,"is_transit":false,"line":5,"time":2,"i_long":106.771379,"transit":false,"station_id":"PSG"},{"i_lat":-6.162021,"station_name":"Grogol","distance":2036,"i_long":106.788277,"transit":false,"station_id":"GGL","is_transit":false,"time":2,"line":5},{"station_id":"DU","line":1,"station_name":"Duri","is_transit":true,"distance":1700,"time":3,"i_long":106.800832,"transit":true,"i_lat":-6.155215},{"transit":false,"distance":3632,"line":1,"station_id":"THB","station_name":"Tanah Abang","is_transit":false,"i_lat":-6.185545,"time":8,"i_long":106.811091},{"is_transit":false,"station_id":"KAT","time":5,"station_name":"Karet","transit":false,"distance":2029,"i_long":106.816351,"line":1,"i_lat":-6.20132},{"station_id":"SUDB","line":1,"distance":471,"station_name":"Sudirman Baru","i_long":106.819881,"transit":false,"is_transit":false,"i_lat":-6.201433,"time":1},{"distance":280,"i_long":106.822649,"station_name":"Sudirman","is_transit":false,"i_lat":-6.202263,"transit":false,"time":1,"station_id":"SUD","line":1},{"i_lat":-6.209883,"station_id":"MRI","i_long":106.84912,"time":4,"transit":false,"distance":3186,"line":2,"is_transit":false,"station_name":"Manggarai"},{"station_name":"Matraman","is_transit":false,"i_lat":-6.212485,"i_long":106.858896,"line":1,"distance":1275,"time":2,"station_id":"MTR","transit":false},{"station_id":"JNG","i_long":106.86807400000001,"line":1,"time":8,"transit":false,"station_name":"Jatinegara","is_transit":false,"distance":1377,"i_lat":-6.215091},{"distance":3395,"line":1,"station_name":"Klender","i_lat":-6.2135,"transit":false,"i_long":106.899548,"is_transit":false,"time":3,"station_id":"KLD"},{"transit":false,"station_id":"BUA","i_long":106.922662,"time":2,"station_name":"Buaran","distance":3100,"is_transit":false,"i_lat":-6.215568,"line":1},{"transit":false,"time":1,"station_name":"Klenderbaru","is_transit":false,"i_long":106.939679,"line":1,"station_id":"KLDB","distance":1305,"i_lat":-6.217455},{"time":8,"is_transit":false,"i_lat":-6.219053,"line":1,"transit":false,"i_long":106.951283,"station_name":"Cakung","distance":1385,"station_id":"CUK"}],[{"i_lat":-6.171811,"i_long":106.665036,"line":5,"time":0,"station_name":"Batuceper","station_id":"BPR","is_transit":false,"distance":0,"transit":false},{"is_transit":false,"distance":1834,"station_id":"PI","i_lat":-6.169933,"transit":false,"station_name":"Poris","i_long":106.679458,"time":3,"line":5},{"is_transit":false,"i_lat":-6.166068,"station_id":"KDS","line":5,"transit":false,"station_name":"Kalideres","time":3,"i_long":106.701612,"distance":2548},{"time":3,"station_name":"Rawa Buaya","line":5,"distance":2504,"station_id":"RW","transit":false,"is_transit":false,"i_lat":-6.162758,"i_long":106.723064},{"station_name":"Bojongindah","distance":1152,"station_id":"BOI","i_long":106.737035,"i_lat":-6.159876,"transit":false,"time":4,"line":5,"is_transit":false},{"is_transit":false,"distance":2334,"line":5,"time":2,"transit":false,"station_name":"Taman Kota","i_lat":-6.1587309999999995,"i_long":106.756522,"station_id":"TKO"},{"distance":1614,"i_long":106.771379,"time":2,"line":5,"i_lat":-6.161433,"station_name":"Pesing","station_id":"PSG","is_transit":false,"transit":false},{"station_id":"GGL","time":2,"station_name":"Grogol","distance":2036,"is_transit":false,"i_long":106.788277,"line":5,"transit":false,"i_lat":-6.162021},{"i_long":106.800832,"time":3,"line":1,"distance":1700,"station_name":"Duri","is_transit":true,"i_lat":-6.155215,"station_id":"DU","transit":true},{"station_id":"AK","is_transit":false,"distance":1230,"i_long":106.79867,"line":1,"transit":false,"i_lat":-6.144674,"time":4,"station_name":"Angke"},{"i_lat":-6.132549,"station_name":"Kampung Bandan","is_transit":true,"line":4,"distance":4102,"time":9,"transit":true,"station_id":"KPB","i_long":106.826365},{"station_name":"Rajawali","i_long":106.836569,"time":3,"station_id":"RJW","distance":1444,"is_transit":false,"i_lat":-6.14505,"transit":false,"line":11},{"station_name":"Kemayoran","distance":1901,"is_transit":false,"transit":false,"station_id":"KMO","i_lat":-6.161728,"i_long":106.839204,"time":5,"line":11},{"transit":false,"is_transit":false,"i_long":106.84368,"station_id":"PSE","time":4,"distance":1436,"i_lat":-6.174784,"station_name":"Pasar Senen","line":11},{"distance":1567,"i_lat":-6.185975,"time":8,"is_transit":false,"i_long":106.850107,"transit":false,"station_name":"Gang Sentiong","station_id":"GST","line":11},{"i_lat":-6.193792,"station_name":"Kramat","station_id":"KMT","line":11,"is_transit":false,"i_long":106.855437,"time":1,"transit":false,"distance":973},{"i_long":106.861737,"station_id":"POK","line":11,"transit":false,"station_name":"Pondok Jati","is_transit":false,"time":2,"distance":1829,"i_lat":-6.209188},{"station_id":"JNG","time":9,"is_transit":true,"line":1,"station_name":"Jatinegara","transit":true,"i_long":106.86807400000001,"i_lat":-6.215091,"distance":1236},{"i_long":106.899548,"i_lat":-6.2135,"transit":false,"time":3,"station_name":"Klender","station_id":"KLD","distance":3395,"is_transit":false,"line":1},{"i_lat":-6.215568,"line":1,"distance":3100,"time":2,"i_long":106.922662,"station_name":"Buaran","station_id":"BUA","is_transit":false,"transit":false},{"station_id":"KLDB","line":1,"time":1,"distance":1305,"transit":false,"station_name":"Klenderbaru","is_transit":false,"i_lat":-6.217455,"i_long":106.939679},{"distance":1385,"station_name":"Cakung","time":8,"i_lat":-6.219053,"station_id":"CUK","is_transit":false,"transit":false,"i_long":106.951283,"line":1}],[{"i_long":106.665036,"is_transit":false,"line":5,"time":0,"station_name":"Batuceper","transit":false,"station_id":"BPR","distance":0,"i_lat":-6.171811},{"transit":false,"station_id":"PI","is_transit":false,"station_name":"Poris","line":5,"time":3,"i_lat":-6.169933,"i_long":106.679458,"distance":1834},{"distance":2548,"station_name":"Kalideres","station_id":"KDS","is_transit":false,"i_lat":-6.166068,"i_long":106.701612,"line":5,"transit":false,"time":3},{"transit":false,"station_name":"Rawa Buaya","station_id":"RW","is_transit":false,"distance":2504,"line":5,"i_long":106.723064,"time":3,"i_lat":-6.162758},{"distance":1152,"station_id":"BOI","is_transit":false,"transit":false,"i_long":106.737035,"line":5,"station_name":"Bojongindah","i_lat":-6.159876,"time":4},{"is_transit":false,"i_lat":-6.1587309999999995,"i_long":106.756522,"distance":2334,"transit":false,"station_name":"Taman Kota","line":5,"station_id":"TKO","time":2},{"i_long":106.771379,"station_id":"PSG","station_name":"Pesing","time":2,"transit":false,"distance":1614,"line":5,"is_transit":false,"i_lat":-6.161433},{"station_id":"GGL","i_lat":-6.162021,"distance":2036,"i_long":106.788277,"is_transit":false,"line":5,"time":2,"transit":false,"station_name":"Grogol"},{"distance":1700,"station_id":"DU","time":3,"transit":true,"station_name":"Duri","i_lat":-6.155215,"i_long":106.800832,"is_transit":true,"line":1},{"i_long":106.79867,"station_name":"Angke","i_lat":-6.144674,"is_transit":false,"station_id":"AK","distance":1230,"time":4,"line":1,"transit":false},{"i_long":106.826365,"is_transit":true,"i_lat":-6.132549,"time":9,"station_name":"Kampung Bandan","transit":true,"distance":4102,"line":4,"station_id":"KPB"},{"station_id":"JAKK","is_transit":true,"i_lat":-6.137569,"transit":true,"i_long":106.812439,"station_name":"Jakarta Kota","time":3,"distance":1364,"line":2},{"is_transit":false,"station_id":"JAY","i_long":106.820901,"time":4,"i_lat":-6.141205,"transit":false,"line":2,"distance":1264,"station_name":"Jayakarta"},{"distance":1080,"is_transit":false,"transit":false,"i_lat":-6.149769,"station_id":"MGB","i_long":106.82482,"time":2,"station_name":"Manggabesar","line":2},{"distance":906,"transit":false,"is_transit":false,"i_lat":-6.160725,"i_long":106.827103,"line":2,"station_name":"Sawah Besar","station_id":"SW","time":2},{"line":2,"distance":1149,"transit":false,"station_id":"JUA","station_name":"Juanda","i_long":106.828284,"time":2,"i_lat":-6.166716,"is_transit":false},{"time":4,"station_id":"GDD","is_transit":false,"transit":false,"station_name":"Gondangdia","distance":2015,"line":2,"i_lat":-6.186295,"i_long":106.832183},{"line":2,"station_name":"Cikini","i_lat":-6.198556,"station_id":"CKI","time":3,"transit":false,"i_long":106.840169,"is_transit":false,"distance":1750},{"distance":1590,"time":4,"station_name":"Manggarai","i_lat":-6.209883,"i_long":106.84912,"line":2,"transit":true,"is_transit":true,"station_id":"MRI"},{"is_transit":false,"line":1,"time":2,"transit":false,"i_lat":-6.212485,"i_long":106.858896,"distance":1275,"station_id":"MTR","station_name":"Matraman"},{"station_id":"JNG","station_name":"Jatinegara","distance":1377,"is_transit":false,"time":8,"i_lat":-6.215091,"transit":false,"line":1,"i_long":106.86807400000001},{"time":3,"is_transit":false,"i_long":106.899548,"transit":false,"station_name":"Klender","station_id":"KLD","distance":3395,"i_lat":-6.2135,"line":1},{"is_transit":false,"station_id":"BUA","transit":false,"time":2,"station_name":"Buaran","distance":3100,"i_lat":-6.215568,"i_long":106.922662,"line":1},{"line":1,"station_name":"Klenderbaru","i_long":106.939679,"time":1,"transit":false,"is_transit":false,"i_lat":-6.217455,"station_id":"KLDB","distance":1305},{"i_long":106.951283,"station_name":"Cakung","line":1,"station_id":"CUK","time":8,"i_lat":-6.219053,"transit":false,"is_transit":false,"distance":1385}],[{"transit":false,"i_lat":-6.171811,"is_transit":false,"distance":0,"time":0,"station_name":"Batuceper","station_id":"BPR","i_long":106.665036,"line":5},{"line":5,"transit":false,"i_lat":-6.169933,"time":3,"station_name":"Poris","i_long":106.679458,"station_id":"PI","distance":1834,"is_transit":false},{"i_lat":-6.166068,"station_name":"Kalideres","transit":false,"is_transit":false,"line":5,"i_long":106.701612,"time":3,"station_id":"KDS","distance":2548},{"time":3,"distance":2504,"i_lat":-6.162758,"station_name":"Rawa Buaya","station_id":"RW","i_long":106.723064,"line":5,"transit":false,"is_transit":false},{"i_long":106.737035,"station_id":"BOI","station_name":"Bojongindah","distance":1152,"time":4,"transit":false,"i_lat":-6.159876,"line":5,"is_transit":false},{"transit":false,"line":5,"i_long":106.756522,"distance":2334,"station_id":"TKO","station_name":"Taman Kota","is_transit":false,"time":2,"i_lat":-6.1587309999999995},{"i_long":106.771379,"is_transit":false,"line":5,"station_id":"PSG","time":2,"station_name":"Pesing","i_lat":-6.161433,"transit":false,"distance":1614},{"line":5,"time":2,"i_long":106.788277,"station_name":"Grogol","station_id":"GGL","is_transit":false,"distance":2036,"i_lat":-6.162021,"transit":false},{"station_name":"Duri","i_long":106.800832,"i_lat":-6.155215,"line":1,"distance":1700,"station_id":"DU","is_transit":true,"time":3,"transit":true},{"distance":3632,"time":8,"line":1,"station_name":"Tanah Abang","station_id":"THB","transit":false,"is_transit":false,"i_long":106.811091,"i_lat":-6.185545},{"transit":false,"is_transit":false,"station_name":"Karet","time":5,"station_id":"KAT","distance":2029,"i_lat":-6.20132,"i_long":106.816351,"line":1},{"station_id":"SUDB","i_lat":-6.201433,"station_name":"Sudirman Baru","distance":471,"time":1,"is_transit":false,"i_long":106.819881,"line":1,"transit":false},{"transit":false,"i_lat":-6.202263,"station_name":"Sudirman","station_id":"SUD","is_transit":false,"time":1,"line":1,"distance":280,"i_long":106.822649},{"transit":true,"station_name":"Manggarai","time":4,"distance":3186,"station_id":"MRI","is_transit":true,"i_lat":-6.209883,"i_long":106.84912,"line":2},{"time":4,"line":2,"station_name":"Cikini","transit":false,"distance":1590,"i_lat":-6.198556,"station_id":"CKI","is_transit":false,"i_long":106.840169},{"station_name":"Gondangdia","distance":1750,"time":3,"transit":false,"station_id":"GDD","i_lat":-6.186295,"i_long":106.832183,"line":2,"is_transit":false},{"line":2,"i_long":106.828284,"time":4,"distance":2015,"station_id":"JUA","station_name":"Juanda","transit":false,"i_lat":-6.166716,"is_transit":false},{"line":2,"distance":1149,"transit":false,"is_transit":false,"time":2,"station_name":"Sawah Besar","station_id":"SW","i_lat":-6.160725,"i_long":106.827103},{"i_long":106.82482,"line":2,"transit":false,"station_id":"MGB","is_transit":false,"station_name":"Manggabesar","time":2,"distance":906,"i_lat":-6.149769},{"transit":false,"station_id":"JAY","time":2,"line":2,"is_transit":false,"i_lat":-6.141205,"distance":1080,"i_long":106.820901,"station_name":"Jayakarta"},{"time":4,"station_name":"Jakarta Kota","distance":1264,"i_long":106.812439,"station_id":"JAKK","is_transit":true,"line":2,"transit":true,"i_lat":-6.137569},{"i_long":106.826365,"i_lat":-6.132549,"distance":1364,"station_id":"KPB","line":4,"time":3,"transit":true,"station_name":"Kampung Bandan","is_transit":true},{"station_id":"RJW","i_lat":-6.14505,"is_transit":false,"station_name":"Rajawali","transit":false,"distance":1444,"i_long":106.836569,"line":11,"time":3},{"distance":1901,"i_lat":-6.161728,"i_long":106.839204,"time":5,"is_transit":false,"station_name":"Kemayoran","station_id":"KMO","line":11,"transit":false},{"station_name":"Pasar Senen","time":4,"i_long":106.84368,"i_lat":-6.174784,"line":11,"transit":false,"is_transit":false,"distance":1436,"station_id":"PSE"},{"i_long":106.850107,"i_lat":-6.185975,"is_transit":false,"line":11,"distance":1567,"time":8,"transit":false,"station_name":"Gang Sentiong","station_id":"GST"},{"station_name":"Kramat","i_long":106.855437,"time":1,"station_id":"KMT","distance":973,"i_lat":-6.193792,"is_transit":false,"line":11,"transit":false},{"i_long":106.861737,"is_transit":false,"transit":false,"line":11,"station_name":"Pondok Jati","i_lat":-6.209188,"station_id":"POK","time":2,"distance":1829},{"station_id":"JNG","i_lat":-6.215091,"transit":true,"station_name":"Jatinegara","line":1,"time":9,"distance":1236,"i_long":106.86807400000001,"is_transit":true},{"i_long":106.899548,"station_name":"Klender","time":3,"station_id":"KLD","is_transit":false,"line":1,"transit":false,"i_lat":-6.2135,"distance":3395},{"i_lat":-6.215568,"is_transit":false,"line":1,"time":2,"station_id":"BUA","station_name":"Buaran","distance":3100,"i_long":106.922662,"transit":false},{"line":1,"distance":1305,"is_transit":false,"i_long":106.939679,"transit":false,"station_id":"KLDB","station_name":"Klenderbaru","i_lat":-6.217455,"time":1},{"i_lat":-6.219053,"i_long":106.951283,"time":8,"transit":false,"line":1,"distance":1385,"is_transit":false,"station_id":"CUK","station_name":"Cakung"}]]}