{"data":[[{"station_name":"Batuceper","i_lat":-6.171811,"i_long":106.665036,"is_transit":false,"line":5,"station_id":"BPR","transit":false,"distance":0,"time":0},{"station_id":"PI","distance":1834,"transit":false,"i_lat":-6.169933,"station_name":"Poris","i_long":106.679458,"time":3,"is_transit":false,"line":5},{"transit":false,"i_lat":-6.166068,"station_name":"Kalideres","is_transit":false,"distance":2548,"line":5,"i_long":106.701612,"time":3,"station_id":"KDS"},{"station_name":"Rawa Buaya","is_transit":false,"distance":2504,"station_id":"RW","i_long":106.723064,"transit":false,"i_lat":-6.162758,"line":5,"time":3},{"station_name":"Bojongindah","transit":false,"i_lat":-6.159876,"is_transit":false,"station_id":"BOI","time":4,"line":5,"distance":1152,"i_long":106.737035},{"station_id":"TKO","i_long":106.756522,"station_name":"Taman Kota","distance":2334,"i_lat":-6.1587309999999995,"line":5,"is_transit":false,"transit":false,"time":2},{"time":2,"station_name":"Pesing","distance":1614,"transit":false,"i_long":106.771379,"line":5,"station_id":"PSG","is_transit":false,"i_lat":-6.161433},{"station_name":"Grogol","is_transit":false,"transit":false,"distance":2036,"station_id":"GGL","line":5,"time":2,"i_lat":-6.162021,"i_long":106.788277},{"line":1,"station_id":"DU","station_name":"Duri","transit":true,"i_long":106.800832,"is_transit":true,"i_lat":-6.155215,"distance":1700,"time":3},{"i_lat":-6.185545,"distance":3632,"is_transit":false,"i_long":106.811091,"line":1,"transit":false,"time":8,"station_id":"THB","station_name":"Tanah Abang"},{"station_id":"KAT","line":1,"i_long":106.816351,"time":5,"i_lat":-6.20132,"distance":2029,"station_name":"Karet","is_transit":false,"transit":false},{"distance":471,"line":1,"i_lat":-6.201433,"station_name":"Sudirman Baru","i_long":106.819881,"time":1,"transit":false,"station_id":"SUDB","is_transit":false},{"transit":false,"station_name":"Sudirman","line":1,"station_id":"SUD","i_lat":-6.202263,"distance":280,"is_transit":false,"i_long":106.822649,"time":1},{"transit":false,"line":2,"distance":3186,"station_name":"Manggarai","station_id":"MRI","i_lat":-6.209883,"is_transit":false,"i_long":106.84912,"time":4},{"station_name":"Matraman","is_transit":false,"i_long":106.858896,"line":1,"station_id":"MTR","i_lat":-6.212485,"transit":false,"distance":1275,"time":2},{"distance":1377,"time":8,"station_id":"JNG","i_lat":-6.215091,"is_transit":false,"i_long":106.86807400000001,"line":1,"transit":false,"station_name":"Jatinegara"},{"station_id":"KLD","i_lat":-6.2135,"distance":3395,"time":3,"station_name":"Klender","is_transit":false,"transit":false,"i_long":106.899548,"line":1},{"i_long":106.922662,"line":1,"station_id":"BUA","is_transit":false,"time":2,"transit":false,"distance":3100,"i_lat":-6.215568,"station_name":"Buaran"},{"distance":1305,"i_long":106.939679,"line":1,"transit":false,"station_name":"Klenderbaru","time":1,"is_transit":false,"i_lat":-6.217455,"station_id":"KLDB"},{"station_id":"CUK","station_name":"Cakung","i_lat":-6.219053,"is_transit":false,"i_long":106.951283,"time":8,"line":1,"transit":false,"distance":1385}],[{"station_name":"Batuceper","is_transit":false,"distance":0,"station_id":"BPR","time":0,"i_lat":-6.171811,"line":5,"i_long":106.665036,"transit":false},{"time":3,"line":5,"is_transit":false,"distance":1834,"i_long":106.679458,"transit":false,"station_id":"PI","station_name":"Poris","i_lat":-6.169933},{"time":3,"i_long":106.701612,"line":5,"distance":2548,"transit":false,"i_lat":-6.166068,"station_id":"KDS","station_name":"Kalideres","is_transit":false},{"line":5,"station_name":"Rawa Buaya","transit":false,"time":3,"i_lat":-6.162758,"i_long":106.723064,"station_id":"RW","distance":2504,"is_transit":false},{"i_long":106.737035,"line":5,"time":4,"i_lat":-6.159876,"station_name":"Bojongindah","station_id":"BOI","transit":false,"is_transit":false,"distance":1152},{"station_name":"Taman Kota","station_id":"TKO","transit":false,"is_transit":false,"line":5,"i_lat":-6.1587309999999995,"time":2,"i_long":106.756522,"distance":2334},{"station_id":"PSG","time":2,"station_name":"Pesing","distance":1614,"line":5,"transit":false,"is_transit":false,"i_lat":-6.161433,"i_long":106.771379},{"station_id":"GGL","station_name":"Grogol","is_transit":false,"i_lat":-6.162021,"line":5,"transit":false,"i_long":106.788277,"distance":2036,"time":2},{"distance":1700,"station_id":"DU","transit":true,"is_transit":true,"time":3,"i_long":106.800832,"station_name":"Duri","i_lat":-6.155215,"line":1},{"time":4,"i_lat":-6.144674,"i_long":106.79867,"station_id":"AK","is_transit":false,"line":1,"distance":1230,"transit":false,"station_name":"Angke"},{"time":9,"is_transit":true,"transit":true,"line":4,"i_lat":-6.132549,"distance":4102,"i_long":106.826365,"station_name":"Kampung Bandan","station_id":"KPB"},{"i_lat":-6.14505,"distance":1444,"station_id":"RJW","station_name":"Rajawali","time":3,"is_transit":false,"transit":false,"i_long":106.836569,"line":11},{"line":11,"station_id":"KMO","distance":1901,"station_name":"Kemayoran","transit":false,"is_transit":false,"time":5,"i_long":106.839204,"i_lat":-6.161728},{"is_transit":false,"i_lat":-6.174784,"line":11,"transit":false,"distance":1436,"station_id":"PSE","time":4,"i_long":106.84368,"station_name":"Pasar Senen"},{"time":8,"station_name":"Gang Sentiong","is_transit":false,"i_lat":-6.185975,"i_long":106.850107,"line":11,"station_id":"GST","transit":false,"distance":1567},{"time":1,"station_id":"KMT","i_lat":-6.193792,"distance":973,"i_long":106.855437,"line":11,"station_name":"Kramat","transit":false,"is_transit":false},{"is_transit":false,"station_id":"POK","distance":1829,"i_long":106.861737,"transit":false,"i_lat":-6.209188,"time":2,"line":11,"station_name":"Pondok Jati"},{"time":9,"distance":1236,"transit":true,"station_id":"JNG","is_transit":true,"i_lat":-6.215091,"line":1,"station_name":"Jatinegara","i_long":106.86807400000001},{"transit":false,"i_lat":-6.2135,"station_name":"Klender","line":1,"distance":3395,"station_id":"KLD","is_transit":false,"time":3,"i_long":106.899548},{"i_long":106.922662,"i_lat":-6.215568,"time":2,"distance":3100,"transit":false,"station_id":"BUA","line":1,"is_transit":false,"station_name":"Buaran"},{"distance":1305,"is_transit":false,"time":1,"i_long":106.939679,"line":1,"i_lat":-6.217455,"station_name":"Klenderbaru","station_id":"KLDB","transit":false},{"distance":1385,"transit":false,"station_id":"CUK","station_name":"Cakung","i_lat":-6.219053,"is_transit":false,"i_long":106.951283,"line":1,"time":8}],[{"i_long":106.665036,"line":5,"transit":false,"i_lat":-6.171811,"station_id":"BPR","is_transit":false,"distance":0,"station_name":"Batuceper","time":0},{"i_long":106.679458,"i_lat":-6.169933,"time":3,"transit":false,"is_transit":false,"distance":1834,"station_id":"PI","station_name":"Poris","line":5},{"i_lat":-6.166068,"distance":2548,"station_id":"KDS","i_long":106.701612,"time":3,"is_transit":false,"transit":false,"station_name":"Kalideres","line":5},{"station_id":"RW","time":3,"is_transit":false,"i_lat":-6.162758,"station_name":"Rawa Buaya","distance":2504,"i_long":106.723064,"transit":false,"line":5},{"transit":false,"i_lat":-6.159876,"station_id":"BOI","i_long":106.737035,"time":4,"is_transit":false,"line":5,"station_name":"Bojongindah","distance":1152},{"distance":2334,"line":5,"transit":false,"is_transit":false,"time":2,"station_name":"Taman Kota","i_lat":-6.1587309999999995,"station_id":"TKO","i_long":106.756522},{"transit":false,"station_name":"Pesing","is_transit":false,"i_lat":-6.161433,"line":5,"distance":1614,"time":2,"i_long":106.771379,"station_id":"PSG"},{"time":2,"distance":2036,"i_lat":-6.162021,"line":5,"i_long":106.788277,"transit":false,"is_transit":false,"station_name":"Grogol","station_id":"GGL"},{"station_name":"Duri","transit":true,"station_id":"DU","is_transit":true,"i_long":106.800832,"i_lat":-6.155215,"distance":1700,"time":3,"line":1},{"line":1,"station_id":"AK","is_transit":false,"i_lat":-6.144674,"transit":false,"i_long":106.79867,"time":4,"station_name":"Angke","distance":1230},{"transit":true,"is_transit":true,"distance":4102,"i_lat":-6.132549,"i_long":106.826365,"line":4,"station_name":"Kampung Bandan","station_id":"KPB","time":9},{"station_id":"JAKK","distance":1364,"station_name":"Jakarta Kota","line":2,"i_lat":-6.137569,"is_transit":true,"time":3,"i_long":106.812439,"transit":true},{"station_name":"Jayakarta","transit":false,"is_transit":false,"time":4,"line":2,"station_id":"JAY","distance":1264,"i_lat":-6.141205,"i_long":106.820901},{"transit":false,"is_transit":false,"i_long":106.82482,"i_lat":-6.149769,"time":2,"station_id":"MGB","line":2,"station_name":"Manggabesar","distance":1080},{"i_long":106.827103,"time":2,"line":2,"distance":906,"is_transit":false,"transit":false,"station_name":"Sawah Besar","station_id":"SW","i_lat":-6.160725},{"transit":false,"station_name":"Juanda","time":2,"i_long":106.828284,"station_id":"JUA","i_lat":-6.166716,"line":2,"distance":1149,"is_transit":false},{"station_id":"GDD","transit":false,"is_transit":false,"time":4,"distance":2015,"station_name":"Gondangdia","line":2,"i_long":106.832183,"i_lat":-6.186295},{"station_name":"Cikini","transit":false,"is_transit":false,"station_id":"CKI","distance":1750,"i_long":106.840169,"time":3,"line":2,"i_lat":-6.198556},{"line":2,"i_lat":-6.209883,"transit":true,"station_id":"MRI","distance":1590,"i_long":106.84912,"time":4,"station_name":"Manggarai","is_transit":true},{"i_lat":-6.212485,"station_id":"MTR","station_name":"Matraman","distance":1275,"time":2,"line":1,"transit":false,"is_transit":false,"i_long":106.858896},{"transit":false,"is_transit":false,"line":1,"station_name":"Jatinegara","distance":1377,"time":8,"i_lat":-6.215091,"i_long":106.86807400000001,"station_id":"JNG"},{"station_id":"KLD","i_long":106.899548,"line":1,"station_name":"Klender","transit":false,"distance":3395,"time":3,"is_transit":false,"i_lat":-6.2135},{"distance":3100,"i_lat":-6.215568,"transit":false,"line":1,"is_transit":false,"station_id":"BUA","time":2,"i_long":106.922662,"station_name":"Buaran"},{"station_name":"Klenderbaru","i_lat":-6.217455,"station_id":"KLDB","i_long":106.939679,"distance":1305,"transit":false,"line":1,"time":1,"is_transit":false},{"i_long":106.951283,"time":8,"is_transit":false,"station_id":"CUK","station_name":"Cakung","i_lat":-6.219053,"line":1,"distance":1385,"transit":false}],[{"is_transit":false,"station_name":"Batuceper","line":5,"station_id":"BPR","transit":false,"time":0,"i_lat":-6.171811,"i_long":106.665036,"distance":0},{"transit":false,"line":5,"station_name":"Poris","is_transit":false,"distance":1834,"station_id":"PI","i_lat":-6.169933,"time":3,"i_long":106.679458},{"distance":2548,"transit":false,"time":3,"i_lat":-6.166068,"station_id":"KDS","is_transit":false,"line":5,"i_long":106.701612,"station_name":"Kalideres"},{"distance":2504,"station_id":"RW","station_name":"Rawa Buaya","i_long":106.723064,"i_lat":-6.162758,"time":3,"line":5,"transit":false,"is_transit":false},{"distance":1152,"station_name":"Bojongindah","i_long":106.737035,"transit":false,"time":4,"is_transit":false,"station_id":"BOI","i_lat":-6.159876,"line":5},{"i_lat":-6.1587309999999995,"station_id":"TKO","time":2,"is_transit":false,"i_long":106.756522,"station_name":"Taman Kota","transit":false,"line":5,"distance":2334},{"time":2,"is_transit":false,"station_name":"Pesing","transit":false,"i_long":106.771379,"i_lat":-6.161433,"distance":1614,"line":5,"station_id":"PSG"},{"time":2,"distance":2036,"transit":false,"station_name":"Grogol","line":5,"i_lat":-6.162021,"is_transit":false,"i_long":106.788277,"station_id":"GGL"},{"time":3,"distance":1700,"i_lat":-6.155215,"is_transit":true,"station_id":"DU","i_long":106.800832,"line":1,"transit":true,"station_name":"Duri"},{"i_lat":-6.185545,"line":1,"distance":3632,"station_id":"THB","is_transit":false,"time":8,"i_long":106.811091,"transit":false,"station_name":"Tanah Abang"},{"is_transit":false,"distance":2029,"station_name":"Karet","time":5,"line":1,"transit":false,"station_id":"KAT","i_long":106.816351,"i_lat":-6.20132},{"time":1,"is_transit":false,"station_name":"Sudirman Baru","i_lat":-6.201433,"station_id":"SUDB","i_long":106.819881,"line":1,"distance":471,"transit":false},{"distance":280,"station_name":"Sudirman","is_transit":false,"time":1,"line":1,"i_long":106.822649,"i_lat":-6.202263,"station_id":"SUD","transit":false},{"time":4,"transit":true,"station_id":"MRI","i_lat":-6.209883,"distance":3186,"is_transit":true,"i_long":106.84912,"line":2,"station_name":"Manggarai"},{"i_lat":-6.198556,"i_long":106.840169,"transit":false,"station_name":"Cikini","line":2,"distance":1590,"time":4,"is_transit":false,"station_id":"CKI"},{"time":3,"i_long":106.832183,"line":2,"i_lat":-6.186295,"distance":1750,"is_transit":false,"station_id":"GDD","station_name":"Gondangdia","transit":false},{"i_lat":-6.166716,"station_id":"JUA","time":4,"station_name":"Juanda","transit":false,"line":2,"distance":2015,"is_transit":false,"i_long":106.828284},{"i_lat":-6.160725,"transit":false,"i_long":106.827103,"station_name":"Sawah Besar","is_transit":false,"line":2,"distance":1149,"station_id":"SW","time":2},{"distance":906,"is_transit":false,"i_lat":-6.149769,"transit":false,"i_long":106.82482,"station_id":"MGB","time":2,"line":2,"station_name":"Manggabesar"},{"station_name":"Jayakarta","line":2,"station_id":"JAY","i_lat":-6.141205,"transit":false,"is_transit":false,"distance":1080,"time":2,"i_long":106.820901},{"i_long":106.812439,"station_name":"Jakarta Kota","line":2,"time":4,"distance":1264,"transit":true,"is_transit":true,"i_lat":-6.137569,"station_id":"JAKK"},{"i_lat":-6.132549,"station_id":"KPB","i_long":106.826365,"station_name":"Kampung Bandan","is_transit":true,"transit":true,"line":4,"distance":1364,"time":3},{"time":3,"station_name":"Rajawali","is_transit":false,"i_lat":-6.14505,"distance":1444,"station_id":"RJW","line":11,"i_long":106.836569,"transit":false},{"transit":false,"line":11,"i_lat":-6.161728,"station_id":"KMO","is_transit":false,"time":5,"distance":1901,"station_name":"Kemayoran","i_long":106.839204},{"station_name":"Pasar Senen","i_long":106.84368,"distance":1436,"time":4,"transit":false,"i_lat":-6.174784,"is_transit":false,"station_id":"PSE","line":11},{"i_lat":-6.185975,"line":11,"distance":1567,"transit":false,"station_name":"Gang Sentiong","is_transit":false,"station_id":"GST","time":8,"i_long":106.850107},{"distance":973,"i_lat":-6.193792,"station_name":"Kramat","time":1,"i_long":106.855437,"station_id":"KMT","transit":false,"is_transit":false,"line":11},{"transit":false,"station_name":"Pondok Jati","is_transit":false,"time":2,"i_lat":-6.209188,"line":11,"distance":1829,"i_long":106.861737,"station_id":"POK"},{"i_lat":-6.215091,"line":1,"distance":1236,"station_id":"JNG","time":9,"i_long":106.86807400000001,"is_transit":true,"station_name":"Jatinegara","transit":true},{"i_long":106.899548,"line":1,"distance":3395,"time":3,"i_lat":-6.2135,"station_id":"KLD","transit":false,"is_transit":false,"station_name":"Klender"},{"line":1,"transit":false,"station_name":"Buaran","station_id":"BUA","i_long":106.922662,"distance":3100,"is_transit":false,"time":2,"i_lat":-6.215568},{"is_transit":false,"transit":false,"distance":1305,"station_id":"KLDB","i_long":106.939679,"line":1,"i_lat":-6.217455,"station_name":"Klenderbaru","time":1},{"distance":1385,"transit":false,"station_id":"CUK","station_name":"Cakung","time":8,"line":1,"is_transit":false,"i_lat":-6.219053,"i_long":106.951283}]]}