{"data":[[{"i_long":106.665036,"line":0,"station_id":"BPR","station_name":"Batuceper","is_transit":false,"transit":false,"time":0,"distance":0,"i_lat":-6.171811},{"transit":false,"time":3,"distance":1834,"station_name":"Poris","i_lat":-6.169933,"station_id":"PI","is_transit":false,"i_long":106.679458,"line":5},{"is_transit":false,"station_name":"Kalideres","i_lat":-6.166068,"i_long":106.701612,"distance":2548,"station_id":"KDS","time":3,"transit":false,"line":5},{"i_long":106.723064,"line":5,"time":3,"distance":2504,"station_id":"RW","transit":false,"station_name":"Rawa Buaya","is_transit":false,"i_lat":-6.162758},{"transit":false,"distance":1152,"i_lat":-6.159876,"i_long":106.737035,"station_id":"BOI","line":0,"station_name":"Bojongindah","time":4,"is_transit":false},{"is_transit":false,"transit":false,"time":2,"distance":2334,"i_lat":-6.1587309999999995,"station_name":"Taman Kota","line":5,"i_long":106.756522,"station_id":"TKO"},{"distance":1614,"i_lat":-6.161433,"line":5,"transit":false,"time":2,"i_long":106.771379,"station_name":"Pesing","is_transit":false,"station_id":"PSG"},{"is_transit":false,"distance":2036,"i_lat":-6.162021,"line":5,"transit":false,"station_id":"GGL","station_name":"Grogol","i_long":106.788277,"time":2},{"station_name":"Duri","station_id":"DU","time":3,"distance":1700,"i_lat":-6.155215,"i_long":106.800832,"transit":true,"line":1,"is_transit":true},{"time":8,"transit":false,"distance":3632,"station_id":"THB","is_transit":true,"station_name":"Tanah Abang","i_lat":-6.185545,"i_long":106.811091,"line":1},{"i_lat":-6.20132,"line":1,"i_long":106.816351,"time":5,"station_name":"Karet","is_transit":false,"station_id":"KAT","distance":2029,"transit":false},{"time":1,"transit":false,"i_lat":-6.201433,"i_long":106.819881,"station_name":"Sudirman Baru","line":1,"is_transit":false,"station_id":"SUDB","distance":471},{"i_lat":-6.202263,"distance":280,"i_long":106.822649,"line":1,"station_id":"SUD","is_transit":false,"transit":false,"time":1,"station_name":"Sudirman"},{"station_name":"Manggarai","i_lat":-6.209883,"time":4,"transit":true,"line":0,"distance":3186,"station_id":"MRI","i_long":106.84912,"is_transit":true},{"station_name":"Tebet","line":2,"transit":false,"distance":2610,"station_id":"TEB","is_transit":false,"i_lat":-6.226659,"time":4,"i_long":106.857948},{"distance":1230,"i_long":106.856607,"station_id":"CW","time":2,"station_name":"Cawang","transit":false,"line":0,"is_transit":false,"i_lat":-6.242512},{"distance":1546,"station_name":"Duren Kalibata","i_long":106.85449,"transit":false,"line":0,"station_id":"DRN","time":3,"is_transit":false,"i_lat":-6.255332},{"distance":824,"is_transit":false,"i_lat":-6.263214,"line":2,"transit":false,"time":2,"station_name":"Pasar Minggu Baru","i_long":106.851577,"station_id":"PSMB"},{"i_lat":-6.2842400000000005,"line":2,"transit":false,"station_id":"PSM","station_name":"Pasar Minggu","i_long":106.843999,"distance":2380,"time":2,"is_transit":false},{"station_id":"TNT","i_long":106.838896,"i_lat":-6.3080680000000005,"time":4,"is_transit":false,"distance":2820,"line":2,"station_name":"Tanjung Barat","transit":false},{"line":2,"is_transit":false,"time":3,"transit":false,"i_long":106.832616,"distance":2671,"station_id":"LNA","station_name":"Lenteng Agung","i_lat":-6.330363},{"i_long":106.834175,"is_transit":false,"line":2,"station_name":"Univ. Pancasila","station_id":"UP","distance":1029,"time":2,"i_lat":-6.339291,"transit":false},{"time":3,"i_lat":-6.360749,"is_transit":false,"station_name":"Univ. Indonesia","transit":false,"i_long":106.831474,"line":2,"station_id":"UI","distance":2264},{"is_transit":false,"distance":1109,"station_id":"POC","time":2,"station_name":"Pondok Cina","transit":false,"i_lat":-6.369073,"i_long":106.831114,"line":2},{"station_id":"DPB","distance":2727,"time":4,"transit":false,"i_lat":-6.391065,"is_transit":false,"station_name":"Depokbaru","i_long":106.819451,"line":0}],[{"station_name":"Batuceper","line":0,"transit":false,"station_id":"BPR","i_long":106.665036,"distance":0,"i_lat":-6.171811,"is_transit":false,"time":0},{"transit":false,"station_id":"PI","is_transit":false,"station_name":"Poris","i_lat":-6.169933,"i_long":106.679458,"line":5,"time":3,"distance":1834},{"i_lat":-6.166068,"i_long":106.701612,"station_id":"KDS","line":5,"time":3,"is_transit":false,"distance":2548,"station_name":"Kalideres","transit":false},{"station_id":"RW","is_transit":false,"station_name":"Rawa Buaya","i_lat":-6.162758,"line":5,"time":3,"transit":false,"distance":2504,"i_long":106.723064},{"is_transit":false,"line":0,"transit":false,"station_id":"BOI","i_lat":-6.159876,"time":4,"i_long":106.737035,"distance":1152,"station_name":"Bojongindah"},{"i_lat":-6.1587309999999995,"line":5,"transit":false,"is_transit":false,"time":2,"i_long":106.756522,"station_id":"TKO","station_name":"Taman Kota","distance":2334},{"station_name":"Pesing","i_long":106.771379,"i_lat":-6.161433,"time":2,"distance":1614,"transit":false,"line":5,"is_transit":false,"station_id":"PSG"},{"i_lat":-6.162021,"station_id":"GGL","time":2,"i_long":106.788277,"station_name":"Grogol","line":5,"is_transit":false,"transit":false,"distance":2036},{"line":1,"distance":1700,"station_name":"Duri","i_lat":-6.155215,"is_transit":true,"station_id":"DU","time":3,"transit":true,"i_long":106.800832},{"distance":1230,"i_lat":-6.144674,"is_transit":false,"station_name":"Angke","time":4,"i_long":106.79867,"transit":false,"line":0,"station_id":"AK"},{"distance":4102,"is_transit":true,"station_name":"Kampung Bandan","i_long":106.826365,"station_id":"KPB","line":0,"transit":false,"i_lat":-6.132549,"time":9},{"station_name":"Jakarta Kota","transit":true,"station_id":"JAKK","time":3,"is_transit":true,"distance":1364,"i_long":106.812439,"i_lat":-6.137569,"line":0},{"i_long":106.820901,"line":7,"time":4,"i_lat":-6.141205,"distance":1264,"is_transit":false,"station_name":"Jayakarta","station_id":"JAY","transit":false},{"station_name":"Manggabesar","time":2,"distance":1080,"i_lat":-6.149769,"is_transit":false,"line":2,"transit":false,"station_id":"MGB","i_long":106.82482},{"i_long":106.827103,"i_lat":-6.160725,"transit":false,"time":2,"is_transit":false,"station_id":"SW","line":2,"station_name":"Sawah Besar","distance":906},{"transit":false,"time":2,"is_transit":false,"i_lat":-6.166716,"distance":1149,"line":2,"i_long":106.828284,"station_name":"Juanda","station_id":"JUA"},{"station_id":"GDD","line":2,"distance":2015,"is_transit":false,"station_name":"Gondangdia","time":4,"i_long":106.832183,"i_lat":-6.186295,"transit":false},{"is_transit":false,"i_long":106.840169,"station_name":"Cikini","distance":1750,"time":3,"transit":false,"station_id":"CKI","i_lat":-6.198556,"line":0},{"line":0,"station_id":"MRI","station_name":"Manggarai","time":4,"distance":1590,"i_lat":-6.209883,"i_long":106.84912,"is_transit":true,"transit":true},{"distance":2610,"transit":false,"is_transit":false,"i_lat":-6.226659,"time":4,"line":2,"station_id":"TEB","i_long":106.857948,"station_name":"Tebet"},{"time":2,"distance":1230,"i_lat":-6.242512,"line":0,"i_long":106.856607,"station_id":"CW","station_name":"Cawang","is_transit":false,"transit":false},{"station_id":"DRN","is_transit":false,"transit":false,"distance":1546,"i_long":106.85449,"time":3,"station_name":"Duren Kalibata","i_lat":-6.255332,"line":0},{"distance":824,"i_long":106.851577,"line":2,"station_id":"PSMB","i_lat":-6.263214,"station_name":"Pasar Minggu Baru","is_transit":false,"time":2,"transit":false},{"time":2,"i_lat":-6.2842400000000005,"distance":2380,"station_id":"PSM","station_name":"Pasar Minggu","transit":false,"line":2,"i_long":106.843999,"is_transit":false},{"line":2,"distance":2820,"station_name":"Tanjung Barat","transit":false,"i_long":106.838896,"time":4,"is_transit":false,"i_lat":-6.3080680000000005,"station_id":"TNT"},{"distance":2671,"time":3,"line":2,"station_id":"LNA","station_name":"Lenteng Agung","is_transit":false,"transit":false,"i_lat":-6.330363,"i_long":106.832616},{"i_long":106.834175,"station_id":"UP","is_transit":false,"transit":false,"line":2,"distance":1029,"time":2,"i_lat":-6.339291,"station_name":"Univ. Pancasila"},{"i_long":106.831474,"is_transit":false,"time":3,"distance":2264,"station_id":"UI","station_name":"Univ. Indonesia","i_lat":-6.360749,"transit":false,"line":2},{"station_id":"POC","distance":1109,"time":2,"i_lat":-6.369073,"i_long":106.831114,"station_name":"Pondok Cina","is_transit":false,"transit":false,"line":2},{"transit":false,"is_transit":false,"line":0,"distance":2727,"time":4,"station_id":"DPB","i_lat":-6.391065,"station_name":"Depokbaru","i_long":106.819451}],[{"time":0,"station_name":"Batuceper","i_lat":-6.171811,"i_long":106.665036,"is_transit":false,"distance":0,"line":0,"transit":false,"station_id":"BPR"},{"i_lat":-6.169933,"line":5,"station_id":"PI","transit":false,"i_long":106.679458,"station_name":"Poris","is_transit":false,"time":3,"distance":1834},{"station_id":"KDS","i_lat":-6.166068,"i_long":106.701612,"transit":false,"time":3,"distance":2548,"line":5,"station_name":"Kalideres","is_transit":false},{"transit":false,"i_lat":-6.162758,"i_long":106.723064,"line":5,"distance":2504,"is_transit":false,"station_name":"Rawa Buaya","time":3,"station_id":"RW"},{"transit":false,"is_transit":false,"i_long":106.737035,"line":0,"station_name":"Bojongindah","time":4,"station_id":"BOI","distance":1152,"i_lat":-6.159876},{"line":5,"distance":2334,"transit":false,"time":2,"is_transit":false,"i_long":106.756522,"i_lat":-6.1587309999999995,"station_id":"TKO","station_name":"Taman Kota"},{"line":5,"transit":false,"time":2,"station_name":"Pesing","distance":1614,"is_transit":false,"i_lat":-6.161433,"station_id":"PSG","i_long":106.771379},{"station_name":"Grogol","station_id":"GGL","transit":false,"i_lat":-6.162021,"i_long":106.788277,"line":5,"time":2,"distance":2036,"is_transit":false},{"time":3,"distance":1700,"i_long":106.800832,"station_id":"DU","transit":true,"i_lat":-6.155215,"is_transit":true,"station_name":"Duri","line":1},{"is_transit":false,"transit":false,"station_name":"Angke","i_lat":-6.144674,"i_long":106.79867,"station_id":"AK","line":0,"distance":1230,"time":4},{"station_name":"Kampung Bandan","is_transit":true,"time":9,"transit":true,"station_id":"KPB","distance":4102,"i_lat":-6.132549,"i_long":106.826365,"line":0},{"station_name":"Rajawali","is_transit":false,"i_lat":-6.14505,"transit":false,"station_id":"RJW","i_long":106.836569,"distance":1444,"line":11,"time":3},{"line":11,"transit":false,"i_long":106.839204,"station_id":"KMO","time":5,"is_transit":false,"distance":1901,"i_lat":-6.161728,"station_name":"Kemayoran"},{"i_long":106.84368,"station_name":"Pasar Senen","line":11,"distance":1436,"transit":false,"station_id":"PSE","time":4,"is_transit":false,"i_lat":-6.174784},{"station_name":"Gang Sentiong","i_long":106.850107,"transit":false,"distance":1567,"line":11,"station_id":"GST","time":8,"is_transit":false,"i_lat":-6.185975},{"i_long":106.855437,"time":1,"station_name":"Kramat","station_id":"KMT","transit":false,"distance":973,"i_lat":-6.193792,"line":11,"is_transit":false},{"station_name":"Pondok Jati","distance":1829,"i_lat":-6.209188,"i_long":106.861737,"is_transit":false,"transit":false,"time":2,"station_id":"POK","line":11},{"is_transit":true,"distance":1236,"i_long":106.86807400000001,"line":0,"station_id":"JNG","time":9,"i_lat":-6.215091,"transit":true,"station_name":"Jatinegara"},{"transit":false,"time":2,"station_id":"MTR","is_transit":false,"i_lat":-6.212485,"i_long":106.858896,"station_name":"Matraman","distance":1377,"line":1},{"is_transit":true,"time":2,"transit":true,"i_long":106.84912,"line":0,"i_lat":-6.209883,"distance":1275,"station_name":"Manggarai","station_id":"MRI"},{"is_transit":false,"time":4,"i_long":106.857948,"station_id":"TEB","station_name":"Tebet","transit":false,"distance":2610,"i_lat":-6.226659,"line":2},{"line":0,"distance":1230,"is_transit":false,"time":2,"station_name":"Cawang","station_id":"CW","transit":false,"i_lat":-6.242512,"i_long":106.856607},{"station_id":"DRN","is_transit":false,"transit":false,"i_lat":-6.255332,"line":0,"distance":1546,"time":3,"station_name":"Duren Kalibata","i_long":106.85449},{"transit":false,"distance":824,"i_lat":-6.263214,"station_name":"Pasar Minggu Baru","station_id":"PSMB","is_transit":false,"line":2,"time":2,"i_long":106.851577},{"station_id":"PSM","is_transit":false,"i_long":106.843999,"distance":2380,"transit":false,"i_lat":-6.2842400000000005,"station_name":"Pasar Minggu","line":2,"time":2},{"is_transit":false,"time":4,"station_name":"Tanjung Barat","i_lat":-6.3080680000000005,"transit":false,"station_id":"TNT","i_long":106.838896,"distance":2820,"line":2},{"station_id":"LNA","transit":false,"i_long":106.832616,"station_name":"Lenteng Agung","is_transit":false,"time":3,"distance":2671,"i_lat":-6.330363,"line":2},{"i_lat":-6.339291,"line":2,"station_name":"Univ. Pancasila","is_transit":false,"time":2,"transit":false,"distance":1029,"i_long":106.834175,"station_id":"UP"},{"i_lat":-6.360749,"station_id":"UI","station_name":"Univ. Indonesia","transit":false,"is_transit":false,"time":3,"distance":2264,"i_long":106.831474,"line":2},{"station_id":"POC","station_name":"Pondok Cina","line":2,"i_lat":-6.369073,"time":2,"is_transit":false,"transit":false,"distance":1109,"i_long":106.831114},{"station_id":"DPB","time":4,"distance":2727,"i_lat":-6.391065,"station_name":"Depokbaru","line":0,"i_long":106.819451,"is_transit":false,"transit":false}]]}