{"data":[[{"distance":0,"station_id":"BPR","transit":false,"i_long":106.665036,"is_transit":false,"line":5,"time":0,"station_name":"Batuceper","i_lat":-6.171811},{"i_long":106.679458,"line":5,"transit":false,"time":3,"station_id":"PI","i_lat":-6.169933,"station_name":"Poris","is_transit":false,"distance":1834},{"distance":2548,"i_long":106.701612,"is_transit":false,"station_name":"Kalideres","transit":false,"station_id":"KDS","time":3,"i_lat":-6.166068,"line":5},{"station_name":"Rawa Buaya","i_long":106.723064,"i_lat":-6.162758,"station_id":"RW","time":3,"is_transit":false,"distance":2504,"transit":false,"line":5},{"station_id":"BOI","distance":1152,"is_transit":false,"i_lat":-6.159876,"time":4,"station_name":"Bojongindah","transit":false,"i_long":106.737035,"line":5}]]}