{"data":[[{"is_transit":false,"distance":0,"i_long":106.665036,"time":0,"station_id":"BPR","transit":false,"station_name":"Batuceper","i_lat":-6.171811,"line":5},{"transit":false,"station_name":"Poris","station_id":"PI","is_transit":false,"line":5,"distance":1834,"time":3,"i_long":106.679458,"i_lat":-6.169933},{"transit":false,"distance":2548,"line":5,"is_transit":false,"time":3,"station_id":"KDS","i_long":106.701612,"station_name":"Kalideres","i_lat":-6.166068},{"transit":false,"station_name":"Rawa Buaya","distance":2504,"time":3,"i_lat":-6.162758,"i_long":106.723064,"line":5,"station_id":"RW","is_transit":false},{"is_transit":false,"transit":false,"time":4,"i_lat":-6.159876,"line":5,"i_long":106.737035,"distance":1152,"station_name":"Bojongindah","station_id":"BOI"},{"transit":false,"station_id":"TKO","time":2,"i_long":106.756522,"i_lat":-6.1587309999999995,"line":5,"station_name":"Taman Kota","is_transit":false,"distance":2334},{"line":5,"station_name":"Pesing","station_id":"PSG","i_long":106.771379,"is_transit":false,"distance":1614,"time":2,"i_lat":-6.161433,"transit":false},{"distance":2036,"station_id":"GGL","transit":false,"time":2,"station_name":"Grogol","i_long":106.788277,"is_transit":false,"i_lat":-6.162021,"line":5},{"transit":true,"is_transit":true,"distance":1700,"i_long":106.800832,"time":3,"i_lat":-6.155215,"station_id":"DU","line":1,"station_name":"Duri"},{"transit":false,"time":8,"i_lat":-6.185545,"i_long":106.811091,"distance":3632,"station_id":"THB","is_transit":false,"line":1,"station_name":"Tanah Abang"},{"station_id":"KAT","is_transit":false,"line":1,"distance":2029,"station_name":"Karet","time":5,"transit":false,"i_lat":-6.20132,"i_long":106.816351},{"station_name":"Sudirman Baru","station_id":"SUDB","is_transit":false,"transit":false,"time":1,"line":1,"distance":471,"i_long":106.819881,"i_lat":-6.201433},{"is_transit":false,"i_long":106.822649,"line":1,"transit":false,"time":1,"i_lat":-6.202263,"station_name":"Sudirman","station_id":"SUD","distance":280},{"station_id":"MRI","i_lat":-6.209883,"i_long":106.84912,"transit":true,"time":4,"station_name":"Manggarai","is_transit":true,"distance":3186,"line":2},{"transit":false,"is_transit":false,"time":4,"line":2,"i_long":106.857948,"i_lat":-6.226659,"station_name":"Tebet","distance":2610,"station_id":"TEB"},{"i_lat":-6.242512,"distance":1230,"line":2,"transit":false,"station_name":"Cawang","is_transit":false,"i_long":106.856607,"station_id":"CW","time":2},{"is_transit":false,"station_name":"Duren Kalibata","time":3,"distance":1546,"transit":false,"i_long":106.85449,"station_id":"DRN","i_lat":-6.255332,"line":2},{"time":2,"is_transit":false,"distance":824,"i_lat":-6.263214,"i_long":106.851577,"transit":false,"line":2,"station_name":"Pasar Minggu Baru","station_id":"PSMB"},{"time":2,"i_long":106.843999,"distance":2380,"station_id":"PSM","i_lat":-6.2842400000000005,"is_transit":false,"line":2,"transit":false,"station_name":"Pasar Minggu"},{"distance":2820,"i_lat":-6.3080680000000005,"station_id":"TNT","i_long":106.838896,"time":4,"line":2,"transit":false,"is_transit":false,"station_name":"Tanjung Barat"},{"i_lat":-6.330363,"station_id":"LNA","time":3,"transit":false,"distance":2671,"line":2,"station_name":"Lenteng Agung","i_long":106.832616,"is_transit":false}],[{"station_id":"BPR","line":5,"station_name":"Batuceper","transit":false,"time":0,"distance":0,"i_long":106.665036,"is_transit":false,"i_lat":-6.171811},{"time":3,"distance":1834,"i_lat":-6.169933,"station_name":"Poris","line":5,"transit":false,"i_long":106.679458,"is_transit":false,"station_id":"PI"},{"line":5,"transit":false,"time":3,"station_name":"Kalideres","distance":2548,"is_transit":false,"i_long":106.701612,"i_lat":-6.166068,"station_id":"KDS"},{"is_transit":false,"i_long":106.723064,"distance":2504,"station_id":"RW","line":5,"station_name":"Rawa Buaya","time":3,"transit":false,"i_lat":-6.162758},{"is_transit":false,"station_id":"BOI","transit":false,"i_lat":-6.159876,"distance":1152,"station_name":"Bojongindah","i_long":106.737035,"line":5,"time":4},{"transit":false,"station_id":"TKO","time":2,"i_lat":-6.1587309999999995,"distance":2334,"is_transit":false,"i_long":106.756522,"station_name":"Taman Kota","line":5},{"is_transit":false,"transit":false,"i_lat":-6.161433,"station_id":"PSG","line":5,"time":2,"i_long":106.771379,"station_name":"Pesing","distance":1614},{"distance":2036,"transit":false,"is_transit":false,"station_id":"GGL","i_lat":-6.162021,"i_long":106.788277,"station_name":"Grogol","time":2,"line":5},{"transit":true,"i_long":106.800832,"station_name":"Duri","line":1,"station_id":"DU","is_transit":true,"distance":1700,"time":3,"i_lat":-6.155215},{"station_id":"AK","time":4,"distance":1230,"i_lat":-6.144674,"line":1,"i_long":106.79867,"transit":false,"station_name":"Angke","is_transit":false},{"station_id":"KPB","i_lat":-6.132549,"station_name":"Kampung Bandan","i_long":106.826365,"transit":true,"is_transit":true,"line":4,"time":9,"distance":4102},{"is_transit":true,"distance":1364,"i_lat":-6.137569,"i_long":106.812439,"station_name":"Jakarta Kota","transit":true,"station_id":"JAKK","time":3,"line":2},{"distance":1264,"transit":false,"i_lat":-6.141205,"station_id":"JAY","is_transit":false,"station_name":"Jayakarta","time":4,"i_long":106.820901,"line":2},{"i_long":106.82482,"distance":1080,"station_id":"MGB","station_name":"Manggabesar","time":2,"transit":false,"i_lat":-6.149769,"is_transit":false,"line":2},{"transit":false,"station_id":"SW","station_name":"Sawah Besar","time":2,"i_long":106.827103,"line":2,"is_transit":false,"distance":906,"i_lat":-6.160725},{"station_name":"Juanda","distance":1149,"is_transit":false,"transit":false,"i_lat":-6.166716,"station_id":"JUA","line":2,"time":2,"i_long":106.828284},{"station_id":"GDD","is_transit":false,"i_lat":-6.186295,"time":4,"distance":2015,"line":2,"transit":false,"i_long":106.832183,"station_name":"Gondangdia"},{"line":2,"transit":false,"is_transit":false,"station_id":"CKI","distance":1750,"i_lat":-6.198556,"station_name":"Cikini","time":3,"i_long":106.840169},{"i_lat":-6.209883,"transit":false,"station_id":"MRI","i_long":106.84912,"station_name":"Manggarai","is_transit":false,"time":4,"distance":1590,"line":2},{"time":4,"station_id":"TEB","i_lat":-6.226659,"distance":2610,"i_long":106.857948,"line":2,"is_transit":false,"transit":false,"station_name":"Tebet"},{"i_lat":-6.242512,"is_transit":false,"distance":1230,"time":2,"transit":false,"i_long":106.856607,"station_id":"CW","line":2,"station_name":"Cawang"},{"time":3,"station_name":"Duren Kalibata","i_lat":-6.255332,"line":2,"transit":false,"is_transit":false,"station_id":"DRN","distance":1546,"i_long":106.85449},{"is_transit":false,"i_long":106.851577,"transit":false,"line":2,"distance":824,"station_name":"Pasar Minggu Baru","time":2,"i_lat":-6.263214,"station_id":"PSMB"},{"transit":false,"station_name":"Pasar Minggu","is_transit":false,"i_long":106.843999,"station_id":"PSM","line":2,"i_lat":-6.2842400000000005,"time":2,"distance":2380},{"distance":2820,"i_long":106.838896,"i_lat":-6.3080680000000005,"station_name":"Tanjung Barat","station_id":"TNT","line":2,"transit":false,"time":4,"is_transit":false},{"station_name":"Lenteng Agung","i_long":106.832616,"distance":2671,"station_id":"LNA","transit":false,"line":2,"time":3,"is_transit":false,"i_lat":-6.330363}],[{"station_name":"Batuceper","time":0,"is_transit":false,"i_lat":-6.171811,"station_id":"BPR","i_long":106.665036,"transit":false,"line":5,"distance":0},{"line":5,"is_transit":false,"station_id":"PI","transit":false,"station_name":"Poris","time":3,"distance":1834,"i_long":106.679458,"i_lat":-6.169933},{"i_lat":-6.166068,"is_transit":false,"transit":false,"line":5,"station_id":"KDS","time":3,"i_long":106.701612,"station_name":"Kalideres","distance":2548},{"i_lat":-6.162758,"i_long":106.723064,"transit":false,"station_name":"Rawa Buaya","station_id":"RW","distance":2504,"line":5,"time":3,"is_transit":false},{"station_name":"Bojongindah","station_id":"BOI","time":4,"line":5,"i_long":106.737035,"i_lat":-6.159876,"is_transit":false,"transit":false,"distance":1152},{"distance":2334,"i_lat":-6.1587309999999995,"time":2,"station_name":"Taman Kota","station_id":"TKO","transit":false,"line":5,"is_transit":false,"i_long":106.756522},{"station_name":"Pesing","is_transit":false,"transit":false,"station_id":"PSG","time":2,"line":5,"i_lat":-6.161433,"distance":1614,"i_long":106.771379},{"i_lat":-6.162021,"station_name":"Grogol","station_id":"GGL","time":2,"line":5,"is_transit":false,"i_long":106.788277,"distance":2036,"transit":false},{"station_name":"Duri","distance":1700,"time":3,"transit":true,"station_id":"DU","i_lat":-6.155215,"line":1,"is_transit":true,"i_long":106.800832},{"transit":false,"distance":1230,"station_id":"AK","i_lat":-6.144674,"station_name":"Angke","time":4,"is_transit":false,"line":1,"i_long":106.79867},{"i_long":106.826365,"i_lat":-6.132549,"line":4,"station_name":"Kampung Bandan","is_transit":true,"station_id":"KPB","time":9,"transit":true,"distance":4102},{"station_name":"Rajawali","i_long":106.836569,"i_lat":-6.14505,"is_transit":false,"transit":false,"line":11,"distance":1444,"time":3,"station_id":"RJW"},{"distance":1901,"line":11,"station_name":"Kemayoran","station_id":"KMO","transit":false,"i_long":106.839204,"time":5,"i_lat":-6.161728,"is_transit":false},{"distance":1436,"station_name":"Pasar Senen","i_lat":-6.174784,"is_transit":false,"transit":false,"time":4,"i_long":106.84368,"station_id":"PSE","line":11},{"station_name":"Gang Sentiong","i_lat":-6.185975,"distance":1567,"line":11,"station_id":"GST","is_transit":false,"transit":false,"time":8,"i_long":106.850107},{"station_name":"Kramat","time":1,"i_long":106.855437,"i_lat":-6.193792,"distance":973,"is_transit":false,"transit":false,"station_id":"KMT","line":11},{"is_transit":false,"i_long":106.861737,"time":2,"station_id":"POK","i_lat":-6.209188,"transit":false,"distance":1829,"station_name":"Pondok Jati","line":11},{"is_transit":true,"line":1,"station_name":"Jatinegara","i_long":106.86807400000001,"time":9,"station_id":"JNG","i_lat":-6.215091,"transit":true,"distance":1236},{"station_name":"Matraman","is_transit":false,"line":1,"distance":1377,"time":2,"station_id":"MTR","i_lat":-6.212485,"i_long":106.858896,"transit":false},{"i_lat":-6.209883,"transit":true,"is_transit":true,"time":2,"station_id":"MRI","distance":1275,"station_name":"Manggarai","i_long":106.84912,"line":2},{"transit":false,"i_lat":-6.226659,"line":2,"station_name":"Tebet","is_transit":false,"station_id":"TEB","time":4,"distance":2610,"i_long":106.857948},{"transit":false,"station_name":"Cawang","station_id":"CW","is_transit":false,"i_long":106.856607,"distance":1230,"line":2,"i_lat":-6.242512,"time":2},{"time":3,"line":2,"is_transit":false,"station_id":"DRN","i_long":106.85449,"distance":1546,"station_name":"Duren Kalibata","i_lat":-6.255332,"transit":false},{"line":2,"station_id":"PSMB","transit":false,"station_name":"Pasar Minggu Baru","is_transit":false,"time":2,"distance":824,"i_lat":-6.263214,"i_long":106.851577},{"transit":false,"is_transit":false,"i_long":106.843999,"station_id":"PSM","i_lat":-6.2842400000000005,"time":2,"station_name":"Pasar Minggu","distance":2380,"line":2},{"transit":false,"station_id":"TNT","i_lat":-6.3080680000000005,"line":2,"station_name":"Tanjung Barat","distance":2820,"is_transit":false,"time":4,"i_long":106.838896},{"i_long":106.832616,"is_transit":false,"distance":2671,"i_lat":-6.330363,"transit":false,"time":3,"line":2,"station_name":"Lenteng Agung","station_id":"LNA"}]]}