{"data":[[{"time":0,"line":5,"distance":0,"transit":false,"i_lat":-6.171811,"station_id":"BPR","i_long":106.665036,"station_name":"Batuceper","is_transit":false},{"station_id":"PI","station_name":"Poris","i_lat":-6.169933,"time":3,"i_long":106.679458,"distance":1834,"transit":false,"line":5,"is_transit":false},{"time":3,"station_id":"KDS","i_lat":-6.166068,"station_name":"Kalideres","distance":2548,"is_transit":false,"transit":false,"line":5,"i_long":106.701612},{"station_id":"RW","transit":false,"i_lat":-6.162758,"i_long":106.723064,"distance":2504,"is_transit":false,"line":5,"time":3,"station_name":"Rawa Buaya"},{"station_id":"BOI","distance":1152,"i_long":106.737035,"station_name":"Bojongindah","time":4,"is_transit":false,"i_lat":-6.159876,"line":5,"transit":false},{"time":2,"distance":2334,"is_transit":false,"transit":false,"i_long":106.756522,"station_id":"TKO","station_name":"Taman Kota","line":5,"i_lat":-6.1587309999999995},{"time":2,"distance":1614,"station_name":"Pesing","i_long":106.771379,"station_id":"PSG","i_lat":-6.161433,"line":5,"transit":false,"is_transit":false},{"transit":false,"station_name":"Grogol","line":5,"is_transit":false,"i_lat":-6.162021,"i_long":106.788277,"station_id":"GGL","time":2,"distance":2036},{"i_long":106.800832,"station_id":"DU","is_transit":true,"station_name":"Duri","transit":true,"time":3,"i_lat":-6.155215,"line":1,"distance":1700},{"time":8,"i_lat":-6.185545,"is_transit":false,"i_long":106.811091,"distance":3632,"transit":false,"station_name":"Tanah Abang","station_id":"THB","line":1},{"station_id":"KAT","is_transit":false,"i_lat":-6.20132,"distance":2029,"station_name":"Karet","transit":false,"time":5,"line":1,"i_long":106.816351},{"i_long":106.819881,"station_id":"SUDB","line":1,"i_lat":-6.201433,"station_name":"Sudirman Baru","time":1,"distance":471,"transit":false,"is_transit":false},{"station_id":"SUD","i_long":106.822649,"i_lat":-6.202263,"line":1,"time":1,"is_transit":false,"station_name":"Sudirman","distance":280,"transit":false},{"i_long":106.84912,"time":4,"is_transit":false,"station_name":"Manggarai","station_id":"MRI","transit":false,"distance":3186,"i_lat":-6.209883,"line":2},{"distance":1275,"i_lat":-6.212485,"station_id":"MTR","is_transit":false,"i_long":106.858896,"transit":false,"station_name":"Matraman","time":2,"line":1},{"station_id":"JNG","line":1,"time":8,"is_transit":false,"i_lat":-6.215091,"distance":1377,"transit":false,"i_long":106.86807400000001,"station_name":"Jatinegara"},{"station_name":"Klender","i_long":106.899548,"i_lat":-6.2135,"station_id":"KLD","distance":3395,"is_transit":false,"line":1,"time":3,"transit":false},{"i_lat":-6.215568,"transit":false,"distance":3100,"line":1,"time":2,"is_transit":false,"i_long":106.922662,"station_id":"BUA","station_name":"Buaran"},{"station_name":"Klenderbaru","i_lat":-6.217455,"i_long":106.939679,"station_id":"KLDB","transit":false,"time":1,"distance":1305,"line":1,"is_transit":false},{"i_lat":-6.219053,"distance":1385,"is_transit":false,"station_name":"Cakung","time":8,"i_long":106.951283,"transit":false,"station_id":"CUK","line":1},{"station_name":"Kranji","transit":false,"is_transit":false,"i_long":106.977657,"station_id":"KRI","distance":3097,"time":3,"line":1,"i_lat":-6.224515},{"distance":2520,"station_name":"Bekasi","station_id":"BKS","time":4,"is_transit":false,"i_long":106.997013,"i_lat":-6.236616,"line":1,"transit":false},{"station_id":"BKST","i_lat":-6.248029,"station_name":"Bekasi Timur","is_transit":false,"line":1,"time":2,"distance":2368,"transit":false,"i_long":107.016735},{"transit":false,"is_transit":false,"time":7,"distance":4460,"line":1,"station_name":"Tambun","station_id":"TB","i_lat":-6.258864,"i_long":107.055722},{"station_id":"CIT","line":1,"i_lat":-6.261877,"is_transit":false,"station_name":"Cibitung","distance":3420,"transit":false,"time":3,"i_long":107.083084},{"station_name":"Metland Telaga Murni","time":2,"i_lat":-6.262938,"is_transit":false,"i_long":107.093313,"line":1,"station_id":"TLM","distance":2800,"transit":false},{"transit":false,"distance":3689,"i_lat":-6.2553149999999995,"station_id":"CKR","line":1,"station_name":"Cikarang","i_long":107.144613,"is_transit":false,"time":4}],[{"station_name":"Batuceper","distance":0,"station_id":"BPR","time":0,"i_long":106.665036,"is_transit":false,"i_lat":-6.171811,"transit":false,"line":5},{"i_lat":-6.169933,"time":3,"station_name":"Poris","station_id":"PI","is_transit":false,"i_long":106.679458,"distance":1834,"line":5,"transit":false},{"station_name":"Kalideres","distance":2548,"transit":false,"i_lat":-6.166068,"i_long":106.701612,"station_id":"KDS","line":5,"time":3,"is_transit":false},{"is_transit":false,"i_lat":-6.162758,"distance":2504,"line":5,"time":3,"i_long":106.723064,"station_id":"RW","station_name":"Rawa Buaya","transit":false},{"is_transit":false,"i_lat":-6.159876,"i_long":106.737035,"transit":false,"station_id":"BOI","station_name":"Bojongindah","time":4,"distance":1152,"line":5},{"line":5,"station_id":"TKO","transit":false,"i_lat":-6.1587309999999995,"is_transit":false,"i_long":106.756522,"time":2,"distance":2334,"station_name":"Taman Kota"},{"station_id":"PSG","transit":false,"distance":1614,"i_lat":-6.161433,"time":2,"station_name":"Pesing","i_long":106.771379,"line":5,"is_transit":false},{"is_transit":false,"transit":false,"distance":2036,"station_name":"Grogol","i_lat":-6.162021,"i_long":106.788277,"time":2,"line":5,"station_id":"GGL"},{"i_lat":-6.155215,"i_long":106.800832,"is_transit":true,"transit":true,"station_id":"DU","line":1,"time":3,"station_name":"Duri","distance":1700},{"is_transit":false,"station_id":"AK","station_name":"Angke","i_lat":-6.144674,"i_long":106.79867,"transit":false,"time":4,"distance":1230,"line":1},{"i_lat":-6.132549,"station_id":"KPB","line":4,"station_name":"Kampung Bandan","distance":4102,"transit":true,"time":9,"i_long":106.826365,"is_transit":true},{"is_transit":false,"i_long":106.836569,"line":11,"distance":1444,"station_name":"Rajawali","station_id":"RJW","transit":false,"time":3,"i_lat":-6.14505},{"station_name":"Kemayoran","distance":1901,"i_long":106.839204,"transit":false,"station_id":"KMO","is_transit":false,"line":11,"time":5,"i_lat":-6.161728},{"distance":1436,"station_name":"Pasar Senen","transit":false,"line":11,"i_long":106.84368,"station_id":"PSE","time":4,"is_transit":false,"i_lat":-6.174784},{"time":8,"distance":1567,"line":11,"transit":false,"is_transit":false,"station_name":"Gang Sentiong","i_long":106.850107,"station_id":"GST","i_lat":-6.185975},{"line":11,"transit":false,"time":1,"station_name":"Kramat","station_id":"KMT","distance":973,"is_transit":false,"i_lat":-6.193792,"i_long":106.855437},{"is_transit":false,"i_lat":-6.209188,"i_long":106.861737,"line":11,"station_id":"POK","transit":false,"time":2,"distance":1829,"station_name":"Pondok Jati"},{"is_transit":true,"station_id":"JNG","station_name":"Jatinegara","i_lat":-6.215091,"distance":1236,"time":9,"i_long":106.86807400000001,"transit":true,"line":1},{"is_transit":false,"i_long":106.899548,"transit":false,"time":3,"i_lat":-6.2135,"distance":3395,"station_id":"KLD","station_name":"Klender","line":1},{"station_name":"Buaran","station_id":"BUA","is_transit":false,"line":1,"distance":3100,"time":2,"i_lat":-6.215568,"i_long":106.922662,"transit":false},{"transit":false,"is_transit":false,"i_long":106.939679,"station_id":"KLDB","station_name":"Klenderbaru","i_lat":-6.217455,"distance":1305,"time":1,"line":1},{"transit":false,"i_long":106.951283,"is_transit":false,"time":8,"station_name":"Cakung","station_id":"CUK","i_lat":-6.219053,"distance":1385,"line":1},{"time":3,"distance":3097,"i_lat":-6.224515,"station_id":"KRI","is_transit":false,"station_name":"Kranji","transit":false,"i_long":106.977657,"line":1},{"distance":2520,"line":1,"station_id":"BKS","station_name":"Bekasi","transit":false,"i_long":106.997013,"time":4,"is_transit":false,"i_lat":-6.236616},{"transit":false,"time":2,"is_transit":false,"i_lat":-6.248029,"i_long":107.016735,"station_name":"Bekasi Timur","station_id":"BKST","line":1,"distance":2368},{"station_id":"TB","is_transit":false,"time":7,"transit":false,"i_lat":-6.258864,"i_long":107.055722,"line":1,"station_name":"Tambun","distance":4460},{"is_transit":false,"i_long":107.083084,"distance":3420,"station_name":"Cibitung","i_lat":-6.261877,"transit":false,"time":3,"line":1,"station_id":"CIT"},{"station_name":"Metland Telaga Murni","time":2,"i_lat":-6.262938,"is_transit":false,"i_long":107.093313,"transit":false,"distance":2800,"line":1,"station_id":"TLM"},{"station_id":"CKR","transit":false,"time":4,"distance":3689,"i_lat":-6.2553149999999995,"line":1,"station_name":"Cikarang","i_long":107.144613,"is_transit":false}],[{"i_lat":-6.171811,"i_long":106.665036,"station_id":"BPR","distance":0,"is_transit":false,"station_name":"Batuceper","transit":false,"time":0,"line":5},{"is_transit":false,"station_name":"Poris","transit":false,"station_id":"PI","time":3,"i_lat":-6.169933,"distance":1834,"i_long":106.679458,"line":5},{"distance":2548,"station_id":"KDS","is_transit":false,"time":3,"i_lat":-6.166068,"i_long":106.701612,"station_name":"Kalideres","line":5,"transit":false},{"line":5,"is_transit":false,"transit":false,"distance":2504,"i_long":106.723064,"time":3,"i_lat":-6.162758,"station_id":"RW","station_name":"Rawa Buaya"},{"i_long":106.737035,"line":5,"is_transit":false,"transit":false,"i_lat":-6.159876,"station_name":"Bojongindah","time":4,"station_id":"BOI","distance":1152},{"is_transit":false,"i_lat":-6.1587309999999995,"i_long":106.756522,"distance":2334,"line":5,"station_name":"Taman Kota","transit":false,"time":2,"station_id":"TKO"},{"is_transit":false,"transit":false,"station_name":"Pesing","line":5,"i_lat":-6.161433,"station_id":"PSG","time":2,"distance":1614,"i_long":106.771379},{"transit":false,"station_id":"GGL","is_transit":false,"station_name":"Grogol","time":2,"i_long":106.788277,"distance":2036,"line":5,"i_lat":-6.162021},{"time":3,"station_name":"Duri","i_long":106.800832,"distance":1700,"transit":true,"line":1,"station_id":"DU","i_lat":-6.155215,"is_transit":true},{"distance":1230,"station_name":"Angke","is_transit":false,"time":4,"line":1,"transit":false,"i_lat":-6.144674,"station_id":"AK","i_long":106.79867},{"i_long":106.826365,"line":4,"time":9,"i_lat":-6.132549,"transit":true,"station_name":"Kampung Bandan","distance":4102,"is_transit":true,"station_id":"KPB"},{"line":2,"station_id":"JAKK","transit":true,"is_transit":true,"time":3,"i_long":106.812439,"station_name":"Jakarta Kota","distance":1364,"i_lat":-6.137569},{"station_id":"JAY","is_transit":false,"i_lat":-6.141205,"station_name":"Jayakarta","time":4,"distance":1264,"line":2,"i_long":106.820901,"transit":false},{"station_name":"Manggabesar","time":2,"i_lat":-6.149769,"distance":1080,"line":2,"is_transit":false,"transit":false,"station_id":"MGB","i_long":106.82482},{"distance":906,"i_long":106.827103,"time":2,"is_transit":false,"station_name":"Sawah Besar","line":2,"station_id":"SW","i_lat":-6.160725,"transit":false},{"is_transit":false,"station_name":"Juanda","distance":1149,"line":2,"i_long":106.828284,"time":2,"station_id":"JUA","transit":false,"i_lat":-6.166716},{"transit":false,"distance":2015,"line":2,"station_id":"GDD","station_name":"Gondangdia","time":4,"i_lat":-6.186295,"i_long":106.832183,"is_transit":false},{"time":3,"i_long":106.840169,"distance":1750,"station_name":"Cikini","station_id":"CKI","line":2,"transit":false,"is_transit":false,"i_lat":-6.198556},{"station_name":"Manggarai","is_transit":true,"time":4,"i_lat":-6.209883,"transit":true,"line":2,"distance":1590,"i_long":106.84912,"station_id":"MRI"},{"i_lat":-6.212485,"transit":false,"station_name":"Matraman","time":2,"distance":1275,"line":1,"is_transit":false,"i_long":106.858896,"station_id":"MTR"},{"station_name":"Jatinegara","transit":false,"distance":1377,"i_lat":-6.215091,"i_long":106.86807400000001,"station_id":"JNG","time":8,"line":1,"is_transit":false},{"i_lat":-6.2135,"i_long":106.899548,"station_name":"Klender","is_transit":false,"line":1,"transit":false,"time":3,"station_id":"KLD","distance":3395},{"is_transit":false,"station_id":"BUA","time":2,"distance":3100,"i_lat":-6.215568,"transit":false,"line":1,"station_name":"Buaran","i_long":106.922662},{"line":1,"station_id":"KLDB","is_transit":false,"station_name":"Klenderbaru","distance":1305,"transit":false,"time":1,"i_lat":-6.217455,"i_long":106.939679},{"i_lat":-6.219053,"distance":1385,"line":1,"station_id":"CUK","transit":false,"i_long":106.951283,"time":8,"station_name":"Cakung","is_transit":false},{"transit":false,"station_id":"KRI","distance":3097,"i_lat":-6.224515,"i_long":106.977657,"time":3,"station_name":"Kranji","is_transit":false,"line":1},{"distance":2520,"line":1,"station_name":"Bekasi","time":4,"i_lat":-6.236616,"station_id":"BKS","is_transit":false,"transit":false,"i_long":106.997013},{"distance":2368,"station_name":"Bekasi Timur","i_lat":-6.248029,"transit":false,"is_transit":false,"i_long":107.016735,"line":1,"station_id":"BKST","time":2},{"station_id":"TB","transit":false,"time":7,"i_lat":-6.258864,"i_long":107.055722,"distance":4460,"is_transit":false,"line":1,"station_name":"Tambun"},{"distance":3420,"i_long":107.083084,"transit":false,"station_id":"CIT","station_name":"Cibitung","is_transit":false,"line":1,"i_lat":-6.261877,"time":3},{"transit":false,"time":2,"line":1,"station_name":"Metland Telaga Murni","is_transit":false,"distance":2800,"station_id":"TLM","i_lat":-6.262938,"i_long":107.093313},{"transit":false,"distance":3689,"time":4,"station_name":"Cikarang","i_long":107.144613,"line":1,"station_id":"CKR","is_transit":false,"i_lat":-6.2553149999999995}],[{"time":0,"transit":false,"i_lat":-6.171811,"station_name":"Batuceper","distance":0,"i_long":106.665036,"line":5,"is_transit":false,"station_id":"BPR"},{"time":3,"station_id":"PI","station_name":"Poris","transit":false,"is_transit":false,"i_lat":-6.169933,"i_long":106.679458,"line":5,"distance":1834},{"station_id":"KDS","i_long":106.701612,"distance":2548,"station_name":"Kalideres","is_transit":false,"time":3,"i_lat":-6.166068,"line":5,"transit":false},{"i_long":106.723064,"i_lat":-6.162758,"transit":false,"time":3,"station_name":"Rawa Buaya","station_id":"RW","is_transit":false,"line":5,"distance":2504},{"transit":false,"distance":1152,"station_id":"BOI","time":4,"i_long":106.737035,"line":5,"station_name":"Bojongindah","i_lat":-6.159876,"is_transit":false},{"station_id":"TKO","i_long":106.756522,"time":2,"is_transit":false,"distance":2334,"transit":false,"i_lat":-6.1587309999999995,"line":5,"station_name":"Taman Kota"},{"distance":1614,"i_lat":-6.161433,"transit":false,"time":2,"station_id":"PSG","is_transit":false,"station_name":"Pesing","i_long":106.771379,"line":5},{"time":2,"distance":2036,"station_id":"GGL","is_transit":false,"transit":false,"i_lat":-6.162021,"station_name":"Grogol","line":5,"i_long":106.788277},{"i_lat":-6.155215,"i_long":106.800832,"time":3,"distance":1700,"is_transit":true,"line":1,"station_name":"Duri","station_id":"DU","transit":true},{"is_transit":false,"i_long":106.811091,"line":1,"distance":3632,"station_name":"Tanah Abang","time":8,"station_id":"THB","transit":false,"i_lat":-6.185545},{"i_long":106.816351,"line":1,"transit":false,"station_id":"KAT","station_name":"Karet","distance":2029,"is_transit":false,"i_lat":-6.20132,"time":5},{"transit":false,"station_id":"SUDB","station_name":"Sudirman Baru","is_transit":false,"distance":471,"i_lat":-6.201433,"time":1,"line":1,"i_long":106.819881},{"distance":280,"station_name":"Sudirman","i_lat":-6.202263,"transit":false,"is_transit":false,"i_long":106.822649,"station_id":"SUD","line":1,"time":1},{"transit":true,"station_id":"MRI","distance":3186,"time":4,"line":2,"station_name":"Manggarai","i_long":106.84912,"is_transit":true,"i_lat":-6.209883},{"line":2,"i_lat":-6.198556,"time":4,"distance":1590,"i_long":106.840169,"station_name":"Cikini","is_transit":false,"station_id":"CKI","transit":false},{"transit":false,"line":2,"i_lat":-6.186295,"is_transit":false,"distance":1750,"station_id":"GDD","i_long":106.832183,"time":3,"station_name":"Gondangdia"},{"transit":false,"is_transit":false,"line":2,"time":4,"i_long":106.828284,"station_name":"Juanda","distance":2015,"i_lat":-6.166716,"station_id":"JUA"},{"line":2,"i_lat":-6.160725,"station_name":"Sawah Besar","distance":1149,"transit":false,"i_long":106.827103,"station_id":"SW","time":2,"is_transit":false},{"station_id":"MGB","i_lat":-6.149769,"time":2,"distance":906,"transit":false,"i_long":106.82482,"station_name":"Manggabesar","is_transit":false,"line":2},{"line":2,"is_transit":false,"transit":false,"station_id":"JAY","station_name":"Jayakarta","time":2,"distance":1080,"i_lat":-6.141205,"i_long":106.820901},{"i_lat":-6.137569,"station_name":"Jakarta Kota","time":4,"line":2,"is_transit":true,"station_id":"JAKK","i_long":106.812439,"transit":true,"distance":1264},{"transit":true,"station_name":"Kampung Bandan","time":3,"distance":1364,"is_transit":true,"line":4,"i_long":106.826365,"station_id":"KPB","i_lat":-6.132549},{"station_name":"Rajawali","distance":1444,"is_transit":false,"line":11,"transit":false,"station_id":"RJW","time":3,"i_lat":-6.14505,"i_long":106.836569},{"i_long":106.839204,"line":11,"station_name":"Kemayoran","transit":false,"time":5,"station_id":"KMO","distance":1901,"i_lat":-6.161728,"is_transit":false},{"transit":false,"distance":1436,"i_long":106.84368,"time":4,"station_name":"Pasar Senen","i_lat":-6.174784,"line":11,"station_id":"PSE","is_transit":false},{"time":8,"station_name":"Gang Sentiong","i_lat":-6.185975,"i_long":106.850107,"transit":false,"line":11,"station_id":"GST","is_transit":false,"distance":1567},{"line":11,"time":1,"station_id":"KMT","transit":false,"i_lat":-6.193792,"i_long":106.855437,"distance":973,"is_transit":false,"station_name":"Kramat"},{"station_name":"Pondok Jati","time":2,"station_id":"POK","i_lat":-6.209188,"line":11,"distance":1829,"is_transit":false,"i_long":106.861737,"transit":false},{"i_lat":-6.215091,"line":1,"time":9,"is_transit":true,"station_id":"JNG","station_name":"Jatinegara","transit":true,"distance":1236,"i_long":106.86807400000001},{"time":3,"is_transit":false,"transit":false,"station_name":"Klender","i_long":106.899548,"station_id":"KLD","i_lat":-6.2135,"line":1,"distance":3395},{"station_id":"BUA","station_name":"Buaran","transit":false,"time":2,"i_long":106.922662,"distance":3100,"is_transit":false,"i_lat":-6.215568,"line":1},{"transit":false,"is_transit":false,"line":1,"station_name":"Klenderbaru","time":1,"distance":1305,"i_long":106.939679,"station_id":"KLDB","i_lat":-6.217455},{"line":1,"i_long":106.951283,"transit":false,"station_name":"Cakung","is_transit":false,"time":8,"station_id":"CUK","distance":1385,"i_lat":-6.219053},{"transit":false,"station_name":"Kranji","distance":3097,"time":3,"is_transit":false,"i_lat":-6.224515,"i_long":106.977657,"line":1,"station_id":"KRI"},{"station_id":"BKS","time":4,"distance":2520,"i_long":106.997013,"station_name":"Bekasi","i_lat":-6.236616,"is_transit":false,"line":1,"transit":false},{"i_long":107.016735,"station_id":"BKST","i_lat":-6.248029,"station_name":"Bekasi Timur","distance":2368,"line":1,"transit":false,"time":2,"is_transit":false},{"i_lat":-6.258864,"time":7,"distance":4460,"line":1,"station_name":"Tambun","transit":false,"station_id":"TB","is_transit":false,"i_long":107.055722},{"i_long":107.083084,"station_name":"Cibitung","transit":false,"line":1,"time":3,"is_transit":false,"station_id":"CIT","i_lat":-6.261877,"distance":3420},{"is_transit":false,"i_lat":-6.262938,"distance":2800,"line":1,"i_long":107.093313,"station_name":"Metland Telaga Murni","transit":false,"time":2,"station_id":"TLM"},{"station_name":"Cikarang","i_lat":-6.2553149999999995,"time":4,"is_transit":false,"station_id":"CKR","transit":false,"i_long":107.144613,"distance":3689,"line":1}]]}