{"data":[[{"station_id":"BPR","station_name":"Batuceper","distance":0,"time":0,"i_long":106.665036,"is_transit":false,"line":5,"transit":false,"i_lat":-6.171811},{"transit":false,"line":5,"i_lat":-6.169933,"time":3,"i_long":106.679458,"station_name":"Poris","is_transit":false,"distance":1834,"station_id":"PI"},{"is_transit":false,"time":3,"i_long":106.701612,"station_name":"Kalideres","line":5,"transit":false,"i_lat":-6.166068,"distance":2548,"station_id":"KDS"},{"i_lat":-6.162758,"is_transit":false,"time":3,"line":5,"station_id":"RW","distance":2504,"station_name":"Rawa Buaya","i_long":106.723064,"transit":false},{"i_long":106.737035,"station_name":"Bojongindah","distance":1152,"i_lat":-6.159876,"line":5,"transit":false,"is_transit":false,"time":4,"station_id":"BOI"},{"i_long":106.756522,"line":5,"i_lat":-6.1587309999999995,"station_name":"Taman Kota","time":2,"station_id":"TKO","is_transit":false,"distance":2334,"transit":false},{"is_transit":false,"i_long":106.771379,"line":5,"transit":false,"time":2,"distance":1614,"i_lat":-6.161433,"station_id":"PSG","station_name":"Pesing"},{"distance":2036,"i_lat":-6.162021,"i_long":106.788277,"station_name":"Grogol","is_transit":false,"transit":false,"time":2,"station_id":"GGL","line":5},{"station_name":"Duri","is_transit":true,"i_lat":-6.155215,"station_id":"DU","distance":1700,"i_long":106.800832,"time":3,"line":1,"transit":true},{"station_id":"THB","is_transit":false,"transit":false,"station_name":"Tanah Abang","time":8,"distance":3632,"line":1,"i_long":106.811091,"i_lat":-6.185545},{"station_id":"KAT","is_transit":false,"i_lat":-6.20132,"line":1,"transit":false,"i_long":106.816351,"time":5,"station_name":"Karet","distance":2029},{"i_lat":-6.201433,"i_long":106.819881,"station_name":"Sudirman Baru","is_transit":false,"time":1,"distance":471,"line":1,"station_id":"SUDB","transit":false},{"station_name":"Sudirman","i_lat":-6.202263,"is_transit":false,"transit":false,"distance":280,"i_long":106.822649,"station_id":"SUD","time":1,"line":1},{"transit":true,"is_transit":true,"station_name":"Manggarai","time":4,"distance":3186,"i_lat":-6.209883,"i_long":106.84912,"line":2,"station_id":"MRI"},{"is_transit":false,"i_lat":-6.226659,"transit":false,"i_long":106.857948,"station_name":"Tebet","distance":2610,"line":2,"station_id":"TEB","time":4},{"is_transit":false,"station_name":"Cawang","time":2,"distance":1230,"i_lat":-6.242512,"line":2,"station_id":"CW","i_long":106.856607,"transit":false},{"distance":1546,"transit":false,"time":3,"i_long":106.85449,"line":2,"station_id":"DRN","is_transit":false,"i_lat":-6.255332,"station_name":"Duren Kalibata"},{"time":2,"line":2,"transit":false,"station_name":"Pasar Minggu Baru","station_id":"PSMB","is_transit":false,"distance":824,"i_lat":-6.263214,"i_long":106.851577},{"time":2,"i_long":106.843999,"i_lat":-6.2842400000000005,"line":2,"station_name":"Pasar Minggu","is_transit":false,"distance":2380,"station_id":"PSM","transit":false},{"i_lat":-6.3080680000000005,"station_name":"Tanjung Barat","distance":2820,"line":2,"i_long":106.838896,"time":4,"is_transit":false,"transit":false,"station_id":"TNT"},{"line":2,"station_name":"Lenteng Agung","transit":false,"time":3,"distance":2671,"i_long":106.832616,"is_transit":false,"station_id":"LNA","i_lat":-6.330363}],[{"station_id":"BPR","transit":false,"station_name":"Batuceper","i_lat":-6.171811,"line":5,"i_long":106.665036,"time":0,"is_transit":false,"distance":0},{"station_id":"PI","is_transit":false,"time":3,"distance":1834,"i_long":106.679458,"i_lat":-6.169933,"transit":false,"line":5,"station_name":"Poris"},{"distance":2548,"i_lat":-6.166068,"line":5,"station_name":"Kalideres","is_transit":false,"transit":false,"time":3,"i_long":106.701612,"station_id":"KDS"},{"line":5,"is_transit":false,"transit":false,"station_id":"RW","station_name":"Rawa Buaya","distance":2504,"i_lat":-6.162758,"i_long":106.723064,"time":3},{"line":5,"is_transit":false,"transit":false,"i_long":106.737035,"time":4,"station_id":"BOI","distance":1152,"i_lat":-6.159876,"station_name":"Bojongindah"},{"station_id":"TKO","i_long":106.756522,"is_transit":false,"transit":false,"i_lat":-6.1587309999999995,"line":5,"time":2,"distance":2334,"station_name":"Taman Kota"},{"transit":false,"is_transit":false,"time":2,"i_lat":-6.161433,"station_id":"PSG","i_long":106.771379,"line":5,"distance":1614,"station_name":"Pesing"},{"transit":false,"time":2,"is_transit":false,"distance":2036,"station_id":"GGL","i_lat":-6.162021,"station_name":"Grogol","i_long":106.788277,"line":5},{"station_name":"Duri","is_transit":true,"transit":true,"station_id":"DU","i_lat":-6.155215,"i_long":106.800832,"line":1,"time":3,"distance":1700},{"time":4,"is_transit":false,"distance":1230,"station_name":"Angke","i_lat":-6.144674,"i_long":106.79867,"transit":false,"station_id":"AK","line":1},{"i_long":106.826365,"is_transit":true,"time":9,"i_lat":-6.132549,"distance":4102,"line":4,"transit":true,"station_name":"Kampung Bandan","station_id":"KPB"},{"station_name":"Jakarta Kota","distance":1364,"transit":true,"line":2,"time":3,"i_lat":-6.137569,"station_id":"JAKK","i_long":106.812439,"is_transit":true},{"station_id":"JAY","i_long":106.820901,"transit":false,"time":4,"line":2,"is_transit":false,"i_lat":-6.141205,"station_name":"Jayakarta","distance":1264},{"time":2,"distance":1080,"i_long":106.82482,"i_lat":-6.149769,"is_transit":false,"station_name":"Manggabesar","transit":false,"station_id":"MGB","line":2},{"is_transit":false,"time":2,"station_name":"Sawah Besar","transit":false,"station_id":"SW","i_lat":-6.160725,"i_long":106.827103,"distance":906,"line":2},{"is_transit":false,"station_name":"Juanda","station_id":"JUA","i_lat":-6.166716,"time":2,"i_long":106.828284,"transit":false,"distance":1149,"line":2},{"is_transit":false,"i_lat":-6.186295,"distance":2015,"line":2,"i_long":106.832183,"time":4,"transit":false,"station_name":"Gondangdia","station_id":"GDD"},{"time":3,"transit":false,"is_transit":false,"i_long":106.840169,"distance":1750,"i_lat":-6.198556,"line":2,"station_id":"CKI","station_name":"Cikini"},{"transit":false,"is_transit":false,"station_id":"MRI","i_long":106.84912,"line":2,"i_lat":-6.209883,"station_name":"Manggarai","time":4,"distance":1590},{"time":4,"station_id":"TEB","distance":2610,"i_long":106.857948,"station_name":"Tebet","line":2,"is_transit":false,"transit":false,"i_lat":-6.226659},{"is_transit":false,"line":2,"station_id":"CW","i_lat":-6.242512,"i_long":106.856607,"station_name":"Cawang","transit":false,"time":2,"distance":1230},{"transit":false,"station_name":"Duren Kalibata","station_id":"DRN","i_lat":-6.255332,"distance":1546,"i_long":106.85449,"time":3,"is_transit":false,"line":2},{"i_lat":-6.263214,"station_id":"PSMB","is_transit":false,"distance":824,"line":2,"station_name":"Pasar Minggu Baru","i_long":106.851577,"time":2,"transit":false},{"distance":2380,"line":2,"i_lat":-6.2842400000000005,"station_id":"PSM","i_long":106.843999,"station_name":"Pasar Minggu","is_transit":false,"transit":false,"time":2},{"transit":false,"station_name":"Tanjung Barat","time":4,"distance":2820,"station_id":"TNT","i_long":106.838896,"line":2,"i_lat":-6.3080680000000005,"is_transit":false},{"station_name":"Lenteng Agung","transit":false,"distance":2671,"i_long":106.832616,"is_transit":false,"station_id":"LNA","time":3,"i_lat":-6.330363,"line":2}],[{"station_id":"BPR","station_name":"Batuceper","i_long":106.665036,"time":0,"i_lat":-6.171811,"line":5,"is_transit":false,"transit":false,"distance":0},{"is_transit":false,"i_lat":-6.169933,"i_long":106.679458,"distance":1834,"line":5,"station_name":"Poris","station_id":"PI","transit":false,"time":3},{"station_name":"Kalideres","i_lat":-6.166068,"transit":false,"i_long":106.701612,"distance":2548,"is_transit":false,"line":5,"station_id":"KDS","time":3},{"station_name":"Rawa Buaya","station_id":"RW","distance":2504,"transit":false,"i_long":106.723064,"time":3,"is_transit":false,"i_lat":-6.162758,"line":5},{"time":4,"i_long":106.737035,"station_id":"BOI","transit":false,"is_transit":false,"line":5,"i_lat":-6.159876,"distance":1152,"station_name":"Bojongindah"},{"time":2,"station_name":"Taman Kota","i_lat":-6.1587309999999995,"distance":2334,"station_id":"TKO","line":5,"transit":false,"i_long":106.756522,"is_transit":false},{"station_name":"Pesing","i_lat":-6.161433,"distance":1614,"transit":false,"station_id":"PSG","is_transit":false,"time":2,"i_long":106.771379,"line":5},{"distance":2036,"station_id":"GGL","line":5,"i_lat":-6.162021,"transit":false,"station_name":"Grogol","is_transit":false,"i_long":106.788277,"time":2},{"transit":true,"is_transit":true,"time":3,"station_id":"DU","station_name":"Duri","line":1,"i_lat":-6.155215,"distance":1700,"i_long":106.800832},{"line":1,"transit":false,"i_lat":-6.144674,"is_transit":false,"station_name":"Angke","time":4,"station_id":"AK","distance":1230,"i_long":106.79867},{"transit":true,"time":9,"is_transit":true,"i_lat":-6.132549,"i_long":106.826365,"line":4,"station_id":"KPB","station_name":"Kampung Bandan","distance":4102},{"i_lat":-6.14505,"line":11,"is_transit":false,"station_name":"Rajawali","transit":false,"time":3,"station_id":"RJW","distance":1444,"i_long":106.836569},{"distance":1901,"station_id":"KMO","line":11,"station_name":"Kemayoran","transit":false,"is_transit":false,"time":5,"i_long":106.839204,"i_lat":-6.161728},{"station_name":"Pasar Senen","distance":1436,"i_long":106.84368,"time":4,"transit":false,"station_id":"PSE","line":11,"is_transit":false,"i_lat":-6.174784},{"station_id":"GST","distance":1567,"i_long":106.850107,"line":11,"transit":false,"is_transit":false,"i_lat":-6.185975,"station_name":"Gang Sentiong","time":8},{"i_lat":-6.193792,"i_long":106.855437,"station_name":"Kramat","is_transit":false,"station_id":"KMT","time":1,"line":11,"transit":false,"distance":973},{"line":11,"distance":1829,"time":2,"station_id":"POK","station_name":"Pondok Jati","i_lat":-6.209188,"transit":false,"is_transit":false,"i_long":106.861737},{"i_lat":-6.215091,"is_transit":true,"line":1,"station_name":"Jatinegara","i_long":106.86807400000001,"distance":1236,"transit":true,"station_id":"JNG","time":9},{"transit":false,"is_transit":false,"station_id":"MTR","time":2,"station_name":"Matraman","line":1,"distance":1377,"i_lat":-6.212485,"i_long":106.858896},{"station_id":"MRI","i_lat":-6.209883,"station_name":"Manggarai","line":2,"distance":1275,"i_long":106.84912,"transit":true,"time":2,"is_transit":true},{"transit":false,"i_long":106.857948,"distance":2610,"is_transit":false,"station_id":"TEB","time":4,"line":2,"station_name":"Tebet","i_lat":-6.226659},{"station_name":"Cawang","time":2,"is_transit":false,"i_lat":-6.242512,"i_long":106.856607,"transit":false,"station_id":"CW","line":2,"distance":1230},{"distance":1546,"i_lat":-6.255332,"transit":false,"i_long":106.85449,"line":2,"time":3,"station_id":"DRN","station_name":"Duren Kalibata","is_transit":false},{"time":2,"i_long":106.851577,"transit":false,"distance":824,"i_lat":-6.263214,"station_id":"PSMB","line":2,"station_name":"Pasar Minggu Baru","is_transit":false},{"i_long":106.843999,"i_lat":-6.2842400000000005,"distance":2380,"transit":false,"line":2,"time":2,"station_name":"Pasar Minggu","is_transit":false,"station_id":"PSM"},{"i_lat":-6.3080680000000005,"line":2,"station_name":"Tanjung Barat","is_transit":false,"station_id":"TNT","distance":2820,"i_long":106.838896,"time":4,"transit":false},{"time":3,"distance":2671,"is_transit":false,"station_name":"Lenteng Agung","i_long":106.832616,"line":2,"transit":false,"station_id":"LNA","i_lat":-6.330363}]]}