{"data":[[{"station_name":"Batuceper","i_long":106.665036,"transit":false,"station_id":"BPR","line":0,"is_transit":false,"time":0,"distance":0,"i_lat":-6.171811},{"time":3,"distance":1834,"line":5,"is_transit":false,"i_long":106.679458,"station_name":"Poris","station_id":"PI","transit":false,"i_lat":-6.169933},{"transit":false,"distance":2548,"station_name":"Kalideres","station_id":"KDS","is_transit":false,"i_lat":-6.166068,"time":3,"i_long":106.701612,"line":5},{"i_lat":-6.162758,"i_long":106.723064,"distance":2504,"transit":false,"line":5,"is_transit":false,"time":3,"station_name":"Rawa Buaya","station_id":"RW"},{"is_transit":false,"station_name":"Bojongindah","station_id":"BOI","i_lat":-6.159876,"distance":1152,"time":4,"i_long":106.737035,"line":0,"transit":false},{"time":2,"is_transit":false,"distance":2334,"station_id":"TKO","line":5,"station_name":"Taman Kota","i_lat":-6.1587309999999995,"transit":false,"i_long":106.756522},{"transit":false,"station_name":"Pesing","i_lat":-6.161433,"i_long":106.771379,"distance":1614,"is_transit":false,"station_id":"PSG","line":5,"time":2},{"station_id":"GGL","is_transit":false,"distance":2036,"transit":false,"line":5,"i_lat":-6.162021,"time":2,"station_name":"Grogol","i_long":106.788277},{"is_transit":true,"station_name":"Duri","transit":true,"time":3,"distance":1700,"i_lat":-6.155215,"station_id":"DU","i_long":106.800832,"line":1},{"transit":false,"station_name":"Angke","is_transit":false,"time":4,"line":0,"i_lat":-6.144674,"station_id":"AK","distance":1230,"i_long":106.79867},{"station_id":"KPB","i_long":106.826365,"transit":true,"is_transit":true,"distance":4102,"i_lat":-6.132549,"station_name":"Kampung Bandan","time":9,"line":0},{"transit":false,"is_transit":false,"i_lat":-6.14505,"line":11,"station_id":"RJW","time":3,"station_name":"Rajawali","distance":1444,"i_long":106.836569},{"line":11,"is_transit":false,"station_name":"Kemayoran","station_id":"KMO","i_lat":-6.161728,"transit":false,"distance":1901,"time":5,"i_long":106.839204},{"line":11,"station_id":"PSE","i_lat":-6.174784,"distance":1436,"transit":false,"station_name":"Pasar Senen","time":4,"i_long":106.84368,"is_transit":false},{"station_id":"GST","time":8,"transit":false,"distance":1567,"station_name":"Gang Sentiong","is_transit":false,"i_lat":-6.185975,"line":11,"i_long":106.850107},{"i_lat":-6.193792,"i_long":106.855437,"distance":973,"transit":false,"line":11,"station_name":"Kramat","is_transit":false,"station_id":"KMT","time":1}],[{"i_long":106.665036,"transit":false,"station_id":"BPR","time":0,"i_lat":-6.171811,"line":0,"station_name":"Batuceper","distance":0,"is_transit":false},{"station_name":"Poris","i_long":106.679458,"line":5,"transit":false,"i_lat":-6.169933,"is_transit":false,"distance":1834,"station_id":"PI","time":3},{"i_lat":-6.166068,"line":5,"time":3,"station_name":"Kalideres","transit":false,"station_id":"KDS","i_long":106.701612,"is_transit":false,"distance":2548},{"is_transit":false,"station_id":"RW","station_name":"Rawa Buaya","time":3,"transit":false,"i_lat":-6.162758,"i_long":106.723064,"distance":2504,"line":5},{"station_name":"Bojongindah","time":4,"distance":1152,"transit":false,"is_transit":false,"line":0,"i_long":106.737035,"station_id":"BOI","i_lat":-6.159876},{"distance":2334,"is_transit":false,"i_lat":-6.1587309999999995,"time":2,"station_name":"Taman Kota","transit":false,"station_id":"TKO","i_long":106.756522,"line":5},{"time":2,"transit":false,"i_lat":-6.161433,"station_name":"Pesing","station_id":"PSG","line":5,"distance":1614,"i_long":106.771379,"is_transit":false},{"transit":false,"i_lat":-6.162021,"line":5,"i_long":106.788277,"is_transit":false,"station_id":"GGL","station_name":"Grogol","time":2,"distance":2036},{"is_transit":true,"distance":1700,"station_name":"Duri","i_lat":-6.155215,"time":3,"line":1,"station_id":"DU","transit":true,"i_long":106.800832},{"distance":3632,"i_lat":-6.185545,"time":8,"i_long":106.811091,"line":1,"station_id":"THB","station_name":"Tanah Abang","is_transit":true,"transit":false},{"is_transit":false,"time":5,"i_long":106.816351,"station_name":"Karet","line":1,"i_lat":-6.20132,"station_id":"KAT","distance":2029,"transit":false},{"line":1,"time":1,"station_id":"SUDB","station_name":"Sudirman Baru","distance":471,"is_transit":false,"i_lat":-6.201433,"transit":false,"i_long":106.819881},{"i_long":106.822649,"time":1,"station_name":"Sudirman","line":1,"i_lat":-6.202263,"station_id":"SUD","is_transit":false,"distance":280,"transit":false},{"transit":false,"i_long":106.84912,"station_name":"Manggarai","i_lat":-6.209883,"station_id":"MRI","is_transit":true,"distance":3186,"line":0,"time":4},{"station_id":"MTR","time":2,"i_lat":-6.212485,"i_long":106.858896,"is_transit":false,"station_name":"Matraman","line":1,"distance":1275,"transit":false},{"time":8,"station_id":"JNG","i_lat":-6.215091,"distance":1377,"transit":true,"station_name":"Jatinegara","line":0,"i_long":106.86807400000001,"is_transit":true},{"i_long":106.861737,"is_transit":false,"transit":false,"i_lat":-6.209188,"station_name":"Pondok Jati","distance":1236,"station_id":"POK","line":11,"time":2},{"is_transit":false,"station_id":"KMT","transit":false,"time":2,"distance":1829,"i_lat":-6.193792,"line":11,"i_long":106.855437,"station_name":"Kramat"}],[{"distance":0,"is_transit":false,"time":0,"transit":false,"station_id":"BPR","i_lat":-6.171811,"i_long":106.665036,"station_name":"Batuceper","line":0},{"transit":false,"is_transit":false,"distance":1834,"i_long":106.679458,"station_id":"PI","time":3,"line":5,"station_name":"Poris","i_lat":-6.169933},{"is_transit":false,"transit":false,"line":5,"i_lat":-6.166068,"station_name":"Kalideres","distance":2548,"time":3,"station_id":"KDS","i_long":106.701612},{"i_lat":-6.162758,"transit":false,"i_long":106.723064,"line":5,"station_name":"Rawa Buaya","is_transit":false,"time":3,"distance":2504,"station_id":"RW"},{"i_lat":-6.159876,"distance":1152,"time":4,"station_name":"Bojongindah","station_id":"BOI","i_long":106.737035,"is_transit":false,"line":0,"transit":false},{"transit":false,"station_name":"Taman Kota","station_id":"TKO","i_lat":-6.1587309999999995,"distance":2334,"line":5,"time":2,"i_long":106.756522,"is_transit":false},{"station_id":"PSG","is_transit":false,"station_name":"Pesing","distance":1614,"transit":false,"line":5,"time":2,"i_lat":-6.161433,"i_long":106.771379},{"station_name":"Grogol","i_lat":-6.162021,"station_id":"GGL","distance":2036,"time":2,"is_transit":false,"i_long":106.788277,"line":5,"transit":false},{"distance":1700,"i_long":106.800832,"line":1,"time":3,"transit":true,"i_lat":-6.155215,"is_transit":true,"station_id":"DU","station_name":"Duri"},{"is_transit":false,"distance":1230,"station_name":"Angke","i_long":106.79867,"line":0,"transit":false,"station_id":"AK","i_lat":-6.144674,"time":4},{"station_name":"Kampung Bandan","distance":4102,"time":9,"i_long":106.826365,"line":0,"transit":false,"i_lat":-6.132549,"station_id":"KPB","is_transit":true},{"time":3,"station_id":"JAKK","station_name":"Jakarta Kota","distance":1364,"i_lat":-6.137569,"i_long":106.812439,"is_transit":true,"line":0,"transit":true},{"i_long":106.820901,"time":4,"is_transit":false,"i_lat":-6.141205,"station_name":"Jayakarta","distance":1264,"transit":false,"line":7,"station_id":"JAY"},{"transit":false,"is_transit":false,"i_long":106.82482,"line":2,"station_id":"MGB","distance":1080,"station_name":"Manggabesar","time":2,"i_lat":-6.149769},{"station_id":"SW","line":2,"transit":false,"time":2,"station_name":"Sawah Besar","i_lat":-6.160725,"i_long":106.827103,"is_transit":false,"distance":906},{"transit":false,"station_id":"JUA","is_transit":false,"time":2,"line":2,"distance":1149,"station_name":"Juanda","i_lat":-6.166716,"i_long":106.828284},{"transit":false,"station_id":"GDD","time":4,"distance":2015,"i_long":106.832183,"line":2,"i_lat":-6.186295,"station_name":"Gondangdia","is_transit":false},{"distance":1750,"station_id":"CKI","line":0,"i_long":106.840169,"i_lat":-6.198556,"station_name":"Cikini","is_transit":false,"transit":false,"time":3},{"station_id":"MRI","time":4,"distance":1590,"station_name":"Manggarai","transit":true,"i_lat":-6.209883,"is_transit":true,"i_long":106.84912,"line":0},{"is_transit":false,"time":2,"station_id":"MTR","transit":false,"i_long":106.858896,"line":1,"i_lat":-6.212485,"distance":1275,"station_name":"Matraman"},{"time":8,"i_lat":-6.215091,"line":0,"distance":1377,"is_transit":true,"station_id":"JNG","station_name":"Jatinegara","transit":true,"i_long":106.86807400000001},{"station_name":"Pondok Jati","station_id":"POK","is_transit":false,"line":11,"distance":1236,"time":2,"transit":false,"i_lat":-6.209188,"i_long":106.861737},{"time":2,"transit":false,"i_long":106.855437,"is_transit":false,"distance":1829,"i_lat":-6.193792,"station_name":"Kramat","line":11,"station_id":"KMT"}],[{"transit":false,"station_id":"BPR","line":0,"distance":0,"time":0,"i_lat":-6.171811,"station_name":"Batuceper","is_transit":false,"i_long":106.665036},{"station_id":"PI","i_lat":-6.169933,"line":5,"distance":1834,"is_transit":false,"transit":false,"time":3,"i_long":106.679458,"station_name":"Poris"},{"i_long":106.701612,"line":5,"time":3,"is_transit":false,"distance":2548,"i_lat":-6.166068,"station_id":"KDS","station_name":"Kalideres","transit":false},{"station_name":"Rawa Buaya","i_long":106.723064,"time":3,"station_id":"RW","transit":false,"distance":2504,"i_lat":-6.162758,"is_transit":false,"line":5},{"i_lat":-6.159876,"station_name":"Bojongindah","i_long":106.737035,"station_id":"BOI","is_transit":false,"transit":false,"time":4,"distance":1152,"line":0},{"i_long":106.756522,"line":5,"transit":false,"station_name":"Taman Kota","time":2,"i_lat":-6.1587309999999995,"station_id":"TKO","is_transit":false,"distance":2334},{"i_lat":-6.161433,"i_long":106.771379,"distance":1614,"line":5,"station_name":"Pesing","is_transit":false,"station_id":"PSG","time":2,"transit":false},{"line":5,"transit":false,"time":2,"station_id":"GGL","i_lat":-6.162021,"is_transit":false,"station_name":"Grogol","distance":2036,"i_long":106.788277},{"line":1,"transit":true,"time":3,"station_name":"Duri","distance":1700,"station_id":"DU","is_transit":true,"i_lat":-6.155215,"i_long":106.800832},{"i_long":106.811091,"line":1,"station_id":"THB","station_name":"Tanah Abang","distance":3632,"i_lat":-6.185545,"time":8,"is_transit":true,"transit":false},{"time":5,"i_long":106.816351,"i_lat":-6.20132,"station_id":"KAT","station_name":"Karet","transit":false,"line":1,"distance":2029,"is_transit":false},{"line":1,"is_transit":false,"distance":471,"i_long":106.819881,"time":1,"i_lat":-6.201433,"station_id":"SUDB","station_name":"Sudirman Baru","transit":false},{"i_long":106.822649,"station_id":"SUD","station_name":"Sudirman","line":1,"is_transit":false,"time":1,"distance":280,"transit":false,"i_lat":-6.202263},{"i_long":106.84912,"station_id":"MRI","time":4,"distance":3186,"transit":true,"is_transit":true,"line":0,"i_lat":-6.209883,"station_name":"Manggarai"},{"is_transit":false,"i_lat":-6.198556,"i_long":106.840169,"station_id":"CKI","station_name":"Cikini","time":4,"distance":1590,"line":0,"transit":false},{"station_name":"Gondangdia","is_transit":false,"time":3,"distance":1750,"transit":false,"i_lat":-6.186295,"i_long":106.832183,"station_id":"GDD","line":2},{"time":4,"distance":2015,"transit":false,"station_name":"Juanda","is_transit":false,"line":2,"i_lat":-6.166716,"station_id":"JUA","i_long":106.828284},{"distance":1149,"line":2,"time":2,"is_transit":false,"i_lat":-6.160725,"transit":false,"i_long":106.827103,"station_id":"SW","station_name":"Sawah Besar"},{"distance":906,"i_lat":-6.149769,"is_transit":false,"transit":false,"i_long":106.82482,"station_id":"MGB","line":2,"station_name":"Manggabesar","time":2},{"is_transit":false,"station_name":"Jayakarta","i_long":106.820901,"time":2,"line":7,"i_lat":-6.141205,"transit":false,"station_id":"JAY","distance":1080},{"station_id":"JAKK","time":4,"transit":true,"i_long":106.812439,"is_transit":true,"i_lat":-6.137569,"station_name":"Jakarta Kota","line":0,"distance":1264},{"station_name":"Kampung Bandan","is_transit":true,"transit":true,"i_long":106.826365,"distance":1364,"station_id":"KPB","line":0,"i_lat":-6.132549,"time":3},{"line":11,"is_transit":false,"station_name":"Rajawali","transit":false,"i_long":106.836569,"i_lat":-6.14505,"station_id":"RJW","time":3,"distance":1444},{"time":5,"i_lat":-6.161728,"station_name":"Kemayoran","distance":1901,"i_long":106.839204,"line":11,"station_id":"KMO","is_transit":false,"transit":false},{"transit":false,"station_name":"Pasar Senen","i_lat":-6.174784,"is_transit":false,"distance":1436,"station_id":"PSE","time":4,"line":11,"i_long":106.84368},{"time":8,"station_name":"Gang Sentiong","line":11,"distance":1567,"station_id":"GST","i_lat":-6.185975,"is_transit":false,"transit":false,"i_long":106.850107},{"station_name":"Kramat","distance":973,"i_lat":-6.193792,"transit":false,"line":11,"i_long":106.855437,"is_transit":false,"station_id":"KMT","time":1}]]}