{"data":[[{"station_id":"BPR","distance":0,"station_name":"Batuceper","is_transit":false,"i_long":106.665036,"time":0,"i_lat":-6.171811,"transit":false,"line":5},{"station_name":"Poris","is_transit":false,"transit":false,"i_long":106.679458,"i_lat":-6.169933,"time":3,"station_id":"PI","distance":1834,"line":5},{"i_lat":-6.166068,"station_id":"KDS","distance":2548,"transit":false,"station_name":"Kalideres","i_long":106.701612,"time":3,"line":5,"is_transit":false},{"station_id":"RW","line":5,"transit":false,"time":3,"station_name":"Rawa Buaya","i_lat":-6.162758,"distance":2504,"is_transit":false,"i_long":106.723064},{"is_transit":false,"i_lat":-6.159876,"i_long":106.737035,"time":4,"distance":1152,"station_name":"Bojongindah","line":5,"station_id":"BOI","transit":false},{"transit":false,"time":2,"i_lat":-6.1587309999999995,"i_long":106.756522,"line":5,"is_transit":false,"station_name":"Taman Kota","distance":2334,"station_id":"TKO"},{"is_transit":false,"station_name":"Pesing","transit":false,"i_long":106.771379,"distance":1614,"line":5,"station_id":"PSG","time":2,"i_lat":-6.161433},{"distance":2036,"is_transit":false,"i_lat":-6.162021,"station_id":"GGL","line":5,"transit":false,"i_long":106.788277,"station_name":"Grogol","time":2},{"is_transit":true,"station_id":"DU","i_lat":-6.155215,"station_name":"Duri","line":1,"time":3,"i_long":106.800832,"distance":1700,"transit":true},{"station_id":"THB","transit":false,"station_name":"Tanah Abang","time":8,"distance":3632,"i_long":106.811091,"line":1,"is_transit":false,"i_lat":-6.185545},{"time":5,"is_transit":false,"line":1,"station_id":"KAT","distance":2029,"station_name":"Karet","transit":false,"i_lat":-6.20132,"i_long":106.816351},{"i_long":106.819881,"station_name":"Sudirman Baru","distance":471,"station_id":"SUDB","is_transit":false,"time":1,"transit":false,"i_lat":-6.201433,"line":1},{"station_id":"SUD","line":1,"transit":false,"station_name":"Sudirman","is_transit":false,"i_lat":-6.202263,"i_long":106.822649,"time":1,"distance":280},{"station_name":"Manggarai","transit":false,"is_transit":false,"line":2,"i_long":106.84912,"i_lat":-6.209883,"distance":3186,"time":4,"station_id":"MRI"},{"i_lat":-6.212485,"i_long":106.858896,"line":1,"distance":1275,"transit":false,"station_id":"MTR","time":2,"station_name":"Matraman","is_transit":false},{"station_name":"Jatinegara","time":8,"is_transit":false,"i_lat":-6.215091,"distance":1377,"transit":false,"i_long":106.86807400000001,"station_id":"JNG","line":1},{"time":3,"is_transit":false,"i_lat":-6.2135,"distance":3395,"transit":false,"i_long":106.899548,"station_id":"KLD","station_name":"Klender","line":1},{"i_lat":-6.215568,"time":2,"i_long":106.922662,"is_transit":false,"station_id":"BUA","station_name":"Buaran","distance":3100,"line":1,"transit":false},{"is_transit":false,"i_lat":-6.217455,"line":1,"i_long":106.939679,"distance":1305,"time":1,"station_name":"Klenderbaru","transit":false,"station_id":"KLDB"},{"i_lat":-6.219053,"i_long":106.951283,"is_transit":false,"transit":false,"distance":1385,"line":1,"station_name":"Cakung","station_id":"CUK","time":8},{"i_long":106.977657,"line":1,"transit":false,"station_id":"KRI","time":3,"station_name":"Kranji","i_lat":-6.224515,"distance":3097,"is_transit":false}],[{"i_lat":-6.171811,"line":5,"is_transit":false,"station_name":"Batuceper","time":0,"transit":false,"station_id":"BPR","distance":0,"i_long":106.665036},{"station_name":"Poris","time":3,"is_transit":false,"distance":1834,"i_long":106.679458,"i_lat":-6.169933,"line":5,"transit":false,"station_id":"PI"},{"line":5,"time":3,"station_name":"Kalideres","transit":false,"distance":2548,"is_transit":false,"i_long":106.701612,"i_lat":-6.166068,"station_id":"KDS"},{"transit":false,"station_name":"Rawa Buaya","is_transit":false,"i_long":106.723064,"station_id":"RW","time":3,"line":5,"i_lat":-6.162758,"distance":2504},{"time":4,"transit":false,"line":5,"i_lat":-6.159876,"is_transit":false,"i_long":106.737035,"station_id":"BOI","distance":1152,"station_name":"Bojongindah"},{"distance":2334,"station_name":"Taman Kota","transit":false,"i_long":106.756522,"line":5,"i_lat":-6.1587309999999995,"time":2,"station_id":"TKO","is_transit":false},{"station_name":"Pesing","time":2,"i_lat":-6.161433,"line":5,"is_transit":false,"transit":false,"station_id":"PSG","distance":1614,"i_long":106.771379},{"distance":2036,"i_long":106.788277,"i_lat":-6.162021,"station_id":"GGL","is_transit":false,"line":5,"transit":false,"station_name":"Grogol","time":2},{"i_long":106.800832,"distance":1700,"line":1,"transit":true,"station_id":"DU","station_name":"Duri","i_lat":-6.155215,"is_transit":true,"time":3},{"station_name":"Angke","i_lat":-6.144674,"line":1,"time":4,"transit":false,"station_id":"AK","distance":1230,"is_transit":false,"i_long":106.79867},{"time":9,"is_transit":true,"station_name":"Kampung Bandan","distance":4102,"line":4,"transit":true,"i_long":106.826365,"station_id":"KPB","i_lat":-6.132549},{"i_long":106.836569,"transit":false,"station_id":"RJW","is_transit":false,"time":3,"distance":1444,"i_lat":-6.14505,"station_name":"Rajawali","line":11},{"i_lat":-6.161728,"i_long":106.839204,"transit":false,"time":5,"distance":1901,"is_transit":false,"station_id":"KMO","station_name":"Kemayoran","line":11},{"i_lat":-6.174784,"is_transit":false,"distance":1436,"station_id":"PSE","transit":false,"line":11,"station_name":"Pasar Senen","time":4,"i_long":106.84368},{"time":8,"station_id":"GST","i_long":106.850107,"station_name":"Gang Sentiong","is_transit":false,"distance":1567,"transit":false,"i_lat":-6.185975,"line":11},{"is_transit":false,"transit":false,"i_long":106.855437,"station_name":"Kramat","time":1,"i_lat":-6.193792,"station_id":"KMT","distance":973,"line":11},{"is_transit":false,"time":2,"i_long":106.861737,"line":11,"station_name":"Pondok Jati","transit":false,"station_id":"POK","distance":1829,"i_lat":-6.209188},{"time":9,"station_name":"Jatinegara","i_lat":-6.215091,"i_long":106.86807400000001,"line":1,"transit":true,"is_transit":true,"station_id":"JNG","distance":1236},{"i_long":106.899548,"line":1,"time":3,"is_transit":false,"station_name":"Klender","transit":false,"distance":3395,"i_lat":-6.2135,"station_id":"KLD"},{"station_id":"BUA","time":2,"i_lat":-6.215568,"distance":3100,"station_name":"Buaran","is_transit":false,"line":1,"i_long":106.922662,"transit":false},{"i_long":106.939679,"is_transit":false,"station_id":"KLDB","distance":1305,"i_lat":-6.217455,"station_name":"Klenderbaru","time":1,"line":1,"transit":false},{"transit":false,"is_transit":false,"station_id":"CUK","time":8,"station_name":"Cakung","line":1,"i_lat":-6.219053,"i_long":106.951283,"distance":1385},{"distance":3097,"is_transit":false,"transit":false,"station_id":"KRI","i_long":106.977657,"i_lat":-6.224515,"station_name":"Kranji","time":3,"line":1}],[{"distance":0,"station_name":"Batuceper","i_lat":-6.171811,"line":5,"time":0,"station_id":"BPR","is_transit":false,"transit":false,"i_long":106.665036},{"transit":false,"station_name":"Poris","distance":1834,"line":5,"time":3,"i_lat":-6.169933,"station_id":"PI","is_transit":false,"i_long":106.679458},{"station_name":"Kalideres","i_lat":-6.166068,"i_long":106.701612,"time":3,"line":5,"transit":false,"distance":2548,"station_id":"KDS","is_transit":false},{"is_transit":false,"transit":false,"time":3,"line":5,"station_name":"Rawa Buaya","distance":2504,"station_id":"RW","i_long":106.723064,"i_lat":-6.162758},{"i_long":106.737035,"i_lat":-6.159876,"distance":1152,"station_name":"Bojongindah","is_transit":false,"line":5,"time":4,"station_id":"BOI","transit":false},{"i_long":106.756522,"is_transit":false,"line":5,"station_id":"TKO","station_name":"Taman Kota","distance":2334,"transit":false,"i_lat":-6.1587309999999995,"time":2},{"distance":1614,"station_name":"Pesing","station_id":"PSG","time":2,"i_long":106.771379,"i_lat":-6.161433,"is_transit":false,"line":5,"transit":false},{"i_lat":-6.162021,"distance":2036,"i_long":106.788277,"is_transit":false,"transit":false,"station_name":"Grogol","station_id":"GGL","line":5,"time":2},{"transit":true,"station_name":"Duri","i_long":106.800832,"line":1,"time":3,"is_transit":true,"station_id":"DU","i_lat":-6.155215,"distance":1700},{"distance":1230,"time":4,"i_lat":-6.144674,"station_id":"AK","station_name":"Angke","transit":false,"i_long":106.79867,"is_transit":false,"line":1},{"station_id":"KPB","transit":true,"station_name":"Kampung Bandan","i_lat":-6.132549,"distance":4102,"time":9,"is_transit":true,"line":4,"i_long":106.826365},{"i_long":106.812439,"line":2,"i_lat":-6.137569,"is_transit":true,"station_id":"JAKK","distance":1364,"station_name":"Jakarta Kota","transit":true,"time":3},{"line":2,"station_name":"Jayakarta","i_lat":-6.141205,"transit":false,"station_id":"JAY","time":4,"distance":1264,"is_transit":false,"i_long":106.820901},{"line":2,"is_transit":false,"station_id":"MGB","station_name":"Manggabesar","i_lat":-6.149769,"i_long":106.82482,"time":2,"transit":false,"distance":1080},{"station_name":"Sawah Besar","i_long":106.827103,"is_transit":false,"i_lat":-6.160725,"transit":false,"time":2,"line":2,"distance":906,"station_id":"SW"},{"i_long":106.828284,"station_name":"Juanda","time":2,"distance":1149,"line":2,"transit":false,"is_transit":false,"i_lat":-6.166716,"station_id":"JUA"},{"distance":2015,"i_lat":-6.186295,"transit":false,"line":2,"station_name":"Gondangdia","is_transit":false,"station_id":"GDD","i_long":106.832183,"time":4},{"transit":false,"station_name":"Cikini","distance":1750,"line":2,"is_transit":false,"time":3,"i_lat":-6.198556,"station_id":"CKI","i_long":106.840169},{"time":4,"distance":1590,"transit":true,"i_lat":-6.209883,"i_long":106.84912,"is_transit":true,"station_id":"MRI","line":2,"station_name":"Manggarai"},{"transit":false,"time":2,"station_id":"MTR","i_long":106.858896,"station_name":"Matraman","distance":1275,"is_transit":false,"line":1,"i_lat":-6.212485},{"distance":1377,"time":8,"station_id":"JNG","i_lat":-6.215091,"i_long":106.86807400000001,"is_transit":false,"transit":false,"line":1,"station_name":"Jatinegara"},{"station_name":"Klender","is_transit":false,"transit":false,"time":3,"station_id":"KLD","i_lat":-6.2135,"line":1,"distance":3395,"i_long":106.899548},{"is_transit":false,"time":2,"i_long":106.922662,"station_id":"BUA","transit":false,"distance":3100,"station_name":"Buaran","i_lat":-6.215568,"line":1},{"i_lat":-6.217455,"is_transit":false,"time":1,"distance":1305,"transit":false,"station_name":"Klenderbaru","station_id":"KLDB","i_long":106.939679,"line":1},{"line":1,"is_transit":false,"time":8,"i_long":106.951283,"i_lat":-6.219053,"transit":false,"station_id":"CUK","station_name":"Cakung","distance":1385},{"distance":3097,"i_lat":-6.224515,"i_long":106.977657,"is_transit":false,"station_id":"KRI","station_name":"Kranji","transit":false,"time":3,"line":1}],[{"i_lat":-6.171811,"time":0,"station_name":"Batuceper","station_id":"BPR","is_transit":false,"transit":false,"i_long":106.665036,"line":5,"distance":0},{"i_lat":-6.169933,"line":5,"time":3,"i_long":106.679458,"station_id":"PI","distance":1834,"station_name":"Poris","is_transit":false,"transit":false},{"is_transit":false,"transit":false,"distance":2548,"station_name":"Kalideres","i_long":106.701612,"time":3,"line":5,"i_lat":-6.166068,"station_id":"KDS"},{"line":5,"time":3,"i_lat":-6.162758,"is_transit":false,"distance":2504,"transit":false,"station_id":"RW","station_name":"Rawa Buaya","i_long":106.723064},{"i_lat":-6.159876,"line":5,"is_transit":false,"transit":false,"station_id":"BOI","distance":1152,"station_name":"Bojongindah","i_long":106.737035,"time":4},{"distance":2334,"time":2,"i_lat":-6.1587309999999995,"i_long":106.756522,"station_name":"Taman Kota","station_id":"TKO","line":5,"is_transit":false,"transit":false},{"i_long":106.771379,"transit":false,"station_name":"Pesing","i_lat":-6.161433,"line":5,"is_transit":false,"distance":1614,"time":2,"station_id":"PSG"},{"station_name":"Grogol","transit":false,"i_long":106.788277,"station_id":"GGL","time":2,"is_transit":false,"i_lat":-6.162021,"line":5,"distance":2036},{"transit":true,"station_name":"Duri","i_lat":-6.155215,"is_transit":true,"distance":1700,"i_long":106.800832,"line":1,"time":3,"station_id":"DU"},{"station_name":"Tanah Abang","transit":false,"is_transit":false,"station_id":"THB","time":8,"i_lat":-6.185545,"i_long":106.811091,"line":1,"distance":3632},{"i_long":106.816351,"station_name":"Karet","transit":false,"time":5,"is_transit":false,"distance":2029,"i_lat":-6.20132,"line":1,"station_id":"KAT"},{"i_long":106.819881,"station_name":"Sudirman Baru","i_lat":-6.201433,"station_id":"SUDB","line":1,"is_transit":false,"time":1,"distance":471,"transit":false},{"i_long":106.822649,"station_name":"Sudirman","distance":280,"time":1,"i_lat":-6.202263,"station_id":"SUD","line":1,"is_transit":false,"transit":false},{"time":4,"distance":3186,"i_long":106.84912,"station_name":"Manggarai","transit":true,"station_id":"MRI","i_lat":-6.209883,"line":2,"is_transit":true},{"i_long":106.840169,"line":2,"transit":false,"time":4,"distance":1590,"station_name":"Cikini","is_transit":false,"i_lat":-6.198556,"station_id":"CKI"},{"transit":false,"station_name":"Gondangdia","i_long":106.832183,"time":3,"distance":1750,"station_id":"GDD","i_lat":-6.186295,"line":2,"is_transit":false},{"station_id":"JUA","station_name":"Juanda","transit":false,"distance":2015,"time":4,"is_transit":false,"i_lat":-6.166716,"i_long":106.828284,"line":2},{"station_id":"SW","time":2,"distance":1149,"station_name":"Sawah Besar","is_transit":false,"transit":false,"i_long":106.827103,"line":2,"i_lat":-6.160725},{"is_transit":false,"i_lat":-6.149769,"i_long":106.82482,"time":2,"distance":906,"line":2,"transit":false,"station_id":"MGB","station_name":"Manggabesar"},{"time":2,"i_long":106.820901,"line":2,"station_name":"Jayakarta","is_transit":false,"transit":false,"distance":1080,"i_lat":-6.141205,"station_id":"JAY"},{"time":4,"station_name":"Jakarta Kota","transit":true,"distance":1264,"line":2,"station_id":"JAKK","is_transit":true,"i_long":106.812439,"i_lat":-6.137569},{"distance":1364,"is_transit":true,"line":4,"station_name":"Kampung Bandan","station_id":"KPB","i_long":106.826365,"transit":true,"i_lat":-6.132549,"time":3},{"transit":false,"i_lat":-6.14505,"is_transit":false,"station_name":"Rajawali","distance":1444,"line":11,"time":3,"station_id":"RJW","i_long":106.836569},{"i_long":106.839204,"is_transit":false,"i_lat":-6.161728,"distance":1901,"transit":false,"station_name":"Kemayoran","station_id":"KMO","time":5,"line":11},{"station_name":"Pasar Senen","time":4,"transit":false,"line":11,"station_id":"PSE","i_long":106.84368,"distance":1436,"is_transit":false,"i_lat":-6.174784},{"distance":1567,"time":8,"i_long":106.850107,"line":11,"i_lat":-6.185975,"station_name":"Gang Sentiong","transit":false,"is_transit":false,"station_id":"GST"},{"time":1,"transit":false,"distance":973,"station_name":"Kramat","i_long":106.855437,"line":11,"station_id":"KMT","is_transit":false,"i_lat":-6.193792},{"station_id":"POK","i_long":106.861737,"station_name":"Pondok Jati","is_transit":false,"i_lat":-6.209188,"transit":false,"line":11,"distance":1829,"time":2},{"is_transit":true,"station_id":"JNG","i_lat":-6.215091,"line":1,"station_name":"Jatinegara","time":9,"transit":true,"distance":1236,"i_long":106.86807400000001},{"station_name":"Klender","time":3,"line":1,"transit":false,"station_id":"KLD","distance":3395,"i_lat":-6.2135,"is_transit":false,"i_long":106.899548},{"transit":false,"station_id":"BUA","i_lat":-6.215568,"distance":3100,"station_name":"Buaran","time":2,"i_long":106.922662,"is_transit":false,"line":1},{"distance":1305,"time":1,"i_lat":-6.217455,"station_id":"KLDB","line":1,"transit":false,"i_long":106.939679,"station_name":"Klenderbaru","is_transit":false},{"transit":false,"station_name":"Cakung","station_id":"CUK","distance":1385,"i_lat":-6.219053,"i_long":106.951283,"time":8,"line":1,"is_transit":false},{"distance":3097,"time":3,"i_long":106.977657,"is_transit":false,"i_lat":-6.224515,"station_name":"Kranji","transit":false,"line":1,"station_id":"KRI"}]]}