{"data":[[{"distance":0,"station_id":"BPR","is_transit":false,"i_lat":-6.171811,"line":5,"station_name":"Batuceper","time":0,"transit":false,"i_long":106.665036},{"distance":1834,"station_id":"PI","i_lat":-6.169933,"i_long":106.679458,"line":5,"time":3,"transit":false,"station_name":"Poris","is_transit":false},{"line":5,"distance":2548,"i_long":106.701612,"station_id":"KDS","i_lat":-6.166068,"time":3,"is_transit":false,"transit":false,"station_name":"Kalideres"},{"station_name":"Rawa Buaya","distance":2504,"transit":false,"time":3,"is_transit":false,"line":5,"station_id":"RW","i_long":106.723064,"i_lat":-6.162758},{"i_long":106.737035,"line":5,"transit":false,"is_transit":false,"i_lat":-6.159876,"time":4,"distance":1152,"station_name":"Bojongindah","station_id":"BOI"},{"i_long":106.756522,"time":2,"transit":false,"distance":2334,"station_id":"TKO","line":5,"station_name":"Taman Kota","i_lat":-6.1587309999999995,"is_transit":false},{"station_name":"Pesing","time":2,"i_lat":-6.161433,"station_id":"PSG","transit":false,"distance":1614,"i_long":106.771379,"is_transit":false,"line":5},{"time":2,"distance":2036,"i_lat":-6.162021,"is_transit":false,"i_long":106.788277,"transit":false,"station_id":"GGL","line":5,"station_name":"Grogol"},{"line":1,"time":3,"station_name":"Duri","station_id":"DU","transit":true,"is_transit":true,"distance":1700,"i_lat":-6.155215,"i_long":106.800832},{"i_lat":-6.185545,"i_long":106.811091,"time":8,"transit":false,"station_name":"Tanah Abang","distance":3632,"is_transit":false,"station_id":"THB","line":1},{"is_transit":false,"i_long":106.816351,"station_id":"KAT","line":1,"transit":false,"i_lat":-6.20132,"station_name":"Karet","distance":2029,"time":5},{"station_name":"Sudirman Baru","time":1,"station_id":"SUDB","transit":false,"is_transit":false,"i_long":106.819881,"i_lat":-6.201433,"line":1,"distance":471},{"is_transit":false,"station_id":"SUD","station_name":"Sudirman","transit":false,"time":1,"i_lat":-6.202263,"i_long":106.822649,"line":1,"distance":280},{"is_transit":true,"station_name":"Manggarai","distance":3186,"transit":true,"time":4,"i_lat":-6.209883,"station_id":"MRI","i_long":106.84912,"line":2},{"distance":2610,"station_name":"Tebet","time":4,"i_lat":-6.226659,"i_long":106.857948,"station_id":"TEB","is_transit":false,"transit":false,"line":2},{"station_name":"Cawang","station_id":"CW","i_long":106.856607,"distance":1230,"transit":false,"time":2,"line":2,"is_transit":false,"i_lat":-6.242512},{"line":2,"distance":1546,"station_id":"DRN","time":3,"transit":false,"i_lat":-6.255332,"is_transit":false,"i_long":106.85449,"station_name":"Duren Kalibata"},{"station_name":"Pasar Minggu Baru","line":2,"time":2,"station_id":"PSMB","transit":false,"i_long":106.851577,"i_lat":-6.263214,"is_transit":false,"distance":824},{"time":2,"transit":false,"station_name":"Pasar Minggu","station_id":"PSM","distance":2380,"i_long":106.843999,"line":2,"is_transit":false,"i_lat":-6.2842400000000005},{"station_id":"TNT","i_lat":-6.3080680000000005,"distance":2820,"time":4,"is_transit":false,"i_long":106.838896,"line":2,"station_name":"Tanjung Barat","transit":false},{"station_name":"Lenteng Agung","station_id":"LNA","is_transit":false,"i_long":106.832616,"transit":false,"time":3,"distance":2671,"i_lat":-6.330363,"line":2},{"transit":false,"i_long":106.834175,"i_lat":-6.339291,"distance":1029,"station_name":"Univ. Pancasila","is_transit":false,"station_id":"UP","time":2,"line":2},{"is_transit":false,"time":3,"distance":2264,"i_lat":-6.360749,"line":2,"station_name":"Univ. Indonesia","station_id":"UI","i_long":106.831474,"transit":false},{"line":2,"station_name":"Pondok Cina","is_transit":false,"i_long":106.831114,"time":2,"distance":1109,"i_lat":-6.369073,"station_id":"POC","transit":false},{"is_transit":false,"i_lat":-6.391065,"transit":false,"time":4,"distance":2727,"line":2,"station_name":"Depokbaru","i_long":106.819451,"station_id":"DPB"},{"station_name":"Depok","distance":1584,"time":3,"transit":false,"station_id":"DP","line":2,"i_long":106.816926,"i_lat":-6.405256,"is_transit":false}],[{"time":0,"transit":false,"station_name":"Batuceper","station_id":"BPR","distance":0,"i_long":106.665036,"is_transit":false,"line":5,"i_lat":-6.171811},{"distance":1834,"i_long":106.679458,"i_lat":-6.169933,"station_id":"PI","time":3,"line":5,"transit":false,"station_name":"Poris","is_transit":false},{"line":5,"time":3,"station_name":"Kalideres","i_long":106.701612,"transit":false,"station_id":"KDS","is_transit":false,"i_lat":-6.166068,"distance":2548},{"i_long":106.723064,"distance":2504,"station_name":"Rawa Buaya","time":3,"i_lat":-6.162758,"line":5,"station_id":"RW","transit":false,"is_transit":false},{"is_transit":false,"i_lat":-6.159876,"i_long":106.737035,"station_name":"Bojongindah","time":4,"distance":1152,"line":5,"transit":false,"station_id":"BOI"},{"line":5,"station_id":"TKO","station_name":"Taman Kota","distance":2334,"i_long":106.756522,"i_lat":-6.1587309999999995,"transit":false,"is_transit":false,"time":2},{"time":2,"station_id":"PSG","is_transit":false,"transit":false,"distance":1614,"i_long":106.771379,"line":5,"station_name":"Pesing","i_lat":-6.161433},{"distance":2036,"i_lat":-6.162021,"line":5,"station_id":"GGL","transit":false,"station_name":"Grogol","i_long":106.788277,"time":2,"is_transit":false},{"station_id":"DU","i_long":106.800832,"is_transit":true,"distance":1700,"time":3,"line":1,"i_lat":-6.155215,"transit":true,"station_name":"Duri"},{"line":1,"is_transit":false,"transit":false,"station_id":"AK","time":4,"station_name":"Angke","i_lat":-6.144674,"distance":1230,"i_long":106.79867},{"i_long":106.826365,"line":4,"station_id":"KPB","transit":true,"is_transit":true,"distance":4102,"station_name":"Kampung Bandan","time":9,"i_lat":-6.132549},{"i_lat":-6.137569,"is_transit":true,"station_name":"Jakarta Kota","distance":1364,"station_id":"JAKK","i_long":106.812439,"time":3,"line":2,"transit":true},{"i_lat":-6.141205,"line":2,"distance":1264,"transit":false,"i_long":106.820901,"time":4,"station_id":"JAY","station_name":"Jayakarta","is_transit":false},{"time":2,"transit":false,"station_name":"Manggabesar","is_transit":false,"i_lat":-6.149769,"station_id":"MGB","distance":1080,"i_long":106.82482,"line":2},{"i_lat":-6.160725,"line":2,"station_id":"SW","transit":false,"distance":906,"station_name":"Sawah Besar","is_transit":false,"i_long":106.827103,"time":2},{"transit":false,"time":2,"station_id":"JUA","station_name":"Juanda","distance":1149,"is_transit":false,"i_long":106.828284,"line":2,"i_lat":-6.166716},{"i_lat":-6.186295,"distance":2015,"is_transit":false,"i_long":106.832183,"line":2,"transit":false,"station_name":"Gondangdia","station_id":"GDD","time":4},{"line":2,"station_id":"CKI","transit":false,"is_transit":false,"i_lat":-6.198556,"distance":1750,"i_long":106.840169,"time":3,"station_name":"Cikini"},{"i_lat":-6.209883,"i_long":106.84912,"transit":false,"line":2,"is_transit":false,"time":4,"station_name":"Manggarai","distance":1590,"station_id":"MRI"},{"line":2,"is_transit":false,"station_name":"Tebet","transit":false,"time":4,"station_id":"TEB","distance":2610,"i_lat":-6.226659,"i_long":106.857948},{"station_name":"Cawang","time":2,"station_id":"CW","distance":1230,"transit":false,"is_transit":false,"i_lat":-6.242512,"i_long":106.856607,"line":2},{"i_lat":-6.255332,"is_transit":false,"time":3,"station_name":"Duren Kalibata","i_long":106.85449,"line":2,"distance":1546,"transit":false,"station_id":"DRN"},{"i_long":106.851577,"is_transit":false,"transit":false,"i_lat":-6.263214,"station_id":"PSMB","time":2,"distance":824,"line":2,"station_name":"Pasar Minggu Baru"},{"station_id":"PSM","is_transit":false,"station_name":"Pasar Minggu","time":2,"transit":false,"i_lat":-6.2842400000000005,"line":2,"i_long":106.843999,"distance":2380},{"distance":2820,"i_lat":-6.3080680000000005,"station_name":"Tanjung Barat","transit":false,"time":4,"i_long":106.838896,"line":2,"station_id":"TNT","is_transit":false},{"time":3,"transit":false,"station_id":"LNA","station_name":"Lenteng Agung","i_lat":-6.330363,"i_long":106.832616,"line":2,"distance":2671,"is_transit":false},{"is_transit":false,"station_name":"Univ. Pancasila","station_id":"UP","time":2,"transit":false,"distance":1029,"i_lat":-6.339291,"line":2,"i_long":106.834175},{"distance":2264,"i_long":106.831474,"time":3,"i_lat":-6.360749,"station_id":"UI","line":2,"transit":false,"station_name":"Univ. Indonesia","is_transit":false},{"i_long":106.831114,"station_id":"POC","line":2,"transit":false,"is_transit":false,"time":2,"station_name":"Pondok Cina","i_lat":-6.369073,"distance":1109},{"transit":false,"is_transit":false,"time":4,"distance":2727,"line":2,"i_lat":-6.391065,"station_name":"Depokbaru","i_long":106.819451,"station_id":"DPB"},{"station_id":"DP","distance":1584,"station_name":"Depok","time":3,"transit":false,"is_transit":false,"i_long":106.816926,"line":2,"i_lat":-6.405256}],[{"station_name":"Batuceper","transit":false,"time":0,"i_long":106.665036,"line":5,"station_id":"BPR","i_lat":-6.171811,"is_transit":false,"distance":0},{"i_long":106.679458,"line":5,"station_name":"Poris","i_lat":-6.169933,"distance":1834,"transit":false,"is_transit":false,"station_id":"PI","time":3},{"time":3,"i_lat":-6.166068,"distance":2548,"line":5,"station_id":"KDS","i_long":106.701612,"station_name":"Kalideres","is_transit":false,"transit":false},{"station_id":"RW","line":5,"time":3,"transit":false,"distance":2504,"i_lat":-6.162758,"station_name":"Rawa Buaya","i_long":106.723064,"is_transit":false},{"distance":1152,"time":4,"transit":false,"station_name":"Bojongindah","line":5,"i_lat":-6.159876,"i_long":106.737035,"is_transit":false,"station_id":"BOI"},{"line":5,"time":2,"station_id":"TKO","is_transit":false,"i_lat":-6.1587309999999995,"i_long":106.756522,"transit":false,"distance":2334,"station_name":"Taman Kota"},{"station_id":"PSG","line":5,"transit":false,"station_name":"Pesing","time":2,"i_lat":-6.161433,"i_long":106.771379,"is_transit":false,"distance":1614},{"transit":false,"station_name":"Grogol","station_id":"GGL","is_transit":false,"i_lat":-6.162021,"line":5,"time":2,"distance":2036,"i_long":106.788277},{"distance":1700,"i_lat":-6.155215,"transit":true,"station_name":"Duri","is_transit":true,"i_long":106.800832,"time":3,"line":1,"station_id":"DU"},{"station_id":"AK","line":1,"station_name":"Angke","time":4,"i_lat":-6.144674,"is_transit":false,"transit":false,"distance":1230,"i_long":106.79867},{"transit":true,"station_id":"KPB","line":4,"time":9,"station_name":"Kampung Bandan","i_long":106.826365,"i_lat":-6.132549,"is_transit":true,"distance":4102},{"distance":1444,"i_lat":-6.14505,"station_id":"RJW","station_name":"Rajawali","i_long":106.836569,"is_transit":false,"line":11,"time":3,"transit":false},{"distance":1901,"station_id":"KMO","line":11,"time":5,"station_name":"Kemayoran","transit":false,"is_transit":false,"i_lat":-6.161728,"i_long":106.839204},{"time":4,"i_long":106.84368,"is_transit":false,"station_name":"Pasar Senen","distance":1436,"line":11,"transit":false,"i_lat":-6.174784,"station_id":"PSE"},{"distance":1567,"i_lat":-6.185975,"line":11,"i_long":106.850107,"station_id":"GST","transit":false,"is_transit":false,"station_name":"Gang Sentiong","time":8},{"is_transit":false,"distance":973,"i_lat":-6.193792,"transit":false,"line":11,"time":1,"station_name":"Kramat","i_long":106.855437,"station_id":"KMT"},{"i_long":106.861737,"is_transit":false,"i_lat":-6.209188,"station_name":"Pondok Jati","station_id":"POK","time":2,"distance":1829,"line":11,"transit":false},{"i_lat":-6.215091,"is_transit":true,"distance":1236,"time":9,"transit":true,"station_id":"JNG","i_long":106.86807400000001,"line":1,"station_name":"Jatinegara"},{"station_id":"MTR","time":2,"station_name":"Matraman","distance":1377,"i_lat":-6.212485,"line":1,"transit":false,"i_long":106.858896,"is_transit":false},{"is_transit":true,"line":2,"transit":true,"time":2,"i_lat":-6.209883,"station_id":"MRI","i_long":106.84912,"distance":1275,"station_name":"Manggarai"},{"is_transit":false,"i_long":106.857948,"station_id":"TEB","i_lat":-6.226659,"line":2,"transit":false,"distance":2610,"time":4,"station_name":"Tebet"},{"station_id":"CW","transit":false,"is_transit":false,"i_long":106.856607,"station_name":"Cawang","line":2,"distance":1230,"time":2,"i_lat":-6.242512},{"station_id":"DRN","line":2,"transit":false,"i_long":106.85449,"time":3,"distance":1546,"is_transit":false,"station_name":"Duren Kalibata","i_lat":-6.255332},{"is_transit":false,"station_id":"PSMB","i_long":106.851577,"station_name":"Pasar Minggu Baru","transit":false,"i_lat":-6.263214,"time":2,"distance":824,"line":2},{"distance":2380,"time":2,"is_transit":false,"i_lat":-6.2842400000000005,"transit":false,"line":2,"station_name":"Pasar Minggu","station_id":"PSM","i_long":106.843999},{"transit":false,"station_id":"TNT","time":4,"distance":2820,"i_lat":-6.3080680000000005,"i_long":106.838896,"line":2,"station_name":"Tanjung Barat","is_transit":false},{"station_id":"LNA","distance":2671,"station_name":"Lenteng Agung","transit":false,"i_lat":-6.330363,"i_long":106.832616,"line":2,"time":3,"is_transit":false},{"station_name":"Univ. Pancasila","time":2,"station_id":"UP","line":2,"distance":1029,"i_lat":-6.339291,"transit":false,"is_transit":false,"i_long":106.834175},{"line":2,"transit":false,"station_name":"Univ. Indonesia","distance":2264,"is_transit":false,"time":3,"station_id":"UI","i_lat":-6.360749,"i_long":106.831474},{"station_id":"POC","time":2,"i_long":106.831114,"line":2,"distance":1109,"is_transit":false,"i_lat":-6.369073,"transit":false,"station_name":"Pondok Cina"},{"is_transit":false,"time":4,"i_lat":-6.391065,"i_long":106.819451,"distance":2727,"line":2,"station_name":"Depokbaru","transit":false,"station_id":"DPB"},{"transit":false,"time":3,"line":2,"is_transit":false,"station_id":"DP","i_long":106.816926,"station_name":"Depok","distance":1584,"i_lat":-6.405256}]]}