{"data":[[{"time":0,"distance":0,"station_name":"Batuceper","transit":false,"i_lat":-6.171811,"i_long":106.665036,"station_id":"BPR","is_transit":false,"line":5},{"is_transit":false,"distance":1834,"transit":false,"i_long":106.679458,"time":3,"station_id":"PI","station_name":"Poris","line":5,"i_lat":-6.169933},{"station_name":"Kalideres","time":3,"station_id":"KDS","transit":false,"is_transit":false,"i_long":106.701612,"i_lat":-6.166068,"line":5,"distance":2548},{"is_transit":false,"i_long":106.723064,"station_id":"RW","transit":false,"time":3,"i_lat":-6.162758,"line":5,"station_name":"Rawa Buaya","distance":2504},{"i_long":106.737035,"time":4,"i_lat":-6.159876,"station_name":"Bojongindah","is_transit":false,"distance":1152,"transit":false,"line":5,"station_id":"BOI"},{"is_transit":false,"line":5,"time":2,"station_id":"TKO","transit":false,"i_long":106.756522,"distance":2334,"station_name":"Taman Kota","i_lat":-6.1587309999999995},{"distance":1614,"station_name":"Pesing","transit":false,"line":5,"i_lat":-6.161433,"time":2,"station_id":"PSG","is_transit":false,"i_long":106.771379},{"station_name":"Grogol","line":5,"time":2,"transit":false,"i_long":106.788277,"distance":2036,"is_transit":false,"i_lat":-6.162021,"station_id":"GGL"},{"i_long":106.800832,"is_transit":true,"distance":1700,"line":1,"i_lat":-6.155215,"time":3,"transit":true,"station_name":"Duri","station_id":"DU"},{"i_lat":-6.185545,"station_name":"Tanah Abang","transit":false,"i_long":106.811091,"time":8,"line":1,"distance":3632,"station_id":"THB","is_transit":false},{"time":5,"station_name":"Karet","i_long":106.816351,"line":1,"transit":false,"distance":2029,"i_lat":-6.20132,"station_id":"KAT","is_transit":false},{"i_long":106.819881,"station_name":"Sudirman Baru","transit":false,"is_transit":false,"distance":471,"i_lat":-6.201433,"time":1,"line":1,"station_id":"SUDB"},{"station_id":"SUD","distance":280,"i_lat":-6.202263,"line":1,"i_long":106.822649,"time":1,"is_transit":false,"station_name":"Sudirman","transit":false},{"i_lat":-6.209883,"station_name":"Manggarai","line":2,"i_long":106.84912,"is_transit":true,"time":4,"distance":3186,"transit":true,"station_id":"MRI"},{"time":4,"station_id":"TEB","is_transit":false,"i_long":106.857948,"station_name":"Tebet","transit":false,"distance":2610,"i_lat":-6.226659,"line":2},{"transit":false,"i_long":106.856607,"station_name":"Cawang","station_id":"CW","line":2,"is_transit":false,"time":2,"distance":1230,"i_lat":-6.242512},{"i_long":106.85449,"i_lat":-6.255332,"line":2,"station_name":"Duren Kalibata","is_transit":false,"distance":1546,"time":3,"station_id":"DRN","transit":false}],[{"station_name":"Batuceper","is_transit":false,"distance":0,"transit":false,"time":0,"i_lat":-6.171811,"line":5,"i_long":106.665036,"station_id":"BPR"},{"i_lat":-6.169933,"distance":1834,"station_id":"PI","transit":false,"time":3,"line":5,"is_transit":false,"i_long":106.679458,"station_name":"Poris"},{"distance":2548,"i_long":106.701612,"is_transit":false,"line":5,"station_name":"Kalideres","time":3,"transit":false,"i_lat":-6.166068,"station_id":"KDS"},{"line":5,"i_lat":-6.162758,"time":3,"station_id":"RW","i_long":106.723064,"is_transit":false,"station_name":"Rawa Buaya","transit":false,"distance":2504},{"is_transit":false,"station_name":"Bojongindah","i_long":106.737035,"station_id":"BOI","distance":1152,"time":4,"i_lat":-6.159876,"line":5,"transit":false},{"transit":false,"time":2,"is_transit":false,"station_id":"TKO","line":5,"i_long":106.756522,"distance":2334,"station_name":"Taman Kota","i_lat":-6.1587309999999995},{"line":5,"time":2,"i_lat":-6.161433,"distance":1614,"transit":false,"station_id":"PSG","is_transit":false,"station_name":"Pesing","i_long":106.771379},{"transit":false,"i_lat":-6.162021,"i_long":106.788277,"is_transit":false,"distance":2036,"line":5,"time":2,"station_id":"GGL","station_name":"Grogol"},{"i_lat":-6.155215,"line":1,"is_transit":true,"station_name":"Duri","distance":1700,"transit":true,"time":3,"i_long":106.800832,"station_id":"DU"},{"station_id":"AK","i_lat":-6.144674,"is_transit":false,"i_long":106.79867,"line":1,"transit":false,"time":4,"distance":1230,"station_name":"Angke"},{"time":9,"line":4,"station_id":"KPB","transit":true,"i_lat":-6.132549,"i_long":106.826365,"is_transit":true,"station_name":"Kampung Bandan","distance":4102},{"distance":1364,"i_lat":-6.137569,"is_transit":true,"transit":true,"station_name":"Jakarta Kota","line":2,"i_long":106.812439,"time":3,"station_id":"JAKK"},{"i_lat":-6.141205,"time":4,"station_id":"JAY","i_long":106.820901,"station_name":"Jayakarta","line":2,"distance":1264,"transit":false,"is_transit":false},{"line":2,"i_long":106.82482,"station_id":"MGB","transit":false,"time":2,"is_transit":false,"station_name":"Manggabesar","distance":1080,"i_lat":-6.149769},{"station_id":"SW","is_transit":false,"distance":906,"transit":false,"station_name":"Sawah Besar","i_long":106.827103,"line":2,"time":2,"i_lat":-6.160725},{"i_long":106.828284,"station_id":"JUA","distance":1149,"transit":false,"i_lat":-6.166716,"is_transit":false,"time":2,"station_name":"Juanda","line":2},{"distance":2015,"time":4,"i_long":106.832183,"station_id":"GDD","line":2,"transit":false,"station_name":"Gondangdia","i_lat":-6.186295,"is_transit":false},{"i_lat":-6.198556,"i_long":106.840169,"time":3,"transit":false,"line":2,"is_transit":false,"station_id":"CKI","distance":1750,"station_name":"Cikini"},{"i_lat":-6.209883,"is_transit":false,"transit":false,"line":2,"time":4,"distance":1590,"station_name":"Manggarai","i_long":106.84912,"station_id":"MRI"},{"time":4,"i_long":106.857948,"line":2,"is_transit":false,"station_id":"TEB","i_lat":-6.226659,"station_name":"Tebet","distance":2610,"transit":false},{"station_name":"Cawang","i_lat":-6.242512,"time":2,"line":2,"distance":1230,"is_transit":false,"i_long":106.856607,"station_id":"CW","transit":false},{"station_id":"DRN","i_long":106.85449,"transit":false,"distance":1546,"time":3,"station_name":"Duren Kalibata","line":2,"is_transit":false,"i_lat":-6.255332}],[{"is_transit":false,"transit":false,"i_lat":-6.171811,"i_long":106.665036,"time":0,"line":5,"station_id":"BPR","station_name":"Batuceper","distance":0},{"distance":1834,"transit":false,"i_long":106.679458,"line":5,"is_transit":false,"time":3,"station_id":"PI","i_lat":-6.169933,"station_name":"Poris"},{"transit":false,"station_name":"Kalideres","is_transit":false,"i_lat":-6.166068,"distance":2548,"i_long":106.701612,"station_id":"KDS","line":5,"time":3},{"time":3,"station_name":"Rawa Buaya","station_id":"RW","transit":false,"i_long":106.723064,"is_transit":false,"i_lat":-6.162758,"line":5,"distance":2504},{"distance":1152,"i_long":106.737035,"transit":false,"station_id":"BOI","time":4,"i_lat":-6.159876,"line":5,"station_name":"Bojongindah","is_transit":false},{"station_name":"Taman Kota","station_id":"TKO","i_long":106.756522,"distance":2334,"i_lat":-6.1587309999999995,"line":5,"is_transit":false,"transit":false,"time":2},{"is_transit":false,"transit":false,"i_lat":-6.161433,"line":5,"i_long":106.771379,"distance":1614,"station_id":"PSG","time":2,"station_name":"Pesing"},{"station_name":"Grogol","i_lat":-6.162021,"i_long":106.788277,"transit":false,"line":5,"time":2,"is_transit":false,"station_id":"GGL","distance":2036},{"station_id":"DU","time":3,"is_transit":true,"i_lat":-6.155215,"i_long":106.800832,"line":1,"transit":true,"distance":1700,"station_name":"Duri"},{"i_lat":-6.144674,"is_transit":false,"line":1,"distance":1230,"transit":false,"station_id":"AK","time":4,"station_name":"Angke","i_long":106.79867},{"is_transit":true,"distance":4102,"station_id":"KPB","transit":true,"time":9,"station_name":"Kampung Bandan","i_lat":-6.132549,"line":4,"i_long":106.826365},{"i_long":106.836569,"station_id":"RJW","station_name":"Rajawali","time":3,"line":11,"is_transit":false,"distance":1444,"transit":false,"i_lat":-6.14505},{"time":5,"station_name":"Kemayoran","i_lat":-6.161728,"i_long":106.839204,"transit":false,"line":11,"station_id":"KMO","is_transit":false,"distance":1901},{"i_lat":-6.174784,"is_transit":false,"distance":1436,"transit":false,"station_id":"PSE","i_long":106.84368,"station_name":"Pasar Senen","line":11,"time":4},{"station_name":"Gang Sentiong","i_lat":-6.185975,"distance":1567,"time":8,"i_long":106.850107,"station_id":"GST","is_transit":false,"transit":false,"line":11},{"time":1,"i_long":106.855437,"distance":973,"station_name":"Kramat","station_id":"KMT","line":11,"transit":false,"i_lat":-6.193792,"is_transit":false},{"station_id":"POK","is_transit":false,"station_name":"Pondok Jati","line":11,"i_lat":-6.209188,"distance":1829,"transit":false,"time":2,"i_long":106.861737},{"i_lat":-6.215091,"is_transit":true,"transit":true,"i_long":106.86807400000001,"distance":1236,"station_id":"JNG","line":1,"time":9,"station_name":"Jatinegara"},{"line":1,"is_transit":false,"time":2,"i_lat":-6.212485,"i_long":106.858896,"station_id":"MTR","distance":1377,"station_name":"Matraman","transit":false},{"is_transit":true,"station_id":"MRI","transit":true,"i_lat":-6.209883,"station_name":"Manggarai","line":2,"distance":1275,"i_long":106.84912,"time":2},{"time":4,"line":2,"station_name":"Tebet","transit":false,"i_lat":-6.226659,"i_long":106.857948,"station_id":"TEB","distance":2610,"is_transit":false},{"station_id":"CW","is_transit":false,"distance":1230,"transit":false,"time":2,"station_name":"Cawang","i_lat":-6.242512,"i_long":106.856607,"line":2},{"i_lat":-6.255332,"transit":false,"i_long":106.85449,"station_id":"DRN","is_transit":false,"line":2,"station_name":"Duren Kalibata","distance":1546,"time":3}]]}