{"data":[[{"is_transit":false,"station_id":"BPR","line":5,"transit":false,"station_name":"Batuceper","distance":0,"time":0,"i_lat":-6.171811,"i_long":106.665036},{"line":5,"distance":1834,"station_id":"PI","i_long":106.679458,"time":3,"transit":false,"station_name":"Poris","i_lat":-6.169933,"is_transit":false},{"time":3,"i_lat":-6.166068,"i_long":106.701612,"transit":false,"line":5,"distance":2548,"station_id":"KDS","station_name":"Kalideres","is_transit":false},{"station_id":"RW","station_name":"Rawa Buaya","is_transit":false,"distance":2504,"time":3,"transit":false,"i_lat":-6.162758,"i_long":106.723064,"line":5},{"transit":false,"station_id":"BOI","station_name":"Bojongindah","i_long":106.737035,"i_lat":-6.159876,"distance":1152,"is_transit":false,"time":4,"line":5},{"station_id":"TKO","time":2,"i_lat":-6.1587309999999995,"distance":2334,"transit":false,"i_long":106.756522,"is_transit":false,"line":5,"station_name":"Taman Kota"},{"station_id":"PSG","station_name":"Pesing","is_transit":false,"i_long":106.771379,"time":2,"line":5,"i_lat":-6.161433,"transit":false,"distance":1614},{"i_lat":-6.162021,"distance":2036,"is_transit":false,"station_id":"GGL","station_name":"Grogol","transit":false,"line":5,"time":2,"i_long":106.788277},{"i_lat":-6.155215,"transit":true,"station_id":"DU","i_long":106.800832,"line":1,"station_name":"Duri","distance":1700,"time":3,"is_transit":true},{"transit":false,"time":8,"station_id":"THB","i_long":106.811091,"line":1,"station_name":"Tanah Abang","is_transit":false,"distance":3632,"i_lat":-6.185545},{"line":1,"station_name":"Karet","time":5,"station_id":"KAT","transit":false,"is_transit":false,"distance":2029,"i_long":106.816351,"i_lat":-6.20132},{"i_lat":-6.201433,"distance":471,"station_name":"Sudirman Baru","transit":false,"time":1,"line":1,"i_long":106.819881,"station_id":"SUDB","is_transit":false},{"distance":280,"i_lat":-6.202263,"station_name":"Sudirman","transit":false,"line":1,"station_id":"SUD","is_transit":false,"time":1,"i_long":106.822649},{"transit":true,"distance":3186,"i_lat":-6.209883,"time":4,"i_long":106.84912,"line":2,"station_id":"MRI","station_name":"Manggarai","is_transit":true},{"is_transit":false,"time":4,"line":2,"transit":false,"i_lat":-6.226659,"station_id":"TEB","station_name":"Tebet","i_long":106.857948,"distance":2610},{"time":2,"station_id":"CW","i_lat":-6.242512,"line":2,"i_long":106.856607,"distance":1230,"station_name":"Cawang","transit":false,"is_transit":false},{"i_lat":-6.255332,"distance":1546,"time":3,"station_id":"DRN","transit":false,"is_transit":false,"line":2,"i_long":106.85449,"station_name":"Duren Kalibata"},{"i_lat":-6.263214,"i_long":106.851577,"transit":false,"line":2,"distance":824,"time":2,"station_name":"Pasar Minggu Baru","is_transit":false,"station_id":"PSMB"},{"line":2,"distance":2380,"time":2,"station_id":"PSM","i_lat":-6.2842400000000005,"station_name":"Pasar Minggu","is_transit":false,"transit":false,"i_long":106.843999},{"is_transit":false,"distance":2820,"transit":false,"station_name":"Tanjung Barat","line":2,"station_id":"TNT","i_long":106.838896,"time":4,"i_lat":-6.3080680000000005},{"i_lat":-6.330363,"station_id":"LNA","transit":false,"station_name":"Lenteng Agung","is_transit":false,"time":3,"distance":2671,"i_long":106.832616,"line":2},{"transit":false,"i_long":106.834175,"line":2,"distance":1029,"station_id":"UP","i_lat":-6.339291,"is_transit":false,"time":2,"station_name":"Univ. Pancasila"},{"distance":2264,"i_lat":-6.360749,"transit":false,"i_long":106.831474,"station_name":"Univ. Indonesia","time":3,"station_id":"UI","line":2,"is_transit":false},{"time":2,"station_id":"POC","i_long":106.831114,"station_name":"Pondok Cina","distance":1109,"is_transit":false,"i_lat":-6.369073,"line":2,"transit":false},{"i_lat":-6.391065,"station_name":"Depokbaru","is_transit":false,"time":4,"distance":2727,"transit":false,"station_id":"DPB","line":2,"i_long":106.819451},{"is_transit":false,"i_long":106.816926,"transit":false,"i_lat":-6.405256,"station_name":"Depok","distance":1584,"time":3,"station_id":"DP","line":2},{"i_long":106.800298,"station_name":"Citayam","time":6,"station_id":"CTA","distance":5084,"line":2,"is_transit":false,"transit":false,"i_lat":-6.448811},{"i_lat":-6.493243,"i_long":106.792719,"station_id":"BJD","distance":5197,"station_name":"Bojonggede","line":2,"is_transit":false,"time":5,"transit":false}],[{"distance":0,"line":5,"transit":false,"is_transit":false,"time":0,"i_lat":-6.171811,"station_id":"BPR","i_long":106.665036,"station_name":"Batuceper"},{"station_name":"Poris","i_long":106.679458,"time":3,"station_id":"PI","transit":false,"is_transit":false,"i_lat":-6.169933,"distance":1834,"line":5},{"time":3,"is_transit":false,"distance":2548,"station_id":"KDS","transit":false,"station_name":"Kalideres","i_lat":-6.166068,"line":5,"i_long":106.701612},{"line":5,"is_transit":false,"transit":false,"station_id":"RW","i_lat":-6.162758,"station_name":"Rawa Buaya","time":3,"distance":2504,"i_long":106.723064},{"line":5,"time":4,"i_lat":-6.159876,"distance":1152,"i_long":106.737035,"is_transit":false,"station_name":"Bojongindah","station_id":"BOI","transit":false},{"station_name":"Taman Kota","distance":2334,"line":5,"i_lat":-6.1587309999999995,"station_id":"TKO","i_long":106.756522,"time":2,"is_transit":false,"transit":false},{"station_name":"Pesing","time":2,"i_lat":-6.161433,"is_transit":false,"distance":1614,"station_id":"PSG","transit":false,"i_long":106.771379,"line":5},{"is_transit":false,"time":2,"distance":2036,"station_id":"GGL","transit":false,"i_lat":-6.162021,"station_name":"Grogol","i_long":106.788277,"line":5},{"is_transit":true,"i_lat":-6.155215,"line":1,"time":3,"distance":1700,"i_long":106.800832,"station_name":"Duri","transit":true,"station_id":"DU"},{"transit":false,"station_name":"Angke","time":4,"i_lat":-6.144674,"i_long":106.79867,"is_transit":false,"distance":1230,"line":1,"station_id":"AK"},{"distance":4102,"time":9,"is_transit":true,"station_id":"KPB","i_lat":-6.132549,"i_long":106.826365,"transit":true,"station_name":"Kampung Bandan","line":4},{"is_transit":true,"time":3,"i_long":106.812439,"station_id":"JAKK","line":2,"distance":1364,"station_name":"Jakarta Kota","transit":true,"i_lat":-6.137569},{"i_lat":-6.141205,"line":2,"time":4,"i_long":106.820901,"transit":false,"is_transit":false,"station_id":"JAY","distance":1264,"station_name":"Jayakarta"},{"transit":false,"distance":1080,"i_long":106.82482,"line":2,"station_name":"Manggabesar","is_transit":false,"i_lat":-6.149769,"station_id":"MGB","time":2},{"distance":906,"transit":false,"station_name":"Sawah Besar","is_transit":false,"i_long":106.827103,"time":2,"line":2,"station_id":"SW","i_lat":-6.160725},{"i_long":106.828284,"transit":false,"i_lat":-6.166716,"time":2,"station_id":"JUA","station_name":"Juanda","is_transit":false,"distance":1149,"line":2},{"line":2,"is_transit":false,"station_id":"GDD","transit":false,"i_long":106.832183,"i_lat":-6.186295,"time":4,"station_name":"Gondangdia","distance":2015},{"line":2,"i_long":106.840169,"transit":false,"station_name":"Cikini","time":3,"is_transit":false,"distance":1750,"station_id":"CKI","i_lat":-6.198556},{"transit":false,"i_long":106.84912,"is_transit":false,"station_name":"Manggarai","station_id":"MRI","time":4,"i_lat":-6.209883,"distance":1590,"line":2},{"transit":false,"distance":2610,"station_id":"TEB","i_long":106.857948,"line":2,"i_lat":-6.226659,"station_name":"Tebet","is_transit":false,"time":4},{"station_id":"CW","i_lat":-6.242512,"is_transit":false,"distance":1230,"station_name":"Cawang","time":2,"i_long":106.856607,"line":2,"transit":false},{"time":3,"station_name":"Duren Kalibata","station_id":"DRN","transit":false,"i_lat":-6.255332,"line":2,"i_long":106.85449,"is_transit":false,"distance":1546},{"station_name":"Pasar Minggu Baru","time":2,"station_id":"PSMB","line":2,"is_transit":false,"i_lat":-6.263214,"distance":824,"transit":false,"i_long":106.851577},{"i_lat":-6.2842400000000005,"time":2,"is_transit":false,"station_name":"Pasar Minggu","station_id":"PSM","transit":false,"line":2,"distance":2380,"i_long":106.843999},{"station_id":"TNT","distance":2820,"is_transit":false,"i_long":106.838896,"station_name":"Tanjung Barat","i_lat":-6.3080680000000005,"transit":false,"line":2,"time":4},{"transit":false,"distance":2671,"time":3,"station_id":"LNA","i_lat":-6.330363,"station_name":"Lenteng Agung","is_transit":false,"i_long":106.832616,"line":2},{"is_transit":false,"station_name":"Univ. Pancasila","transit":false,"i_long":106.834175,"time":2,"line":2,"distance":1029,"station_id":"UP","i_lat":-6.339291},{"distance":2264,"station_id":"UI","i_long":106.831474,"i_lat":-6.360749,"transit":false,"station_name":"Univ. Indonesia","time":3,"is_transit":false,"line":2},{"is_transit":false,"time":2,"station_name":"Pondok Cina","line":2,"i_long":106.831114,"i_lat":-6.369073,"transit":false,"station_id":"POC","distance":1109},{"station_id":"DPB","transit":false,"distance":2727,"i_long":106.819451,"line":2,"station_name":"Depokbaru","time":4,"i_lat":-6.391065,"is_transit":false},{"line":2,"distance":1584,"station_id":"DP","i_lat":-6.405256,"transit":false,"station_name":"Depok","time":3,"i_long":106.816926,"is_transit":false},{"is_transit":false,"station_id":"CTA","distance":5084,"transit":false,"line":2,"time":6,"i_lat":-6.448811,"station_name":"Citayam","i_long":106.800298},{"transit":false,"is_transit":false,"distance":5197,"line":2,"station_id":"BJD","time":5,"i_long":106.792719,"i_lat":-6.493243,"station_name":"Bojonggede"}],[{"distance":0,"line":5,"station_name":"Batuceper","transit":false,"i_lat":-6.171811,"i_long":106.665036,"station_id":"BPR","time":0,"is_transit":false},{"is_transit":false,"transit":false,"line":5,"i_lat":-6.169933,"time":3,"station_name":"Poris","i_long":106.679458,"distance":1834,"station_id":"PI"},{"i_long":106.701612,"line":5,"transit":false,"time":3,"distance":2548,"station_name":"Kalideres","is_transit":false,"station_id":"KDS","i_lat":-6.166068},{"transit":false,"is_transit":false,"i_long":106.723064,"distance":2504,"station_name":"Rawa Buaya","i_lat":-6.162758,"time":3,"line":5,"station_id":"RW"},{"time":4,"station_name":"Bojongindah","station_id":"BOI","i_long":106.737035,"line":5,"distance":1152,"is_transit":false,"transit":false,"i_lat":-6.159876},{"station_name":"Taman Kota","station_id":"TKO","line":5,"i_lat":-6.1587309999999995,"i_long":106.756522,"time":2,"is_transit":false,"transit":false,"distance":2334},{"time":2,"transit":false,"is_transit":false,"i_long":106.771379,"line":5,"i_lat":-6.161433,"station_id":"PSG","distance":1614,"station_name":"Pesing"},{"i_long":106.788277,"transit":false,"is_transit":false,"i_lat":-6.162021,"line":5,"distance":2036,"time":2,"station_name":"Grogol","station_id":"GGL"},{"line":1,"station_id":"DU","station_name":"Duri","time":3,"transit":true,"is_transit":true,"i_long":106.800832,"i_lat":-6.155215,"distance":1700},{"time":4,"transit":false,"i_long":106.79867,"station_id":"AK","line":1,"i_lat":-6.144674,"is_transit":false,"station_name":"Angke","distance":1230},{"transit":true,"is_transit":true,"distance":4102,"i_long":106.826365,"station_name":"Kampung Bandan","station_id":"KPB","i_lat":-6.132549,"line":4,"time":9},{"line":11,"is_transit":false,"distance":1444,"time":3,"station_name":"Rajawali","transit":false,"i_lat":-6.14505,"i_long":106.836569,"station_id":"RJW"},{"transit":false,"i_long":106.839204,"is_transit":false,"distance":1901,"station_name":"Kemayoran","i_lat":-6.161728,"line":11,"time":5,"station_id":"KMO"},{"distance":1436,"transit":false,"station_name":"Pasar Senen","time":4,"i_lat":-6.174784,"i_long":106.84368,"line":11,"station_id":"PSE","is_transit":false},{"time":8,"is_transit":false,"i_long":106.850107,"distance":1567,"i_lat":-6.185975,"station_name":"Gang Sentiong","station_id":"GST","transit":false,"line":11},{"transit":false,"station_name":"Kramat","distance":973,"i_lat":-6.193792,"i_long":106.855437,"line":11,"time":1,"is_transit":false,"station_id":"KMT"},{"i_long":106.861737,"station_id":"POK","line":11,"time":2,"station_name":"Pondok Jati","is_transit":false,"i_lat":-6.209188,"distance":1829,"transit":false},{"i_lat":-6.215091,"time":9,"i_long":106.86807400000001,"station_id":"JNG","transit":true,"is_transit":true,"station_name":"Jatinegara","distance":1236,"line":1},{"i_lat":-6.212485,"line":1,"station_name":"Matraman","distance":1377,"station_id":"MTR","i_long":106.858896,"transit":false,"is_transit":false,"time":2},{"station_name":"Manggarai","i_lat":-6.209883,"i_long":106.84912,"is_transit":true,"station_id":"MRI","distance":1275,"transit":true,"time":2,"line":2},{"time":4,"is_transit":false,"transit":false,"distance":2610,"i_long":106.857948,"station_name":"Tebet","station_id":"TEB","i_lat":-6.226659,"line":2},{"transit":false,"station_name":"Cawang","time":2,"i_lat":-6.242512,"station_id":"CW","is_transit":false,"distance":1230,"line":2,"i_long":106.856607},{"station_name":"Duren Kalibata","i_lat":-6.255332,"line":2,"distance":1546,"transit":false,"station_id":"DRN","is_transit":false,"i_long":106.85449,"time":3},{"line":2,"station_name":"Pasar Minggu Baru","i_lat":-6.263214,"station_id":"PSMB","distance":824,"is_transit":false,"time":2,"transit":false,"i_long":106.851577},{"station_id":"PSM","transit":false,"i_long":106.843999,"line":2,"is_transit":false,"i_lat":-6.2842400000000005,"station_name":"Pasar Minggu","distance":2380,"time":2},{"transit":false,"time":4,"distance":2820,"line":2,"station_name":"Tanjung Barat","is_transit":false,"i_lat":-6.3080680000000005,"station_id":"TNT","i_long":106.838896},{"transit":false,"is_transit":false,"i_lat":-6.330363,"time":3,"station_id":"LNA","distance":2671,"line":2,"station_name":"Lenteng Agung","i_long":106.832616},{"line":2,"is_transit":false,"time":2,"station_name":"Univ. Pancasila","i_lat":-6.339291,"distance":1029,"station_id":"UP","transit":false,"i_long":106.834175},{"time":3,"line":2,"station_name":"Univ. Indonesia","transit":false,"i_long":106.831474,"is_transit":false,"distance":2264,"station_id":"UI","i_lat":-6.360749},{"line":2,"station_name":"Pondok Cina","is_transit":false,"distance":1109,"i_lat":-6.369073,"transit":false,"i_long":106.831114,"time":2,"station_id":"POC"},{"line":2,"station_name":"Depokbaru","station_id":"DPB","time":4,"transit":false,"i_lat":-6.391065,"i_long":106.819451,"is_transit":false,"distance":2727},{"time":3,"i_lat":-6.405256,"station_id":"DP","transit":false,"is_transit":false,"distance":1584,"station_name":"Depok","line":2,"i_long":106.816926},{"i_lat":-6.448811,"transit":false,"time":6,"station_id":"CTA","is_transit":false,"distance":5084,"station_name":"Citayam","i_long":106.800298,"line":2},{"time":5,"station_id":"BJD","i_lat":-6.493243,"i_long":106.792719,"station_name":"Bojonggede","is_transit":false,"distance":5197,"line":2,"transit":false}]]}