{"data":[[{"distance":0,"station_id":"BPR","i_long":106.665036,"station_name":"Batuceper","is_transit":false,"transit":false,"time":0,"i_lat":-6.171811,"line":0},{"transit":false,"line":5,"is_transit":false,"distance":1834,"station_name":"Poris","i_long":106.679458,"station_id":"PI","time":3,"i_lat":-6.169933},{"time":3,"transit":false,"station_name":"Kalideres","station_id":"KDS","is_transit":false,"distance":2548,"i_lat":-6.166068,"i_long":106.701612,"line":5},{"station_id":"RW","distance":2504,"line":5,"i_lat":-6.162758,"transit":false,"i_long":106.723064,"station_name":"Rawa Buaya","is_transit":false,"time":3},{"i_lat":-6.159876,"i_long":106.737035,"line":0,"distance":1152,"is_transit":false,"time":4,"station_id":"BOI","station_name":"Bojongindah","transit":false},{"line":5,"distance":2334,"station_id":"TKO","i_long":106.756522,"station_name":"Taman Kota","time":2,"is_transit":false,"transit":false,"i_lat":-6.1587309999999995},{"i_lat":-6.161433,"station_name":"Pesing","transit":false,"station_id":"PSG","distance":1614,"is_transit":false,"time":2,"i_long":106.771379,"line":5},{"station_name":"Grogol","transit":false,"distance":2036,"line":5,"time":2,"i_long":106.788277,"i_lat":-6.162021,"is_transit":false,"station_id":"GGL"},{"station_name":"Duri","is_transit":true,"time":3,"i_long":106.800832,"station_id":"DU","transit":true,"distance":1700,"line":1,"i_lat":-6.155215},{"station_name":"Tanah Abang","line":1,"station_id":"THB","i_long":106.811091,"is_transit":true,"i_lat":-6.185545,"time":8,"distance":3632,"transit":false},{"station_name":"Karet","i_lat":-6.20132,"i_long":106.816351,"distance":2029,"line":1,"transit":false,"is_transit":false,"station_id":"KAT","time":5},{"time":1,"is_transit":false,"distance":471,"i_lat":-6.201433,"i_long":106.819881,"transit":false,"station_id":"SUDB","station_name":"Sudirman Baru","line":1},{"line":1,"is_transit":false,"station_name":"Sudirman","station_id":"SUD","distance":280,"transit":false,"time":1,"i_long":106.822649,"i_lat":-6.202263},{"i_lat":-6.209883,"time":4,"transit":false,"line":0,"station_id":"MRI","distance":3186,"station_name":"Manggarai","i_long":106.84912,"is_transit":true},{"i_long":106.858896,"distance":1275,"station_id":"MTR","station_name":"Matraman","time":2,"line":1,"is_transit":false,"transit":false,"i_lat":-6.212485},{"is_transit":true,"transit":false,"i_long":106.86807400000001,"time":8,"line":0,"i_lat":-6.215091,"distance":1377,"station_name":"Jatinegara","station_id":"JNG"},{"station_id":"KLD","time":3,"line":1,"station_name":"Klender","transit":false,"i_lat":-6.2135,"is_transit":false,"i_long":106.899548,"distance":3395},{"station_name":"Buaran","station_id":"BUA","i_long":106.922662,"i_lat":-6.215568,"time":2,"distance":3100,"line":0,"is_transit":false,"transit":false},{"line":1,"time":1,"station_name":"Klenderbaru","i_long":106.939679,"is_transit":false,"transit":false,"distance":1305,"i_lat":-6.217455,"station_id":"KLDB"},{"station_id":"CUK","distance":1385,"time":8,"station_name":"Cakung","i_lat":-6.219053,"i_long":106.951283,"line":0,"is_transit":false,"transit":false},{"distance":3097,"i_lat":-6.224515,"station_name":"Kranji","line":1,"is_transit":false,"station_id":"KRI","i_long":106.977657,"time":3,"transit":false},{"station_name":"Bekasi","time":4,"is_transit":false,"distance":2520,"transit":false,"station_id":"BKS","i_lat":-6.236616,"i_long":106.997013,"line":0},{"i_long":107.016735,"transit":false,"time":2,"station_name":"Bekasi Timur","station_id":"BKST","line":0,"is_transit":false,"i_lat":-6.248029,"distance":2368},{"station_name":"Tambun","transit":false,"i_lat":-6.258864,"station_id":"TB","line":1,"time":7,"distance":4460,"i_long":107.055722,"is_transit":false},{"time":3,"station_id":"CIT","distance":3420,"station_name":"Cibitung","i_long":107.083084,"transit":false,"line":0,"is_transit":false,"i_lat":-6.261877},{"station_id":"TLM","distance":2800,"station_name":"Metland Telaga Murni","is_transit":false,"i_lat":-6.262938,"line":1,"time":2,"transit":false,"i_long":107.093313},{"time":4,"distance":3689,"line":0,"station_id":"CKR","i_long":107.144613,"i_lat":-6.2553149999999995,"station_name":"Cikarang","transit":false,"is_transit":false}],[{"is_transit":false,"time":0,"line":0,"station_id":"BPR","station_name":"Batuceper","distance":0,"transit":false,"i_long":106.665036,"i_lat":-6.171811},{"station_id":"PI","is_transit":false,"i_lat":-6.169933,"i_long":106.679458,"line":5,"transit":false,"time":3,"distance":1834,"station_name":"Poris"},{"distance":2548,"i_lat":-6.166068,"i_long":106.701612,"line":5,"is_transit":false,"station_name":"Kalideres","station_id":"KDS","time":3,"transit":false},{"line":5,"i_long":106.723064,"time":3,"is_transit":false,"transit":false,"station_id":"RW","distance":2504,"station_name":"Rawa Buaya","i_lat":-6.162758},{"station_id":"BOI","time":4,"transit":false,"distance":1152,"i_long":106.737035,"station_name":"Bojongindah","is_transit":false,"i_lat":-6.159876,"line":0},{"is_transit":false,"line":5,"station_name":"Taman Kota","time":2,"i_long":106.756522,"distance":2334,"transit":false,"station_id":"TKO","i_lat":-6.1587309999999995},{"line":5,"is_transit":false,"time":2,"station_id":"PSG","transit":false,"distance":1614,"station_name":"Pesing","i_lat":-6.161433,"i_long":106.771379},{"is_transit":false,"distance":2036,"i_long":106.788277,"transit":false,"i_lat":-6.162021,"station_id":"GGL","time":2,"station_name":"Grogol","line":5},{"station_id":"DU","time":3,"i_lat":-6.155215,"is_transit":true,"distance":1700,"i_long":106.800832,"station_name":"Duri","transit":true,"line":1},{"time":4,"i_lat":-6.144674,"station_id":"AK","i_long":106.79867,"distance":1230,"line":0,"is_transit":false,"station_name":"Angke","transit":false},{"i_lat":-6.132549,"is_transit":true,"transit":true,"i_long":106.826365,"station_id":"KPB","line":0,"distance":4102,"station_name":"Kampung Bandan","time":9},{"is_transit":false,"transit":false,"i_lat":-6.14505,"station_name":"Rajawali","i_long":106.836569,"time":3,"distance":1444,"station_id":"RJW","line":11},{"time":5,"station_id":"KMO","i_lat":-6.161728,"distance":1901,"station_name":"Kemayoran","transit":false,"is_transit":false,"line":11,"i_long":106.839204},{"station_name":"Pasar Senen","is_transit":false,"distance":1436,"transit":false,"i_lat":-6.174784,"line":11,"i_long":106.84368,"station_id":"PSE","time":4},{"station_id":"GST","time":8,"distance":1567,"i_long":106.850107,"line":11,"i_lat":-6.185975,"transit":false,"is_transit":false,"station_name":"Gang Sentiong"},{"is_transit":false,"station_id":"KMT","time":1,"transit":false,"station_name":"Kramat","distance":973,"i_lat":-6.193792,"i_long":106.855437,"line":11},{"i_long":106.861737,"time":2,"station_name":"Pondok Jati","station_id":"POK","line":11,"is_transit":false,"transit":false,"i_lat":-6.209188,"distance":1829},{"distance":1236,"station_id":"JNG","transit":true,"is_transit":true,"i_lat":-6.215091,"time":9,"i_long":106.86807400000001,"line":0,"station_name":"Jatinegara"},{"transit":false,"i_long":106.899548,"time":3,"line":1,"i_lat":-6.2135,"distance":3395,"is_transit":false,"station_id":"KLD","station_name":"Klender"},{"line":0,"distance":3100,"station_id":"BUA","transit":false,"time":2,"i_lat":-6.215568,"i_long":106.922662,"is_transit":false,"station_name":"Buaran"},{"station_name":"Klenderbaru","is_transit":false,"station_id":"KLDB","time":1,"distance":1305,"transit":false,"i_lat":-6.217455,"i_long":106.939679,"line":1},{"i_lat":-6.219053,"line":0,"transit":false,"time":8,"distance":1385,"station_id":"CUK","station_name":"Cakung","i_long":106.951283,"is_transit":false},{"station_name":"Kranji","line":1,"transit":false,"time":3,"i_long":106.977657,"station_id":"KRI","distance":3097,"i_lat":-6.224515,"is_transit":false},{"time":4,"station_id":"BKS","station_name":"Bekasi","is_transit":false,"transit":false,"i_long":106.997013,"line":0,"distance":2520,"i_lat":-6.236616},{"is_transit":false,"station_name":"Bekasi Timur","i_lat":-6.248029,"line":0,"distance":2368,"station_id":"BKST","time":2,"transit":false,"i_long":107.016735},{"i_long":107.055722,"transit":false,"is_transit":false,"time":7,"station_id":"TB","i_lat":-6.258864,"distance":4460,"station_name":"Tambun","line":1},{"is_transit":false,"line":0,"station_id":"CIT","distance":3420,"transit":false,"i_long":107.083084,"time":3,"i_lat":-6.261877,"station_name":"Cibitung"},{"station_id":"TLM","i_lat":-6.262938,"is_transit":false,"station_name":"Metland Telaga Murni","line":1,"time":2,"i_long":107.093313,"distance":2800,"transit":false},{"station_id":"CKR","i_long":107.144613,"distance":3689,"i_lat":-6.2553149999999995,"line":0,"station_name":"Cikarang","is_transit":false,"time":4,"transit":false}],[{"i_long":106.665036,"is_transit":false,"i_lat":-6.171811,"station_name":"Batuceper","line":0,"transit":false,"distance":0,"time":0,"station_id":"BPR"},{"line":5,"time":3,"station_name":"Poris","i_lat":-6.169933,"i_long":106.679458,"is_transit":false,"transit":false,"station_id":"PI","distance":1834},{"i_lat":-6.166068,"station_id":"KDS","is_transit":false,"time":3,"distance":2548,"station_name":"Kalideres","transit":false,"i_long":106.701612,"line":5},{"i_long":106.723064,"station_name":"Rawa Buaya","is_transit":false,"time":3,"transit":false,"station_id":"RW","distance":2504,"i_lat":-6.162758,"line":5},{"station_id":"BOI","station_name":"Bojongindah","line":0,"transit":false,"i_lat":-6.159876,"is_transit":false,"distance":1152,"i_long":106.737035,"time":4},{"is_transit":false,"line":5,"distance":2334,"transit":false,"i_lat":-6.1587309999999995,"time":2,"station_name":"Taman Kota","i_long":106.756522,"station_id":"TKO"},{"time":2,"line":5,"station_name":"Pesing","is_transit":false,"i_lat":-6.161433,"transit":false,"station_id":"PSG","i_long":106.771379,"distance":1614},{"i_long":106.788277,"line":5,"station_name":"Grogol","distance":2036,"i_lat":-6.162021,"transit":false,"station_id":"GGL","is_transit":false,"time":2},{"line":1,"i_lat":-6.155215,"station_id":"DU","time":3,"distance":1700,"is_transit":true,"station_name":"Duri","transit":true,"i_long":106.800832},{"is_transit":false,"time":4,"distance":1230,"line":0,"station_id":"AK","station_name":"Angke","transit":false,"i_long":106.79867,"i_lat":-6.144674},{"station_id":"KPB","distance":4102,"is_transit":true,"transit":false,"i_long":106.826365,"station_name":"Kampung Bandan","i_lat":-6.132549,"line":0,"time":9},{"distance":1364,"i_lat":-6.137569,"line":0,"time":3,"station_name":"Jakarta Kota","station_id":"JAKK","i_long":106.812439,"is_transit":true,"transit":true},{"i_lat":-6.141205,"i_long":106.820901,"station_id":"JAY","line":7,"time":4,"distance":1264,"is_transit":false,"transit":false,"station_name":"Jayakarta"},{"is_transit":false,"distance":1080,"line":2,"transit":false,"i_lat":-6.149769,"time":2,"station_id":"MGB","i_long":106.82482,"station_name":"Manggabesar"},{"i_long":106.827103,"is_transit":false,"time":2,"transit":false,"station_name":"Sawah Besar","station_id":"SW","distance":906,"i_lat":-6.160725,"line":2},{"station_id":"JUA","line":2,"is_transit":false,"time":2,"distance":1149,"i_lat":-6.166716,"i_long":106.828284,"station_name":"Juanda","transit":false},{"transit":false,"is_transit":false,"i_long":106.832183,"station_name":"Gondangdia","time":4,"station_id":"GDD","distance":2015,"line":2,"i_lat":-6.186295},{"time":3,"transit":false,"i_long":106.840169,"line":0,"is_transit":false,"station_name":"Cikini","i_lat":-6.198556,"station_id":"CKI","distance":1750},{"station_id":"MRI","station_name":"Manggarai","is_transit":true,"i_long":106.84912,"time":4,"i_lat":-6.209883,"distance":1590,"line":0,"transit":true},{"station_name":"Matraman","distance":1275,"transit":false,"line":1,"i_lat":-6.212485,"i_long":106.858896,"is_transit":false,"station_id":"MTR","time":2},{"time":8,"distance":1377,"line":0,"transit":false,"station_id":"JNG","station_name":"Jatinegara","is_transit":true,"i_long":106.86807400000001,"i_lat":-6.215091},{"line":1,"transit":false,"i_lat":-6.2135,"distance":3395,"is_transit":false,"station_id":"KLD","i_long":106.899548,"station_name":"Klender","time":3},{"i_long":106.922662,"transit":false,"i_lat":-6.215568,"time":2,"station_id":"BUA","is_transit":false,"distance":3100,"station_name":"Buaran","line":0},{"is_transit":false,"station_id":"KLDB","time":1,"station_name":"Klenderbaru","i_long":106.939679,"distance":1305,"transit":false,"i_lat":-6.217455,"line":1},{"line":0,"time":8,"station_id":"CUK","is_transit":false,"i_long":106.951283,"distance":1385,"transit":false,"i_lat":-6.219053,"station_name":"Cakung"},{"distance":3097,"transit":false,"i_lat":-6.224515,"time":3,"station_name":"Kranji","is_transit":false,"i_long":106.977657,"line":1,"station_id":"KRI"},{"transit":false,"station_id":"BKS","station_name":"Bekasi","distance":2520,"i_lat":-6.236616,"line":0,"is_transit":false,"i_long":106.997013,"time":4},{"is_transit":false,"station_id":"BKST","i_long":107.016735,"i_lat":-6.248029,"transit":false,"line":0,"time":2,"distance":2368,"station_name":"Bekasi Timur"},{"distance":4460,"i_long":107.055722,"is_transit":false,"i_lat":-6.258864,"time":7,"transit":false,"line":1,"station_name":"Tambun","station_id":"TB"},{"station_id":"CIT","distance":3420,"transit":false,"i_lat":-6.261877,"i_long":107.083084,"is_transit":false,"station_name":"Cibitung","time":3,"line":0},{"station_id":"TLM","is_transit":false,"station_name":"Metland Telaga Murni","i_long":107.093313,"i_lat":-6.262938,"transit":false,"distance":2800,"time":2,"line":1},{"distance":3689,"i_long":107.144613,"station_id":"CKR","is_transit":false,"line":0,"station_name":"Cikarang","transit":false,"time":4,"i_lat":-6.2553149999999995}],[{"line":0,"i_long":106.665036,"is_transit":false,"station_name":"Batuceper","time":0,"i_lat":-6.171811,"station_id":"BPR","distance":0,"transit":false},{"time":3,"station_id":"PI","is_transit":false,"station_name":"Poris","transit":false,"line":5,"i_lat":-6.169933,"distance":1834,"i_long":106.679458},{"station_id":"KDS","station_name":"Kalideres","i_lat":-6.166068,"transit":false,"time":3,"i_long":106.701612,"line":5,"distance":2548,"is_transit":false},{"time":3,"i_long":106.723064,"station_id":"RW","i_lat":-6.162758,"is_transit":false,"transit":false,"line":5,"distance":2504,"station_name":"Rawa Buaya"},{"time":4,"transit":false,"station_id":"BOI","line":0,"i_long":106.737035,"is_transit":false,"distance":1152,"i_lat":-6.159876,"station_name":"Bojongindah"},{"station_name":"Taman Kota","transit":false,"is_transit":false,"i_long":106.756522,"distance":2334,"line":5,"time":2,"i_lat":-6.1587309999999995,"station_id":"TKO"},{"transit":false,"station_name":"Pesing","is_transit":false,"i_lat":-6.161433,"station_id":"PSG","i_long":106.771379,"time":2,"line":5,"distance":1614},{"distance":2036,"station_id":"GGL","transit":false,"time":2,"is_transit":false,"i_lat":-6.162021,"i_long":106.788277,"line":5,"station_name":"Grogol"},{"line":1,"is_transit":true,"distance":1700,"station_id":"DU","station_name":"Duri","transit":true,"i_lat":-6.155215,"time":3,"i_long":106.800832},{"line":1,"station_name":"Tanah Abang","time":8,"i_long":106.811091,"station_id":"THB","is_transit":true,"distance":3632,"i_lat":-6.185545,"transit":false},{"is_transit":false,"i_lat":-6.20132,"station_id":"KAT","station_name":"Karet","transit":false,"distance":2029,"time":5,"i_long":106.816351,"line":1},{"distance":471,"station_id":"SUDB","i_long":106.819881,"i_lat":-6.201433,"is_transit":false,"station_name":"Sudirman Baru","transit":false,"time":1,"line":1},{"line":1,"station_id":"SUD","is_transit":false,"time":1,"i_long":106.822649,"station_name":"Sudirman","i_lat":-6.202263,"transit":false,"distance":280},{"time":4,"station_id":"MRI","i_long":106.84912,"distance":3186,"line":0,"is_transit":true,"station_name":"Manggarai","transit":true,"i_lat":-6.209883},{"distance":1590,"time":4,"is_transit":false,"transit":false,"line":0,"station_id":"CKI","i_long":106.840169,"station_name":"Cikini","i_lat":-6.198556},{"is_transit":false,"distance":1750,"transit":false,"station_name":"Gondangdia","i_lat":-6.186295,"station_id":"GDD","i_long":106.832183,"line":2,"time":3},{"i_lat":-6.166716,"is_transit":false,"distance":2015,"line":2,"transit":false,"time":4,"station_name":"Juanda","station_id":"JUA","i_long":106.828284},{"distance":1149,"station_id":"SW","i_lat":-6.160725,"transit":false,"station_name":"Sawah Besar","line":2,"time":2,"is_transit":false,"i_long":106.827103},{"distance":906,"station_name":"Manggabesar","i_lat":-6.149769,"is_transit":false,"transit":false,"i_long":106.82482,"time":2,"line":2,"station_id":"MGB"},{"line":7,"time":2,"transit":false,"station_name":"Jayakarta","station_id":"JAY","is_transit":false,"i_lat":-6.141205,"i_long":106.820901,"distance":1080},{"line":0,"is_transit":true,"transit":true,"station_id":"JAKK","i_long":106.812439,"station_name":"Jakarta Kota","distance":1264,"time":4,"i_lat":-6.137569},{"line":0,"i_lat":-6.132549,"i_long":106.826365,"distance":1364,"time":3,"station_id":"KPB","is_transit":true,"station_name":"Kampung Bandan","transit":true},{"i_lat":-6.14505,"time":3,"line":11,"transit":false,"i_long":106.836569,"station_id":"RJW","is_transit":false,"distance":1444,"station_name":"Rajawali"},{"is_transit":false,"line":11,"station_id":"KMO","i_long":106.839204,"time":5,"transit":false,"i_lat":-6.161728,"station_name":"Kemayoran","distance":1901},{"is_transit":false,"i_long":106.84368,"line":11,"station_id":"PSE","i_lat":-6.174784,"distance":1436,"transit":false,"time":4,"station_name":"Pasar Senen"},{"line":11,"station_name":"Gang Sentiong","station_id":"GST","is_transit":false,"i_lat":-6.185975,"i_long":106.850107,"transit":false,"time":8,"distance":1567},{"i_lat":-6.193792,"distance":973,"station_name":"Kramat","i_long":106.855437,"transit":false,"line":11,"is_transit":false,"time":1,"station_id":"KMT"},{"transit":false,"station_id":"POK","station_name":"Pondok Jati","time":2,"is_transit":false,"i_long":106.861737,"distance":1829,"line":11,"i_lat":-6.209188},{"distance":1236,"is_transit":true,"i_lat":-6.215091,"time":9,"line":0,"transit":true,"i_long":106.86807400000001,"station_id":"JNG","station_name":"Jatinegara"},{"station_name":"Klender","is_transit":false,"i_lat":-6.2135,"i_long":106.899548,"station_id":"KLD","distance":3395,"time":3,"transit":false,"line":1},{"i_long":106.922662,"distance":3100,"is_transit":false,"transit":false,"i_lat":-6.215568,"line":0,"station_id":"BUA","time":2,"station_name":"Buaran"},{"station_name":"Klenderbaru","i_lat":-6.217455,"line":1,"i_long":106.939679,"station_id":"KLDB","transit":false,"distance":1305,"is_transit":false,"time":1},{"station_name":"Cakung","transit":false,"i_lat":-6.219053,"line":0,"distance":1385,"station_id":"CUK","is_transit":false,"time":8,"i_long":106.951283},{"time":3,"i_long":106.977657,"line":1,"is_transit":false,"distance":3097,"transit":false,"i_lat":-6.224515,"station_name":"Kranji","station_id":"KRI"},{"transit":false,"station_name":"Bekasi","i_lat":-6.236616,"line":0,"i_long":106.997013,"is_transit":false,"station_id":"BKS","time":4,"distance":2520},{"station_id":"BKST","station_name":"Bekasi Timur","transit":false,"i_lat":-6.248029,"time":2,"i_long":107.016735,"line":0,"distance":2368,"is_transit":false},{"i_lat":-6.258864,"is_transit":false,"i_long":107.055722,"station_id":"TB","distance":4460,"time":7,"line":1,"station_name":"Tambun","transit":false},{"transit":false,"is_transit":false,"i_lat":-6.261877,"station_id":"CIT","station_name":"Cibitung","time":3,"line":0,"i_long":107.083084,"distance":3420},{"is_transit":false,"distance":2800,"transit":false,"i_lat":-6.262938,"i_long":107.093313,"line":1,"station_id":"TLM","station_name":"Metland Telaga Murni","time":2},{"time":4,"i_long":107.144613,"is_transit":false,"station_name":"Cikarang","station_id":"CKR","distance":3689,"transit":false,"i_lat":-6.2553149999999995,"line":0}]]}