{"data":[[{"station_id":"BPR","i_lat":-6.171811,"station_name":"Batuceper","time":0,"transit":false,"i_long":106.665036,"line":5,"is_transit":false,"distance":0},{"transit":false,"is_transit":false,"line":5,"i_lat":-6.169933,"time":3,"station_id":"PI","distance":1834,"i_long":106.679458,"station_name":"Poris"},{"line":5,"is_transit":false,"i_long":106.701612,"transit":false,"station_id":"KDS","distance":2548,"station_name":"Kalideres","time":3,"i_lat":-6.166068},{"station_id":"RW","transit":false,"is_transit":false,"time":3,"distance":2504,"i_long":106.723064,"station_name":"Rawa Buaya","i_lat":-6.162758,"line":5},{"station_name":"Bojongindah","distance":1152,"line":5,"i_lat":-6.159876,"i_long":106.737035,"is_transit":false,"time":4,"station_id":"BOI","transit":false},{"station_name":"Taman Kota","transit":false,"i_lat":-6.1587309999999995,"distance":2334,"time":2,"i_long":106.756522,"line":5,"is_transit":false,"station_id":"TKO"},{"is_transit":false,"station_name":"Pesing","line":5,"i_lat":-6.161433,"i_long":106.771379,"transit":false,"station_id":"PSG","distance":1614,"time":2},{"distance":2036,"i_lat":-6.162021,"line":5,"i_long":106.788277,"transit":false,"is_transit":false,"time":2,"station_name":"Grogol","station_id":"GGL"},{"transit":true,"time":3,"station_name":"Duri","line":1,"i_long":106.800832,"station_id":"DU","is_transit":true,"i_lat":-6.155215,"distance":1700},{"time":8,"distance":3632,"transit":false,"station_id":"THB","i_long":106.811091,"station_name":"Tanah Abang","i_lat":-6.185545,"line":1,"is_transit":false},{"i_long":106.816351,"time":5,"station_id":"KAT","station_name":"Karet","is_transit":false,"transit":false,"i_lat":-6.20132,"line":1,"distance":2029},{"distance":471,"transit":false,"is_transit":false,"time":1,"station_id":"SUDB","line":1,"i_lat":-6.201433,"station_name":"Sudirman Baru","i_long":106.819881},{"is_transit":false,"line":1,"transit":false,"station_id":"SUD","time":1,"i_lat":-6.202263,"i_long":106.822649,"station_name":"Sudirman","distance":280},{"distance":3186,"i_lat":-6.209883,"line":2,"station_id":"MRI","i_long":106.84912,"station_name":"Manggarai","transit":false,"time":4,"is_transit":false},{"i_long":106.858896,"i_lat":-6.212485,"time":2,"distance":1275,"station_id":"MTR","transit":false,"station_name":"Matraman","is_transit":false,"line":1},{"station_id":"JNG","time":8,"i_long":106.86807400000001,"transit":false,"station_name":"Jatinegara","distance":1377,"line":1,"is_transit":false,"i_lat":-6.215091},{"distance":3395,"transit":false,"time":3,"is_transit":false,"station_name":"Klender","i_lat":-6.2135,"station_id":"KLD","i_long":106.899548,"line":1},{"station_id":"BUA","is_transit":false,"station_name":"Buaran","distance":3100,"transit":false,"i_lat":-6.215568,"time":2,"i_long":106.922662,"line":1},{"station_name":"Klenderbaru","station_id":"KLDB","i_lat":-6.217455,"i_long":106.939679,"line":1,"transit":false,"is_transit":false,"distance":1305,"time":1},{"is_transit":false,"time":8,"station_name":"Cakung","transit":false,"distance":1385,"line":1,"i_lat":-6.219053,"i_long":106.951283,"station_id":"CUK"}],[{"i_lat":-6.171811,"station_id":"BPR","transit":false,"is_transit":false,"i_long":106.665036,"line":5,"time":0,"station_name":"Batuceper","distance":0},{"time":3,"is_transit":false,"i_lat":-6.169933,"distance":1834,"transit":false,"i_long":106.679458,"line":5,"station_name":"Poris","station_id":"PI"},{"is_transit":false,"distance":2548,"i_long":106.701612,"line":5,"time":3,"station_name":"Kalideres","station_id":"KDS","i_lat":-6.166068,"transit":false},{"time":3,"transit":false,"line":5,"station_id":"RW","is_transit":false,"distance":2504,"i_lat":-6.162758,"station_name":"Rawa Buaya","i_long":106.723064},{"line":5,"distance":1152,"transit":false,"is_transit":false,"station_id":"BOI","i_lat":-6.159876,"i_long":106.737035,"station_name":"Bojongindah","time":4},{"station_id":"TKO","transit":false,"distance":2334,"i_long":106.756522,"line":5,"is_transit":false,"i_lat":-6.1587309999999995,"time":2,"station_name":"Taman Kota"},{"distance":1614,"time":2,"station_name":"Pesing","station_id":"PSG","line":5,"i_lat":-6.161433,"transit":false,"i_long":106.771379,"is_transit":false},{"station_name":"Grogol","station_id":"GGL","i_lat":-6.162021,"is_transit":false,"time":2,"distance":2036,"i_long":106.788277,"line":5,"transit":false},{"transit":true,"time":3,"station_name":"Duri","line":1,"is_transit":true,"distance":1700,"i_lat":-6.155215,"station_id":"DU","i_long":106.800832},{"is_transit":false,"station_id":"AK","distance":1230,"time":4,"i_long":106.79867,"transit":false,"station_name":"Angke","line":1,"i_lat":-6.144674},{"station_name":"Kampung Bandan","i_long":106.826365,"is_transit":true,"station_id":"KPB","distance":4102,"line":4,"time":9,"transit":true,"i_lat":-6.132549},{"station_id":"RJW","station_name":"Rajawali","transit":false,"is_transit":false,"i_long":106.836569,"time":3,"distance":1444,"i_lat":-6.14505,"line":11},{"time":5,"station_id":"KMO","i_long":106.839204,"transit":false,"is_transit":false,"line":11,"station_name":"Kemayoran","distance":1901,"i_lat":-6.161728},{"transit":false,"i_lat":-6.174784,"line":11,"time":4,"station_name":"Pasar Senen","distance":1436,"i_long":106.84368,"station_id":"PSE","is_transit":false},{"station_id":"GST","station_name":"Gang Sentiong","transit":false,"distance":1567,"i_lat":-6.185975,"i_long":106.850107,"line":11,"is_transit":false,"time":8},{"distance":973,"station_name":"Kramat","time":1,"i_lat":-6.193792,"i_long":106.855437,"line":11,"station_id":"KMT","is_transit":false,"transit":false},{"station_name":"Pondok Jati","distance":1829,"transit":false,"is_transit":false,"i_lat":-6.209188,"time":2,"i_long":106.861737,"station_id":"POK","line":11},{"station_id":"JNG","distance":1236,"line":1,"transit":true,"is_transit":true,"i_long":106.86807400000001,"time":9,"station_name":"Jatinegara","i_lat":-6.215091},{"distance":3395,"is_transit":false,"i_lat":-6.2135,"line":1,"i_long":106.899548,"station_name":"Klender","transit":false,"station_id":"KLD","time":3},{"is_transit":false,"i_long":106.922662,"station_id":"BUA","transit":false,"i_lat":-6.215568,"line":1,"time":2,"station_name":"Buaran","distance":3100},{"i_lat":-6.217455,"distance":1305,"line":1,"is_transit":false,"transit":false,"time":1,"i_long":106.939679,"station_name":"Klenderbaru","station_id":"KLDB"},{"is_transit":false,"station_name":"Cakung","i_lat":-6.219053,"transit":false,"i_long":106.951283,"time":8,"distance":1385,"line":1,"station_id":"CUK"}],[{"distance":0,"line":5,"station_name":"Batuceper","transit":false,"station_id":"BPR","i_lat":-6.171811,"is_transit":false,"time":0,"i_long":106.665036},{"distance":1834,"i_lat":-6.169933,"line":5,"time":3,"i_long":106.679458,"station_name":"Poris","is_transit":false,"station_id":"PI","transit":false},{"i_long":106.701612,"station_name":"Kalideres","i_lat":-6.166068,"transit":false,"distance":2548,"time":3,"line":5,"station_id":"KDS","is_transit":false},{"transit":false,"distance":2504,"station_name":"Rawa Buaya","i_long":106.723064,"i_lat":-6.162758,"is_transit":false,"time":3,"station_id":"RW","line":5},{"distance":1152,"station_id":"BOI","station_name":"Bojongindah","is_transit":false,"time":4,"i_lat":-6.159876,"i_long":106.737035,"transit":false,"line":5},{"i_long":106.756522,"distance":2334,"line":5,"time":2,"station_id":"TKO","transit":false,"is_transit":false,"station_name":"Taman Kota","i_lat":-6.1587309999999995},{"station_name":"Pesing","i_long":106.771379,"line":5,"time":2,"transit":false,"station_id":"PSG","distance":1614,"is_transit":false,"i_lat":-6.161433},{"time":2,"i_long":106.788277,"station_id":"GGL","station_name":"Grogol","transit":false,"line":5,"i_lat":-6.162021,"is_transit":false,"distance":2036},{"line":1,"time":3,"is_transit":true,"station_id":"DU","transit":true,"i_long":106.800832,"i_lat":-6.155215,"distance":1700,"station_name":"Duri"},{"transit":false,"distance":1230,"station_id":"AK","i_lat":-6.144674,"time":4,"is_transit":false,"station_name":"Angke","line":1,"i_long":106.79867},{"time":9,"station_id":"KPB","station_name":"Kampung Bandan","line":4,"i_long":106.826365,"is_transit":true,"transit":true,"i_lat":-6.132549,"distance":4102},{"time":3,"station_name":"Jakarta Kota","i_long":106.812439,"transit":true,"distance":1364,"line":2,"i_lat":-6.137569,"station_id":"JAKK","is_transit":true},{"distance":1264,"line":2,"is_transit":false,"time":4,"i_lat":-6.141205,"transit":false,"station_name":"Jayakarta","i_long":106.820901,"station_id":"JAY"},{"station_id":"MGB","station_name":"Manggabesar","distance":1080,"is_transit":false,"i_long":106.82482,"transit":false,"line":2,"time":2,"i_lat":-6.149769},{"station_id":"SW","station_name":"Sawah Besar","i_long":106.827103,"transit":false,"distance":906,"is_transit":false,"time":2,"line":2,"i_lat":-6.160725},{"station_id":"JUA","distance":1149,"i_lat":-6.166716,"station_name":"Juanda","time":2,"line":2,"transit":false,"i_long":106.828284,"is_transit":false},{"transit":false,"i_long":106.832183,"distance":2015,"line":2,"is_transit":false,"time":4,"i_lat":-6.186295,"station_id":"GDD","station_name":"Gondangdia"},{"distance":1750,"i_long":106.840169,"line":2,"transit":false,"is_transit":false,"station_name":"Cikini","station_id":"CKI","time":3,"i_lat":-6.198556},{"transit":true,"i_lat":-6.209883,"time":4,"station_id":"MRI","station_name":"Manggarai","is_transit":true,"distance":1590,"line":2,"i_long":106.84912},{"i_long":106.858896,"station_id":"MTR","transit":false,"time":2,"line":1,"is_transit":false,"station_name":"Matraman","distance":1275,"i_lat":-6.212485},{"station_id":"JNG","distance":1377,"station_name":"Jatinegara","time":8,"i_long":106.86807400000001,"is_transit":false,"transit":false,"line":1,"i_lat":-6.215091},{"time":3,"station_id":"KLD","line":1,"distance":3395,"is_transit":false,"i_lat":-6.2135,"i_long":106.899548,"station_name":"Klender","transit":false},{"i_lat":-6.215568,"distance":3100,"line":1,"transit":false,"station_id":"BUA","time":2,"station_name":"Buaran","i_long":106.922662,"is_transit":false},{"transit":false,"station_name":"Klenderbaru","distance":1305,"station_id":"KLDB","time":1,"line":1,"is_transit":false,"i_lat":-6.217455,"i_long":106.939679},{"distance":1385,"line":1,"station_name":"Cakung","transit":false,"station_id":"CUK","i_lat":-6.219053,"time":8,"i_long":106.951283,"is_transit":false}],[{"station_id":"BPR","transit":false,"station_name":"Batuceper","i_lat":-6.171811,"i_long":106.665036,"line":5,"time":0,"distance":0,"is_transit":false},{"i_long":106.679458,"transit":false,"is_transit":false,"station_id":"PI","i_lat":-6.169933,"time":3,"line":5,"station_name":"Poris","distance":1834},{"transit":false,"line":5,"station_id":"KDS","i_lat":-6.166068,"time":3,"distance":2548,"i_long":106.701612,"is_transit":false,"station_name":"Kalideres"},{"is_transit":false,"distance":2504,"i_long":106.723064,"i_lat":-6.162758,"time":3,"station_id":"RW","station_name":"Rawa Buaya","line":5,"transit":false},{"i_lat":-6.159876,"is_transit":false,"transit":false,"station_name":"Bojongindah","distance":1152,"station_id":"BOI","time":4,"i_long":106.737035,"line":5},{"i_lat":-6.1587309999999995,"distance":2334,"station_id":"TKO","line":5,"station_name":"Taman Kota","time":2,"transit":false,"i_long":106.756522,"is_transit":false},{"is_transit":false,"station_id":"PSG","transit":false,"time":2,"line":5,"distance":1614,"station_name":"Pesing","i_lat":-6.161433,"i_long":106.771379},{"line":5,"station_name":"Grogol","i_lat":-6.162021,"transit":false,"time":2,"station_id":"GGL","distance":2036,"i_long":106.788277,"is_transit":false},{"is_transit":true,"time":3,"transit":true,"station_name":"Duri","station_id":"DU","i_long":106.800832,"distance":1700,"i_lat":-6.155215,"line":1},{"line":1,"distance":3632,"station_id":"THB","time":8,"i_lat":-6.185545,"transit":false,"i_long":106.811091,"station_name":"Tanah Abang","is_transit":false},{"i_lat":-6.20132,"distance":2029,"transit":false,"is_transit":false,"time":5,"station_id":"KAT","station_name":"Karet","i_long":106.816351,"line":1},{"distance":471,"station_name":"Sudirman Baru","i_long":106.819881,"line":1,"is_transit":false,"time":1,"station_id":"SUDB","i_lat":-6.201433,"transit":false},{"i_lat":-6.202263,"i_long":106.822649,"time":1,"distance":280,"transit":false,"is_transit":false,"line":1,"station_name":"Sudirman","station_id":"SUD"},{"is_transit":true,"i_lat":-6.209883,"station_id":"MRI","time":4,"station_name":"Manggarai","i_long":106.84912,"line":2,"transit":true,"distance":3186},{"station_id":"CKI","distance":1590,"line":2,"station_name":"Cikini","transit":false,"is_transit":false,"i_long":106.840169,"i_lat":-6.198556,"time":4},{"station_name":"Gondangdia","i_lat":-6.186295,"i_long":106.832183,"distance":1750,"line":2,"is_transit":false,"transit":false,"time":3,"station_id":"GDD"},{"station_id":"JUA","line":2,"distance":2015,"i_long":106.828284,"station_name":"Juanda","i_lat":-6.166716,"transit":false,"is_transit":false,"time":4},{"i_long":106.827103,"time":2,"transit":false,"distance":1149,"line":2,"is_transit":false,"i_lat":-6.160725,"station_name":"Sawah Besar","station_id":"SW"},{"distance":906,"station_id":"MGB","time":2,"line":2,"station_name":"Manggabesar","i_lat":-6.149769,"i_long":106.82482,"transit":false,"is_transit":false},{"transit":false,"station_name":"Jayakarta","station_id":"JAY","i_lat":-6.141205,"i_long":106.820901,"line":2,"time":2,"distance":1080,"is_transit":false},{"transit":true,"is_transit":true,"station_name":"Jakarta Kota","station_id":"JAKK","i_lat":-6.137569,"line":2,"i_long":106.812439,"time":4,"distance":1264},{"is_transit":true,"station_name":"Kampung Bandan","i_lat":-6.132549,"time":3,"distance":1364,"transit":true,"i_long":106.826365,"station_id":"KPB","line":4},{"transit":false,"time":3,"station_id":"RJW","i_lat":-6.14505,"line":11,"i_long":106.836569,"station_name":"Rajawali","is_transit":false,"distance":1444},{"i_lat":-6.161728,"i_long":106.839204,"time":5,"is_transit":false,"distance":1901,"line":11,"station_id":"KMO","station_name":"Kemayoran","transit":false},{"i_long":106.84368,"distance":1436,"i_lat":-6.174784,"station_id":"PSE","transit":false,"line":11,"is_transit":false,"station_name":"Pasar Senen","time":4},{"station_name":"Gang Sentiong","is_transit":false,"distance":1567,"transit":false,"time":8,"station_id":"GST","line":11,"i_long":106.850107,"i_lat":-6.185975},{"distance":973,"station_id":"KMT","line":11,"station_name":"Kramat","transit":false,"i_lat":-6.193792,"is_transit":false,"i_long":106.855437,"time":1},{"line":11,"i_lat":-6.209188,"station_name":"Pondok Jati","station_id":"POK","distance":1829,"is_transit":false,"time":2,"i_long":106.861737,"transit":false},{"time":9,"i_lat":-6.215091,"transit":true,"station_id":"JNG","i_long":106.86807400000001,"station_name":"Jatinegara","distance":1236,"line":1,"is_transit":true},{"line":1,"time":3,"i_long":106.899548,"i_lat":-6.2135,"station_id":"KLD","station_name":"Klender","distance":3395,"transit":false,"is_transit":false},{"i_long":106.922662,"line":1,"station_name":"Buaran","is_transit":false,"transit":false,"time":2,"distance":3100,"i_lat":-6.215568,"station_id":"BUA"},{"is_transit":false,"distance":1305,"i_lat":-6.217455,"transit":false,"i_long":106.939679,"station_id":"KLDB","time":1,"line":1,"station_name":"Klenderbaru"},{"transit":false,"time":8,"i_lat":-6.219053,"is_transit":false,"line":1,"station_name":"Cakung","station_id":"CUK","distance":1385,"i_long":106.951283}]]}