{"data":[[{"i_lat":-6.171811,"station_id":"BPR","distance":0,"transit":false,"is_transit":false,"time":0,"station_name":"Batuceper","line":5,"i_long":106.665036},{"time":3,"i_lat":-6.169933,"i_long":106.679458,"distance":1834,"is_transit":false,"transit":false,"station_name":"Poris","line":5,"station_id":"PI"},{"i_long":106.701612,"time":3,"station_name":"Kalideres","is_transit":false,"station_id":"KDS","transit":false,"i_lat":-6.166068,"line":5,"distance":2548},{"i_long":106.723064,"transit":false,"i_lat":-6.162758,"time":3,"is_transit":false,"station_id":"RW","line":5,"distance":2504,"station_name":"Rawa Buaya"},{"transit":false,"i_long":106.737035,"time":4,"station_name":"Bojongindah","station_id":"BOI","is_transit":false,"i_lat":-6.159876,"line":5,"distance":1152},{"time":2,"is_transit":false,"i_lat":-6.1587309999999995,"i_long":106.756522,"station_id":"TKO","line":5,"distance":2334,"station_name":"Taman Kota","transit":false},{"distance":1614,"line":5,"transit":false,"is_transit":false,"station_name":"Pesing","i_long":106.771379,"time":2,"i_lat":-6.161433,"station_id":"PSG"},{"distance":2036,"station_name":"Grogol","i_lat":-6.162021,"time":2,"i_long":106.788277,"line":5,"station_id":"GGL","is_transit":false,"transit":false},{"time":3,"line":1,"transit":true,"i_long":106.800832,"distance":1700,"i_lat":-6.155215,"station_id":"DU","is_transit":true,"station_name":"Duri"},{"line":1,"transit":false,"i_lat":-6.144674,"i_long":106.79867,"is_transit":false,"distance":1230,"time":4,"station_name":"Angke","station_id":"AK"},{"i_long":106.826365,"distance":4102,"line":4,"transit":true,"i_lat":-6.132549,"station_id":"KPB","is_transit":true,"time":9,"station_name":"Kampung Bandan"},{"time":3,"i_lat":-6.14505,"station_name":"Rajawali","station_id":"RJW","is_transit":false,"i_long":106.836569,"line":11,"distance":1444,"transit":false},{"is_transit":false,"transit":false,"station_id":"KMO","time":5,"station_name":"Kemayoran","line":11,"i_lat":-6.161728,"distance":1901,"i_long":106.839204},{"i_long":106.84368,"transit":false,"i_lat":-6.174784,"distance":1436,"station_name":"Pasar Senen","line":11,"time":4,"is_transit":false,"station_id":"PSE"},{"line":11,"station_id":"GST","is_transit":false,"time":8,"station_name":"Gang Sentiong","i_long":106.850107,"distance":1567,"i_lat":-6.185975,"transit":false},{"time":1,"is_transit":false,"distance":973,"station_id":"KMT","i_lat":-6.193792,"i_long":106.855437,"line":11,"transit":false,"station_name":"Kramat"}],[{"time":0,"distance":0,"i_lat":-6.171811,"i_long":106.665036,"is_transit":false,"transit":false,"station_id":"BPR","station_name":"Batuceper","line":5},{"line":5,"is_transit":false,"i_lat":-6.169933,"transit":false,"time":3,"distance":1834,"station_id":"PI","station_name":"Poris","i_long":106.679458},{"distance":2548,"i_long":106.701612,"station_id":"KDS","line":5,"transit":false,"i_lat":-6.166068,"time":3,"is_transit":false,"station_name":"Kalideres"},{"line":5,"station_id":"RW","station_name":"Rawa Buaya","i_long":106.723064,"i_lat":-6.162758,"is_transit":false,"time":3,"distance":2504,"transit":false},{"station_id":"BOI","station_name":"Bojongindah","time":4,"i_long":106.737035,"i_lat":-6.159876,"distance":1152,"is_transit":false,"line":5,"transit":false},{"time":2,"i_lat":-6.1587309999999995,"transit":false,"i_long":106.756522,"line":5,"is_transit":false,"distance":2334,"station_name":"Taman Kota","station_id":"TKO"},{"station_id":"PSG","distance":1614,"station_name":"Pesing","is_transit":false,"time":2,"transit":false,"i_lat":-6.161433,"i_long":106.771379,"line":5},{"i_lat":-6.162021,"line":5,"i_long":106.788277,"distance":2036,"is_transit":false,"transit":false,"station_name":"Grogol","time":2,"station_id":"GGL"},{"i_lat":-6.155215,"transit":true,"i_long":106.800832,"line":1,"station_id":"DU","time":3,"distance":1700,"is_transit":true,"station_name":"Duri"},{"station_name":"Tanah Abang","time":8,"distance":3632,"transit":false,"i_long":106.811091,"i_lat":-6.185545,"station_id":"THB","is_transit":false,"line":1},{"transit":false,"station_id":"KAT","is_transit":false,"i_long":106.816351,"line":1,"station_name":"Karet","time":5,"i_lat":-6.20132,"distance":2029},{"station_name":"Sudirman Baru","i_long":106.819881,"line":1,"i_lat":-6.201433,"time":1,"station_id":"SUDB","distance":471,"is_transit":false,"transit":false},{"i_lat":-6.202263,"distance":280,"station_id":"SUD","i_long":106.822649,"line":1,"station_name":"Sudirman","is_transit":false,"time":1,"transit":false},{"time":4,"distance":3186,"station_id":"MRI","line":2,"i_lat":-6.209883,"transit":false,"i_long":106.84912,"station_name":"Manggarai","is_transit":false},{"i_lat":-6.212485,"time":2,"is_transit":false,"distance":1275,"station_id":"MTR","line":1,"transit":false,"station_name":"Matraman","i_long":106.858896},{"is_transit":true,"i_lat":-6.215091,"i_long":106.86807400000001,"time":8,"station_name":"Jatinegara","line":1,"transit":true,"station_id":"JNG","distance":1377},{"time":2,"i_lat":-6.209188,"transit":false,"i_long":106.861737,"distance":1236,"station_name":"Pondok Jati","line":11,"station_id":"POK","is_transit":false},{"time":2,"line":11,"is_transit":false,"i_long":106.855437,"distance":1829,"i_lat":-6.193792,"transit":false,"station_name":"Kramat","station_id":"KMT"}],[{"i_lat":-6.171811,"station_id":"BPR","transit":false,"distance":0,"i_long":106.665036,"time":0,"is_transit":false,"station_name":"Batuceper","line":5},{"is_transit":false,"i_long":106.679458,"i_lat":-6.169933,"distance":1834,"station_id":"PI","transit":false,"time":3,"station_name":"Poris","line":5},{"distance":2548,"transit":false,"station_id":"KDS","is_transit":false,"station_name":"Kalideres","i_long":106.701612,"line":5,"i_lat":-6.166068,"time":3},{"station_name":"Rawa Buaya","distance":2504,"time":3,"station_id":"RW","i_lat":-6.162758,"i_long":106.723064,"line":5,"is_transit":false,"transit":false},{"line":5,"is_transit":false,"i_lat":-6.159876,"station_id":"BOI","station_name":"Bojongindah","time":4,"distance":1152,"i_long":106.737035,"transit":false},{"distance":2334,"time":2,"transit":false,"station_id":"TKO","station_name":"Taman Kota","i_lat":-6.1587309999999995,"is_transit":false,"i_long":106.756522,"line":5},{"is_transit":false,"line":5,"time":2,"distance":1614,"station_name":"Pesing","i_long":106.771379,"transit":false,"i_lat":-6.161433,"station_id":"PSG"},{"is_transit":false,"i_lat":-6.162021,"line":5,"station_name":"Grogol","i_long":106.788277,"station_id":"GGL","distance":2036,"transit":false,"time":2},{"station_id":"DU","time":3,"i_lat":-6.155215,"i_long":106.800832,"distance":1700,"transit":true,"line":1,"is_transit":true,"station_name":"Duri"},{"transit":false,"i_lat":-6.144674,"time":4,"station_name":"Angke","i_long":106.79867,"distance":1230,"station_id":"AK","is_transit":false,"line":1},{"transit":true,"station_name":"Kampung Bandan","distance":4102,"time":9,"is_transit":true,"i_long":106.826365,"line":4,"station_id":"KPB","i_lat":-6.132549},{"station_id":"JAKK","distance":1364,"i_lat":-6.137569,"line":2,"station_name":"Jakarta Kota","time":3,"i_long":106.812439,"is_transit":true,"transit":true},{"i_long":106.820901,"is_transit":false,"station_id":"JAY","distance":1264,"transit":false,"i_lat":-6.141205,"time":4,"line":2,"station_name":"Jayakarta"},{"is_transit":false,"station_name":"Manggabesar","line":2,"time":2,"i_long":106.82482,"station_id":"MGB","i_lat":-6.149769,"transit":false,"distance":1080},{"line":2,"distance":906,"is_transit":false,"i_lat":-6.160725,"time":2,"station_name":"Sawah Besar","i_long":106.827103,"station_id":"SW","transit":false},{"time":2,"distance":1149,"i_lat":-6.166716,"station_name":"Juanda","is_transit":false,"station_id":"JUA","transit":false,"i_long":106.828284,"line":2},{"time":4,"distance":2015,"is_transit":false,"i_long":106.832183,"station_id":"GDD","station_name":"Gondangdia","transit":false,"i_lat":-6.186295,"line":2},{"station_name":"Cikini","time":3,"i_long":106.840169,"is_transit":false,"i_lat":-6.198556,"line":2,"distance":1750,"transit":false,"station_id":"CKI"},{"i_long":106.84912,"i_lat":-6.209883,"line":2,"station_name":"Manggarai","time":4,"distance":1590,"station_id":"MRI","is_transit":true,"transit":true},{"station_name":"Matraman","station_id":"MTR","is_transit":false,"transit":false,"i_long":106.858896,"time":2,"distance":1275,"i_lat":-6.212485,"line":1},{"transit":true,"distance":1377,"station_name":"Jatinegara","line":1,"time":8,"i_lat":-6.215091,"station_id":"JNG","is_transit":true,"i_long":106.86807400000001},{"time":2,"station_name":"Pondok Jati","is_transit":false,"distance":1236,"station_id":"POK","i_lat":-6.209188,"i_long":106.861737,"line":11,"transit":false},{"transit":false,"i_lat":-6.193792,"station_name":"Kramat","distance":1829,"time":2,"is_transit":false,"station_id":"KMT","i_long":106.855437,"line":11}],[{"i_lat":-6.171811,"time":0,"is_transit":false,"transit":false,"i_long":106.665036,"station_name":"Batuceper","line":5,"distance":0,"station_id":"BPR"},{"transit":false,"station_name":"Poris","distance":1834,"station_id":"PI","is_transit":false,"time":3,"i_lat":-6.169933,"i_long":106.679458,"line":5},{"distance":2548,"is_transit":false,"line":5,"i_lat":-6.166068,"i_long":106.701612,"station_id":"KDS","transit":false,"station_name":"Kalideres","time":3},{"is_transit":false,"station_name":"Rawa Buaya","i_lat":-6.162758,"transit":false,"time":3,"distance":2504,"station_id":"RW","i_long":106.723064,"line":5},{"station_id":"BOI","station_name":"Bojongindah","distance":1152,"transit":false,"is_transit":false,"i_lat":-6.159876,"line":5,"time":4,"i_long":106.737035},{"distance":2334,"station_id":"TKO","transit":false,"is_transit":false,"time":2,"i_long":106.756522,"i_lat":-6.1587309999999995,"line":5,"station_name":"Taman Kota"},{"is_transit":false,"station_id":"PSG","station_name":"Pesing","i_lat":-6.161433,"i_long":106.771379,"time":2,"transit":false,"line":5,"distance":1614},{"distance":2036,"is_transit":false,"station_id":"GGL","transit":false,"station_name":"Grogol","i_lat":-6.162021,"time":2,"i_long":106.788277,"line":5},{"is_transit":true,"station_id":"DU","station_name":"Duri","i_lat":-6.155215,"distance":1700,"time":3,"line":1,"transit":true,"i_long":106.800832},{"is_transit":false,"i_lat":-6.185545,"transit":false,"station_id":"THB","time":8,"distance":3632,"station_name":"Tanah Abang","i_long":106.811091,"line":1},{"line":1,"distance":2029,"transit":false,"i_long":106.816351,"is_transit":false,"i_lat":-6.20132,"time":5,"station_name":"Karet","station_id":"KAT"},{"line":1,"time":1,"i_long":106.819881,"station_id":"SUDB","i_lat":-6.201433,"station_name":"Sudirman Baru","transit":false,"is_transit":false,"distance":471},{"station_id":"SUD","is_transit":false,"i_long":106.822649,"line":1,"transit":false,"station_name":"Sudirman","time":1,"i_lat":-6.202263,"distance":280},{"time":4,"station_id":"MRI","transit":true,"i_long":106.84912,"distance":3186,"station_name":"Manggarai","i_lat":-6.209883,"is_transit":true,"line":2},{"line":2,"is_transit":false,"i_lat":-6.198556,"i_long":106.840169,"transit":false,"station_name":"Cikini","station_id":"CKI","distance":1590,"time":4},{"distance":1750,"transit":false,"station_name":"Gondangdia","i_long":106.832183,"line":2,"station_id":"GDD","is_transit":false,"i_lat":-6.186295,"time":3},{"i_lat":-6.166716,"distance":2015,"i_long":106.828284,"line":2,"station_name":"Juanda","time":4,"transit":false,"is_transit":false,"station_id":"JUA"},{"station_id":"SW","transit":false,"station_name":"Sawah Besar","distance":1149,"is_transit":false,"i_long":106.827103,"i_lat":-6.160725,"line":2,"time":2},{"line":2,"distance":906,"station_id":"MGB","station_name":"Manggabesar","i_lat":-6.149769,"i_long":106.82482,"transit":false,"is_transit":false,"time":2},{"transit":false,"station_name":"Jayakarta","i_long":106.820901,"station_id":"JAY","i_lat":-6.141205,"time":2,"is_transit":false,"line":2,"distance":1080},{"is_transit":true,"transit":true,"station_name":"Jakarta Kota","time":4,"distance":1264,"i_lat":-6.137569,"i_long":106.812439,"station_id":"JAKK","line":2},{"station_name":"Kampung Bandan","i_long":106.826365,"distance":1364,"is_transit":true,"i_lat":-6.132549,"time":3,"station_id":"KPB","line":4,"transit":true},{"i_lat":-6.14505,"station_id":"RJW","distance":1444,"line":11,"is_transit":false,"station_name":"Rajawali","time":3,"transit":false,"i_long":106.836569},{"transit":false,"station_id":"KMO","i_lat":-6.161728,"time":5,"distance":1901,"station_name":"Kemayoran","is_transit":false,"i_long":106.839204,"line":11},{"line":11,"i_long":106.84368,"time":4,"i_lat":-6.174784,"station_id":"PSE","is_transit":false,"transit":false,"distance":1436,"station_name":"Pasar Senen"},{"station_id":"GST","i_long":106.850107,"line":11,"transit":false,"station_name":"Gang Sentiong","distance":1567,"time":8,"is_transit":false,"i_lat":-6.185975},{"line":11,"is_transit":false,"i_long":106.855437,"time":1,"transit":false,"i_lat":-6.193792,"station_id":"KMT","station_name":"Kramat","distance":973}]]}