{"data":[[{"station_id":"BPR","time":0,"i_lat":-6.171811,"is_transit":false,"distance":0,"i_long":106.665036,"station_name":"Batuceper","transit":false,"line":0},{"time":3,"i_lat":-6.169933,"station_id":"PI","i_long":106.679458,"distance":1834,"line":5,"is_transit":false,"station_name":"Poris","transit":false},{"i_lat":-6.166068,"is_transit":false,"transit":false,"i_long":106.701612,"station_id":"KDS","line":5,"distance":2548,"station_name":"Kalideres","time":3},{"is_transit":false,"transit":false,"i_lat":-6.162758,"station_name":"Rawa Buaya","i_long":106.723064,"time":3,"distance":2504,"station_id":"RW","line":5},{"time":4,"station_id":"BOI","i_lat":-6.159876,"distance":1152,"station_name":"Bojongindah","transit":false,"is_transit":false,"line":0,"i_long":106.737035},{"station_name":"Taman Kota","is_transit":false,"distance":2334,"transit":false,"i_lat":-6.1587309999999995,"line":5,"i_long":106.756522,"station_id":"TKO","time":2},{"station_id":"PSG","time":2,"distance":1614,"i_long":106.771379,"line":5,"i_lat":-6.161433,"transit":false,"is_transit":false,"station_name":"Pesing"},{"is_transit":false,"station_id":"GGL","time":2,"transit":false,"station_name":"Grogol","distance":2036,"i_lat":-6.162021,"i_long":106.788277,"line":5},{"i_long":106.800832,"time":3,"station_name":"Duri","station_id":"DU","line":1,"is_transit":true,"transit":true,"i_lat":-6.155215,"distance":1700},{"i_long":106.811091,"station_id":"THB","is_transit":true,"distance":3632,"transit":false,"line":1,"i_lat":-6.185545,"station_name":"Tanah Abang","time":8},{"line":1,"station_id":"KAT","i_long":106.816351,"transit":false,"i_lat":-6.20132,"distance":2029,"is_transit":false,"station_name":"Karet","time":5},{"transit":false,"time":1,"distance":471,"i_lat":-6.201433,"i_long":106.819881,"station_name":"Sudirman Baru","station_id":"SUDB","line":1,"is_transit":false},{"i_long":106.822649,"line":1,"station_id":"SUD","time":1,"transit":false,"distance":280,"station_name":"Sudirman","i_lat":-6.202263,"is_transit":false},{"i_lat":-6.209883,"line":0,"transit":false,"station_id":"MRI","distance":3186,"i_long":106.84912,"station_name":"Manggarai","is_transit":true,"time":4},{"i_long":106.858896,"station_name":"Matraman","i_lat":-6.212485,"is_transit":false,"time":2,"station_id":"MTR","line":1,"distance":1275,"transit":false},{"is_transit":true,"station_id":"JNG","i_lat":-6.215091,"transit":false,"i_long":106.86807400000001,"line":0,"station_name":"Jatinegara","time":8,"distance":1377},{"i_lat":-6.2135,"is_transit":false,"station_name":"Klender","station_id":"KLD","i_long":106.899548,"time":3,"distance":3395,"line":1,"transit":false},{"i_long":106.922662,"transit":false,"is_transit":false,"time":2,"station_id":"BUA","i_lat":-6.215568,"distance":3100,"station_name":"Buaran","line":0},{"is_transit":false,"line":1,"station_id":"KLDB","distance":1305,"transit":false,"i_long":106.939679,"time":1,"i_lat":-6.217455,"station_name":"Klenderbaru"},{"station_id":"CUK","i_lat":-6.219053,"is_transit":false,"station_name":"Cakung","line":0,"time":8,"i_long":106.951283,"distance":1385,"transit":false},{"station_id":"KRI","i_long":106.977657,"distance":3097,"i_lat":-6.224515,"line":1,"station_name":"Kranji","is_transit":false,"time":3,"transit":false},{"i_long":106.997013,"is_transit":false,"i_lat":-6.236616,"station_name":"Bekasi","line":0,"transit":false,"distance":2520,"time":4,"station_id":"BKS"},{"line":0,"time":2,"station_name":"Bekasi Timur","i_lat":-6.248029,"i_long":107.016735,"is_transit":false,"transit":false,"station_id":"BKST","distance":2368},{"i_lat":-6.258864,"station_id":"TB","is_transit":false,"time":7,"distance":4460,"station_name":"Tambun","transit":false,"i_long":107.055722,"line":1}],[{"i_long":106.665036,"station_name":"Batuceper","is_transit":false,"time":0,"transit":false,"station_id":"BPR","distance":0,"i_lat":-6.171811,"line":0},{"station_id":"PI","station_name":"Poris","line":5,"transit":false,"i_lat":-6.169933,"is_transit":false,"distance":1834,"i_long":106.679458,"time":3},{"is_transit":false,"line":5,"distance":2548,"transit":false,"i_lat":-6.166068,"time":3,"station_name":"Kalideres","i_long":106.701612,"station_id":"KDS"},{"time":3,"line":5,"station_name":"Rawa Buaya","is_transit":false,"i_lat":-6.162758,"transit":false,"station_id":"RW","i_long":106.723064,"distance":2504},{"i_long":106.737035,"line":0,"station_name":"Bojongindah","distance":1152,"i_lat":-6.159876,"transit":false,"station_id":"BOI","is_transit":false,"time":4},{"line":5,"i_lat":-6.1587309999999995,"station_id":"TKO","time":2,"distance":2334,"is_transit":false,"station_name":"Taman Kota","transit":false,"i_long":106.756522},{"is_transit":false,"time":2,"distance":1614,"line":5,"station_id":"PSG","station_name":"Pesing","transit":false,"i_long":106.771379,"i_lat":-6.161433},{"station_id":"GGL","distance":2036,"is_transit":false,"transit":false,"i_long":106.788277,"station_name":"Grogol","i_lat":-6.162021,"line":5,"time":2},{"distance":1700,"i_lat":-6.155215,"line":1,"time":3,"station_name":"Duri","station_id":"DU","i_long":106.800832,"is_transit":true,"transit":true},{"i_lat":-6.144674,"i_long":106.79867,"station_id":"AK","line":0,"time":4,"distance":1230,"is_transit":false,"transit":false,"station_name":"Angke"},{"is_transit":true,"distance":4102,"line":0,"transit":true,"i_lat":-6.132549,"time":9,"station_id":"KPB","i_long":106.826365,"station_name":"Kampung Bandan"},{"i_long":106.836569,"is_transit":false,"time":3,"transit":false,"station_name":"Rajawali","station_id":"RJW","distance":1444,"i_lat":-6.14505,"line":11},{"station_id":"KMO","line":11,"is_transit":false,"time":5,"distance":1901,"i_lat":-6.161728,"i_long":106.839204,"station_name":"Kemayoran","transit":false},{"transit":false,"is_transit":false,"i_long":106.84368,"station_name":"Pasar Senen","time":4,"station_id":"PSE","distance":1436,"line":11,"i_lat":-6.174784},{"line":11,"i_lat":-6.185975,"station_name":"Gang Sentiong","is_transit":false,"transit":false,"time":8,"station_id":"GST","i_long":106.850107,"distance":1567},{"is_transit":false,"i_lat":-6.193792,"transit":false,"time":1,"i_long":106.855437,"station_name":"Kramat","line":11,"distance":973,"station_id":"KMT"},{"is_transit":false,"line":11,"distance":1829,"time":2,"transit":false,"station_id":"POK","i_lat":-6.209188,"i_long":106.861737,"station_name":"Pondok Jati"},{"time":9,"distance":1236,"line":0,"transit":true,"station_id":"JNG","station_name":"Jatinegara","is_transit":true,"i_long":106.86807400000001,"i_lat":-6.215091},{"line":1,"transit":false,"i_lat":-6.2135,"distance":3395,"is_transit":false,"station_id":"KLD","i_long":106.899548,"station_name":"Klender","time":3},{"i_long":106.922662,"transit":false,"i_lat":-6.215568,"time":2,"station_id":"BUA","is_transit":false,"distance":3100,"station_name":"Buaran","line":0},{"is_transit":false,"station_id":"KLDB","time":1,"station_name":"Klenderbaru","i_long":106.939679,"distance":1305,"transit":false,"i_lat":-6.217455,"line":1},{"line":0,"time":8,"station_id":"CUK","is_transit":false,"i_long":106.951283,"distance":1385,"transit":false,"i_lat":-6.219053,"station_name":"Cakung"},{"distance":3097,"transit":false,"i_lat":-6.224515,"time":3,"station_name":"Kranji","is_transit":false,"i_long":106.977657,"line":1,"station_id":"KRI"},{"transit":false,"station_id":"BKS","station_name":"Bekasi","distance":2520,"i_lat":-6.236616,"line":0,"is_transit":false,"i_long":106.997013,"time":4},{"is_transit":false,"station_id":"BKST","i_long":107.016735,"i_lat":-6.248029,"transit":false,"line":0,"time":2,"distance":2368,"station_name":"Bekasi Timur"},{"distance":4460,"i_long":107.055722,"is_transit":false,"i_lat":-6.258864,"time":7,"transit":false,"line":1,"station_name":"Tambun","station_id":"TB"}],[{"station_id":"BPR","distance":0,"transit":false,"i_lat":-6.171811,"i_long":106.665036,"is_transit":false,"station_name":"Batuceper","time":0,"line":0},{"station_id":"PI","is_transit":false,"station_name":"Poris","i_long":106.679458,"i_lat":-6.169933,"transit":false,"distance":1834,"time":3,"line":5},{"distance":2548,"i_long":106.701612,"station_id":"KDS","is_transit":false,"line":5,"station_name":"Kalideres","transit":false,"time":3,"i_lat":-6.166068},{"line":5,"i_long":106.723064,"is_transit":false,"station_name":"Rawa Buaya","time":3,"i_lat":-6.162758,"station_id":"RW","distance":2504,"transit":false},{"time":4,"station_id":"BOI","is_transit":false,"station_name":"Bojongindah","transit":false,"line":0,"i_lat":-6.159876,"distance":1152,"i_long":106.737035},{"station_id":"TKO","station_name":"Taman Kota","i_lat":-6.1587309999999995,"transit":false,"time":2,"i_long":106.756522,"line":5,"distance":2334,"is_transit":false},{"time":2,"i_long":106.771379,"station_id":"PSG","i_lat":-6.161433,"is_transit":false,"transit":false,"line":5,"distance":1614,"station_name":"Pesing"},{"time":2,"transit":false,"station_id":"GGL","line":5,"i_long":106.788277,"is_transit":false,"distance":2036,"i_lat":-6.162021,"station_name":"Grogol"},{"station_name":"Duri","transit":true,"is_transit":true,"i_long":106.800832,"distance":1700,"line":1,"time":3,"i_lat":-6.155215,"station_id":"DU"},{"transit":false,"station_name":"Angke","is_transit":false,"i_lat":-6.144674,"station_id":"AK","i_long":106.79867,"time":4,"line":0,"distance":1230},{"distance":4102,"station_id":"KPB","transit":false,"time":9,"is_transit":true,"i_lat":-6.132549,"i_long":106.826365,"line":0,"station_name":"Kampung Bandan"},{"line":0,"is_transit":true,"distance":1364,"station_id":"JAKK","station_name":"Jakarta Kota","transit":true,"i_lat":-6.137569,"time":3,"i_long":106.812439},{"line":7,"station_name":"Jayakarta","time":4,"i_long":106.820901,"station_id":"JAY","is_transit":false,"distance":1264,"i_lat":-6.141205,"transit":false},{"is_transit":false,"i_lat":-6.149769,"station_id":"MGB","station_name":"Manggabesar","transit":false,"distance":1080,"time":2,"i_long":106.82482,"line":2},{"distance":906,"station_id":"SW","i_long":106.827103,"i_lat":-6.160725,"is_transit":false,"station_name":"Sawah Besar","transit":false,"time":2,"line":2},{"line":2,"station_id":"JUA","is_transit":false,"time":2,"i_long":106.828284,"station_name":"Juanda","i_lat":-6.166716,"transit":false,"distance":1149},{"time":4,"station_id":"GDD","i_long":106.832183,"distance":2015,"line":2,"is_transit":false,"station_name":"Gondangdia","transit":false,"i_lat":-6.186295},{"distance":1750,"station_id":"CKI","i_lat":-6.198556,"i_long":106.840169,"time":3,"line":0,"station_name":"Cikini","transit":false,"is_transit":false},{"station_id":"MRI","distance":1590,"line":0,"i_lat":-6.209883,"is_transit":true,"transit":true,"i_long":106.84912,"time":4,"station_name":"Manggarai"},{"is_transit":false,"time":2,"station_id":"MTR","distance":1275,"i_lat":-6.212485,"line":1,"i_long":106.858896,"station_name":"Matraman","transit":false},{"distance":1377,"station_id":"JNG","i_lat":-6.215091,"transit":false,"station_name":"Jatinegara","line":0,"time":8,"is_transit":true,"i_long":106.86807400000001},{"distance":3395,"station_name":"Klender","i_lat":-6.2135,"is_transit":false,"transit":false,"i_long":106.899548,"time":3,"line":1,"station_id":"KLD"},{"line":0,"time":2,"transit":false,"station_name":"Buaran","station_id":"BUA","is_transit":false,"i_lat":-6.215568,"i_long":106.922662,"distance":3100},{"line":1,"is_transit":false,"transit":false,"station_id":"KLDB","i_long":106.939679,"station_name":"Klenderbaru","distance":1305,"time":1,"i_lat":-6.217455},{"line":0,"i_lat":-6.219053,"i_long":106.951283,"distance":1385,"time":8,"station_id":"CUK","is_transit":false,"station_name":"Cakung","transit":false},{"i_lat":-6.224515,"time":3,"line":1,"transit":false,"i_long":106.977657,"station_id":"KRI","is_transit":false,"distance":3097,"station_name":"Kranji"},{"is_transit":false,"line":0,"station_id":"BKS","i_long":106.997013,"time":4,"transit":false,"i_lat":-6.236616,"station_name":"Bekasi","distance":2520},{"is_transit":false,"i_long":107.016735,"line":0,"station_id":"BKST","i_lat":-6.248029,"distance":2368,"transit":false,"time":2,"station_name":"Bekasi Timur"},{"line":1,"station_name":"Tambun","station_id":"TB","is_transit":false,"i_lat":-6.258864,"i_long":107.055722,"transit":false,"time":7,"distance":4460}],[{"i_lat":-6.171811,"distance":0,"station_name":"Batuceper","i_long":106.665036,"transit":false,"line":0,"is_transit":false,"time":0,"station_id":"BPR"},{"transit":false,"station_id":"PI","station_name":"Poris","time":3,"is_transit":false,"i_long":106.679458,"distance":1834,"line":5,"i_lat":-6.169933},{"distance":2548,"is_transit":false,"i_lat":-6.166068,"time":3,"line":5,"transit":false,"i_long":106.701612,"station_id":"KDS","station_name":"Kalideres"},{"station_name":"Rawa Buaya","is_transit":false,"i_lat":-6.162758,"i_long":106.723064,"station_id":"RW","distance":2504,"time":3,"transit":false,"line":5},{"i_long":106.737035,"distance":1152,"is_transit":false,"transit":false,"i_lat":-6.159876,"line":0,"station_id":"BOI","time":4,"station_name":"Bojongindah"},{"station_name":"Taman Kota","i_lat":-6.1587309999999995,"line":5,"i_long":106.756522,"station_id":"TKO","transit":false,"distance":2334,"is_transit":false,"time":2},{"station_name":"Pesing","transit":false,"i_lat":-6.161433,"line":5,"distance":1614,"station_id":"PSG","is_transit":false,"time":2,"i_long":106.771379},{"station_id":"GGL","distance":2036,"is_transit":false,"station_name":"Grogol","i_lat":-6.162021,"line":5,"i_long":106.788277,"time":2,"transit":false},{"station_id":"DU","i_lat":-6.155215,"i_long":106.800832,"time":3,"distance":1700,"transit":true,"line":1,"is_transit":true,"station_name":"Duri"},{"i_lat":-6.185545,"is_transit":true,"station_id":"THB","distance":3632,"line":1,"station_name":"Tanah Abang","time":8,"transit":false,"i_long":106.811091},{"time":5,"station_id":"KAT","is_transit":false,"distance":2029,"i_lat":-6.20132,"transit":false,"i_long":106.816351,"line":1,"station_name":"Karet"},{"station_id":"SUDB","is_transit":false,"distance":471,"station_name":"Sudirman Baru","time":1,"i_long":106.819881,"line":1,"i_lat":-6.201433,"transit":false},{"station_id":"SUD","transit":false,"time":1,"distance":280,"is_transit":false,"i_lat":-6.202263,"i_long":106.822649,"line":1,"station_name":"Sudirman"},{"i_lat":-6.209883,"is_transit":true,"station_id":"MRI","distance":3186,"station_name":"Manggarai","time":4,"i_long":106.84912,"transit":true,"line":0},{"distance":1590,"i_long":106.840169,"station_name":"Cikini","is_transit":false,"transit":false,"i_lat":-6.198556,"line":0,"station_id":"CKI","time":4},{"station_name":"Gondangdia","is_transit":false,"transit":false,"time":3,"station_id":"GDD","line":2,"distance":1750,"i_lat":-6.186295,"i_long":106.832183},{"transit":false,"time":4,"station_name":"Juanda","line":2,"station_id":"JUA","i_lat":-6.166716,"i_long":106.828284,"is_transit":false,"distance":2015},{"station_id":"SW","distance":1149,"station_name":"Sawah Besar","time":2,"i_lat":-6.160725,"i_long":106.827103,"is_transit":false,"transit":false,"line":2},{"time":2,"distance":906,"station_name":"Manggabesar","i_long":106.82482,"station_id":"MGB","transit":false,"line":2,"i_lat":-6.149769,"is_transit":false},{"transit":false,"is_transit":false,"i_lat":-6.141205,"i_long":106.820901,"line":7,"station_id":"JAY","distance":1080,"station_name":"Jayakarta","time":2},{"station_id":"JAKK","is_transit":true,"time":4,"i_lat":-6.137569,"distance":1264,"transit":true,"i_long":106.812439,"line":0,"station_name":"Jakarta Kota"},{"distance":1364,"transit":true,"i_long":106.826365,"line":0,"i_lat":-6.132549,"station_id":"KPB","time":3,"station_name":"Kampung Bandan","is_transit":true},{"distance":1444,"time":3,"station_name":"Rajawali","transit":false,"i_lat":-6.14505,"i_long":106.836569,"station_id":"RJW","is_transit":false,"line":11},{"distance":1901,"station_id":"KMO","time":5,"i_long":106.839204,"transit":false,"line":11,"is_transit":false,"i_lat":-6.161728,"station_name":"Kemayoran"},{"is_transit":false,"station_id":"PSE","distance":1436,"i_lat":-6.174784,"line":11,"time":4,"transit":false,"station_name":"Pasar Senen","i_long":106.84368},{"time":8,"is_transit":false,"distance":1567,"transit":false,"i_long":106.850107,"i_lat":-6.185975,"line":11,"station_name":"Gang Sentiong","station_id":"GST"},{"station_name":"Kramat","station_id":"KMT","i_long":106.855437,"line":11,"transit":false,"time":1,"is_transit":false,"distance":973,"i_lat":-6.193792},{"station_id":"POK","distance":1829,"i_lat":-6.209188,"line":11,"transit":false,"i_long":106.861737,"time":2,"station_name":"Pondok Jati","is_transit":false},{"time":9,"line":0,"transit":true,"i_lat":-6.215091,"station_id":"JNG","i_long":106.86807400000001,"distance":1236,"station_name":"Jatinegara","is_transit":true},{"station_id":"KLD","distance":3395,"line":1,"i_long":106.899548,"station_name":"Klender","is_transit":false,"time":3,"transit":false,"i_lat":-6.2135},{"is_transit":false,"distance":3100,"station_name":"Buaran","i_long":106.922662,"i_lat":-6.215568,"line":0,"station_id":"BUA","time":2,"transit":false},{"station_id":"KLDB","line":1,"i_lat":-6.217455,"station_name":"Klenderbaru","distance":1305,"transit":false,"i_long":106.939679,"time":1,"is_transit":false},{"is_transit":false,"transit":false,"i_lat":-6.219053,"i_long":106.951283,"line":0,"time":8,"station_id":"CUK","distance":1385,"station_name":"Cakung"},{"line":1,"station_name":"Kranji","i_long":106.977657,"time":3,"is_transit":false,"station_id":"KRI","distance":3097,"i_lat":-6.224515,"transit":false},{"station_id":"BKS","i_lat":-6.236616,"time":4,"line":0,"transit":false,"distance":2520,"i_long":106.997013,"is_transit":false,"station_name":"Bekasi"},{"i_long":107.016735,"line":0,"i_lat":-6.248029,"is_transit":false,"time":2,"distance":2368,"station_name":"Bekasi Timur","station_id":"BKST","transit":false},{"i_long":107.055722,"time":7,"station_name":"Tambun","i_lat":-6.258864,"is_transit":false,"distance":4460,"transit":false,"line":1,"station_id":"TB"}]]}