{"data":[[{"station_id":"BPR","station_name":"Batuceper","is_transit":false,"line":5,"time":0,"i_lat":-6.171811,"i_long":106.665036,"distance":0,"transit":false},{"station_id":"PI","i_lat":-6.169933,"station_name":"Poris","time":3,"transit":false,"distance":1834,"i_long":106.679458,"is_transit":false,"line":5},{"station_id":"KDS","i_long":106.701612,"is_transit":false,"time":3,"distance":2548,"station_name":"Kalideres","transit":false,"i_lat":-6.166068,"line":5},{"distance":2504,"is_transit":false,"transit":false,"i_lat":-6.162758,"i_long":106.723064,"station_name":"Rawa Buaya","line":5,"time":3,"station_id":"RW"},{"time":4,"distance":1152,"transit":false,"station_id":"BOI","is_transit":false,"i_long":106.737035,"station_name":"Bojongindah","i_lat":-6.159876,"line":5},{"i_lat":-6.1587309999999995,"distance":2334,"line":5,"station_name":"Taman Kota","i_long":106.756522,"time":2,"station_id":"TKO","is_transit":false,"transit":false},{"transit":false,"station_id":"PSG","station_name":"Pesing","i_lat":-6.161433,"line":5,"is_transit":false,"i_long":106.771379,"time":2,"distance":1614},{"distance":2036,"transit":false,"i_long":106.788277,"station_name":"Grogol","line":5,"station_id":"GGL","is_transit":false,"i_lat":-6.162021,"time":2},{"time":3,"station_name":"Duri","i_long":106.800832,"distance":1700,"station_id":"DU","is_transit":true,"i_lat":-6.155215,"line":1,"transit":true},{"time":8,"station_name":"Tanah Abang","i_lat":-6.185545,"i_long":106.811091,"station_id":"THB","is_transit":false,"transit":false,"line":1,"distance":3632},{"station_name":"Karet","station_id":"KAT","transit":false,"i_long":106.816351,"line":1,"time":5,"i_lat":-6.20132,"distance":2029,"is_transit":false},{"time":1,"line":1,"distance":471,"i_lat":-6.201433,"transit":false,"station_id":"SUDB","is_transit":false,"i_long":106.819881,"station_name":"Sudirman Baru"},{"distance":280,"line":1,"i_long":106.822649,"i_lat":-6.202263,"station_id":"SUD","is_transit":false,"transit":false,"station_name":"Sudirman","time":1},{"station_name":"Manggarai","is_transit":true,"transit":true,"time":4,"i_long":106.84912,"i_lat":-6.209883,"line":2,"station_id":"MRI","distance":3186},{"i_lat":-6.226659,"is_transit":false,"time":4,"station_id":"TEB","transit":false,"i_long":106.857948,"line":2,"distance":2610,"station_name":"Tebet"},{"is_transit":false,"i_lat":-6.242512,"station_id":"CW","time":2,"distance":1230,"station_name":"Cawang","i_long":106.856607,"transit":false,"line":2},{"is_transit":false,"line":2,"time":3,"distance":1546,"station_name":"Duren Kalibata","i_long":106.85449,"station_id":"DRN","transit":false,"i_lat":-6.255332},{"station_id":"PSMB","i_lat":-6.263214,"i_long":106.851577,"line":2,"distance":824,"is_transit":false,"station_name":"Pasar Minggu Baru","time":2,"transit":false},{"is_transit":false,"time":2,"i_lat":-6.2842400000000005,"i_long":106.843999,"distance":2380,"transit":false,"line":2,"station_name":"Pasar Minggu","station_id":"PSM"},{"is_transit":false,"time":4,"transit":false,"i_long":106.838896,"station_name":"Tanjung Barat","distance":2820,"i_lat":-6.3080680000000005,"line":2,"station_id":"TNT"},{"station_id":"LNA","distance":2671,"time":3,"i_lat":-6.330363,"i_long":106.832616,"is_transit":false,"transit":false,"station_name":"Lenteng Agung","line":2},{"line":2,"time":2,"distance":1029,"i_lat":-6.339291,"station_name":"Univ. Pancasila","is_transit":false,"i_long":106.834175,"station_id":"UP","transit":false},{"line":2,"transit":false,"i_lat":-6.360749,"distance":2264,"is_transit":false,"time":3,"station_name":"Univ. Indonesia","station_id":"UI","i_long":106.831474},{"i_long":106.831114,"i_lat":-6.369073,"station_id":"POC","is_transit":false,"distance":1109,"transit":false,"time":2,"line":2,"station_name":"Pondok Cina"},{"i_long":106.819451,"time":4,"distance":2727,"line":2,"is_transit":false,"transit":false,"i_lat":-6.391065,"station_id":"DPB","station_name":"Depokbaru"},{"line":2,"distance":1584,"is_transit":false,"time":3,"station_name":"Depok","i_long":106.816926,"station_id":"DP","transit":false,"i_lat":-6.405256}],[{"i_lat":-6.171811,"station_id":"BPR","distance":0,"i_long":106.665036,"station_name":"Batuceper","time":0,"is_transit":false,"line":5,"transit":false},{"line":5,"distance":1834,"is_transit":false,"station_id":"PI","i_long":106.679458,"transit":false,"station_name":"Poris","time":3,"i_lat":-6.169933},{"time":3,"transit":false,"i_lat":-6.166068,"line":5,"station_name":"Kalideres","station_id":"KDS","is_transit":false,"i_long":106.701612,"distance":2548},{"line":5,"i_long":106.723064,"station_id":"RW","station_name":"Rawa Buaya","time":3,"transit":false,"distance":2504,"i_lat":-6.162758,"is_transit":false},{"is_transit":false,"transit":false,"i_long":106.737035,"line":5,"distance":1152,"i_lat":-6.159876,"time":4,"station_id":"BOI","station_name":"Bojongindah"},{"time":2,"distance":2334,"station_id":"TKO","line":5,"station_name":"Taman Kota","is_transit":false,"i_lat":-6.1587309999999995,"transit":false,"i_long":106.756522},{"is_transit":false,"time":2,"station_name":"Pesing","station_id":"PSG","transit":false,"i_long":106.771379,"line":5,"distance":1614,"i_lat":-6.161433},{"i_long":106.788277,"line":5,"time":2,"i_lat":-6.162021,"station_name":"Grogol","station_id":"GGL","distance":2036,"is_transit":false,"transit":false},{"transit":true,"station_id":"DU","i_long":106.800832,"is_transit":true,"distance":1700,"time":3,"station_name":"Duri","i_lat":-6.155215,"line":1},{"line":1,"i_lat":-6.144674,"i_long":106.79867,"transit":false,"time":4,"station_id":"AK","is_transit":false,"station_name":"Angke","distance":1230},{"station_name":"Kampung Bandan","station_id":"KPB","distance":4102,"time":9,"i_lat":-6.132549,"transit":true,"is_transit":true,"i_long":106.826365,"line":4},{"is_transit":true,"transit":true,"time":3,"i_long":106.812439,"station_id":"JAKK","station_name":"Jakarta Kota","distance":1364,"i_lat":-6.137569,"line":2},{"transit":false,"distance":1264,"is_transit":false,"i_long":106.820901,"line":2,"time":4,"station_name":"Jayakarta","station_id":"JAY","i_lat":-6.141205},{"station_name":"Manggabesar","line":2,"transit":false,"i_long":106.82482,"time":2,"station_id":"MGB","distance":1080,"is_transit":false,"i_lat":-6.149769},{"transit":false,"i_lat":-6.160725,"i_long":106.827103,"line":2,"is_transit":false,"time":2,"station_id":"SW","station_name":"Sawah Besar","distance":906},{"i_long":106.828284,"line":2,"station_name":"Juanda","time":2,"distance":1149,"is_transit":false,"station_id":"JUA","transit":false,"i_lat":-6.166716},{"time":4,"line":2,"i_lat":-6.186295,"station_name":"Gondangdia","is_transit":false,"i_long":106.832183,"transit":false,"station_id":"GDD","distance":2015},{"line":2,"station_name":"Cikini","i_lat":-6.198556,"distance":1750,"transit":false,"i_long":106.840169,"time":3,"is_transit":false,"station_id":"CKI"},{"i_lat":-6.209883,"i_long":106.84912,"is_transit":false,"time":4,"transit":false,"station_name":"Manggarai","distance":1590,"station_id":"MRI","line":2},{"station_id":"TEB","distance":2610,"transit":false,"time":4,"i_lat":-6.226659,"is_transit":false,"station_name":"Tebet","i_long":106.857948,"line":2},{"time":2,"is_transit":false,"distance":1230,"i_lat":-6.242512,"station_id":"CW","transit":false,"i_long":106.856607,"line":2,"station_name":"Cawang"},{"is_transit":false,"time":3,"transit":false,"i_long":106.85449,"station_name":"Duren Kalibata","distance":1546,"i_lat":-6.255332,"line":2,"station_id":"DRN"},{"i_lat":-6.263214,"i_long":106.851577,"distance":824,"time":2,"station_id":"PSMB","line":2,"is_transit":false,"station_name":"Pasar Minggu Baru","transit":false},{"line":2,"i_long":106.843999,"transit":false,"distance":2380,"time":2,"station_id":"PSM","i_lat":-6.2842400000000005,"is_transit":false,"station_name":"Pasar Minggu"},{"station_id":"TNT","distance":2820,"i_long":106.838896,"station_name":"Tanjung Barat","line":2,"is_transit":false,"time":4,"i_lat":-6.3080680000000005,"transit":false},{"distance":2671,"i_long":106.832616,"station_id":"LNA","transit":false,"time":3,"is_transit":false,"station_name":"Lenteng Agung","line":2,"i_lat":-6.330363},{"time":2,"station_id":"UP","distance":1029,"transit":false,"line":2,"station_name":"Univ. Pancasila","i_long":106.834175,"i_lat":-6.339291,"is_transit":false},{"i_lat":-6.360749,"time":3,"line":2,"station_id":"UI","is_transit":false,"i_long":106.831474,"distance":2264,"transit":false,"station_name":"Univ. Indonesia"},{"transit":false,"line":2,"time":2,"station_name":"Pondok Cina","distance":1109,"is_transit":false,"station_id":"POC","i_lat":-6.369073,"i_long":106.831114},{"distance":2727,"transit":false,"station_name":"Depokbaru","line":2,"time":4,"is_transit":false,"station_id":"DPB","i_lat":-6.391065,"i_long":106.819451},{"time":3,"i_lat":-6.405256,"is_transit":false,"distance":1584,"transit":false,"i_long":106.816926,"station_name":"Depok","station_id":"DP","line":2}],[{"is_transit":false,"distance":0,"i_lat":-6.171811,"transit":false,"station_name":"Batuceper","i_long":106.665036,"line":5,"time":0,"station_id":"BPR"},{"i_lat":-6.169933,"station_name":"Poris","station_id":"PI","is_transit":false,"time":3,"distance":1834,"transit":false,"i_long":106.679458,"line":5},{"station_name":"Kalideres","i_long":106.701612,"transit":false,"time":3,"i_lat":-6.166068,"station_id":"KDS","line":5,"distance":2548,"is_transit":false},{"line":5,"distance":2504,"station_name":"Rawa Buaya","time":3,"is_transit":false,"station_id":"RW","i_lat":-6.162758,"i_long":106.723064,"transit":false},{"time":4,"line":5,"station_name":"Bojongindah","i_long":106.737035,"i_lat":-6.159876,"is_transit":false,"station_id":"BOI","distance":1152,"transit":false},{"is_transit":false,"i_long":106.756522,"station_name":"Taman Kota","distance":2334,"transit":false,"station_id":"TKO","i_lat":-6.1587309999999995,"line":5,"time":2},{"is_transit":false,"i_long":106.771379,"distance":1614,"line":5,"i_lat":-6.161433,"time":2,"station_name":"Pesing","transit":false,"station_id":"PSG"},{"i_lat":-6.162021,"line":5,"time":2,"station_id":"GGL","is_transit":false,"transit":false,"station_name":"Grogol","i_long":106.788277,"distance":2036},{"i_lat":-6.155215,"transit":true,"station_id":"DU","is_transit":true,"distance":1700,"station_name":"Duri","time":3,"line":1,"i_long":106.800832},{"is_transit":false,"time":4,"station_id":"AK","transit":false,"i_lat":-6.144674,"station_name":"Angke","distance":1230,"i_long":106.79867,"line":1},{"transit":true,"line":4,"station_id":"KPB","distance":4102,"is_transit":true,"i_lat":-6.132549,"station_name":"Kampung Bandan","i_long":106.826365,"time":9},{"time":3,"transit":false,"station_id":"RJW","i_long":106.836569,"line":11,"is_transit":false,"station_name":"Rajawali","distance":1444,"i_lat":-6.14505},{"station_id":"KMO","time":5,"station_name":"Kemayoran","transit":false,"line":11,"distance":1901,"is_transit":false,"i_lat":-6.161728,"i_long":106.839204},{"i_long":106.84368,"station_id":"PSE","distance":1436,"i_lat":-6.174784,"line":11,"time":4,"is_transit":false,"transit":false,"station_name":"Pasar Senen"},{"line":11,"i_long":106.850107,"distance":1567,"is_transit":false,"i_lat":-6.185975,"station_id":"GST","station_name":"Gang Sentiong","time":8,"transit":false},{"i_long":106.855437,"i_lat":-6.193792,"station_id":"KMT","transit":false,"station_name":"Kramat","is_transit":false,"distance":973,"time":1,"line":11},{"station_name":"Pondok Jati","i_long":106.861737,"is_transit":false,"time":2,"transit":false,"i_lat":-6.209188,"line":11,"distance":1829,"station_id":"POK"},{"i_long":106.86807400000001,"is_transit":true,"transit":true,"line":1,"station_id":"JNG","time":9,"station_name":"Jatinegara","distance":1236,"i_lat":-6.215091},{"time":2,"station_name":"Matraman","station_id":"MTR","distance":1377,"transit":false,"line":1,"is_transit":false,"i_long":106.858896,"i_lat":-6.212485},{"time":2,"line":2,"is_transit":true,"station_id":"MRI","distance":1275,"transit":true,"i_lat":-6.209883,"i_long":106.84912,"station_name":"Manggarai"},{"station_name":"Tebet","i_long":106.857948,"is_transit":false,"time":4,"line":2,"station_id":"TEB","transit":false,"distance":2610,"i_lat":-6.226659},{"station_name":"Cawang","i_lat":-6.242512,"time":2,"i_long":106.856607,"is_transit":false,"distance":1230,"line":2,"station_id":"CW","transit":false},{"i_long":106.85449,"distance":1546,"is_transit":false,"station_name":"Duren Kalibata","transit":false,"line":2,"station_id":"DRN","time":3,"i_lat":-6.255332},{"time":2,"transit":false,"station_id":"PSMB","station_name":"Pasar Minggu Baru","is_transit":false,"i_lat":-6.263214,"i_long":106.851577,"distance":824,"line":2},{"i_lat":-6.2842400000000005,"line":2,"distance":2380,"i_long":106.843999,"is_transit":false,"station_name":"Pasar Minggu","transit":false,"time":2,"station_id":"PSM"},{"i_lat":-6.3080680000000005,"distance":2820,"time":4,"is_transit":false,"i_long":106.838896,"line":2,"station_name":"Tanjung Barat","transit":false,"station_id":"TNT"},{"transit":false,"station_name":"Lenteng Agung","i_long":106.832616,"time":3,"i_lat":-6.330363,"station_id":"LNA","line":2,"is_transit":false,"distance":2671},{"i_lat":-6.339291,"station_name":"Univ. Pancasila","is_transit":false,"line":2,"station_id":"UP","transit":false,"distance":1029,"i_long":106.834175,"time":2},{"line":2,"i_lat":-6.360749,"i_long":106.831474,"is_transit":false,"station_id":"UI","station_name":"Univ. Indonesia","distance":2264,"transit":false,"time":3},{"i_long":106.831114,"transit":false,"i_lat":-6.369073,"station_id":"POC","line":2,"distance":1109,"is_transit":false,"station_name":"Pondok Cina","time":2},{"station_name":"Depokbaru","time":4,"is_transit":false,"distance":2727,"station_id":"DPB","i_lat":-6.391065,"line":2,"i_long":106.819451,"transit":false},{"is_transit":false,"distance":1584,"i_long":106.816926,"line":2,"time":3,"transit":false,"station_name":"Depok","station_id":"DP","i_lat":-6.405256}]]}