{"data":[[{"transit":false,"station_name":"Batuceper","distance":0,"i_lat":-6.171811,"line":5,"time":0,"i_long":106.665036,"is_transit":false,"station_id":"BPR"},{"i_long":106.679458,"time":3,"line":5,"transit":false,"station_id":"PI","station_name":"Poris","is_transit":false,"distance":1834,"i_lat":-6.169933},{"line":5,"distance":2548,"time":3,"i_long":106.701612,"is_transit":false,"station_id":"KDS","station_name":"Kalideres","i_lat":-6.166068,"transit":false},{"i_lat":-6.162758,"time":3,"line":5,"distance":2504,"station_id":"RW","i_long":106.723064,"is_transit":false,"transit":false,"station_name":"Rawa Buaya"},{"transit":false,"time":4,"is_transit":false,"station_name":"Bojongindah","i_long":106.737035,"line":5,"station_id":"BOI","distance":1152,"i_lat":-6.159876}]]}