{"data":[[{"distance":0,"station_name":"Batuceper","i_long":106.665036,"is_transit":false,"line":5,"transit":false,"i_lat":-6.171811,"station_id":"BPR","time":0},{"distance":1834,"station_id":"PI","line":5,"transit":false,"station_name":"Poris","time":3,"i_lat":-6.169933,"i_long":106.679458,"is_transit":false},{"time":3,"station_name":"Kalideres","line":5,"distance":2548,"i_lat":-6.166068,"station_id":"KDS","transit":false,"is_transit":false,"i_long":106.701612},{"station_id":"RW","transit":false,"is_transit":false,"line":5,"i_lat":-6.162758,"station_name":"Rawa Buaya","distance":2504,"i_long":106.723064,"time":3},{"transit":false,"station_id":"BOI","time":4,"i_lat":-6.159876,"i_long":106.737035,"line":5,"station_name":"Bojongindah","distance":1152,"is_transit":false},{"i_long":106.756522,"distance":2334,"line":5,"station_id":"TKO","transit":false,"station_name":"Taman Kota","i_lat":-6.1587309999999995,"time":2,"is_transit":false},{"distance":1614,"i_lat":-6.161433,"transit":false,"i_long":106.771379,"station_id":"PSG","is_transit":false,"line":5,"time":2,"station_name":"Pesing"},{"station_id":"GGL","i_lat":-6.162021,"station_name":"Grogol","transit":false,"is_transit":false,"i_long":106.788277,"line":5,"distance":2036,"time":2},{"transit":true,"station_id":"DU","is_transit":true,"station_name":"Duri","i_lat":-6.155215,"distance":1700,"i_long":106.800832,"time":3,"line":1},{"station_id":"THB","transit":false,"distance":3632,"time":8,"station_name":"Tanah Abang","i_long":106.811091,"line":1,"is_transit":false,"i_lat":-6.185545},{"time":5,"is_transit":false,"i_long":106.816351,"i_lat":-6.20132,"line":1,"distance":2029,"station_id":"KAT","transit":false,"station_name":"Karet"},{"distance":471,"station_name":"Sudirman Baru","is_transit":false,"transit":false,"time":1,"line":1,"station_id":"SUDB","i_lat":-6.201433,"i_long":106.819881},{"station_id":"SUD","is_transit":false,"transit":false,"station_name":"Sudirman","time":1,"i_lat":-6.202263,"i_long":106.822649,"distance":280,"line":1},{"i_long":106.84912,"station_id":"MRI","station_name":"Manggarai","distance":3186,"transit":true,"is_transit":true,"time":4,"i_lat":-6.209883,"line":2},{"station_name":"Tebet","transit":false,"i_lat":-6.226659,"station_id":"TEB","distance":2610,"line":2,"is_transit":false,"i_long":106.857948,"time":4},{"station_name":"Cawang","line":2,"i_lat":-6.242512,"transit":false,"i_long":106.856607,"is_transit":false,"time":2,"distance":1230,"station_id":"CW"},{"i_lat":-6.255332,"distance":1546,"station_id":"DRN","transit":false,"i_long":106.85449,"line":2,"is_transit":false,"station_name":"Duren Kalibata","time":3}],[{"time":0,"is_transit":false,"station_id":"BPR","station_name":"Batuceper","transit":false,"distance":0,"i_long":106.665036,"i_lat":-6.171811,"line":5},{"time":3,"is_transit":false,"station_name":"Poris","station_id":"PI","distance":1834,"transit":false,"i_lat":-6.169933,"line":5,"i_long":106.679458},{"station_id":"KDS","line":5,"is_transit":false,"station_name":"Kalideres","time":3,"i_lat":-6.166068,"distance":2548,"transit":false,"i_long":106.701612},{"station_id":"RW","i_long":106.723064,"distance":2504,"time":3,"transit":false,"station_name":"Rawa Buaya","is_transit":false,"i_lat":-6.162758,"line":5},{"is_transit":false,"distance":1152,"i_lat":-6.159876,"station_id":"BOI","i_long":106.737035,"transit":false,"time":4,"line":5,"station_name":"Bojongindah"},{"i_long":106.756522,"i_lat":-6.1587309999999995,"time":2,"line":5,"station_id":"TKO","is_transit":false,"distance":2334,"transit":false,"station_name":"Taman Kota"},{"i_long":106.771379,"is_transit":false,"time":2,"line":5,"station_name":"Pesing","transit":false,"distance":1614,"station_id":"PSG","i_lat":-6.161433},{"line":5,"time":2,"distance":2036,"station_name":"Grogol","transit":false,"i_lat":-6.162021,"is_transit":false,"i_long":106.788277,"station_id":"GGL"},{"transit":true,"time":3,"is_transit":true,"i_lat":-6.155215,"distance":1700,"line":1,"i_long":106.800832,"station_name":"Duri","station_id":"DU"},{"distance":1230,"station_id":"AK","line":1,"time":4,"transit":false,"i_lat":-6.144674,"station_name":"Angke","i_long":106.79867,"is_transit":false},{"is_transit":true,"line":4,"station_name":"Kampung Bandan","transit":true,"station_id":"KPB","time":9,"i_lat":-6.132549,"i_long":106.826365,"distance":4102},{"distance":1364,"is_transit":true,"i_long":106.812439,"transit":true,"station_name":"Jakarta Kota","line":2,"i_lat":-6.137569,"time":3,"station_id":"JAKK"},{"time":4,"transit":false,"line":2,"station_name":"Jayakarta","is_transit":false,"i_lat":-6.141205,"station_id":"JAY","i_long":106.820901,"distance":1264},{"station_name":"Manggabesar","station_id":"MGB","transit":false,"i_lat":-6.149769,"distance":1080,"time":2,"line":2,"i_long":106.82482,"is_transit":false},{"station_name":"Sawah Besar","is_transit":false,"time":2,"station_id":"SW","i_long":106.827103,"distance":906,"transit":false,"line":2,"i_lat":-6.160725},{"station_name":"Juanda","line":2,"is_transit":false,"distance":1149,"i_lat":-6.166716,"transit":false,"i_long":106.828284,"station_id":"JUA","time":2},{"time":4,"i_long":106.832183,"line":2,"transit":false,"i_lat":-6.186295,"is_transit":false,"distance":2015,"station_id":"GDD","station_name":"Gondangdia"},{"time":3,"is_transit":false,"station_name":"Cikini","distance":1750,"i_lat":-6.198556,"station_id":"CKI","transit":false,"i_long":106.840169,"line":2},{"time":4,"distance":1590,"line":2,"is_transit":false,"transit":false,"i_long":106.84912,"i_lat":-6.209883,"station_id":"MRI","station_name":"Manggarai"},{"line":2,"transit":false,"i_long":106.857948,"i_lat":-6.226659,"station_name":"Tebet","time":4,"station_id":"TEB","is_transit":false,"distance":2610},{"i_lat":-6.242512,"i_long":106.856607,"time":2,"station_name":"Cawang","is_transit":false,"distance":1230,"line":2,"transit":false,"station_id":"CW"},{"time":3,"i_lat":-6.255332,"i_long":106.85449,"line":2,"station_id":"DRN","is_transit":false,"distance":1546,"transit":false,"station_name":"Duren Kalibata"}],[{"line":5,"transit":false,"i_long":106.665036,"distance":0,"i_lat":-6.171811,"is_transit":false,"time":0,"station_id":"BPR","station_name":"Batuceper"},{"transit":false,"line":5,"station_name":"Poris","i_long":106.679458,"station_id":"PI","is_transit":false,"i_lat":-6.169933,"distance":1834,"time":3},{"i_lat":-6.166068,"station_name":"Kalideres","is_transit":false,"station_id":"KDS","i_long":106.701612,"time":3,"transit":false,"distance":2548,"line":5},{"distance":2504,"is_transit":false,"time":3,"station_id":"RW","transit":false,"i_lat":-6.162758,"station_name":"Rawa Buaya","i_long":106.723064,"line":5},{"time":4,"line":5,"is_transit":false,"i_long":106.737035,"transit":false,"station_name":"Bojongindah","station_id":"BOI","distance":1152,"i_lat":-6.159876},{"time":2,"station_id":"TKO","i_lat":-6.1587309999999995,"transit":false,"station_name":"Taman Kota","line":5,"i_long":106.756522,"is_transit":false,"distance":2334},{"station_id":"PSG","time":2,"i_long":106.771379,"is_transit":false,"transit":false,"distance":1614,"i_lat":-6.161433,"line":5,"station_name":"Pesing"},{"transit":false,"time":2,"i_lat":-6.162021,"distance":2036,"station_name":"Grogol","is_transit":false,"station_id":"GGL","i_long":106.788277,"line":5},{"is_transit":true,"transit":true,"i_lat":-6.155215,"distance":1700,"time":3,"i_long":106.800832,"line":1,"station_id":"DU","station_name":"Duri"},{"distance":1230,"transit":false,"time":4,"i_long":106.79867,"is_transit":false,"i_lat":-6.144674,"station_id":"AK","station_name":"Angke","line":1},{"distance":4102,"i_long":106.826365,"station_name":"Kampung Bandan","line":4,"is_transit":true,"time":9,"transit":true,"station_id":"KPB","i_lat":-6.132549},{"line":11,"is_transit":false,"station_id":"RJW","time":3,"i_long":106.836569,"i_lat":-6.14505,"distance":1444,"station_name":"Rajawali","transit":false},{"line":11,"station_id":"KMO","time":5,"station_name":"Kemayoran","i_long":106.839204,"i_lat":-6.161728,"is_transit":false,"transit":false,"distance":1901},{"is_transit":false,"i_lat":-6.174784,"distance":1436,"transit":false,"line":11,"i_long":106.84368,"time":4,"station_name":"Pasar Senen","station_id":"PSE"},{"station_id":"GST","i_lat":-6.185975,"distance":1567,"station_name":"Gang Sentiong","time":8,"transit":false,"line":11,"is_transit":false,"i_long":106.850107},{"station_name":"Kramat","i_lat":-6.193792,"i_long":106.855437,"distance":973,"transit":false,"line":11,"time":1,"is_transit":false,"station_id":"KMT"},{"line":11,"station_name":"Pondok Jati","is_transit":false,"station_id":"POK","i_lat":-6.209188,"distance":1829,"transit":false,"i_long":106.861737,"time":2},{"is_transit":true,"transit":true,"line":1,"time":9,"station_name":"Jatinegara","distance":1236,"i_lat":-6.215091,"i_long":106.86807400000001,"station_id":"JNG"},{"station_id":"MTR","distance":1377,"i_lat":-6.212485,"line":1,"station_name":"Matraman","is_transit":false,"time":2,"i_long":106.858896,"transit":false},{"transit":true,"is_transit":true,"i_lat":-6.209883,"line":2,"station_name":"Manggarai","station_id":"MRI","distance":1275,"i_long":106.84912,"time":2},{"distance":2610,"station_id":"TEB","transit":false,"i_lat":-6.226659,"is_transit":false,"time":4,"line":2,"station_name":"Tebet","i_long":106.857948},{"station_id":"CW","time":2,"is_transit":false,"line":2,"station_name":"Cawang","i_lat":-6.242512,"transit":false,"i_long":106.856607,"distance":1230},{"is_transit":false,"distance":1546,"i_long":106.85449,"line":2,"time":3,"transit":false,"station_name":"Duren Kalibata","i_lat":-6.255332,"station_id":"DRN"}]]}