{"data":[[{"i_long":106.665036,"i_lat":-6.171811,"line":0,"time":0,"distance":0,"station_name":"Batuceper","is_transit":false,"transit":false,"station_id":"BPR"},{"time":3,"distance":1834,"station_id":"PI","line":5,"station_name":"Poris","transit":false,"i_lat":-6.169933,"is_transit":false,"i_long":106.679458},{"transit":false,"time":3,"is_transit":false,"station_name":"Kalideres","i_lat":-6.166068,"line":5,"distance":2548,"station_id":"KDS","i_long":106.701612},{"transit":false,"station_name":"Rawa Buaya","station_id":"RW","is_transit":false,"line":5,"time":3,"i_long":106.723064,"i_lat":-6.162758,"distance":2504},{"line":0,"station_id":"BOI","is_transit":false,"time":4,"i_long":106.737035,"distance":1152,"station_name":"Bojongindah","transit":false,"i_lat":-6.159876},{"i_long":106.756522,"station_id":"TKO","line":5,"station_name":"Taman Kota","i_lat":-6.1587309999999995,"is_transit":false,"time":2,"transit":false,"distance":2334},{"is_transit":false,"transit":false,"time":2,"i_lat":-6.161433,"i_long":106.771379,"line":5,"station_id":"PSG","station_name":"Pesing","distance":1614},{"i_long":106.788277,"i_lat":-6.162021,"station_id":"GGL","distance":2036,"time":2,"line":5,"station_name":"Grogol","is_transit":false,"transit":false},{"transit":true,"i_long":106.800832,"line":1,"is_transit":true,"time":3,"i_lat":-6.155215,"distance":1700,"station_name":"Duri","station_id":"DU"},{"transit":false,"line":1,"station_id":"THB","station_name":"Tanah Abang","i_lat":-6.185545,"i_long":106.811091,"is_transit":true,"distance":3632,"time":8},{"station_id":"KAT","i_lat":-6.20132,"time":5,"i_long":106.816351,"is_transit":false,"distance":2029,"station_name":"Karet","line":1,"transit":false},{"is_transit":false,"i_lat":-6.201433,"time":1,"distance":471,"transit":false,"i_long":106.819881,"station_id":"SUDB","station_name":"Sudirman Baru","line":1},{"is_transit":false,"line":1,"station_id":"SUD","i_lat":-6.202263,"time":1,"distance":280,"transit":false,"station_name":"Sudirman","i_long":106.822649},{"station_name":"Manggarai","distance":3186,"station_id":"MRI","line":0,"is_transit":true,"transit":true,"i_lat":-6.209883,"i_long":106.84912,"time":4},{"i_long":106.857948,"line":2,"transit":false,"i_lat":-6.226659,"is_transit":false,"station_name":"Tebet","station_id":"TEB","time":4,"distance":2610},{"distance":1230,"i_long":106.856607,"line":0,"transit":false,"time":2,"station_name":"Cawang","is_transit":false,"station_id":"CW","i_lat":-6.242512},{"station_name":"Duren Kalibata","transit":false,"line":0,"i_lat":-6.255332,"i_long":106.85449,"time":3,"is_transit":false,"station_id":"DRN","distance":1546},{"station_name":"Pasar Minggu Baru","station_id":"PSMB","is_transit":false,"i_long":106.851577,"line":2,"i_lat":-6.263214,"time":2,"distance":824,"transit":false},{"station_name":"Pasar Minggu","i_lat":-6.2842400000000005,"i_long":106.843999,"line":2,"distance":2380,"time":2,"is_transit":false,"transit":false,"station_id":"PSM"},{"is_transit":false,"distance":2820,"station_id":"TNT","transit":false,"i_lat":-6.3080680000000005,"time":4,"i_long":106.838896,"line":2,"station_name":"Tanjung Barat"},{"station_name":"Lenteng Agung","transit":false,"i_long":106.832616,"distance":2671,"line":2,"station_id":"LNA","i_lat":-6.330363,"time":3,"is_transit":false}],[{"i_lat":-6.171811,"line":0,"transit":false,"time":0,"is_transit":false,"distance":0,"station_name":"Batuceper","station_id":"BPR","i_long":106.665036},{"time":3,"is_transit":false,"transit":false,"i_lat":-6.169933,"distance":1834,"station_name":"Poris","station_id":"PI","line":5,"i_long":106.679458},{"distance":2548,"transit":false,"is_transit":false,"i_long":106.701612,"line":5,"time":3,"station_name":"Kalideres","station_id":"KDS","i_lat":-6.166068},{"station_id":"RW","distance":2504,"station_name":"Rawa Buaya","is_transit":false,"time":3,"transit":false,"i_lat":-6.162758,"i_long":106.723064,"line":5},{"is_transit":false,"i_lat":-6.159876,"time":4,"line":0,"station_id":"BOI","transit":false,"i_long":106.737035,"distance":1152,"station_name":"Bojongindah"},{"i_long":106.756522,"station_id":"TKO","is_transit":false,"distance":2334,"transit":false,"station_name":"Taman Kota","i_lat":-6.1587309999999995,"time":2,"line":5},{"i_lat":-6.161433,"time":2,"distance":1614,"line":5,"i_long":106.771379,"station_id":"PSG","is_transit":false,"transit":false,"station_name":"Pesing"},{"time":2,"station_name":"Grogol","is_transit":false,"transit":false,"i_lat":-6.162021,"distance":2036,"line":5,"station_id":"GGL","i_long":106.788277},{"time":3,"distance":1700,"station_name":"Duri","i_lat":-6.155215,"line":1,"is_transit":true,"station_id":"DU","i_long":106.800832,"transit":true},{"is_transit":false,"i_lat":-6.144674,"station_id":"AK","time":4,"station_name":"Angke","i_long":106.79867,"line":0,"transit":false,"distance":1230},{"station_id":"KPB","i_lat":-6.132549,"i_long":106.826365,"time":9,"distance":4102,"transit":false,"is_transit":true,"station_name":"Kampung Bandan","line":0},{"distance":1364,"i_lat":-6.137569,"line":0,"time":3,"is_transit":true,"transit":true,"station_id":"JAKK","i_long":106.812439,"station_name":"Jakarta Kota"},{"is_transit":false,"transit":false,"station_name":"Jayakarta","i_long":106.820901,"distance":1264,"station_id":"JAY","time":4,"i_lat":-6.141205,"line":7},{"transit":false,"i_lat":-6.149769,"i_long":106.82482,"line":2,"station_id":"MGB","is_transit":false,"time":2,"distance":1080,"station_name":"Manggabesar"},{"i_long":106.827103,"line":2,"time":2,"is_transit":false,"station_id":"SW","station_name":"Sawah Besar","distance":906,"transit":false,"i_lat":-6.160725},{"time":2,"line":2,"station_id":"JUA","transit":false,"i_lat":-6.166716,"distance":1149,"is_transit":false,"i_long":106.828284,"station_name":"Juanda"},{"is_transit":false,"station_id":"GDD","station_name":"Gondangdia","i_long":106.832183,"transit":false,"time":4,"distance":2015,"i_lat":-6.186295,"line":2},{"line":0,"time":3,"distance":1750,"i_long":106.840169,"station_id":"CKI","station_name":"Cikini","is_transit":false,"i_lat":-6.198556,"transit":false},{"line":0,"station_name":"Manggarai","station_id":"MRI","distance":1590,"i_lat":-6.209883,"i_long":106.84912,"is_transit":true,"time":4,"transit":true},{"i_long":106.857948,"line":2,"station_id":"TEB","transit":false,"i_lat":-6.226659,"is_transit":false,"time":4,"distance":2610,"station_name":"Tebet"},{"time":2,"i_lat":-6.242512,"i_long":106.856607,"station_name":"Cawang","station_id":"CW","line":0,"is_transit":false,"transit":false,"distance":1230},{"is_transit":false,"station_name":"Duren Kalibata","time":3,"i_long":106.85449,"i_lat":-6.255332,"transit":false,"distance":1546,"line":0,"station_id":"DRN"},{"transit":false,"line":2,"is_transit":false,"station_id":"PSMB","time":2,"distance":824,"i_lat":-6.263214,"station_name":"Pasar Minggu Baru","i_long":106.851577},{"distance":2380,"line":2,"i_long":106.843999,"time":2,"i_lat":-6.2842400000000005,"station_name":"Pasar Minggu","transit":false,"is_transit":false,"station_id":"PSM"},{"station_id":"TNT","i_lat":-6.3080680000000005,"line":2,"is_transit":false,"distance":2820,"transit":false,"station_name":"Tanjung Barat","i_long":106.838896,"time":4},{"time":3,"transit":false,"station_name":"Lenteng Agung","i_lat":-6.330363,"station_id":"LNA","is_transit":false,"i_long":106.832616,"distance":2671,"line":2}],[{"i_lat":-6.171811,"time":0,"station_id":"BPR","distance":0,"transit":false,"line":0,"station_name":"Batuceper","i_long":106.665036,"is_transit":false},{"station_name":"Poris","is_transit":false,"time":3,"distance":1834,"station_id":"PI","transit":false,"i_lat":-6.169933,"i_long":106.679458,"line":5},{"time":3,"distance":2548,"transit":false,"line":5,"i_lat":-6.166068,"station_name":"Kalideres","i_long":106.701612,"is_transit":false,"station_id":"KDS"},{"time":3,"i_lat":-6.162758,"distance":2504,"i_long":106.723064,"station_id":"RW","station_name":"Rawa Buaya","line":5,"is_transit":false,"transit":false},{"line":0,"i_long":106.737035,"distance":1152,"i_lat":-6.159876,"station_id":"BOI","transit":false,"is_transit":false,"time":4,"station_name":"Bojongindah"},{"i_lat":-6.1587309999999995,"distance":2334,"station_name":"Taman Kota","transit":false,"i_long":106.756522,"is_transit":false,"line":5,"station_id":"TKO","time":2},{"line":5,"transit":false,"station_id":"PSG","is_transit":false,"station_name":"Pesing","i_lat":-6.161433,"i_long":106.771379,"time":2,"distance":1614},{"time":2,"is_transit":false,"distance":2036,"station_id":"GGL","i_long":106.788277,"line":5,"transit":false,"station_name":"Grogol","i_lat":-6.162021},{"distance":1700,"i_lat":-6.155215,"station_name":"Duri","line":1,"is_transit":true,"time":3,"i_long":106.800832,"station_id":"DU","transit":true},{"is_transit":false,"station_id":"AK","distance":1230,"station_name":"Angke","i_long":106.79867,"time":4,"transit":false,"i_lat":-6.144674,"line":0},{"is_transit":true,"distance":4102,"i_lat":-6.132549,"transit":true,"i_long":106.826365,"station_id":"KPB","line":0,"station_name":"Kampung Bandan","time":9},{"is_transit":false,"distance":1444,"station_name":"Rajawali","station_id":"RJW","i_lat":-6.14505,"i_long":106.836569,"line":11,"time":3,"transit":false},{"station_name":"Kemayoran","time":5,"transit":false,"distance":1901,"line":11,"i_lat":-6.161728,"station_id":"KMO","is_transit":false,"i_long":106.839204},{"station_name":"Pasar Senen","transit":false,"i_long":106.84368,"time":4,"is_transit":false,"i_lat":-6.174784,"station_id":"PSE","line":11,"distance":1436},{"station_id":"GST","is_transit":false,"station_name":"Gang Sentiong","time":8,"transit":false,"i_lat":-6.185975,"line":11,"i_long":106.850107,"distance":1567},{"station_name":"Kramat","i_lat":-6.193792,"i_long":106.855437,"station_id":"KMT","is_transit":false,"distance":973,"transit":false,"line":11,"time":1},{"line":11,"distance":1829,"i_long":106.861737,"is_transit":false,"time":2,"station_name":"Pondok Jati","transit":false,"i_lat":-6.209188,"station_id":"POK"},{"station_id":"JNG","time":9,"transit":true,"station_name":"Jatinegara","i_lat":-6.215091,"line":0,"is_transit":true,"i_long":106.86807400000001,"distance":1236},{"line":1,"station_id":"MTR","is_transit":false,"i_lat":-6.212485,"time":2,"station_name":"Matraman","i_long":106.858896,"distance":1377,"transit":false},{"line":0,"is_transit":true,"station_id":"MRI","transit":true,"i_lat":-6.209883,"station_name":"Manggarai","time":2,"distance":1275,"i_long":106.84912},{"distance":2610,"i_lat":-6.226659,"station_id":"TEB","time":4,"line":2,"i_long":106.857948,"station_name":"Tebet","transit":false,"is_transit":false},{"i_lat":-6.242512,"i_long":106.856607,"station_id":"CW","station_name":"Cawang","line":0,"is_transit":false,"time":2,"distance":1230,"transit":false},{"line":0,"station_id":"DRN","distance":1546,"station_name":"Duren Kalibata","transit":false,"is_transit":false,"time":3,"i_lat":-6.255332,"i_long":106.85449},{"is_transit":false,"i_long":106.851577,"distance":824,"transit":false,"time":2,"i_lat":-6.263214,"station_id":"PSMB","line":2,"station_name":"Pasar Minggu Baru"},{"is_transit":false,"line":2,"station_id":"PSM","i_lat":-6.2842400000000005,"time":2,"distance":2380,"station_name":"Pasar Minggu","transit":false,"i_long":106.843999},{"time":4,"is_transit":false,"station_name":"Tanjung Barat","distance":2820,"i_lat":-6.3080680000000005,"i_long":106.838896,"line":2,"transit":false,"station_id":"TNT"},{"station_name":"Lenteng Agung","i_lat":-6.330363,"time":3,"is_transit":false,"transit":false,"line":2,"station_id":"LNA","distance":2671,"i_long":106.832616}]]}