{"data":[[{"i_long":106.665036,"station_id":"BPR","time":0,"i_lat":-6.171811,"station_name":"Batuceper","distance":0,"transit":false,"is_transit":false,"line":5},{"i_lat":-6.169933,"time":3,"transit":false,"distance":1834,"station_name":"Poris","i_long":106.679458,"line":5,"is_transit":false,"station_id":"PI"},{"station_id":"KDS","i_lat":-6.166068,"is_transit":false,"time":3,"distance":2548,"i_long":106.701612,"line":5,"transit":false,"station_name":"Kalideres"},{"i_lat":-6.162758,"time":3,"transit":false,"i_long":106.723064,"is_transit":false,"station_id":"RW","distance":2504,"line":5,"station_name":"Rawa Buaya"},{"station_name":"Bojongindah","time":4,"distance":1152,"i_lat":-6.159876,"line":5,"transit":false,"i_long":106.737035,"station_id":"BOI","is_transit":false},{"station_id":"TKO","time":2,"i_lat":-6.1587309999999995,"transit":false,"station_name":"Taman Kota","distance":2334,"is_transit":false,"i_long":106.756522,"line":5},{"distance":1614,"i_lat":-6.161433,"station_name":"Pesing","station_id":"PSG","is_transit":false,"time":2,"transit":false,"i_long":106.771379,"line":5},{"is_transit":false,"line":5,"station_name":"Grogol","time":2,"i_lat":-6.162021,"distance":2036,"i_long":106.788277,"station_id":"GGL","transit":false},{"i_long":106.800832,"station_name":"Duri","time":3,"is_transit":true,"distance":1700,"line":1,"station_id":"DU","i_lat":-6.155215,"transit":true},{"i_long":106.811091,"station_name":"Tanah Abang","is_transit":false,"time":8,"station_id":"THB","transit":false,"distance":3632,"i_lat":-6.185545,"line":1},{"station_name":"Karet","time":5,"line":1,"distance":2029,"transit":false,"i_lat":-6.20132,"is_transit":false,"station_id":"KAT","i_long":106.816351},{"transit":false,"i_lat":-6.201433,"time":1,"station_name":"Sudirman Baru","station_id":"SUDB","is_transit":false,"distance":471,"line":1,"i_long":106.819881},{"i_lat":-6.202263,"time":1,"station_id":"SUD","line":1,"is_transit":false,"i_long":106.822649,"transit":false,"distance":280,"station_name":"Sudirman"},{"time":4,"line":2,"transit":false,"i_lat":-6.209883,"station_name":"Manggarai","station_id":"MRI","is_transit":false,"i_long":106.84912,"distance":3186},{"line":1,"station_id":"MTR","i_long":106.858896,"transit":false,"station_name":"Matraman","time":2,"distance":1275,"i_lat":-6.212485,"is_transit":false},{"station_name":"Jatinegara","station_id":"JNG","is_transit":false,"distance":1377,"i_lat":-6.215091,"time":8,"i_long":106.86807400000001,"line":1,"transit":false},{"time":3,"i_long":106.899548,"is_transit":false,"line":1,"transit":false,"i_lat":-6.2135,"station_name":"Klender","station_id":"KLD","distance":3395},{"transit":false,"i_long":106.922662,"line":1,"is_transit":false,"station_name":"Buaran","distance":3100,"time":2,"station_id":"BUA","i_lat":-6.215568},{"i_long":106.939679,"time":1,"line":1,"i_lat":-6.217455,"transit":false,"is_transit":false,"station_id":"KLDB","distance":1305,"station_name":"Klenderbaru"},{"i_long":106.951283,"station_name":"Cakung","transit":false,"is_transit":false,"i_lat":-6.219053,"distance":1385,"time":8,"line":1,"station_id":"CUK"},{"station_name":"Kranji","distance":3097,"i_lat":-6.224515,"station_id":"KRI","is_transit":false,"i_long":106.977657,"transit":false,"time":3,"line":1},{"i_lat":-6.236616,"station_id":"BKS","station_name":"Bekasi","i_long":106.997013,"line":1,"distance":2520,"transit":false,"time":4,"is_transit":false},{"i_long":107.016735,"line":1,"i_lat":-6.248029,"station_name":"Bekasi Timur","time":2,"transit":false,"is_transit":false,"distance":2368,"station_id":"BKST"},{"i_lat":-6.258864,"i_long":107.055722,"station_name":"Tambun","is_transit":false,"distance":4460,"station_id":"TB","line":1,"transit":false,"time":7},{"i_long":107.083084,"line":1,"transit":false,"i_lat":-6.261877,"time":3,"station_id":"CIT","station_name":"Cibitung","distance":3420,"is_transit":false},{"line":1,"transit":false,"i_long":107.093313,"station_name":"Metland Telaga Murni","i_lat":-6.262938,"time":2,"is_transit":false,"distance":2800,"station_id":"TLM"},{"distance":3689,"transit":false,"station_name":"Cikarang","station_id":"CKR","i_long":107.144613,"is_transit":false,"line":1,"i_lat":-6.2553149999999995,"time":4}],[{"i_lat":-6.171811,"station_id":"BPR","station_name":"Batuceper","is_transit":false,"transit":false,"time":0,"line":5,"i_long":106.665036,"distance":0},{"station_name":"Poris","i_lat":-6.169933,"line":5,"is_transit":false,"i_long":106.679458,"distance":1834,"time":3,"transit":false,"station_id":"PI"},{"i_lat":-6.166068,"station_name":"Kalideres","distance":2548,"transit":false,"is_transit":false,"line":5,"time":3,"i_long":106.701612,"station_id":"KDS"},{"station_id":"RW","is_transit":false,"distance":2504,"i_lat":-6.162758,"i_long":106.723064,"time":3,"line":5,"transit":false,"station_name":"Rawa Buaya"},{"station_name":"Bojongindah","line":5,"transit":false,"distance":1152,"i_lat":-6.159876,"station_id":"BOI","i_long":106.737035,"time":4,"is_transit":false},{"time":2,"station_id":"TKO","i_long":106.756522,"is_transit":false,"station_name":"Taman Kota","line":5,"transit":false,"distance":2334,"i_lat":-6.1587309999999995},{"is_transit":false,"station_name":"Pesing","i_lat":-6.161433,"distance":1614,"time":2,"i_long":106.771379,"transit":false,"station_id":"PSG","line":5},{"station_name":"Grogol","i_lat":-6.162021,"distance":2036,"i_long":106.788277,"transit":false,"line":5,"station_id":"GGL","is_transit":false,"time":2},{"is_transit":true,"i_long":106.800832,"line":1,"distance":1700,"station_id":"DU","i_lat":-6.155215,"time":3,"transit":true,"station_name":"Duri"},{"station_id":"AK","station_name":"Angke","time":4,"i_long":106.79867,"transit":false,"is_transit":false,"distance":1230,"i_lat":-6.144674,"line":1},{"time":9,"transit":true,"station_name":"Kampung Bandan","i_long":106.826365,"station_id":"KPB","i_lat":-6.132549,"line":4,"distance":4102,"is_transit":true},{"line":11,"i_long":106.836569,"station_id":"RJW","distance":1444,"station_name":"Rajawali","transit":false,"is_transit":false,"time":3,"i_lat":-6.14505},{"time":5,"transit":false,"i_lat":-6.161728,"is_transit":false,"line":11,"station_name":"Kemayoran","station_id":"KMO","distance":1901,"i_long":106.839204},{"i_lat":-6.174784,"i_long":106.84368,"transit":false,"station_name":"Pasar Senen","distance":1436,"is_transit":false,"time":4,"station_id":"PSE","line":11},{"station_name":"Gang Sentiong","time":8,"distance":1567,"i_lat":-6.185975,"station_id":"GST","i_long":106.850107,"line":11,"is_transit":false,"transit":false},{"is_transit":false,"i_lat":-6.193792,"station_id":"KMT","time":1,"transit":false,"line":11,"i_long":106.855437,"station_name":"Kramat","distance":973},{"station_name":"Pondok Jati","i_lat":-6.209188,"line":11,"transit":false,"i_long":106.861737,"distance":1829,"station_id":"POK","is_transit":false,"time":2},{"station_id":"JNG","time":9,"i_lat":-6.215091,"i_long":106.86807400000001,"transit":true,"station_name":"Jatinegara","distance":1236,"is_transit":true,"line":1},{"distance":3395,"i_long":106.899548,"line":1,"is_transit":false,"transit":false,"station_name":"Klender","station_id":"KLD","time":3,"i_lat":-6.2135},{"time":2,"distance":3100,"i_lat":-6.215568,"transit":false,"station_id":"BUA","is_transit":false,"i_long":106.922662,"station_name":"Buaran","line":1},{"is_transit":false,"line":1,"i_lat":-6.217455,"station_id":"KLDB","station_name":"Klenderbaru","transit":false,"time":1,"i_long":106.939679,"distance":1305},{"i_long":106.951283,"station_name":"Cakung","line":1,"transit":false,"i_lat":-6.219053,"is_transit":false,"distance":1385,"time":8,"station_id":"CUK"},{"station_id":"KRI","i_long":106.977657,"line":1,"i_lat":-6.224515,"transit":false,"is_transit":false,"time":3,"station_name":"Kranji","distance":3097},{"station_id":"BKS","distance":2520,"i_lat":-6.236616,"is_transit":false,"i_long":106.997013,"line":1,"station_name":"Bekasi","time":4,"transit":false},{"transit":false,"station_id":"BKST","is_transit":false,"i_lat":-6.248029,"i_long":107.016735,"distance":2368,"line":1,"station_name":"Bekasi Timur","time":2},{"station_name":"Tambun","line":1,"is_transit":false,"i_long":107.055722,"transit":false,"time":7,"station_id":"TB","distance":4460,"i_lat":-6.258864},{"station_id":"CIT","is_transit":false,"station_name":"Cibitung","line":1,"time":3,"distance":3420,"transit":false,"i_long":107.083084,"i_lat":-6.261877},{"time":2,"i_lat":-6.262938,"station_name":"Metland Telaga Murni","i_long":107.093313,"station_id":"TLM","line":1,"transit":false,"is_transit":false,"distance":2800},{"i_lat":-6.2553149999999995,"station_id":"CKR","time":4,"distance":3689,"line":1,"station_name":"Cikarang","i_long":107.144613,"is_transit":false,"transit":false}],[{"i_long":106.665036,"line":5,"station_id":"BPR","is_transit":false,"station_name":"Batuceper","time":0,"transit":false,"distance":0,"i_lat":-6.171811},{"time":3,"line":5,"distance":1834,"i_long":106.679458,"station_name":"Poris","transit":false,"station_id":"PI","is_transit":false,"i_lat":-6.169933},{"station_id":"KDS","line":5,"distance":2548,"is_transit":false,"time":3,"transit":false,"station_name":"Kalideres","i_lat":-6.166068,"i_long":106.701612},{"distance":2504,"i_long":106.723064,"time":3,"transit":false,"station_name":"Rawa Buaya","is_transit":false,"i_lat":-6.162758,"line":5,"station_id":"RW"},{"is_transit":false,"time":4,"line":5,"i_long":106.737035,"station_name":"Bojongindah","station_id":"BOI","distance":1152,"i_lat":-6.159876,"transit":false},{"i_lat":-6.1587309999999995,"i_long":106.756522,"station_name":"Taman Kota","line":5,"transit":false,"time":2,"is_transit":false,"distance":2334,"station_id":"TKO"},{"time":2,"i_lat":-6.161433,"line":5,"station_id":"PSG","transit":false,"is_transit":false,"station_name":"Pesing","distance":1614,"i_long":106.771379},{"station_id":"GGL","is_transit":false,"station_name":"Grogol","time":2,"i_long":106.788277,"distance":2036,"line":5,"transit":false,"i_lat":-6.162021},{"station_name":"Duri","i_lat":-6.155215,"distance":1700,"line":1,"i_long":106.800832,"station_id":"DU","is_transit":true,"transit":true,"time":3},{"time":4,"transit":false,"line":1,"station_name":"Angke","station_id":"AK","distance":1230,"i_lat":-6.144674,"i_long":106.79867,"is_transit":false},{"time":9,"station_name":"Kampung Bandan","line":4,"distance":4102,"is_transit":true,"i_lat":-6.132549,"transit":true,"station_id":"KPB","i_long":106.826365},{"i_long":106.812439,"transit":true,"station_id":"JAKK","station_name":"Jakarta Kota","is_transit":true,"distance":1364,"i_lat":-6.137569,"line":2,"time":3},{"is_transit":false,"station_name":"Jayakarta","transit":false,"distance":1264,"i_lat":-6.141205,"time":4,"i_long":106.820901,"station_id":"JAY","line":2},{"time":2,"is_transit":false,"i_long":106.82482,"station_id":"MGB","transit":false,"distance":1080,"i_lat":-6.149769,"line":2,"station_name":"Manggabesar"},{"distance":906,"is_transit":false,"i_lat":-6.160725,"station_id":"SW","line":2,"station_name":"Sawah Besar","transit":false,"time":2,"i_long":106.827103},{"is_transit":false,"distance":1149,"line":2,"transit":false,"station_id":"JUA","time":2,"station_name":"Juanda","i_long":106.828284,"i_lat":-6.166716},{"line":2,"is_transit":false,"time":4,"distance":2015,"station_name":"Gondangdia","i_long":106.832183,"transit":false,"station_id":"GDD","i_lat":-6.186295},{"transit":false,"is_transit":false,"time":3,"station_id":"CKI","distance":1750,"i_lat":-6.198556,"station_name":"Cikini","i_long":106.840169,"line":2},{"station_id":"MRI","distance":1590,"i_long":106.84912,"line":2,"i_lat":-6.209883,"is_transit":true,"transit":true,"time":4,"station_name":"Manggarai"},{"i_lat":-6.212485,"line":1,"is_transit":false,"time":2,"station_id":"MTR","i_long":106.858896,"distance":1275,"transit":false,"station_name":"Matraman"},{"station_id":"JNG","distance":1377,"station_name":"Jatinegara","i_lat":-6.215091,"i_long":106.86807400000001,"time":8,"is_transit":false,"transit":false,"line":1},{"i_lat":-6.2135,"transit":false,"i_long":106.899548,"station_id":"KLD","is_transit":false,"line":1,"time":3,"station_name":"Klender","distance":3395},{"distance":3100,"time":2,"i_lat":-6.215568,"i_long":106.922662,"line":1,"station_name":"Buaran","transit":false,"is_transit":false,"station_id":"BUA"},{"distance":1305,"i_long":106.939679,"is_transit":false,"i_lat":-6.217455,"line":1,"transit":false,"station_id":"KLDB","time":1,"station_name":"Klenderbaru"},{"line":1,"i_lat":-6.219053,"transit":false,"i_long":106.951283,"distance":1385,"is_transit":false,"station_name":"Cakung","time":8,"station_id":"CUK"},{"i_long":106.977657,"line":1,"station_name":"Kranji","distance":3097,"transit":false,"i_lat":-6.224515,"station_id":"KRI","time":3,"is_transit":false},{"i_lat":-6.236616,"station_name":"Bekasi","transit":false,"station_id":"BKS","line":1,"is_transit":false,"time":4,"distance":2520,"i_long":106.997013},{"station_id":"BKST","is_transit":false,"i_long":107.016735,"station_name":"Bekasi Timur","transit":false,"i_lat":-6.248029,"time":2,"distance":2368,"line":1},{"time":7,"i_lat":-6.258864,"distance":4460,"is_transit":false,"i_long":107.055722,"station_name":"Tambun","transit":false,"station_id":"TB","line":1},{"transit":false,"i_lat":-6.261877,"is_transit":false,"distance":3420,"station_name":"Cibitung","time":3,"i_long":107.083084,"line":1,"station_id":"CIT"},{"distance":2800,"time":2,"station_name":"Metland Telaga Murni","transit":false,"line":1,"station_id":"TLM","is_transit":false,"i_lat":-6.262938,"i_long":107.093313},{"is_transit":false,"i_lat":-6.2553149999999995,"i_long":107.144613,"transit":false,"distance":3689,"station_id":"CKR","time":4,"station_name":"Cikarang","line":1}],[{"is_transit":false,"transit":false,"distance":0,"i_long":106.665036,"line":5,"station_name":"Batuceper","i_lat":-6.171811,"station_id":"BPR","time":0},{"is_transit":false,"distance":1834,"station_id":"PI","time":3,"transit":false,"i_lat":-6.169933,"station_name":"Poris","i_long":106.679458,"line":5},{"station_name":"Kalideres","station_id":"KDS","i_lat":-6.166068,"transit":false,"line":5,"time":3,"is_transit":false,"i_long":106.701612,"distance":2548},{"i_long":106.723064,"transit":false,"time":3,"is_transit":false,"station_name":"Rawa Buaya","i_lat":-6.162758,"station_id":"RW","line":5,"distance":2504},{"distance":1152,"i_long":106.737035,"time":4,"line":5,"station_name":"Bojongindah","is_transit":false,"transit":false,"station_id":"BOI","i_lat":-6.159876},{"station_id":"TKO","station_name":"Taman Kota","is_transit":false,"distance":2334,"i_long":106.756522,"line":5,"i_lat":-6.1587309999999995,"time":2,"transit":false},{"i_lat":-6.161433,"station_name":"Pesing","distance":1614,"time":2,"transit":false,"line":5,"is_transit":false,"station_id":"PSG","i_long":106.771379},{"time":2,"station_name":"Grogol","i_long":106.788277,"station_id":"GGL","is_transit":false,"distance":2036,"i_lat":-6.162021,"line":5,"transit":false},{"i_long":106.800832,"i_lat":-6.155215,"line":1,"station_id":"DU","transit":true,"station_name":"Duri","time":3,"is_transit":true,"distance":1700},{"distance":3632,"i_lat":-6.185545,"station_name":"Tanah Abang","is_transit":false,"i_long":106.811091,"station_id":"THB","line":1,"transit":false,"time":8},{"is_transit":false,"station_name":"Karet","i_lat":-6.20132,"line":1,"distance":2029,"transit":false,"time":5,"i_long":106.816351,"station_id":"KAT"},{"distance":471,"line":1,"i_long":106.819881,"station_id":"SUDB","is_transit":false,"station_name":"Sudirman Baru","transit":false,"time":1,"i_lat":-6.201433},{"station_id":"SUD","is_transit":false,"i_lat":-6.202263,"i_long":106.822649,"line":1,"time":1,"station_name":"Sudirman","distance":280,"transit":false},{"station_id":"MRI","i_lat":-6.209883,"line":2,"time":4,"transit":true,"distance":3186,"i_long":106.84912,"station_name":"Manggarai","is_transit":true},{"time":4,"station_id":"CKI","transit":false,"is_transit":false,"distance":1590,"line":2,"i_lat":-6.198556,"i_long":106.840169,"station_name":"Cikini"},{"is_transit":false,"i_long":106.832183,"line":2,"i_lat":-6.186295,"distance":1750,"station_name":"Gondangdia","transit":false,"time":3,"station_id":"GDD"},{"is_transit":false,"station_id":"JUA","i_lat":-6.166716,"transit":false,"distance":2015,"time":4,"station_name":"Juanda","i_long":106.828284,"line":2},{"line":2,"transit":false,"station_id":"SW","time":2,"i_lat":-6.160725,"i_long":106.827103,"distance":1149,"station_name":"Sawah Besar","is_transit":false},{"station_id":"MGB","i_long":106.82482,"station_name":"Manggabesar","distance":906,"is_transit":false,"line":2,"i_lat":-6.149769,"time":2,"transit":false},{"transit":false,"line":2,"distance":1080,"i_long":106.820901,"i_lat":-6.141205,"station_id":"JAY","station_name":"Jayakarta","is_transit":false,"time":2},{"station_id":"JAKK","transit":true,"is_transit":true,"distance":1264,"station_name":"Jakarta Kota","time":4,"i_long":106.812439,"i_lat":-6.137569,"line":2},{"distance":1364,"station_name":"Kampung Bandan","station_id":"KPB","transit":true,"is_transit":true,"time":3,"line":4,"i_lat":-6.132549,"i_long":106.826365},{"transit":false,"line":11,"station_name":"Rajawali","distance":1444,"station_id":"RJW","time":3,"is_transit":false,"i_long":106.836569,"i_lat":-6.14505},{"time":5,"line":11,"station_id":"KMO","distance":1901,"is_transit":false,"transit":false,"station_name":"Kemayoran","i_long":106.839204,"i_lat":-6.161728},{"transit":false,"line":11,"station_name":"Pasar Senen","distance":1436,"is_transit":false,"time":4,"i_long":106.84368,"station_id":"PSE","i_lat":-6.174784},{"station_name":"Gang Sentiong","i_lat":-6.185975,"line":11,"transit":false,"station_id":"GST","time":8,"distance":1567,"is_transit":false,"i_long":106.850107},{"distance":973,"station_name":"Kramat","transit":false,"station_id":"KMT","line":11,"i_lat":-6.193792,"is_transit":false,"i_long":106.855437,"time":1},{"i_lat":-6.209188,"i_long":106.861737,"line":11,"distance":1829,"station_id":"POK","transit":false,"is_transit":false,"station_name":"Pondok Jati","time":2},{"station_name":"Jatinegara","is_transit":true,"i_lat":-6.215091,"i_long":106.86807400000001,"line":1,"transit":true,"station_id":"JNG","time":9,"distance":1236},{"i_long":106.899548,"station_name":"Klender","transit":false,"is_transit":false,"time":3,"station_id":"KLD","distance":3395,"i_lat":-6.2135,"line":1},{"station_name":"Buaran","i_lat":-6.215568,"i_long":106.922662,"station_id":"BUA","time":2,"distance":3100,"is_transit":false,"line":1,"transit":false},{"time":1,"station_name":"Klenderbaru","distance":1305,"line":1,"station_id":"KLDB","is_transit":false,"i_lat":-6.217455,"transit":false,"i_long":106.939679},{"transit":false,"distance":1385,"i_lat":-6.219053,"station_name":"Cakung","is_transit":false,"i_long":106.951283,"time":8,"line":1,"station_id":"CUK"},{"station_name":"Kranji","is_transit":false,"time":3,"i_lat":-6.224515,"i_long":106.977657,"line":1,"station_id":"KRI","distance":3097,"transit":false},{"transit":false,"distance":2520,"time":4,"line":1,"station_name":"Bekasi","is_transit":false,"i_lat":-6.236616,"station_id":"BKS","i_long":106.997013},{"is_transit":false,"i_lat":-6.248029,"station_name":"Bekasi Timur","transit":false,"line":1,"time":2,"i_long":107.016735,"distance":2368,"station_id":"BKST"},{"transit":false,"line":1,"distance":4460,"i_long":107.055722,"station_id":"TB","i_lat":-6.258864,"station_name":"Tambun","time":7,"is_transit":false},{"distance":3420,"i_long":107.083084,"is_transit":false,"time":3,"line":1,"i_lat":-6.261877,"station_name":"Cibitung","station_id":"CIT","transit":false},{"transit":false,"distance":2800,"line":1,"is_transit":false,"station_id":"TLM","time":2,"station_name":"Metland Telaga Murni","i_lat":-6.262938,"i_long":107.093313},{"station_id":"CKR","transit":false,"is_transit":false,"i_long":107.144613,"distance":3689,"time":4,"line":1,"station_name":"Cikarang","i_lat":-6.2553149999999995}]]}