{"data":[[{"station_name":"Batuceper","station_id":"BPR","transit":false,"is_transit":false,"i_long":106.665036,"i_lat":-6.171811,"distance":0,"time":0,"line":5},{"line":5,"station_id":"PI","is_transit":false,"i_lat":-6.169933,"transit":false,"i_long":106.679458,"time":3,"station_name":"Poris","distance":1834},{"transit":false,"is_transit":false,"distance":2548,"i_lat":-6.166068,"i_long":106.701612,"line":5,"station_name":"Kalideres","time":3,"station_id":"KDS"},{"station_name":"Rawa Buaya","distance":2504,"transit":false,"line":5,"i_lat":-6.162758,"is_transit":false,"time":3,"i_long":106.723064,"station_id":"RW"},{"station_name":"Bojongindah","time":4,"is_transit":false,"transit":false,"line":5,"station_id":"BOI","distance":1152,"i_lat":-6.159876,"i_long":106.737035},{"is_transit":false,"transit":false,"i_long":106.756522,"i_lat":-6.1587309999999995,"time":2,"station_id":"TKO","line":5,"station_name":"Taman Kota","distance":2334},{"i_long":106.771379,"time":2,"line":5,"distance":1614,"is_transit":false,"transit":false,"station_name":"Pesing","station_id":"PSG","i_lat":-6.161433},{"is_transit":false,"station_name":"Grogol","transit":false,"i_long":106.788277,"station_id":"GRG","i_lat":-6.162021,"line":5,"distance":2036,"time":2},{"station_id":"DU","transit":true,"time":3,"is_transit":true,"distance":1700,"station_name":"Duri","line":1,"i_long":106.800832,"i_lat":-6.155215},{"is_transit":false,"time":8,"i_lat":-6.185545,"transit":false,"i_long":106.811091,"distance":3632,"line":1,"station_name":"Tanah Abang","station_id":"THB"},{"is_transit":false,"distance":2029,"station_name":"Karet","line":1,"i_lat":-6.20132,"station_id":"KAT","time":5,"i_long":106.816351,"transit":false},{"station_name":"Sudirman Baru","time":1,"station_id":"SUDB","i_lat":-6.201433,"line":1,"i_long":106.819881,"distance":471,"transit":false,"is_transit":false},{"time":1,"distance":280,"is_transit":false,"transit":false,"station_id":"SUD","i_long":106.822649,"station_name":"Sudirman","i_lat":-6.202263,"line":1},{"station_name":"Manggarai","time":4,"is_transit":true,"distance":3186,"transit":true,"i_lat":-6.209883,"i_long":106.84912,"station_id":"MRI","line":2},{"distance":2610,"line":2,"i_lat":-6.226659,"is_transit":false,"i_long":106.857948,"time":4,"station_name":"Tebet","station_id":"TEB","transit":false},{"line":2,"station_id":"CW","distance":1230,"i_lat":-6.242512,"time":2,"station_name":"Cawang","transit":false,"i_long":106.856607,"is_transit":false},{"time":3,"station_id":"DRN","is_transit":false,"i_lat":-6.255332,"i_long":106.85449,"line":2,"transit":false,"station_name":"Duren Kalibata","distance":1546},{"station_name":"Pasar Minggu Baru","time":2,"i_lat":-6.263214,"is_transit":false,"line":2,"transit":false,"station_id":"PSMB","i_long":106.851577,"distance":824},{"station_name":"Pasar Minggu","i_long":106.843999,"time":2,"distance":2380,"is_transit":false,"station_id":"PSM","line":2,"i_lat":-6.2842400000000005,"transit":false},{"line":2,"time":4,"i_lat":-6.3080680000000005,"distance":2820,"station_id":"TNT","i_long":106.838896,"station_name":"Tanjung Barat","transit":false,"is_transit":false},{"distance":2671,"transit":false,"line":2,"i_long":106.832616,"i_lat":-6.330363,"time":3,"station_id":"LNA","is_transit":false,"station_name":"Lenteng Agung"},{"distance":1029,"i_long":106.834175,"time":2,"is_transit":false,"station_name":"Univ. Pancasila","transit":false,"i_lat":-6.339291,"station_id":"UP","line":2},{"time":3,"i_long":106.831474,"station_name":"Univ. Indonesia","line":2,"transit":false,"station_id":"UI","is_transit":false,"distance":2264,"i_lat":-6.360749},{"station_id":"POC","station_name":"Pondok Cina","i_lat":-6.369073,"time":2,"distance":1109,"i_long":106.831114,"line":2,"is_transit":false,"transit":false}],[{"station_id":"BPR","is_transit":false,"transit":false,"station_name":"Batuceper","i_lat":-6.171811,"line":5,"time":0,"i_long":106.665036,"distance":0},{"transit":false,"i_lat":-6.169933,"time":3,"distance":1834,"is_transit":false,"station_name":"Poris","i_long":106.679458,"line":5,"station_id":"PI"},{"i_long":106.701612,"line":5,"i_lat":-6.166068,"time":3,"transit":false,"distance":2548,"is_transit":false,"station_id":"KDS","station_name":"Kalideres"},{"station_name":"Rawa Buaya","i_long":106.723064,"transit":false,"distance":2504,"i_lat":-6.162758,"station_id":"RW","time":3,"is_transit":false,"line":5},{"is_transit":false,"distance":1152,"transit":false,"i_long":106.737035,"station_id":"BOI","time":4,"i_lat":-6.159876,"line":5,"station_name":"Bojongindah"},{"distance":2334,"time":2,"i_long":106.756522,"station_id":"TKO","station_name":"Taman Kota","transit":false,"line":5,"i_lat":-6.1587309999999995,"is_transit":false},{"transit":false,"is_transit":false,"time":2,"distance":1614,"line":5,"i_long":106.771379,"station_name":"Pesing","i_lat":-6.161433,"station_id":"PSG"},{"time":2,"distance":2036,"station_id":"GRG","is_transit":false,"station_name":"Grogol","line":5,"transit":false,"i_lat":-6.162021,"i_long":106.788277},{"station_id":"DU","time":3,"is_transit":true,"distance":1700,"transit":true,"line":1,"station_name":"Duri","i_long":106.800832,"i_lat":-6.155215},{"i_lat":-6.144674,"distance":1230,"transit":false,"time":4,"station_id":"AK","station_name":"Angke","i_long":106.79867,"is_transit":false,"line":1},{"station_name":"Kampung Bandan","line":4,"transit":true,"time":9,"distance":4102,"i_lat":-6.132549,"i_long":106.826365,"is_transit":true,"station_id":"KPB"},{"distance":1364,"time":3,"line":2,"i_long":106.812439,"is_transit":true,"station_id":"JAKK","transit":true,"station_name":"Jakarta Kota","i_lat":-6.137569},{"station_name":"Jayakarta","transit":false,"i_long":106.820901,"line":2,"distance":1264,"i_lat":-6.141205,"is_transit":false,"station_id":"JAY","time":4},{"i_long":106.82482,"i_lat":-6.149769,"time":2,"distance":1080,"is_transit":false,"transit":false,"station_id":"MGB","line":2,"station_name":"Manggabesar"},{"station_name":"Sawah Besar","is_transit":false,"distance":906,"time":2,"i_long":106.827103,"line":2,"i_lat":-6.160725,"station_id":"SW","transit":false},{"i_lat":-6.166716,"is_transit":false,"distance":1149,"station_id":"JUA","line":2,"station_name":"Juanda","time":2,"i_long":106.828284,"transit":false},{"station_id":"GDD","station_name":"Gondangdia","i_long":106.832183,"line":2,"is_transit":false,"distance":2015,"transit":false,"i_lat":-6.186295,"time":4},{"station_id":"CKI","distance":1750,"time":3,"is_transit":false,"i_lat":-6.198556,"line":2,"transit":false,"i_long":106.840169,"station_name":"Cikini"},{"station_id":"MRI","i_lat":-6.209883,"transit":false,"i_long":106.84912,"time":4,"distance":1590,"is_transit":false,"station_name":"Manggarai","line":2},{"line":2,"station_id":"TEB","time":4,"station_name":"Tebet","transit":false,"i_long":106.857948,"distance":2610,"is_transit":false,"i_lat":-6.226659},{"line":2,"is_transit":false,"i_lat":-6.242512,"i_long":106.856607,"station_name":"Cawang","station_id":"CW","distance":1230,"time":2,"transit":false},{"station_id":"DRN","transit":false,"line":2,"distance":1546,"is_transit":false,"i_lat":-6.255332,"time":3,"station_name":"Duren Kalibata","i_long":106.85449},{"time":2,"i_lat":-6.263214,"line":2,"is_transit":false,"transit":false,"station_id":"PSMB","distance":824,"station_name":"Pasar Minggu Baru","i_long":106.851577},{"line":2,"is_transit":false,"station_id":"PSM","i_lat":-6.2842400000000005,"station_name":"Pasar Minggu","transit":false,"i_long":106.843999,"time":2,"distance":2380},{"i_lat":-6.3080680000000005,"time":4,"transit":false,"station_name":"Tanjung Barat","i_long":106.838896,"line":2,"distance":2820,"is_transit":false,"station_id":"TNT"},{"time":3,"i_long":106.832616,"distance":2671,"line":2,"transit":false,"i_lat":-6.330363,"station_id":"LNA","is_transit":false,"station_name":"Lenteng Agung"},{"station_id":"UP","distance":1029,"i_lat":-6.339291,"station_name":"Univ. Pancasila","i_long":106.834175,"transit":false,"line":2,"time":2,"is_transit":false},{"distance":2264,"is_transit":false,"time":3,"transit":false,"station_name":"Univ. Indonesia","i_lat":-6.360749,"line":2,"i_long":106.831474,"station_id":"UI"},{"station_id":"POC","i_long":106.831114,"time":2,"transit":false,"distance":1109,"is_transit":false,"line":2,"station_name":"Pondok Cina","i_lat":-6.369073}],[{"station_id":"BPR","transit":false,"station_name":"Batuceper","time":0,"i_lat":-6.171811,"line":5,"i_long":106.665036,"distance":0,"is_transit":false},{"i_long":106.679458,"i_lat":-6.169933,"line":5,"transit":false,"is_transit":false,"time":3,"station_name":"Poris","distance":1834,"station_id":"PI"},{"i_long":106.701612,"transit":false,"time":3,"is_transit":false,"distance":2548,"station_name":"Kalideres","station_id":"KDS","i_lat":-6.166068,"line":5},{"line":5,"i_lat":-6.162758,"is_transit":false,"distance":2504,"station_name":"Rawa Buaya","station_id":"RW","time":3,"transit":false,"i_long":106.723064},{"i_long":106.737035,"transit":false,"station_id":"BOI","distance":1152,"is_transit":false,"i_lat":-6.159876,"station_name":"Bojongindah","line":5,"time":4},{"is_transit":false,"station_id":"TKO","i_lat":-6.1587309999999995,"time":2,"station_name":"Taman Kota","i_long":106.756522,"distance":2334,"transit":false,"line":5},{"is_transit":false,"i_lat":-6.161433,"distance":1614,"transit":false,"time":2,"station_id":"PSG","i_long":106.771379,"station_name":"Pesing","line":5},{"time":2,"i_lat":-6.162021,"transit":false,"i_long":106.788277,"is_transit":false,"station_id":"GRG","station_name":"Grogol","line":5,"distance":2036},{"distance":1700,"station_name":"Duri","i_long":106.800832,"line":1,"station_id":"DU","transit":true,"is_transit":true,"time":3,"i_lat":-6.155215},{"transit":false,"station_id":"AK","line":1,"station_name":"Angke","i_long":106.79867,"time":4,"i_lat":-6.144674,"is_transit":false,"distance":1230},{"i_long":106.826365,"line":4,"i_lat":-6.132549,"time":9,"distance":4102,"station_id":"KPB","is_transit":true,"transit":true,"station_name":"Kampung Bandan"},{"time":3,"station_name":"Rajawali","station_id":"RJW","is_transit":false,"distance":1444,"i_lat":-6.14505,"transit":false,"i_long":106.836569,"line":11},{"time":5,"i_long":106.839204,"i_lat":-6.161728,"station_id":"KMO","transit":false,"station_name":"Kemayoran","line":11,"is_transit":false,"distance":1901},{"is_transit":false,"i_lat":-6.174784,"transit":false,"station_id":"PSE","time":4,"distance":1436,"i_long":106.84368,"line":11,"station_name":"Pasar Senen"},{"station_name":"Gang Sentiong","i_long":106.850107,"distance":1567,"transit":false,"line":11,"time":8,"station_id":"GST","i_lat":-6.185975,"is_transit":false},{"transit":false,"station_name":"Kramat","time":1,"distance":973,"station_id":"KMT","i_lat":-6.193792,"line":11,"i_long":106.855437,"is_transit":false},{"line":11,"i_lat":-6.209188,"distance":1829,"transit":false,"is_transit":false,"station_id":"POK","station_name":"Pondok Jati","i_long":106.861737,"time":2},{"time":9,"is_transit":true,"station_name":"Jatinegara","i_lat":-6.215091,"i_long":106.86807400000001,"station_id":"JNG","distance":1236,"transit":true,"line":1},{"time":2,"distance":1377,"line":1,"transit":false,"station_id":"MTR","station_name":"Matraman","i_lat":-6.212485,"is_transit":false,"i_long":106.858896},{"distance":1275,"transit":true,"line":2,"station_id":"MRI","i_long":106.84912,"i_lat":-6.209883,"is_transit":true,"station_name":"Manggarai","time":2},{"line":2,"i_long":106.857948,"time":4,"station_id":"TEB","station_name":"Tebet","distance":2610,"i_lat":-6.226659,"transit":false,"is_transit":false},{"distance":1230,"is_transit":false,"i_lat":-6.242512,"station_id":"CW","time":2,"station_name":"Cawang","line":2,"i_long":106.856607,"transit":false},{"line":2,"transit":false,"i_lat":-6.255332,"time":3,"distance":1546,"station_name":"Duren Kalibata","station_id":"DRN","i_long":106.85449,"is_transit":false},{"station_name":"Pasar Minggu Baru","transit":false,"time":2,"is_transit":false,"i_lat":-6.263214,"line":2,"station_id":"PSMB","distance":824,"i_long":106.851577},{"transit":false,"station_id":"PSM","line":2,"station_name":"Pasar Minggu","distance":2380,"i_long":106.843999,"time":2,"is_transit":false,"i_lat":-6.2842400000000005},{"i_long":106.838896,"line":2,"i_lat":-6.3080680000000005,"station_name":"Tanjung Barat","station_id":"TNT","transit":false,"time":4,"is_transit":false,"distance":2820},{"line":2,"station_id":"LNA","station_name":"Lenteng Agung","transit":false,"i_long":106.832616,"is_transit":false,"i_lat":-6.330363,"distance":2671,"time":3},{"is_transit":false,"line":2,"station_name":"Univ. Pancasila","i_lat":-6.339291,"time":2,"transit":false,"distance":1029,"i_long":106.834175,"station_id":"UP"},{"i_long":106.831474,"transit":false,"is_transit":false,"distance":2264,"station_id":"UI","station_name":"Univ. Indonesia","time":3,"line":2,"i_lat":-6.360749},{"i_long":106.831114,"line":2,"station_name":"Pondok Cina","is_transit":false,"time":2,"transit":false,"distance":1109,"station_id":"POC","i_lat":-6.369073}]]}