{"data":[[{"distance":0,"i_long":106.665036,"is_transit":false,"line":0,"transit":false,"station_id":"BPR","time":0,"station_name":"Batuceper","i_lat":-6.171811},{"is_transit":false,"distance":1834,"line":5,"i_long":106.679458,"station_id":"PI","station_name":"Poris","transit":false,"time":3,"i_lat":-6.169933},{"station_id":"KDS","is_transit":false,"station_name":"Kalideres","i_lat":-6.166068,"time":3,"transit":false,"distance":2548,"line":5,"i_long":106.701612},{"line":5,"distance":2504,"time":3,"i_lat":-6.162758,"i_long":106.723064,"is_transit":false,"station_id":"RW","station_name":"Rawa Buaya","transit":false},{"is_transit":false,"station_name":"Bojongindah","station_id":"BOI","distance":1152,"i_long":106.737035,"i_lat":-6.159876,"time":4,"line":0,"transit":false},{"time":2,"distance":2334,"transit":false,"i_lat":-6.1587309999999995,"i_long":106.756522,"line":5,"station_id":"TKO","station_name":"Taman Kota","is_transit":false},{"i_long":106.771379,"transit":false,"distance":1614,"station_name":"Pesing","station_id":"PSG","is_transit":false,"line":5,"time":2,"i_lat":-6.161433},{"is_transit":false,"distance":2036,"transit":false,"station_name":"Grogol","line":5,"time":2,"i_lat":-6.162021,"station_id":"GGL","i_long":106.788277},{"distance":1700,"station_id":"DU","transit":true,"i_lat":-6.155215,"i_long":106.800832,"is_transit":true,"line":1,"time":3,"station_name":"Duri"},{"station_id":"THB","is_transit":true,"time":8,"station_name":"Tanah Abang","distance":3632,"i_lat":-6.185545,"transit":false,"i_long":106.811091,"line":1},{"is_transit":false,"station_id":"KAT","i_long":106.816351,"line":1,"station_name":"Karet","i_lat":-6.20132,"transit":false,"distance":2029,"time":5},{"time":1,"transit":false,"distance":471,"is_transit":false,"i_long":106.819881,"station_id":"SUDB","i_lat":-6.201433,"station_name":"Sudirman Baru","line":1},{"line":1,"station_id":"SUD","time":1,"distance":280,"transit":false,"i_lat":-6.202263,"i_long":106.822649,"station_name":"Sudirman","is_transit":false},{"line":0,"distance":3186,"station_id":"MRI","i_long":106.84912,"station_name":"Manggarai","transit":true,"is_transit":true,"time":4,"i_lat":-6.209883},{"i_lat":-6.226659,"line":2,"distance":2610,"station_name":"Tebet","i_long":106.857948,"station_id":"TEB","is_transit":false,"time":4,"transit":false},{"station_id":"CW","distance":1230,"time":2,"i_lat":-6.242512,"is_transit":false,"i_long":106.856607,"line":0,"transit":false,"station_name":"Cawang"},{"station_name":"Duren Kalibata","line":0,"time":3,"station_id":"DRN","transit":false,"distance":1546,"i_lat":-6.255332,"i_long":106.85449,"is_transit":false},{"i_long":106.851577,"station_id":"PSMB","line":2,"transit":false,"is_transit":false,"station_name":"Pasar Minggu Baru","time":2,"distance":824,"i_lat":-6.263214},{"time":2,"is_transit":false,"i_lat":-6.2842400000000005,"transit":false,"station_id":"PSM","distance":2380,"i_long":106.843999,"line":2,"station_name":"Pasar Minggu"},{"time":4,"is_transit":false,"station_name":"Tanjung Barat","i_long":106.838896,"transit":false,"distance":2820,"station_id":"TNT","line":2,"i_lat":-6.3080680000000005},{"station_name":"Lenteng Agung","line":2,"station_id":"LNA","distance":2671,"transit":false,"i_lat":-6.330363,"time":3,"i_long":106.832616,"is_transit":false},{"is_transit":false,"line":2,"station_id":"UP","station_name":"Univ. Pancasila","time":2,"distance":1029,"transit":false,"i_lat":-6.339291,"i_long":106.834175},{"station_name":"Univ. Indonesia","line":2,"station_id":"UI","is_transit":false,"time":3,"distance":2264,"transit":false,"i_lat":-6.360749,"i_long":106.831474},{"line":2,"distance":1109,"is_transit":false,"transit":false,"i_long":106.831114,"station_id":"POC","time":2,"i_lat":-6.369073,"station_name":"Pondok Cina"}],[{"is_transit":false,"station_name":"Batuceper","time":0,"distance":0,"i_lat":-6.171811,"i_long":106.665036,"transit":false,"line":0,"station_id":"BPR"},{"is_transit":false,"i_lat":-6.169933,"i_long":106.679458,"station_name":"Poris","line":5,"time":3,"distance":1834,"transit":false,"station_id":"PI"},{"station_id":"KDS","station_name":"Kalideres","line":5,"time":3,"i_lat":-6.166068,"transit":false,"distance":2548,"is_transit":false,"i_long":106.701612},{"is_transit":false,"i_lat":-6.162758,"station_id":"RW","distance":2504,"line":5,"transit":false,"i_long":106.723064,"time":3,"station_name":"Rawa Buaya"},{"station_id":"BOI","time":4,"is_transit":false,"i_lat":-6.159876,"i_long":106.737035,"distance":1152,"line":0,"transit":false,"station_name":"Bojongindah"},{"i_long":106.756522,"station_name":"Taman Kota","transit":false,"i_lat":-6.1587309999999995,"line":5,"is_transit":false,"distance":2334,"time":2,"station_id":"TKO"},{"i_lat":-6.161433,"is_transit":false,"station_id":"PSG","transit":false,"distance":1614,"line":5,"station_name":"Pesing","time":2,"i_long":106.771379},{"station_id":"GGL","transit":false,"i_lat":-6.162021,"line":5,"is_transit":false,"time":2,"distance":2036,"i_long":106.788277,"station_name":"Grogol"},{"distance":1700,"station_name":"Duri","transit":true,"time":3,"line":1,"i_long":106.800832,"i_lat":-6.155215,"is_transit":true,"station_id":"DU"},{"station_id":"AK","distance":1230,"station_name":"Angke","time":4,"transit":false,"i_long":106.79867,"line":0,"is_transit":false,"i_lat":-6.144674},{"distance":4102,"transit":false,"station_name":"Kampung Bandan","i_long":106.826365,"station_id":"KPB","time":9,"i_lat":-6.132549,"line":0,"is_transit":true},{"station_name":"Jakarta Kota","line":0,"is_transit":true,"i_lat":-6.137569,"distance":1364,"i_long":106.812439,"transit":true,"station_id":"JAKK","time":3},{"is_transit":false,"time":4,"station_name":"Jayakarta","i_lat":-6.141205,"distance":1264,"i_long":106.820901,"line":7,"station_id":"JAY","transit":false},{"time":2,"i_lat":-6.149769,"station_name":"Manggabesar","distance":1080,"transit":false,"line":2,"i_long":106.82482,"station_id":"MGB","is_transit":false},{"is_transit":false,"time":2,"station_id":"SW","i_lat":-6.160725,"transit":false,"distance":906,"line":2,"i_long":106.827103,"station_name":"Sawah Besar"},{"line":2,"time":2,"station_name":"Juanda","i_long":106.828284,"station_id":"JUA","is_transit":false,"transit":false,"i_lat":-6.166716,"distance":1149},{"line":2,"is_transit":false,"i_lat":-6.186295,"distance":2015,"station_id":"GDD","time":4,"i_long":106.832183,"station_name":"Gondangdia","transit":false},{"is_transit":false,"time":3,"i_lat":-6.198556,"station_id":"CKI","line":0,"i_long":106.840169,"distance":1750,"transit":false,"station_name":"Cikini"},{"i_long":106.84912,"i_lat":-6.209883,"distance":1590,"is_transit":true,"station_id":"MRI","time":4,"line":0,"transit":true,"station_name":"Manggarai"},{"station_id":"TEB","time":4,"line":2,"station_name":"Tebet","transit":false,"i_lat":-6.226659,"is_transit":false,"distance":2610,"i_long":106.857948},{"line":0,"station_id":"CW","is_transit":false,"station_name":"Cawang","i_long":106.856607,"time":2,"distance":1230,"i_lat":-6.242512,"transit":false},{"station_name":"Duren Kalibata","distance":1546,"i_long":106.85449,"i_lat":-6.255332,"transit":false,"station_id":"DRN","time":3,"line":0,"is_transit":false},{"distance":824,"is_transit":false,"line":2,"time":2,"station_name":"Pasar Minggu Baru","i_lat":-6.263214,"station_id":"PSMB","transit":false,"i_long":106.851577},{"line":2,"station_name":"Pasar Minggu","time":2,"station_id":"PSM","is_transit":false,"transit":false,"i_lat":-6.2842400000000005,"i_long":106.843999,"distance":2380},{"station_id":"TNT","transit":false,"i_long":106.838896,"time":4,"is_transit":false,"distance":2820,"i_lat":-6.3080680000000005,"station_name":"Tanjung Barat","line":2},{"station_id":"LNA","transit":false,"i_lat":-6.330363,"i_long":106.832616,"station_name":"Lenteng Agung","line":2,"time":3,"distance":2671,"is_transit":false},{"distance":1029,"line":2,"i_lat":-6.339291,"time":2,"is_transit":false,"i_long":106.834175,"transit":false,"station_id":"UP","station_name":"Univ. Pancasila"},{"distance":2264,"time":3,"station_name":"Univ. Indonesia","is_transit":false,"transit":false,"station_id":"UI","line":2,"i_lat":-6.360749,"i_long":106.831474},{"line":2,"i_lat":-6.369073,"is_transit":false,"transit":false,"i_long":106.831114,"station_id":"POC","distance":1109,"station_name":"Pondok Cina","time":2}],[{"station_id":"BPR","transit":false,"is_transit":false,"station_name":"Batuceper","i_lat":-6.171811,"distance":0,"time":0,"i_long":106.665036,"line":0},{"distance":1834,"station_id":"PI","time":3,"line":5,"is_transit":false,"i_long":106.679458,"i_lat":-6.169933,"station_name":"Poris","transit":false},{"i_long":106.701612,"station_name":"Kalideres","is_transit":false,"line":5,"time":3,"station_id":"KDS","transit":false,"distance":2548,"i_lat":-6.166068},{"is_transit":false,"transit":false,"station_id":"RW","i_lat":-6.162758,"time":3,"line":5,"i_long":106.723064,"station_name":"Rawa Buaya","distance":2504},{"i_long":106.737035,"station_name":"Bojongindah","station_id":"BOI","line":0,"distance":1152,"time":4,"is_transit":false,"transit":false,"i_lat":-6.159876},{"is_transit":false,"time":2,"distance":2334,"line":5,"station_id":"TKO","transit":false,"station_name":"Taman Kota","i_lat":-6.1587309999999995,"i_long":106.756522},{"line":5,"time":2,"distance":1614,"is_transit":false,"station_name":"Pesing","transit":false,"station_id":"PSG","i_lat":-6.161433,"i_long":106.771379},{"i_lat":-6.162021,"is_transit":false,"distance":2036,"time":2,"station_name":"Grogol","station_id":"GGL","line":5,"i_long":106.788277,"transit":false},{"station_name":"Duri","station_id":"DU","time":3,"transit":true,"i_long":106.800832,"distance":1700,"is_transit":true,"line":1,"i_lat":-6.155215},{"transit":false,"line":0,"i_lat":-6.144674,"i_long":106.79867,"time":4,"is_transit":false,"distance":1230,"station_id":"AK","station_name":"Angke"},{"line":0,"i_lat":-6.132549,"station_name":"Kampung Bandan","is_transit":true,"distance":4102,"i_long":106.826365,"time":9,"station_id":"KPB","transit":true},{"is_transit":false,"distance":1444,"station_name":"Rajawali","i_long":106.836569,"time":3,"station_id":"RJW","line":11,"i_lat":-6.14505,"transit":false},{"distance":1901,"station_name":"Kemayoran","transit":false,"is_transit":false,"i_long":106.839204,"line":11,"i_lat":-6.161728,"time":5,"station_id":"KMO"},{"transit":false,"station_name":"Pasar Senen","time":4,"station_id":"PSE","i_long":106.84368,"is_transit":false,"distance":1436,"i_lat":-6.174784,"line":11},{"time":8,"i_lat":-6.185975,"distance":1567,"station_name":"Gang Sentiong","is_transit":false,"line":11,"station_id":"GST","i_long":106.850107,"transit":false},{"time":1,"distance":973,"transit":false,"i_lat":-6.193792,"station_id":"KMT","i_long":106.855437,"station_name":"Kramat","line":11,"is_transit":false},{"station_id":"POK","i_long":106.861737,"station_name":"Pondok Jati","i_lat":-6.209188,"line":11,"transit":false,"is_transit":false,"distance":1829,"time":2},{"i_lat":-6.215091,"i_long":106.86807400000001,"time":9,"station_id":"JNG","transit":true,"distance":1236,"station_name":"Jatinegara","line":0,"is_transit":true},{"i_long":106.858896,"is_transit":false,"time":2,"i_lat":-6.212485,"line":1,"station_name":"Matraman","transit":false,"station_id":"MTR","distance":1377},{"time":2,"i_lat":-6.209883,"transit":true,"is_transit":true,"distance":1275,"station_name":"Manggarai","i_long":106.84912,"line":0,"station_id":"MRI"},{"distance":2610,"station_name":"Tebet","is_transit":false,"time":4,"transit":false,"line":2,"station_id":"TEB","i_lat":-6.226659,"i_long":106.857948},{"transit":false,"is_transit":false,"i_lat":-6.242512,"time":2,"station_id":"CW","station_name":"Cawang","line":0,"distance":1230,"i_long":106.856607},{"line":0,"station_name":"Duren Kalibata","station_id":"DRN","i_long":106.85449,"time":3,"transit":false,"is_transit":false,"distance":1546,"i_lat":-6.255332},{"distance":824,"station_name":"Pasar Minggu Baru","i_long":106.851577,"transit":false,"station_id":"PSMB","is_transit":false,"line":2,"i_lat":-6.263214,"time":2},{"transit":false,"station_id":"PSM","i_lat":-6.2842400000000005,"is_transit":false,"i_long":106.843999,"line":2,"station_name":"Pasar Minggu","time":2,"distance":2380},{"is_transit":false,"time":4,"transit":false,"i_lat":-6.3080680000000005,"station_id":"TNT","i_long":106.838896,"distance":2820,"line":2,"station_name":"Tanjung Barat"},{"station_id":"LNA","i_long":106.832616,"transit":false,"distance":2671,"time":3,"is_transit":false,"station_name":"Lenteng Agung","i_lat":-6.330363,"line":2},{"station_id":"UP","transit":false,"line":2,"i_lat":-6.339291,"is_transit":false,"station_name":"Univ. Pancasila","distance":1029,"i_long":106.834175,"time":2},{"distance":2264,"station_name":"Univ. Indonesia","line":2,"is_transit":false,"station_id":"UI","transit":false,"i_lat":-6.360749,"i_long":106.831474,"time":3},{"line":2,"i_lat":-6.369073,"station_id":"POC","i_long":106.831114,"station_name":"Pondok Cina","is_transit":false,"time":2,"transit":false,"distance":1109}]]}