{"data":[[{"is_transit":false,"i_long":106.665036,"station_name":"Batuceper","station_id":"BPR","i_lat":-6.171811,"time":0,"distance":0,"transit":false,"line":5},{"line":5,"station_id":"PI","transit":false,"station_name":"Poris","distance":1834,"i_long":106.679458,"time":3,"i_lat":-6.169933,"is_transit":false},{"i_lat":-6.166068,"i_long":106.701612,"transit":false,"distance":2548,"station_id":"KDS","station_name":"Kalideres","is_transit":false,"line":5,"time":3},{"line":5,"i_lat":-6.162758,"transit":false,"i_long":106.723064,"station_name":"Rawa Buaya","station_id":"RW","is_transit":false,"time":3,"distance":2504},{"station_id":"BOI","i_long":106.737035,"line":5,"station_name":"Bojongindah","i_lat":-6.159876,"transit":false,"distance":1152,"is_transit":false,"time":4},{"time":2,"station_id":"TKO","distance":2334,"transit":false,"i_lat":-6.1587309999999995,"station_name":"Taman Kota","line":5,"is_transit":false,"i_long":106.756522},{"time":2,"station_id":"PSG","distance":1614,"transit":false,"is_transit":false,"i_long":106.771379,"i_lat":-6.161433,"line":5,"station_name":"Pesing"},{"time":2,"i_long":106.788277,"distance":2036,"transit":false,"i_lat":-6.162021,"station_id":"GGL","is_transit":false,"line":5,"station_name":"Grogol"},{"station_name":"Duri","distance":1700,"time":3,"i_lat":-6.155215,"is_transit":true,"station_id":"DU","transit":true,"i_long":106.800832,"line":1},{"time":8,"i_lat":-6.185545,"i_long":106.811091,"station_name":"Tanah Abang","transit":false,"is_transit":false,"distance":3632,"line":1,"station_id":"THB"},{"line":1,"time":5,"i_long":106.816351,"i_lat":-6.20132,"transit":false,"station_name":"Karet","distance":2029,"station_id":"KAT","is_transit":false},{"line":1,"i_long":106.819881,"station_name":"Sudirman Baru","station_id":"SUDB","transit":false,"distance":471,"i_lat":-6.201433,"is_transit":false,"time":1},{"station_id":"SUD","station_name":"Sudirman","distance":280,"time":1,"transit":false,"i_lat":-6.202263,"i_long":106.822649,"line":1,"is_transit":false},{"is_transit":true,"time":4,"transit":true,"distance":3186,"i_long":106.84912,"station_id":"MRI","i_lat":-6.209883,"line":2,"station_name":"Manggarai"},{"time":4,"distance":2610,"line":2,"station_name":"Tebet","station_id":"TEB","transit":false,"i_lat":-6.226659,"is_transit":false,"i_long":106.857948},{"transit":false,"station_id":"CW","distance":1230,"i_long":106.856607,"i_lat":-6.242512,"time":2,"station_name":"Cawang","line":2,"is_transit":false},{"distance":1546,"transit":false,"station_name":"Duren Kalibata","i_lat":-6.255332,"i_long":106.85449,"is_transit":false,"time":3,"station_id":"DRN","line":2},{"station_id":"PSMB","is_transit":false,"time":2,"distance":824,"i_long":106.851577,"line":2,"transit":false,"i_lat":-6.263214,"station_name":"Pasar Minggu Baru"},{"distance":2380,"line":2,"time":2,"is_transit":false,"i_lat":-6.2842400000000005,"station_id":"PSM","i_long":106.843999,"transit":false,"station_name":"Pasar Minggu"},{"is_transit":false,"time":4,"station_name":"Tanjung Barat","i_long":106.838896,"i_lat":-6.3080680000000005,"line":2,"distance":2820,"station_id":"TNT","transit":false},{"distance":2671,"station_id":"LNA","time":3,"is_transit":false,"line":2,"i_long":106.832616,"transit":false,"i_lat":-6.330363,"station_name":"Lenteng Agung"},{"station_name":"Univ. Pancasila","time":2,"line":2,"distance":1029,"i_lat":-6.339291,"transit":false,"is_transit":false,"i_long":106.834175,"station_id":"UP"},{"distance":2264,"i_long":106.831474,"transit":false,"is_transit":false,"i_lat":-6.360749,"station_name":"Univ. Indonesia","station_id":"UI","time":3,"line":2},{"line":2,"is_transit":false,"time":2,"distance":1109,"i_long":106.831114,"i_lat":-6.369073,"transit":false,"station_id":"POC","station_name":"Pondok Cina"}],[{"station_id":"BPR","transit":false,"station_name":"Batuceper","distance":0,"is_transit":false,"i_lat":-6.171811,"line":5,"time":0,"i_long":106.665036},{"i_long":106.679458,"time":3,"is_transit":false,"station_name":"Poris","station_id":"PI","line":5,"i_lat":-6.169933,"distance":1834,"transit":false},{"distance":2548,"station_id":"KDS","line":5,"i_lat":-6.166068,"i_long":106.701612,"time":3,"is_transit":false,"transit":false,"station_name":"Kalideres"},{"i_lat":-6.162758,"i_long":106.723064,"line":5,"station_id":"RW","station_name":"Rawa Buaya","transit":false,"is_transit":false,"time":3,"distance":2504},{"i_lat":-6.159876,"station_name":"Bojongindah","station_id":"BOI","time":4,"is_transit":false,"i_long":106.737035,"distance":1152,"line":5,"transit":false},{"is_transit":false,"station_id":"TKO","distance":2334,"time":2,"i_lat":-6.1587309999999995,"transit":false,"station_name":"Taman Kota","i_long":106.756522,"line":5},{"line":5,"distance":1614,"is_transit":false,"station_name":"Pesing","time":2,"i_lat":-6.161433,"i_long":106.771379,"station_id":"PSG","transit":false},{"time":2,"station_id":"GGL","station_name":"Grogol","i_long":106.788277,"transit":false,"distance":2036,"is_transit":false,"line":5,"i_lat":-6.162021},{"transit":true,"time":3,"i_long":106.800832,"station_name":"Duri","station_id":"DU","distance":1700,"i_lat":-6.155215,"is_transit":true,"line":1},{"transit":false,"station_name":"Angke","distance":1230,"is_transit":false,"i_long":106.79867,"i_lat":-6.144674,"line":1,"time":4,"station_id":"AK"},{"i_lat":-6.132549,"time":9,"i_long":106.826365,"transit":true,"distance":4102,"line":4,"station_name":"Kampung Bandan","station_id":"KPB","is_transit":true},{"station_name":"Jakarta Kota","i_lat":-6.137569,"is_transit":true,"transit":true,"line":2,"station_id":"JAKK","time":3,"distance":1364,"i_long":106.812439},{"line":2,"transit":false,"i_lat":-6.141205,"is_transit":false,"station_id":"JAY","station_name":"Jayakarta","i_long":106.820901,"time":4,"distance":1264},{"is_transit":false,"station_id":"MGB","distance":1080,"station_name":"Manggabesar","time":2,"transit":false,"i_lat":-6.149769,"i_long":106.82482,"line":2},{"station_id":"SW","i_long":106.827103,"transit":false,"i_lat":-6.160725,"station_name":"Sawah Besar","is_transit":false,"line":2,"distance":906,"time":2},{"distance":1149,"time":2,"is_transit":false,"i_long":106.828284,"station_id":"JUA","i_lat":-6.166716,"transit":false,"station_name":"Juanda","line":2},{"line":2,"distance":2015,"time":4,"station_name":"Gondangdia","transit":false,"i_long":106.832183,"i_lat":-6.186295,"station_id":"GDD","is_transit":false},{"transit":false,"time":3,"station_name":"Cikini","i_lat":-6.198556,"i_long":106.840169,"distance":1750,"station_id":"CKI","is_transit":false,"line":2},{"is_transit":false,"station_name":"Manggarai","i_long":106.84912,"line":2,"i_lat":-6.209883,"transit":false,"time":4,"distance":1590,"station_id":"MRI"},{"transit":false,"is_transit":false,"i_long":106.857948,"distance":2610,"station_name":"Tebet","station_id":"TEB","line":2,"time":4,"i_lat":-6.226659},{"station_id":"CW","i_long":106.856607,"station_name":"Cawang","distance":1230,"is_transit":false,"line":2,"time":2,"transit":false,"i_lat":-6.242512},{"station_name":"Duren Kalibata","station_id":"DRN","i_lat":-6.255332,"i_long":106.85449,"time":3,"line":2,"distance":1546,"is_transit":false,"transit":false},{"station_id":"PSMB","time":2,"i_long":106.851577,"is_transit":false,"i_lat":-6.263214,"line":2,"station_name":"Pasar Minggu Baru","transit":false,"distance":824},{"transit":false,"i_long":106.843999,"time":2,"station_name":"Pasar Minggu","line":2,"is_transit":false,"i_lat":-6.2842400000000005,"distance":2380,"station_id":"PSM"},{"station_id":"TNT","i_lat":-6.3080680000000005,"is_transit":false,"i_long":106.838896,"transit":false,"distance":2820,"line":2,"station_name":"Tanjung Barat","time":4},{"distance":2671,"line":2,"transit":false,"i_long":106.832616,"is_transit":false,"i_lat":-6.330363,"station_id":"LNA","station_name":"Lenteng Agung","time":3},{"is_transit":false,"i_lat":-6.339291,"time":2,"distance":1029,"transit":false,"station_id":"UP","i_long":106.834175,"line":2,"station_name":"Univ. Pancasila"},{"is_transit":false,"line":2,"transit":false,"time":3,"i_long":106.831474,"station_id":"UI","i_lat":-6.360749,"distance":2264,"station_name":"Univ. Indonesia"},{"time":2,"station_name":"Pondok Cina","i_long":106.831114,"station_id":"POC","transit":false,"line":2,"is_transit":false,"distance":1109,"i_lat":-6.369073}],[{"distance":0,"transit":false,"station_name":"Batuceper","station_id":"BPR","i_long":106.665036,"time":0,"i_lat":-6.171811,"line":5,"is_transit":false},{"i_lat":-6.169933,"time":3,"distance":1834,"transit":false,"is_transit":false,"i_long":106.679458,"station_id":"PI","line":5,"station_name":"Poris"},{"station_id":"KDS","distance":2548,"time":3,"i_lat":-6.166068,"transit":false,"is_transit":false,"i_long":106.701612,"line":5,"station_name":"Kalideres"},{"i_long":106.723064,"time":3,"station_id":"RW","i_lat":-6.162758,"transit":false,"line":5,"is_transit":false,"station_name":"Rawa Buaya","distance":2504},{"distance":1152,"i_long":106.737035,"station_id":"BOI","is_transit":false,"i_lat":-6.159876,"time":4,"line":5,"transit":false,"station_name":"Bojongindah"},{"transit":false,"is_transit":false,"station_id":"TKO","station_name":"Taman Kota","i_lat":-6.1587309999999995,"line":5,"i_long":106.756522,"time":2,"distance":2334},{"station_name":"Pesing","i_long":106.771379,"line":5,"i_lat":-6.161433,"time":2,"transit":false,"is_transit":false,"distance":1614,"station_id":"PSG"},{"distance":2036,"line":5,"station_name":"Grogol","i_long":106.788277,"station_id":"GGL","time":2,"i_lat":-6.162021,"transit":false,"is_transit":false},{"station_id":"DU","time":3,"i_long":106.800832,"line":1,"distance":1700,"transit":true,"is_transit":true,"i_lat":-6.155215,"station_name":"Duri"},{"i_lat":-6.144674,"transit":false,"station_id":"AK","is_transit":false,"time":4,"distance":1230,"station_name":"Angke","i_long":106.79867,"line":1},{"time":9,"distance":4102,"station_name":"Kampung Bandan","station_id":"KPB","is_transit":true,"i_lat":-6.132549,"i_long":106.826365,"line":4,"transit":true},{"time":3,"distance":1444,"transit":false,"station_name":"Rajawali","is_transit":false,"station_id":"RJW","i_lat":-6.14505,"i_long":106.836569,"line":11},{"station_name":"Kemayoran","station_id":"KMO","time":5,"transit":false,"distance":1901,"i_long":106.839204,"is_transit":false,"line":11,"i_lat":-6.161728},{"transit":false,"i_lat":-6.174784,"time":4,"line":11,"distance":1436,"station_id":"PSE","is_transit":false,"i_long":106.84368,"station_name":"Pasar Senen"},{"time":8,"i_lat":-6.185975,"line":11,"is_transit":false,"distance":1567,"i_long":106.850107,"transit":false,"station_name":"Gang Sentiong","station_id":"GST"},{"i_long":106.855437,"time":1,"line":11,"transit":false,"station_id":"KMT","distance":973,"station_name":"Kramat","is_transit":false,"i_lat":-6.193792},{"station_name":"Pondok Jati","distance":1829,"station_id":"POK","time":2,"i_long":106.861737,"is_transit":false,"i_lat":-6.209188,"line":11,"transit":false},{"station_id":"JNG","transit":true,"is_transit":true,"distance":1236,"line":1,"i_lat":-6.215091,"station_name":"Jatinegara","i_long":106.86807400000001,"time":9},{"transit":false,"station_id":"MTR","distance":1377,"i_lat":-6.212485,"is_transit":false,"i_long":106.858896,"time":2,"station_name":"Matraman","line":1},{"is_transit":true,"station_id":"MRI","time":2,"i_long":106.84912,"transit":true,"line":2,"distance":1275,"i_lat":-6.209883,"station_name":"Manggarai"},{"is_transit":false,"distance":2610,"i_long":106.857948,"transit":false,"i_lat":-6.226659,"station_name":"Tebet","time":4,"station_id":"TEB","line":2},{"line":2,"station_id":"CW","is_transit":false,"i_lat":-6.242512,"distance":1230,"i_long":106.856607,"transit":false,"station_name":"Cawang","time":2},{"i_lat":-6.255332,"line":2,"station_name":"Duren Kalibata","station_id":"DRN","time":3,"transit":false,"distance":1546,"i_long":106.85449,"is_transit":false},{"distance":824,"line":2,"station_name":"Pasar Minggu Baru","is_transit":false,"i_lat":-6.263214,"i_long":106.851577,"transit":false,"time":2,"station_id":"PSMB"},{"line":2,"is_transit":false,"time":2,"station_id":"PSM","station_name":"Pasar Minggu","i_lat":-6.2842400000000005,"i_long":106.843999,"distance":2380,"transit":false},{"station_name":"Tanjung Barat","time":4,"is_transit":false,"transit":false,"station_id":"TNT","line":2,"i_long":106.838896,"i_lat":-6.3080680000000005,"distance":2820},{"station_name":"Lenteng Agung","station_id":"LNA","is_transit":false,"transit":false,"time":3,"distance":2671,"i_long":106.832616,"i_lat":-6.330363,"line":2},{"transit":false,"distance":1029,"i_lat":-6.339291,"station_name":"Univ. Pancasila","station_id":"UP","time":2,"i_long":106.834175,"line":2,"is_transit":false},{"transit":false,"station_name":"Univ. Indonesia","i_lat":-6.360749,"is_transit":false,"time":3,"distance":2264,"i_long":106.831474,"line":2,"station_id":"UI"},{"i_long":106.831114,"distance":1109,"i_lat":-6.369073,"line":2,"transit":false,"station_name":"Pondok Cina","time":2,"station_id":"POC","is_transit":false}]]}