{"data":[[{"distance":0,"is_transit":false,"line":5,"station_id":"BPR","transit":false,"station_name":"Batuceper","time":0,"i_lat":-6.171811,"i_long":106.665036},{"i_long":106.679458,"line":5,"is_transit":false,"distance":1834,"station_id":"PI","transit":false,"station_name":"Poris","time":3,"i_lat":-6.169933},{"station_name":"Kalideres","i_lat":-6.166068,"is_transit":false,"distance":2548,"station_id":"KDS","transit":false,"line":5,"time":3,"i_long":106.701612},{"line":5,"i_long":106.723064,"transit":false,"station_id":"RW","distance":2504,"station_name":"Rawa Buaya","is_transit":false,"time":3,"i_lat":-6.162758},{"station_name":"Bojongindah","i_long":106.737035,"station_id":"BOI","distance":1152,"is_transit":false,"time":4,"transit":false,"line":5,"i_lat":-6.159876},{"line":5,"i_lat":-6.1587309999999995,"transit":false,"station_id":"TKO","i_long":106.756522,"distance":2334,"time":2,"station_name":"Taman Kota","is_transit":false},{"time":2,"distance":1614,"station_name":"Pesing","station_id":"PSG","i_lat":-6.161433,"line":5,"is_transit":false,"i_long":106.771379,"transit":false},{"i_lat":-6.162021,"line":5,"transit":false,"station_name":"Grogol","station_id":"GGL","is_transit":false,"time":2,"distance":2036,"i_long":106.788277},{"transit":true,"station_name":"Duri","is_transit":true,"time":3,"i_long":106.800832,"station_id":"DU","line":1,"distance":1700,"i_lat":-6.155215},{"time":8,"line":1,"station_id":"THB","i_long":106.811091,"station_name":"Tanah Abang","distance":3632,"i_lat":-6.185545,"is_transit":false,"transit":false},{"i_long":106.816351,"station_id":"KAT","i_lat":-6.20132,"station_name":"Karet","time":5,"transit":false,"distance":2029,"line":1,"is_transit":false},{"is_transit":false,"station_id":"SUDB","time":1,"distance":471,"i_lat":-6.201433,"i_long":106.819881,"line":1,"station_name":"Sudirman Baru","transit":false},{"i_long":106.822649,"line":1,"transit":false,"i_lat":-6.202263,"is_transit":false,"station_name":"Sudirman","station_id":"SUD","time":1,"distance":280},{"station_name":"Manggarai","time":4,"station_id":"MRI","i_lat":-6.209883,"i_long":106.84912,"distance":3186,"line":2,"transit":true,"is_transit":true},{"i_lat":-6.226659,"i_long":106.857948,"line":2,"transit":false,"station_name":"Tebet","station_id":"TEB","time":4,"is_transit":false,"distance":2610},{"is_transit":false,"i_long":106.856607,"station_name":"Cawang","station_id":"CW","distance":1230,"i_lat":-6.242512,"line":2,"transit":false,"time":2},{"is_transit":false,"line":2,"transit":false,"station_name":"Duren Kalibata","station_id":"DRN","time":3,"distance":1546,"i_lat":-6.255332,"i_long":106.85449},{"i_long":106.851577,"is_transit":false,"time":2,"i_lat":-6.263214,"line":2,"station_id":"PSMB","transit":false,"station_name":"Pasar Minggu Baru","distance":824},{"is_transit":false,"i_long":106.843999,"station_name":"Pasar Minggu","station_id":"PSM","i_lat":-6.2842400000000005,"time":2,"distance":2380,"transit":false,"line":2},{"line":2,"station_id":"TNT","transit":false,"station_name":"Tanjung Barat","distance":2820,"i_long":106.838896,"time":4,"i_lat":-6.3080680000000005,"is_transit":false},{"i_lat":-6.330363,"i_long":106.832616,"transit":false,"distance":2671,"station_id":"LNA","station_name":"Lenteng Agung","is_transit":false,"line":2,"time":3},{"line":2,"i_lat":-6.339291,"transit":false,"i_long":106.834175,"station_name":"Univ. Pancasila","station_id":"UP","is_transit":false,"time":2,"distance":1029},{"station_id":"UI","i_long":106.831474,"line":2,"station_name":"Univ. Indonesia","i_lat":-6.360749,"transit":false,"distance":2264,"is_transit":false,"time":3},{"time":2,"station_id":"POC","distance":1109,"transit":false,"i_lat":-6.369073,"station_name":"Pondok Cina","line":2,"is_transit":false,"i_long":106.831114},{"time":4,"station_id":"DPB","distance":2727,"transit":false,"is_transit":false,"i_long":106.819451,"i_lat":-6.391065,"line":2,"station_name":"Depokbaru"}],[{"time":0,"i_long":106.665036,"distance":0,"transit":false,"i_lat":-6.171811,"station_id":"BPR","is_transit":false,"line":5,"station_name":"Batuceper"},{"station_name":"Poris","distance":1834,"time":3,"i_lat":-6.169933,"is_transit":false,"station_id":"PI","transit":false,"i_long":106.679458,"line":5},{"time":3,"i_lat":-6.166068,"i_long":106.701612,"station_name":"Kalideres","transit":false,"is_transit":false,"distance":2548,"line":5,"station_id":"KDS"},{"line":5,"time":3,"i_long":106.723064,"i_lat":-6.162758,"transit":false,"station_name":"Rawa Buaya","distance":2504,"station_id":"RW","is_transit":false},{"line":5,"i_long":106.737035,"station_name":"Bojongindah","station_id":"BOI","transit":false,"distance":1152,"i_lat":-6.159876,"is_transit":false,"time":4},{"station_id":"TKO","station_name":"Taman Kota","distance":2334,"time":2,"transit":false,"i_lat":-6.1587309999999995,"i_long":106.756522,"line":5,"is_transit":false},{"is_transit":false,"time":2,"transit":false,"distance":1614,"i_long":106.771379,"station_id":"PSG","i_lat":-6.161433,"line":5,"station_name":"Pesing"},{"time":2,"distance":2036,"line":5,"station_name":"Grogol","station_id":"GGL","transit":false,"i_lat":-6.162021,"is_transit":false,"i_long":106.788277},{"transit":true,"station_id":"DU","distance":1700,"i_long":106.800832,"i_lat":-6.155215,"time":3,"station_name":"Duri","line":1,"is_transit":true},{"distance":1230,"transit":false,"station_name":"Angke","i_lat":-6.144674,"i_long":106.79867,"is_transit":false,"time":4,"station_id":"AK","line":1},{"station_id":"KPB","time":9,"i_lat":-6.132549,"i_long":106.826365,"line":4,"transit":true,"station_name":"Kampung Bandan","distance":4102,"is_transit":true},{"station_name":"Jakarta Kota","i_lat":-6.137569,"station_id":"JAKK","is_transit":true,"transit":true,"distance":1364,"line":2,"i_long":106.812439,"time":3},{"station_id":"JAY","distance":1264,"line":2,"station_name":"Jayakarta","time":4,"is_transit":false,"i_long":106.820901,"transit":false,"i_lat":-6.141205},{"distance":1080,"is_transit":false,"transit":false,"time":2,"i_long":106.82482,"station_name":"Manggabesar","line":2,"i_lat":-6.149769,"station_id":"MGB"},{"transit":false,"distance":906,"station_id":"SW","station_name":"Sawah Besar","is_transit":false,"time":2,"i_lat":-6.160725,"i_long":106.827103,"line":2},{"time":2,"i_long":106.828284,"station_id":"JUA","is_transit":false,"distance":1149,"i_lat":-6.166716,"line":2,"transit":false,"station_name":"Juanda"},{"distance":2015,"station_name":"Gondangdia","i_lat":-6.186295,"line":2,"i_long":106.832183,"time":4,"is_transit":false,"transit":false,"station_id":"GDD"},{"station_id":"CKI","transit":false,"station_name":"Cikini","distance":1750,"is_transit":false,"i_lat":-6.198556,"line":2,"time":3,"i_long":106.840169},{"i_long":106.84912,"time":4,"is_transit":false,"station_name":"Manggarai","station_id":"MRI","line":2,"i_lat":-6.209883,"distance":1590,"transit":false},{"distance":2610,"station_id":"TEB","line":2,"i_lat":-6.226659,"i_long":106.857948,"time":4,"is_transit":false,"transit":false,"station_name":"Tebet"},{"i_lat":-6.242512,"i_long":106.856607,"line":2,"station_id":"CW","station_name":"Cawang","transit":false,"is_transit":false,"time":2,"distance":1230},{"i_lat":-6.255332,"station_name":"Duren Kalibata","station_id":"DRN","time":3,"is_transit":false,"i_long":106.85449,"distance":1546,"line":2,"transit":false},{"is_transit":false,"station_id":"PSMB","distance":824,"time":2,"i_lat":-6.263214,"transit":false,"station_name":"Pasar Minggu Baru","i_long":106.851577,"line":2},{"line":2,"distance":2380,"is_transit":false,"station_name":"Pasar Minggu","time":2,"i_lat":-6.2842400000000005,"i_long":106.843999,"station_id":"PSM","transit":false},{"time":4,"station_id":"TNT","station_name":"Tanjung Barat","i_long":106.838896,"transit":false,"distance":2820,"is_transit":false,"line":2,"i_lat":-6.3080680000000005},{"transit":false,"time":3,"i_long":106.832616,"station_name":"Lenteng Agung","station_id":"LNA","distance":2671,"i_lat":-6.330363,"is_transit":false,"line":2},{"transit":false,"station_name":"Univ. Pancasila","distance":1029,"is_transit":false,"i_long":106.834175,"i_lat":-6.339291,"line":2,"time":2,"station_id":"UP"},{"i_lat":-6.360749,"time":3,"i_long":106.831474,"transit":false,"distance":2264,"line":2,"station_name":"Univ. Indonesia","station_id":"UI","is_transit":false},{"station_name":"Pondok Cina","i_lat":-6.369073,"is_transit":false,"transit":false,"line":2,"station_id":"POC","time":2,"distance":1109,"i_long":106.831114},{"line":2,"transit":false,"i_lat":-6.391065,"is_transit":false,"station_id":"DPB","station_name":"Depokbaru","i_long":106.819451,"time":4,"distance":2727}],[{"is_transit":false,"station_id":"BPR","distance":0,"station_name":"Batuceper","time":0,"transit":false,"i_lat":-6.171811,"i_long":106.665036,"line":5},{"station_id":"PI","i_long":106.679458,"transit":false,"i_lat":-6.169933,"station_name":"Poris","is_transit":false,"line":5,"distance":1834,"time":3},{"distance":2548,"time":3,"is_transit":false,"i_long":106.701612,"station_id":"KDS","i_lat":-6.166068,"transit":false,"station_name":"Kalideres","line":5},{"line":5,"distance":2504,"time":3,"station_name":"Rawa Buaya","transit":false,"i_long":106.723064,"i_lat":-6.162758,"station_id":"RW","is_transit":false},{"station_name":"Bojongindah","distance":1152,"i_long":106.737035,"station_id":"BOI","transit":false,"is_transit":false,"line":5,"i_lat":-6.159876,"time":4},{"i_lat":-6.1587309999999995,"transit":false,"station_id":"TKO","station_name":"Taman Kota","time":2,"distance":2334,"i_long":106.756522,"line":5,"is_transit":false},{"transit":false,"station_id":"PSG","station_name":"Pesing","time":2,"distance":1614,"i_long":106.771379,"is_transit":false,"i_lat":-6.161433,"line":5},{"i_long":106.788277,"station_id":"GGL","time":2,"distance":2036,"transit":false,"is_transit":false,"line":5,"i_lat":-6.162021,"station_name":"Grogol"},{"i_lat":-6.155215,"transit":true,"line":1,"station_name":"Duri","station_id":"DU","distance":1700,"i_long":106.800832,"time":3,"is_transit":true},{"line":1,"station_id":"AK","transit":false,"time":4,"is_transit":false,"i_long":106.79867,"distance":1230,"i_lat":-6.144674,"station_name":"Angke"},{"i_lat":-6.132549,"station_id":"KPB","i_long":106.826365,"station_name":"Kampung Bandan","is_transit":true,"transit":true,"time":9,"distance":4102,"line":4},{"i_lat":-6.14505,"is_transit":false,"i_long":106.836569,"line":11,"station_name":"Rajawali","time":3,"station_id":"RJW","transit":false,"distance":1444},{"transit":false,"i_long":106.839204,"is_transit":false,"distance":1901,"i_lat":-6.161728,"station_name":"Kemayoran","station_id":"KMO","time":5,"line":11},{"transit":false,"is_transit":false,"station_id":"PSE","station_name":"Pasar Senen","time":4,"i_lat":-6.174784,"line":11,"distance":1436,"i_long":106.84368},{"line":11,"transit":false,"i_lat":-6.185975,"distance":1567,"time":8,"is_transit":false,"station_name":"Gang Sentiong","i_long":106.850107,"station_id":"GST"},{"station_id":"KMT","line":11,"time":1,"i_long":106.855437,"distance":973,"is_transit":false,"i_lat":-6.193792,"transit":false,"station_name":"Kramat"},{"is_transit":false,"distance":1829,"i_lat":-6.209188,"station_name":"Pondok Jati","line":11,"station_id":"POK","i_long":106.861737,"transit":false,"time":2},{"i_lat":-6.215091,"time":9,"distance":1236,"transit":true,"is_transit":true,"i_long":106.86807400000001,"station_id":"JNG","line":1,"station_name":"Jatinegara"},{"station_id":"MTR","distance":1377,"time":2,"i_lat":-6.212485,"transit":false,"is_transit":false,"i_long":106.858896,"line":1,"station_name":"Matraman"},{"i_long":106.84912,"time":2,"station_id":"MRI","i_lat":-6.209883,"transit":true,"line":2,"is_transit":true,"station_name":"Manggarai","distance":1275},{"distance":2610,"i_long":106.857948,"station_id":"TEB","is_transit":false,"i_lat":-6.226659,"time":4,"line":2,"transit":false,"station_name":"Tebet"},{"transit":false,"is_transit":false,"station_id":"CW","station_name":"Cawang","i_lat":-6.242512,"line":2,"i_long":106.856607,"time":2,"distance":1230},{"station_name":"Duren Kalibata","i_long":106.85449,"line":2,"i_lat":-6.255332,"time":3,"transit":false,"is_transit":false,"distance":1546,"station_id":"DRN"},{"distance":824,"line":2,"station_name":"Pasar Minggu Baru","i_long":106.851577,"station_id":"PSMB","time":2,"i_lat":-6.263214,"transit":false,"is_transit":false},{"station_id":"PSM","time":2,"i_long":106.843999,"line":2,"distance":2380,"transit":false,"is_transit":false,"i_lat":-6.2842400000000005,"station_name":"Pasar Minggu"},{"i_lat":-6.3080680000000005,"transit":false,"station_id":"TNT","is_transit":false,"time":4,"distance":2820,"station_name":"Tanjung Barat","i_long":106.838896,"line":2},{"time":3,"distance":2671,"station_name":"Lenteng Agung","station_id":"LNA","is_transit":false,"i_lat":-6.330363,"i_long":106.832616,"line":2,"transit":false},{"time":2,"distance":1029,"transit":false,"station_name":"Univ. Pancasila","is_transit":false,"station_id":"UP","i_lat":-6.339291,"i_long":106.834175,"line":2},{"station_name":"Univ. Indonesia","station_id":"UI","time":3,"transit":false,"distance":2264,"i_long":106.831474,"is_transit":false,"line":2,"i_lat":-6.360749},{"transit":false,"i_lat":-6.369073,"time":2,"line":2,"distance":1109,"station_id":"POC","is_transit":false,"i_long":106.831114,"station_name":"Pondok Cina"},{"time":4,"i_lat":-6.391065,"line":2,"is_transit":false,"distance":2727,"i_long":106.819451,"transit":false,"station_name":"Depokbaru","station_id":"DPB"}]]}