{"data":[[{"station_name":"Batuceper","transit":false,"is_transit":false,"i_lat":-6.171811,"line":5,"distance":0,"i_long":106.665036,"time":0,"station_id":"BPR"},{"distance":1834,"time":3,"i_long":106.679458,"transit":false,"station_id":"PI","is_transit":false,"i_lat":-6.169933,"station_name":"Poris","line":5},{"station_id":"KDS","is_transit":false,"time":3,"station_name":"Kalideres","i_long":106.701612,"transit":false,"line":5,"distance":2548,"i_lat":-6.166068},{"i_long":106.723064,"transit":false,"station_name":"Rawa Buaya","time":3,"line":5,"i_lat":-6.162758,"station_id":"RW","is_transit":false,"distance":2504},{"distance":1152,"station_name":"Bojongindah","is_transit":false,"station_id":"BOI","transit":false,"time":4,"i_lat":-6.159876,"i_long":106.737035,"line":5},{"distance":2334,"i_long":106.756522,"station_id":"TKO","is_transit":false,"time":2,"i_lat":-6.1587309999999995,"transit":false,"line":5,"station_name":"Taman Kota"},{"distance":1614,"i_long":106.771379,"is_transit":false,"i_lat":-6.161433,"line":5,"station_id":"PSG","transit":false,"time":2,"station_name":"Pesing"},{"distance":2036,"i_long":106.788277,"time":2,"i_lat":-6.162021,"line":5,"transit":false,"station_id":"GGL","is_transit":false,"station_name":"Grogol"},{"time":3,"is_transit":true,"transit":true,"i_lat":-6.155215,"i_long":106.800832,"line":1,"station_id":"DU","station_name":"Duri","distance":1700},{"line":1,"station_id":"AK","transit":false,"i_long":106.79867,"is_transit":false,"station_name":"Angke","distance":1230,"time":4,"i_lat":-6.144674},{"station_name":"Kampung Bandan","station_id":"KPB","is_transit":true,"distance":4102,"i_lat":-6.132549,"line":4,"i_long":106.826365,"time":9,"transit":true},{"station_id":"RJW","time":3,"i_lat":-6.14505,"is_transit":false,"station_name":"Rajawali","distance":1444,"i_long":106.836569,"line":11,"transit":false},{"station_name":"Kemayoran","transit":false,"distance":1901,"station_id":"KMO","i_lat":-6.161728,"i_long":106.839204,"line":11,"is_transit":false,"time":5},{"station_name":"Pasar Senen","station_id":"PSE","is_transit":false,"distance":1436,"line":11,"i_lat":-6.174784,"transit":false,"i_long":106.84368,"time":4},{"transit":false,"distance":1567,"is_transit":false,"station_id":"GST","i_lat":-6.185975,"time":8,"station_name":"Gang Sentiong","i_long":106.850107,"line":11}],[{"distance":0,"station_name":"Batuceper","i_long":106.665036,"station_id":"BPR","i_lat":-6.171811,"transit":false,"time":0,"line":5,"is_transit":false},{"station_id":"PI","i_lat":-6.169933,"i_long":106.679458,"transit":false,"distance":1834,"is_transit":false,"time":3,"station_name":"Poris","line":5},{"transit":false,"station_name":"Kalideres","time":3,"distance":2548,"i_long":106.701612,"i_lat":-6.166068,"line":5,"station_id":"KDS","is_transit":false},{"line":5,"transit":false,"i_lat":-6.162758,"i_long":106.723064,"station_id":"RW","distance":2504,"station_name":"Rawa Buaya","time":3,"is_transit":false},{"transit":false,"distance":1152,"station_id":"BOI","i_long":106.737035,"i_lat":-6.159876,"line":5,"station_name":"Bojongindah","time":4,"is_transit":false},{"time":2,"is_transit":false,"distance":2334,"transit":false,"station_id":"TKO","i_long":106.756522,"line":5,"station_name":"Taman Kota","i_lat":-6.1587309999999995},{"i_long":106.771379,"time":2,"is_transit":false,"distance":1614,"i_lat":-6.161433,"transit":false,"station_name":"Pesing","line":5,"station_id":"PSG"},{"time":2,"distance":2036,"transit":false,"station_id":"GGL","is_transit":false,"i_lat":-6.162021,"i_long":106.788277,"line":5,"station_name":"Grogol"},{"i_long":106.800832,"i_lat":-6.155215,"transit":true,"distance":1700,"time":3,"station_id":"DU","line":1,"station_name":"Duri","is_transit":true},{"i_long":106.811091,"station_id":"THB","line":1,"is_transit":false,"transit":false,"station_name":"Tanah Abang","distance":3632,"time":8,"i_lat":-6.185545},{"station_name":"Karet","line":1,"i_lat":-6.20132,"i_long":106.816351,"station_id":"KAT","time":5,"is_transit":false,"distance":2029,"transit":false},{"is_transit":false,"i_lat":-6.201433,"station_id":"SUDB","distance":471,"i_long":106.819881,"time":1,"transit":false,"station_name":"Sudirman Baru","line":1},{"distance":280,"station_id":"SUD","time":1,"i_long":106.822649,"station_name":"Sudirman","is_transit":false,"line":1,"transit":false,"i_lat":-6.202263},{"station_name":"Manggarai","transit":false,"i_lat":-6.209883,"station_id":"MRI","distance":3186,"line":2,"time":4,"is_transit":false,"i_long":106.84912},{"station_id":"MTR","time":2,"i_long":106.858896,"distance":1275,"line":1,"i_lat":-6.212485,"transit":false,"station_name":"Matraman","is_transit":false},{"distance":1377,"station_name":"Jatinegara","is_transit":true,"station_id":"JNG","time":8,"i_lat":-6.215091,"i_long":106.86807400000001,"transit":true,"line":1},{"transit":false,"station_id":"POK","station_name":"Pondok Jati","is_transit":false,"time":2,"i_lat":-6.209188,"distance":1236,"line":11,"i_long":106.861737},{"i_lat":-6.193792,"station_name":"Kramat","line":11,"time":2,"transit":false,"station_id":"KMT","distance":1829,"i_long":106.855437,"is_transit":false},{"transit":false,"i_lat":-6.185975,"time":1,"line":11,"station_name":"Gang Sentiong","distance":973,"is_transit":false,"i_long":106.850107,"station_id":"GST"}],[{"is_transit":false,"i_lat":-6.171811,"i_long":106.665036,"distance":0,"transit":false,"time":0,"station_name":"Batuceper","station_id":"BPR","line":5},{"station_id":"PI","station_name":"Poris","time":3,"transit":false,"line":5,"is_transit":false,"i_long":106.679458,"distance":1834,"i_lat":-6.169933},{"line":5,"station_name":"Kalideres","is_transit":false,"station_id":"KDS","time":3,"transit":false,"distance":2548,"i_lat":-6.166068,"i_long":106.701612},{"i_long":106.723064,"time":3,"station_name":"Rawa Buaya","station_id":"RW","is_transit":false,"distance":2504,"line":5,"i_lat":-6.162758,"transit":false},{"time":4,"distance":1152,"is_transit":false,"i_long":106.737035,"line":5,"transit":false,"station_id":"BOI","i_lat":-6.159876,"station_name":"Bojongindah"},{"station_id":"TKO","i_long":106.756522,"line":5,"distance":2334,"i_lat":-6.1587309999999995,"transit":false,"time":2,"station_name":"Taman Kota","is_transit":false},{"distance":1614,"station_name":"Pesing","station_id":"PSG","time":2,"is_transit":false,"transit":false,"i_lat":-6.161433,"line":5,"i_long":106.771379},{"is_transit":false,"station_id":"GGL","time":2,"distance":2036,"i_long":106.788277,"station_name":"Grogol","i_lat":-6.162021,"line":5,"transit":false},{"distance":1700,"station_id":"DU","station_name":"Duri","i_lat":-6.155215,"i_long":106.800832,"time":3,"transit":true,"is_transit":true,"line":1},{"time":4,"i_long":106.79867,"station_name":"Angke","station_id":"AK","i_lat":-6.144674,"transit":false,"is_transit":false,"distance":1230,"line":1},{"line":4,"distance":4102,"i_long":106.826365,"transit":true,"i_lat":-6.132549,"station_name":"Kampung Bandan","station_id":"KPB","is_transit":true,"time":9},{"distance":1364,"i_lat":-6.137569,"line":2,"i_long":106.812439,"station_name":"Jakarta Kota","transit":true,"time":3,"station_id":"JAKK","is_transit":true},{"i_lat":-6.141205,"i_long":106.820901,"station_name":"Jayakarta","station_id":"JAY","line":2,"transit":false,"is_transit":false,"time":4,"distance":1264},{"line":2,"station_id":"MGB","i_lat":-6.149769,"transit":false,"i_long":106.82482,"is_transit":false,"distance":1080,"time":2,"station_name":"Manggabesar"},{"i_long":106.827103,"transit":false,"time":2,"distance":906,"line":2,"i_lat":-6.160725,"station_id":"SW","is_transit":false,"station_name":"Sawah Besar"},{"is_transit":false,"distance":1149,"station_id":"JUA","line":2,"station_name":"Juanda","transit":false,"time":2,"i_long":106.828284,"i_lat":-6.166716},{"distance":2015,"i_lat":-6.186295,"station_id":"GDD","transit":false,"station_name":"Gondangdia","is_transit":false,"line":2,"i_long":106.832183,"time":4},{"transit":false,"time":3,"line":2,"distance":1750,"is_transit":false,"station_id":"CKI","station_name":"Cikini","i_lat":-6.198556,"i_long":106.840169},{"i_lat":-6.209883,"transit":true,"is_transit":true,"line":2,"station_name":"Manggarai","station_id":"MRI","time":4,"distance":1590,"i_long":106.84912},{"transit":false,"distance":1275,"i_long":106.858896,"station_name":"Matraman","station_id":"MTR","line":1,"is_transit":false,"time":2,"i_lat":-6.212485},{"is_transit":true,"distance":1377,"i_long":106.86807400000001,"line":1,"station_id":"JNG","i_lat":-6.215091,"station_name":"Jatinegara","time":8,"transit":true},{"station_id":"POK","line":11,"station_name":"Pondok Jati","is_transit":false,"transit":false,"distance":1236,"time":2,"i_lat":-6.209188,"i_long":106.861737},{"distance":1829,"i_long":106.855437,"station_name":"Kramat","transit":false,"is_transit":false,"station_id":"KMT","time":2,"i_lat":-6.193792,"line":11},{"time":1,"station_id":"GST","is_transit":false,"i_lat":-6.185975,"line":11,"transit":false,"station_name":"Gang Sentiong","distance":973,"i_long":106.850107}],[{"distance":0,"transit":false,"station_id":"BPR","time":0,"line":5,"i_lat":-6.171811,"station_name":"Batuceper","is_transit":false,"i_long":106.665036},{"station_id":"PI","is_transit":false,"i_lat":-6.169933,"transit":false,"station_name":"Poris","time":3,"i_long":106.679458,"line":5,"distance":1834},{"distance":2548,"transit":false,"is_transit":false,"i_lat":-6.166068,"station_name":"Kalideres","i_long":106.701612,"time":3,"station_id":"KDS","line":5},{"i_lat":-6.162758,"station_name":"Rawa Buaya","transit":false,"is_transit":false,"i_long":106.723064,"time":3,"station_id":"RW","distance":2504,"line":5},{"transit":false,"station_id":"BOI","i_lat":-6.159876,"distance":1152,"i_long":106.737035,"time":4,"is_transit":false,"line":5,"station_name":"Bojongindah"},{"time":2,"is_transit":false,"distance":2334,"i_long":106.756522,"transit":false,"station_name":"Taman Kota","station_id":"TKO","i_lat":-6.1587309999999995,"line":5},{"i_long":106.771379,"transit":false,"station_id":"PSG","station_name":"Pesing","is_transit":false,"line":5,"distance":1614,"i_lat":-6.161433,"time":2},{"transit":false,"is_transit":false,"distance":2036,"i_lat":-6.162021,"i_long":106.788277,"time":2,"station_name":"Grogol","station_id":"GGL","line":5},{"transit":true,"is_transit":true,"i_long":106.800832,"time":3,"station_name":"Duri","distance":1700,"i_lat":-6.155215,"line":1,"station_id":"DU"},{"time":8,"i_lat":-6.185545,"transit":false,"station_id":"THB","station_name":"Tanah Abang","is_transit":false,"i_long":106.811091,"line":1,"distance":3632},{"station_id":"KAT","time":5,"transit":false,"i_long":106.816351,"i_lat":-6.20132,"is_transit":false,"distance":2029,"station_name":"Karet","line":1},{"i_lat":-6.201433,"i_long":106.819881,"station_name":"Sudirman Baru","transit":false,"station_id":"SUDB","is_transit":false,"time":1,"distance":471,"line":1},{"is_transit":false,"time":1,"distance":280,"transit":false,"station_name":"Sudirman","i_lat":-6.202263,"i_long":106.822649,"line":1,"station_id":"SUD"},{"i_lat":-6.209883,"i_long":106.84912,"distance":3186,"line":2,"time":4,"is_transit":true,"transit":true,"station_name":"Manggarai","station_id":"MRI"},{"time":4,"distance":1590,"station_id":"CKI","i_lat":-6.198556,"i_long":106.840169,"transit":false,"line":2,"is_transit":false,"station_name":"Cikini"},{"transit":false,"distance":1750,"station_name":"Gondangdia","is_transit":false,"time":3,"i_lat":-6.186295,"i_long":106.832183,"line":2,"station_id":"GDD"},{"is_transit":false,"i_lat":-6.166716,"distance":2015,"time":4,"line":2,"transit":false,"station_id":"JUA","station_name":"Juanda","i_long":106.828284},{"transit":false,"station_name":"Sawah Besar","line":2,"i_long":106.827103,"station_id":"SW","distance":1149,"is_transit":false,"i_lat":-6.160725,"time":2},{"station_id":"MGB","i_lat":-6.149769,"transit":false,"distance":906,"is_transit":false,"time":2,"station_name":"Manggabesar","i_long":106.82482,"line":2},{"transit":false,"station_id":"JAY","line":2,"distance":1080,"i_long":106.820901,"i_lat":-6.141205,"station_name":"Jayakarta","is_transit":false,"time":2},{"line":2,"station_name":"Jakarta Kota","i_long":106.812439,"is_transit":true,"time":4,"station_id":"JAKK","distance":1264,"transit":true,"i_lat":-6.137569},{"station_id":"KPB","station_name":"Kampung Bandan","transit":true,"time":3,"i_lat":-6.132549,"line":4,"i_long":106.826365,"is_transit":true,"distance":1364},{"i_long":106.836569,"is_transit":false,"transit":false,"time":3,"distance":1444,"station_id":"RJW","i_lat":-6.14505,"line":11,"station_name":"Rajawali"},{"time":5,"line":11,"station_name":"Kemayoran","distance":1901,"station_id":"KMO","is_transit":false,"transit":false,"i_lat":-6.161728,"i_long":106.839204},{"is_transit":false,"distance":1436,"line":11,"time":4,"station_id":"PSE","transit":false,"i_long":106.84368,"i_lat":-6.174784,"station_name":"Pasar Senen"},{"time":8,"is_transit":false,"i_lat":-6.185975,"station_id":"GST","distance":1567,"transit":false,"station_name":"Gang Sentiong","i_long":106.850107,"line":11}]]}