{"data":[[{"transit":false,"time":0,"is_transit":false,"i_lat":-6.171811,"i_long":106.665036,"station_id":"BPR","distance":0,"station_name":"Batuceper","line":5},{"station_id":"PI","transit":false,"is_transit":false,"i_lat":-6.169933,"i_long":106.679458,"line":5,"station_name":"Poris","distance":1834,"time":3},{"distance":2548,"station_name":"Kalideres","i_lat":-6.166068,"is_transit":false,"i_long":106.701612,"time":3,"transit":false,"line":5,"station_id":"KDS"},{"line":5,"station_id":"RW","time":3,"distance":2504,"station_name":"Rawa Buaya","transit":false,"is_transit":false,"i_lat":-6.162758,"i_long":106.723064},{"time":4,"station_id":"BOI","distance":1152,"is_transit":false,"transit":false,"station_name":"Bojongindah","i_lat":-6.159876,"i_long":106.737035,"line":5}]]}