{"data":[[{"time":0,"station_id":"BPR","station_name":"Batuceper","distance":0,"i_lat":-6.171811,"line":5,"transit":false,"i_long":106.665036,"is_transit":false},{"transit":false,"line":5,"is_transit":false,"i_long":106.679458,"distance":1834,"station_name":"Poris","i_lat":-6.169933,"time":3,"station_id":"PI"},{"distance":2548,"i_lat":-6.166068,"is_transit":false,"transit":false,"i_long":106.701612,"time":3,"station_id":"KDS","line":5,"station_name":"Kalideres"},{"distance":2504,"is_transit":false,"i_lat":-6.162758,"station_name":"Rawa Buaya","time":3,"transit":false,"station_id":"RW","i_long":106.723064,"line":5},{"is_transit":false,"transit":false,"station_name":"Bojongindah","station_id":"BOI","line":5,"i_long":106.737035,"time":4,"i_lat":-6.159876,"distance":1152},{"station_name":"Taman Kota","i_long":106.756522,"line":5,"is_transit":false,"transit":false,"distance":2334,"time":2,"i_lat":-6.1587309999999995,"station_id":"TKO"},{"line":5,"is_transit":false,"time":2,"i_lat":-6.161433,"distance":1614,"transit":false,"station_name":"Pesing","i_long":106.771379,"station_id":"PSG"},{"i_long":106.788277,"line":5,"station_name":"Grogol","is_transit":false,"time":2,"i_lat":-6.162021,"station_id":"GGL","distance":2036,"transit":false},{"station_name":"Duri","distance":1700,"i_lat":-6.155215,"is_transit":true,"station_id":"DU","transit":true,"line":1,"i_long":106.800832,"time":3},{"transit":true,"time":8,"station_id":"THB","is_transit":true,"station_name":"Tanah Abang","i_long":106.811091,"distance":3632,"line":1,"i_lat":-6.185545},{"distance":3191,"transit":false,"is_transit":false,"line":6,"time":6,"station_name":"Palmerah","station_id":"PLM","i_lat":-6.207404,"i_long":106.79689},{"i_lat":-6.237242,"station_id":"KBY","line":6,"time":7,"i_long":106.780334,"station_name":"Kebayoran","is_transit":false,"transit":false,"distance":3737},{"line":6,"time":8,"i_long":106.74273,"distance":6218,"station_id":"PDJ","transit":false,"station_name":"Pondokranji","i_lat":-6.276362,"is_transit":false},{"distance":2179,"station_id":"JMU","i_lat":-6.288927,"time":3,"transit":false,"is_transit":false,"station_name":"Jurangmangu","i_long":106.728916,"line":6},{"i_lat":-6.296963,"station_id":"SDM","time":4,"station_name":"Sudimara","is_transit":false,"distance":1994,"transit":false,"i_long":106.712277,"line":6},{"station_id":"RU","transit":false,"station_name":"Rawa Buntu","is_transit":false,"i_lat":-6.314823,"distance":4566,"time":6,"i_long":106.675475,"line":6},{"transit":false,"is_transit":false,"time":4,"distance":2413,"i_long":106.66566,"line":6,"i_lat":-6.319871,"station_id":"SRP","station_name":"Serpong"},{"i_long":106.640411,"station_name":"Cisauk","i_lat":-6.32484,"line":3,"time":4,"distance":1784,"transit":false,"station_id":"CSK","is_transit":false},{"transit":false,"line":3,"station_id":"CC","is_transit":false,"time":4,"i_long":106.617853,"station_name":"Cicayur","distance":2519,"i_lat":-6.329547},{"distance":5968,"is_transit":false,"i_lat":-6.3441410000000005,"i_long":106.568863,"transit":false,"station_name":"Parung Panjang","station_id":"PRP","time":8,"line":6},{"i_lat":-6.354349,"time":9,"station_name":"Cilejit","i_long":106.508482,"is_transit":false,"line":3,"distance":7025,"transit":false,"station_id":"CJT"},{"time":6,"transit":false,"is_transit":false,"i_long":106.491338,"line":0,"i_lat":-6.338021,"station_name":"Daru","station_id":"DAR","distance":2675}],[{"station_name":"Batuceper","i_long":106.665036,"distance":0,"station_id":"BPR","is_transit":false,"time":0,"i_lat":-6.171811,"line":5,"transit":false},{"line":5,"is_transit":false,"i_lat":-6.169933,"transit":false,"i_long":106.679458,"time":3,"distance":1834,"station_name":"Poris","station_id":"PI"},{"is_transit":false,"distance":2548,"line":5,"i_long":106.701612,"station_name":"Kalideres","station_id":"KDS","time":3,"transit":false,"i_lat":-6.166068},{"line":5,"i_lat":-6.162758,"station_id":"RW","is_transit":false,"time":3,"i_long":106.723064,"station_name":"Rawa Buaya","transit":false,"distance":2504},{"station_id":"BOI","i_long":106.737035,"station_name":"Bojongindah","is_transit":false,"distance":1152,"transit":false,"i_lat":-6.159876,"time":4,"line":5},{"line":5,"i_lat":-6.1587309999999995,"transit":false,"station_name":"Taman Kota","time":2,"distance":2334,"is_transit":false,"station_id":"TKO","i_long":106.756522},{"transit":false,"i_long":106.771379,"time":2,"line":5,"i_lat":-6.161433,"station_id":"PSG","distance":1614,"is_transit":false,"station_name":"Pesing"},{"transit":false,"is_transit":false,"time":2,"i_lat":-6.162021,"station_name":"Grogol","line":5,"distance":2036,"station_id":"GGL","i_long":106.788277},{"time":3,"transit":true,"i_lat":-6.155215,"station_id":"DU","distance":1700,"station_name":"Duri","is_transit":true,"line":1,"i_long":106.800832},{"i_long":106.79867,"station_id":"AK","i_lat":-6.144674,"distance":1230,"line":1,"is_transit":false,"time":4,"station_name":"Angke","transit":false},{"station_id":"KPB","station_name":"Kampung Bandan","time":9,"i_long":106.826365,"line":4,"distance":4102,"transit":true,"is_transit":true,"i_lat":-6.132549},{"station_name":"Jakarta Kota","is_transit":true,"transit":true,"station_id":"JAKK","time":3,"i_lat":-6.137569,"line":2,"i_long":106.812439,"distance":1364},{"time":4,"distance":1264,"station_name":"Jayakarta","i_long":106.820901,"transit":false,"i_lat":-6.141205,"line":2,"station_id":"JAY","is_transit":false},{"distance":1080,"i_lat":-6.149769,"line":2,"transit":false,"i_long":106.82482,"station_name":"Manggabesar","station_id":"MGB","time":2,"is_transit":false},{"transit":false,"i_lat":-6.160725,"distance":906,"station_id":"SW","time":2,"station_name":"Sawah Besar","i_long":106.827103,"line":2,"is_transit":false},{"i_lat":-6.166716,"line":2,"i_long":106.828284,"station_name":"Juanda","distance":1149,"time":2,"is_transit":false,"transit":false,"station_id":"JUA"},{"line":2,"time":4,"i_lat":-6.186295,"station_id":"GDD","station_name":"Gondangdia","i_long":106.832183,"distance":2015,"is_transit":false,"transit":false},{"station_name":"Cikini","is_transit":false,"i_lat":-6.198556,"time":3,"i_long":106.840169,"line":2,"distance":1750,"transit":false,"station_id":"CKI"},{"distance":1590,"line":2,"time":4,"i_lat":-6.209883,"transit":true,"station_name":"Manggarai","i_long":106.84912,"station_id":"MRI","is_transit":true},{"station_id":"SUD","i_long":106.822649,"transit":false,"station_name":"Sudirman","is_transit":false,"time":4,"distance":3186,"i_lat":-6.202263,"line":1},{"station_name":"Sudirman Baru","time":1,"transit":false,"i_long":106.819881,"line":1,"is_transit":false,"distance":280,"station_id":"SUDB","i_lat":-6.201433},{"i_long":106.816351,"station_name":"Karet","line":1,"station_id":"KAT","is_transit":false,"time":1,"distance":471,"transit":false,"i_lat":-6.20132},{"line":1,"i_long":106.811091,"transit":true,"station_id":"THB","station_name":"Tanah Abang","distance":2029,"is_transit":true,"time":5,"i_lat":-6.185545},{"is_transit":false,"time":6,"i_lat":-6.207404,"distance":3191,"line":6,"i_long":106.79689,"station_name":"Palmerah","transit":false,"station_id":"PLM"},{"i_lat":-6.237242,"transit":false,"is_transit":false,"i_long":106.780334,"station_id":"KBY","distance":3737,"line":6,"station_name":"Kebayoran","time":7},{"transit":false,"time":8,"station_name":"Pondokranji","i_lat":-6.276362,"is_transit":false,"distance":6218,"line":6,"i_long":106.74273,"station_id":"PDJ"},{"i_lat":-6.288927,"i_long":106.728916,"line":6,"is_transit":false,"distance":2179,"transit":false,"station_name":"Jurangmangu","time":3,"station_id":"JMU"},{"station_name":"Sudimara","is_transit":false,"time":4,"i_long":106.712277,"transit":false,"i_lat":-6.296963,"station_id":"SDM","line":6,"distance":1994},{"line":6,"distance":4566,"transit":false,"i_lat":-6.314823,"station_id":"RU","station_name":"Rawa Buntu","is_transit":false,"time":6,"i_long":106.675475},{"distance":2413,"station_name":"Serpong","time":4,"i_long":106.66566,"is_transit":false,"i_lat":-6.319871,"line":6,"transit":false,"station_id":"SRP"},{"i_lat":-6.32484,"station_name":"Cisauk","time":4,"is_transit":false,"i_long":106.640411,"transit":false,"station_id":"CSK","distance":1784,"line":3},{"transit":false,"distance":2519,"i_long":106.617853,"is_transit":false,"station_id":"CC","line":3,"i_lat":-6.329547,"station_name":"Cicayur","time":4},{"i_lat":-6.3441410000000005,"line":6,"is_transit":false,"time":8,"station_name":"Parung Panjang","distance":5968,"i_long":106.568863,"transit":false,"station_id":"PRP"},{"time":9,"i_long":106.508482,"station_name":"Cilejit","line":3,"station_id":"CJT","is_transit":false,"distance":7025,"transit":false,"i_lat":-6.354349},{"distance":2675,"station_id":"DAR","station_name":"Daru","is_transit":false,"time":6,"line":0,"i_lat":-6.338021,"transit":false,"i_long":106.491338}],[{"transit":false,"i_long":106.665036,"station_id":"BPR","line":5,"i_lat":-6.171811,"time":0,"is_transit":false,"distance":0,"station_name":"Batuceper"},{"line":5,"transit":false,"i_long":106.679458,"distance":1834,"station_id":"PI","station_name":"Poris","is_transit":false,"time":3,"i_lat":-6.169933},{"station_name":"Kalideres","i_lat":-6.166068,"transit":false,"is_transit":false,"i_long":106.701612,"distance":2548,"station_id":"KDS","time":3,"line":5},{"time":3,"transit":false,"station_id":"RW","distance":2504,"is_transit":false,"line":5,"i_lat":-6.162758,"station_name":"Rawa Buaya","i_long":106.723064},{"station_name":"Bojongindah","line":5,"transit":false,"station_id":"BOI","i_long":106.737035,"time":4,"is_transit":false,"distance":1152,"i_lat":-6.159876},{"i_long":106.756522,"station_id":"TKO","line":5,"time":2,"transit":false,"i_lat":-6.1587309999999995,"station_name":"Taman Kota","is_transit":false,"distance":2334},{"station_name":"Pesing","i_lat":-6.161433,"distance":1614,"time":2,"i_long":106.771379,"station_id":"PSG","line":5,"is_transit":false,"transit":false},{"station_name":"Grogol","line":5,"i_lat":-6.162021,"i_long":106.788277,"is_transit":false,"transit":false,"distance":2036,"time":2,"station_id":"GGL"},{"is_transit":true,"transit":true,"line":1,"distance":1700,"station_id":"DU","station_name":"Duri","i_long":106.800832,"time":3,"i_lat":-6.155215},{"is_transit":false,"i_lat":-6.144674,"i_long":106.79867,"transit":false,"line":1,"distance":1230,"station_name":"Angke","time":4,"station_id":"AK"},{"i_lat":-6.132549,"time":9,"distance":4102,"i_long":106.826365,"line":4,"station_name":"Kampung Bandan","station_id":"KPB","is_transit":true,"transit":true},{"distance":1444,"line":11,"station_id":"RJW","i_lat":-6.14505,"transit":false,"station_name":"Rajawali","is_transit":false,"time":3,"i_long":106.836569},{"station_name":"Kemayoran","line":11,"distance":1901,"i_lat":-6.161728,"station_id":"KMO","is_transit":false,"time":5,"transit":false,"i_long":106.839204},{"i_lat":-6.174784,"transit":false,"i_long":106.84368,"distance":1436,"station_id":"PSE","time":4,"line":11,"is_transit":false,"station_name":"Pasar Senen"},{"distance":1567,"transit":false,"is_transit":false,"station_name":"Gang Sentiong","time":8,"station_id":"GST","i_long":106.850107,"line":11,"i_lat":-6.185975},{"station_id":"KMT","is_transit":false,"time":1,"station_name":"Kramat","i_long":106.855437,"line":11,"i_lat":-6.193792,"transit":false,"distance":973},{"is_transit":false,"time":2,"i_long":106.861737,"station_id":"POK","line":11,"station_name":"Pondok Jati","i_lat":-6.209188,"distance":1829,"transit":false},{"i_long":106.86807400000001,"station_name":"Jatinegara","is_transit":true,"line":1,"time":9,"transit":true,"station_id":"JNG","i_lat":-6.215091,"distance":1236},{"distance":1377,"station_name":"Matraman","is_transit":false,"time":2,"station_id":"MTR","transit":false,"line":1,"i_lat":-6.212485,"i_long":106.858896},{"line":2,"distance":1275,"station_name":"Manggarai","is_transit":false,"transit":false,"i_lat":-6.209883,"station_id":"MRI","time":2,"i_long":106.84912},{"station_name":"Sudirman","time":4,"transit":false,"i_lat":-6.202263,"is_transit":false,"station_id":"SUD","distance":3186,"line":1,"i_long":106.822649},{"distance":280,"time":1,"line":1,"is_transit":false,"i_lat":-6.201433,"station_name":"Sudirman Baru","i_long":106.819881,"station_id":"SUDB","transit":false},{"line":1,"i_long":106.816351,"transit":false,"station_id":"KAT","distance":471,"is_transit":false,"time":1,"i_lat":-6.20132,"station_name":"Karet"},{"station_name":"Tanah Abang","is_transit":true,"i_long":106.811091,"transit":true,"distance":2029,"station_id":"THB","time":5,"line":1,"i_lat":-6.185545},{"station_id":"PLM","is_transit":false,"distance":3191,"i_lat":-6.207404,"time":6,"i_long":106.79689,"line":6,"transit":false,"station_name":"Palmerah"},{"station_name":"Kebayoran","i_long":106.780334,"is_transit":false,"transit":false,"distance":3737,"line":6,"i_lat":-6.237242,"time":7,"station_id":"KBY"},{"station_id":"PDJ","is_transit":false,"station_name":"Pondokranji","transit":false,"distance":6218,"line":6,"time":8,"i_lat":-6.276362,"i_long":106.74273},{"station_id":"JMU","i_lat":-6.288927,"station_name":"Jurangmangu","transit":false,"is_transit":false,"time":3,"i_long":106.728916,"distance":2179,"line":6},{"distance":1994,"time":4,"line":6,"station_id":"SDM","i_long":106.712277,"transit":false,"station_name":"Sudimara","is_transit":false,"i_lat":-6.296963},{"is_transit":false,"station_id":"RU","station_name":"Rawa Buntu","time":6,"distance":4566,"i_lat":-6.314823,"line":6,"i_long":106.675475,"transit":false},{"station_id":"SRP","line":6,"time":4,"transit":false,"is_transit":false,"i_lat":-6.319871,"station_name":"Serpong","distance":2413,"i_long":106.66566},{"station_id":"CSK","i_long":106.640411,"line":3,"is_transit":false,"transit":false,"station_name":"Cisauk","time":4,"distance":1784,"i_lat":-6.32484},{"distance":2519,"is_transit":false,"station_id":"CC","station_name":"Cicayur","i_long":106.617853,"time":4,"line":3,"i_lat":-6.329547,"transit":false},{"station_id":"PRP","station_name":"Parung Panjang","i_long":106.568863,"line":6,"transit":false,"distance":5968,"is_transit":false,"time":8,"i_lat":-6.3441410000000005},{"station_name":"Cilejit","is_transit":false,"i_lat":-6.354349,"line":3,"station_id":"CJT","transit":false,"distance":7025,"i_long":106.508482,"time":9},{"distance":2675,"transit":false,"is_transit":false,"line":0,"station_name":"Daru","i_long":106.491338,"station_id":"DAR","time":6,"i_lat":-6.338021}]]}