{"data":[[{"i_long":106.665036,"distance":0,"i_lat":-6.171811,"line":0,"is_transit":false,"transit":false,"station_name":"Batuceper","station_id":"BPR","time":0},{"time":3,"distance":1834,"station_name":"Poris","is_transit":false,"transit":false,"i_long":106.679458,"station_id":"PI","line":5,"i_lat":-6.169933},{"i_lat":-6.166068,"line":5,"station_id":"KDS","i_long":106.701612,"station_name":"Kalideres","transit":false,"time":3,"is_transit":false,"distance":2548},{"i_long":106.723064,"time":3,"distance":2504,"line":5,"transit":false,"station_id":"RW","is_transit":false,"station_name":"Rawa Buaya","i_lat":-6.162758},{"time":4,"distance":1152,"is_transit":false,"station_name":"Bojongindah","station_id":"BOI","transit":false,"i_lat":-6.159876,"line":0,"i_long":106.737035},{"station_id":"TKO","line":5,"time":2,"i_long":106.756522,"distance":2334,"station_name":"Taman Kota","transit":false,"i_lat":-6.1587309999999995,"is_transit":false},{"line":5,"i_long":106.771379,"station_id":"PSG","is_transit":false,"station_name":"Pesing","transit":false,"distance":1614,"time":2,"i_lat":-6.161433},{"distance":2036,"i_long":106.788277,"transit":false,"time":2,"station_name":"Grogol","is_transit":false,"i_lat":-6.162021,"station_id":"GGL","line":5},{"is_transit":true,"distance":1700,"i_long":106.800832,"transit":true,"station_name":"Duri","i_lat":-6.155215,"line":1,"time":3,"station_id":"DU"},{"transit":true,"line":1,"station_name":"Tanah Abang","station_id":"THB","i_long":106.811091,"i_lat":-6.185545,"is_transit":true,"time":8,"distance":3632},{"distance":3191,"transit":false,"station_id":"PLM","time":6,"i_lat":-6.207404,"station_name":"Palmerah","is_transit":false,"line":6,"i_long":106.79689},{"transit":false,"station_id":"KBY","station_name":"Kebayoran","i_long":106.780334,"line":6,"i_lat":-6.237242,"is_transit":false,"time":7,"distance":3737},{"time":8,"transit":false,"is_transit":false,"line":6,"i_lat":-6.276362,"station_id":"PDJ","i_long":106.74273,"station_name":"Pondokranji","distance":6218},{"time":3,"distance":2179,"i_long":106.728916,"is_transit":false,"station_id":"JMU","i_lat":-6.288927,"line":6,"transit":false,"station_name":"Jurangmangu"},{"transit":false,"time":4,"i_lat":-6.296963,"i_long":106.712277,"station_name":"Sudimara","distance":1994,"line":6,"is_transit":false,"station_id":"SDM"},{"is_transit":false,"station_name":"Rawa Buntu","line":6,"time":6,"i_long":106.675475,"transit":false,"distance":4566,"station_id":"RU","i_lat":-6.314823},{"is_transit":false,"distance":2413,"line":6,"time":4,"station_name":"Serpong","station_id":"SRP","i_lat":-6.319871,"transit":false,"i_long":106.66566},{"line":0,"station_name":"Cisauk","distance":1784,"transit":false,"is_transit":false,"i_long":106.640411,"station_id":"CSK","time":4,"i_lat":-6.32484},{"i_lat":-6.329547,"station_name":"Cicayur","line":0,"is_transit":false,"time":4,"station_id":"CC","transit":false,"distance":2519,"i_long":106.617853},{"time":8,"line":6,"is_transit":false,"distance":5968,"transit":false,"station_name":"Parung Panjang","i_lat":-6.3441410000000005,"station_id":"PRP","i_long":106.568863},{"station_name":"Cilejit","station_id":"CJT","i_long":106.508482,"line":0,"i_lat":-6.354349,"is_transit":false,"transit":false,"time":9,"distance":7025},{"station_id":"DAR","station_name":"Daru","time":6,"distance":2675,"i_lat":-6.338021,"i_long":106.491338,"line":0,"is_transit":false,"transit":false}],[{"transit":false,"station_id":"BPR","line":0,"is_transit":false,"station_name":"Batuceper","time":0,"i_lat":-6.171811,"distance":0,"i_long":106.665036},{"transit":false,"i_lat":-6.169933,"distance":1834,"station_name":"Poris","line":5,"time":3,"station_id":"PI","is_transit":false,"i_long":106.679458},{"time":3,"line":5,"i_lat":-6.166068,"station_id":"KDS","station_name":"Kalideres","i_long":106.701612,"distance":2548,"transit":false,"is_transit":false},{"transit":false,"i_long":106.723064,"station_name":"Rawa Buaya","station_id":"RW","distance":2504,"i_lat":-6.162758,"line":5,"is_transit":false,"time":3},{"line":0,"station_name":"Bojongindah","i_long":106.737035,"transit":false,"station_id":"BOI","is_transit":false,"time":4,"distance":1152,"i_lat":-6.159876},{"transit":false,"line":5,"station_id":"TKO","i_lat":-6.1587309999999995,"is_transit":false,"time":2,"station_name":"Taman Kota","distance":2334,"i_long":106.756522},{"i_long":106.771379,"time":2,"distance":1614,"station_name":"Pesing","i_lat":-6.161433,"transit":false,"is_transit":false,"line":5,"station_id":"PSG"},{"station_name":"Grogol","transit":false,"i_lat":-6.162021,"i_long":106.788277,"distance":2036,"is_transit":false,"station_id":"GGL","line":5,"time":2},{"i_lat":-6.155215,"station_id":"DU","i_long":106.800832,"line":1,"is_transit":true,"time":3,"transit":true,"distance":1700,"station_name":"Duri"},{"distance":1230,"i_lat":-6.144674,"line":0,"time":4,"station_name":"Angke","is_transit":false,"station_id":"AK","i_long":106.79867,"transit":false},{"i_long":106.826365,"is_transit":true,"time":9,"line":0,"station_id":"KPB","transit":false,"distance":4102,"station_name":"Kampung Bandan","i_lat":-6.132549},{"distance":1364,"time":3,"station_id":"JAKK","i_lat":-6.137569,"station_name":"Jakarta Kota","i_long":106.812439,"transit":true,"is_transit":true,"line":0},{"i_long":106.820901,"station_name":"Jayakarta","i_lat":-6.141205,"transit":false,"line":7,"time":4,"is_transit":false,"distance":1264,"station_id":"JAY"},{"distance":1080,"is_transit":false,"transit":false,"station_name":"Manggabesar","i_lat":-6.149769,"i_long":106.82482,"line":2,"time":2,"station_id":"MGB"},{"line":2,"is_transit":false,"transit":false,"i_long":106.827103,"distance":906,"i_lat":-6.160725,"station_id":"SW","station_name":"Sawah Besar","time":2},{"distance":1149,"transit":false,"i_long":106.828284,"station_name":"Juanda","i_lat":-6.166716,"is_transit":false,"time":2,"station_id":"JUA","line":2},{"is_transit":false,"time":4,"transit":false,"station_name":"Gondangdia","i_long":106.832183,"line":2,"distance":2015,"station_id":"GDD","i_lat":-6.186295},{"is_transit":false,"i_lat":-6.198556,"station_name":"Cikini","distance":1750,"station_id":"CKI","time":3,"i_long":106.840169,"line":0,"transit":false},{"station_name":"Manggarai","is_transit":true,"distance":1590,"i_long":106.84912,"station_id":"MRI","time":4,"transit":true,"i_lat":-6.209883,"line":0},{"transit":false,"time":4,"distance":3186,"station_name":"Sudirman","is_transit":false,"i_long":106.822649,"station_id":"SUD","i_lat":-6.202263,"line":1},{"station_id":"SUDB","i_lat":-6.201433,"station_name":"Sudirman Baru","transit":false,"line":1,"time":1,"is_transit":false,"i_long":106.819881,"distance":280},{"is_transit":false,"transit":false,"time":1,"i_long":106.816351,"station_name":"Karet","i_lat":-6.20132,"station_id":"KAT","line":1,"distance":471},{"station_id":"THB","time":5,"i_long":106.811091,"transit":true,"line":1,"i_lat":-6.185545,"is_transit":true,"distance":2029,"station_name":"Tanah Abang"},{"station_id":"PLM","is_transit":false,"line":6,"i_long":106.79689,"transit":false,"i_lat":-6.207404,"distance":3191,"station_name":"Palmerah","time":6},{"i_long":106.780334,"time":7,"i_lat":-6.237242,"line":6,"station_id":"KBY","transit":false,"is_transit":false,"distance":3737,"station_name":"Kebayoran"},{"i_long":106.74273,"is_transit":false,"station_name":"Pondokranji","line":6,"i_lat":-6.276362,"distance":6218,"time":8,"transit":false,"station_id":"PDJ"},{"station_name":"Jurangmangu","i_lat":-6.288927,"i_long":106.728916,"time":3,"line":6,"transit":false,"is_transit":false,"distance":2179,"station_id":"JMU"},{"is_transit":false,"i_lat":-6.296963,"transit":false,"time":4,"line":6,"station_name":"Sudimara","distance":1994,"station_id":"SDM","i_long":106.712277},{"i_long":106.675475,"is_transit":false,"distance":4566,"station_name":"Rawa Buntu","station_id":"RU","line":6,"transit":false,"i_lat":-6.314823,"time":6},{"i_lat":-6.319871,"i_long":106.66566,"line":6,"time":4,"transit":false,"station_name":"Serpong","station_id":"SRP","is_transit":false,"distance":2413},{"is_transit":false,"time":4,"line":0,"i_lat":-6.32484,"transit":false,"station_name":"Cisauk","station_id":"CSK","i_long":106.640411,"distance":1784},{"i_long":106.617853,"is_transit":false,"station_id":"CC","i_lat":-6.329547,"time":4,"transit":false,"line":0,"distance":2519,"station_name":"Cicayur"},{"i_long":106.568863,"i_lat":-6.3441410000000005,"line":6,"distance":5968,"transit":false,"station_id":"PRP","station_name":"Parung Panjang","time":8,"is_transit":false},{"time":9,"station_name":"Cilejit","i_long":106.508482,"is_transit":false,"transit":false,"station_id":"CJT","distance":7025,"line":0,"i_lat":-6.354349},{"transit":false,"station_id":"DAR","station_name":"Daru","is_transit":false,"i_long":106.491338,"time":6,"line":0,"distance":2675,"i_lat":-6.338021}],[{"is_transit":false,"distance":0,"transit":false,"station_name":"Batuceper","station_id":"BPR","line":0,"i_lat":-6.171811,"i_long":106.665036,"time":0},{"time":3,"i_lat":-6.169933,"line":5,"transit":false,"i_long":106.679458,"station_name":"Poris","is_transit":false,"distance":1834,"station_id":"PI"},{"transit":false,"i_lat":-6.166068,"is_transit":false,"station_id":"KDS","time":3,"distance":2548,"station_name":"Kalideres","i_long":106.701612,"line":5},{"station_name":"Rawa Buaya","time":3,"i_long":106.723064,"transit":false,"distance":2504,"is_transit":false,"station_id":"RW","i_lat":-6.162758,"line":5},{"i_long":106.737035,"i_lat":-6.159876,"station_name":"Bojongindah","time":4,"distance":1152,"line":0,"is_transit":false,"station_id":"BOI","transit":false},{"station_name":"Taman Kota","station_id":"TKO","i_long":106.756522,"distance":2334,"line":5,"transit":false,"time":2,"i_lat":-6.1587309999999995,"is_transit":false},{"transit":false,"i_lat":-6.161433,"line":5,"time":2,"station_id":"PSG","station_name":"Pesing","i_long":106.771379,"is_transit":false,"distance":1614},{"distance":2036,"time":2,"i_long":106.788277,"i_lat":-6.162021,"is_transit":false,"line":5,"station_name":"Grogol","transit":false,"station_id":"GGL"},{"time":3,"distance":1700,"transit":true,"i_lat":-6.155215,"line":1,"station_id":"DU","i_long":106.800832,"station_name":"Duri","is_transit":true},{"transit":false,"i_long":106.79867,"distance":1230,"station_name":"Angke","i_lat":-6.144674,"line":0,"is_transit":false,"time":4,"station_id":"AK"},{"line":0,"station_id":"KPB","is_transit":true,"station_name":"Kampung Bandan","i_long":106.826365,"time":9,"distance":4102,"transit":true,"i_lat":-6.132549},{"i_long":106.836569,"line":11,"transit":false,"station_name":"Rajawali","station_id":"RJW","is_transit":false,"distance":1444,"time":3,"i_lat":-6.14505},{"time":5,"i_lat":-6.161728,"distance":1901,"station_id":"KMO","line":11,"is_transit":false,"station_name":"Kemayoran","transit":false,"i_long":106.839204},{"line":11,"is_transit":false,"station_name":"Pasar Senen","time":4,"i_lat":-6.174784,"i_long":106.84368,"transit":false,"distance":1436,"station_id":"PSE"},{"station_name":"Gang Sentiong","station_id":"GST","is_transit":false,"distance":1567,"i_lat":-6.185975,"i_long":106.850107,"transit":false,"line":11,"time":8},{"time":1,"i_long":106.855437,"distance":973,"transit":false,"i_lat":-6.193792,"line":11,"station_id":"KMT","station_name":"Kramat","is_transit":false},{"i_long":106.861737,"transit":false,"station_name":"Pondok Jati","time":2,"line":11,"station_id":"POK","is_transit":false,"i_lat":-6.209188,"distance":1829},{"time":9,"distance":1236,"i_lat":-6.215091,"i_long":106.86807400000001,"transit":true,"is_transit":true,"line":0,"station_name":"Jatinegara","station_id":"JNG"},{"station_name":"Matraman","station_id":"MTR","is_transit":false,"i_long":106.858896,"transit":false,"distance":1377,"line":1,"time":2,"i_lat":-6.212485},{"is_transit":true,"line":0,"time":2,"i_long":106.84912,"station_name":"Manggarai","station_id":"MRI","distance":1275,"transit":false,"i_lat":-6.209883},{"transit":false,"i_lat":-6.202263,"is_transit":false,"distance":3186,"station_id":"SUD","time":4,"station_name":"Sudirman","line":1,"i_long":106.822649},{"transit":false,"is_transit":false,"distance":280,"station_name":"Sudirman Baru","i_long":106.819881,"time":1,"station_id":"SUDB","line":1,"i_lat":-6.201433},{"line":1,"i_long":106.816351,"time":1,"is_transit":false,"station_name":"Karet","distance":471,"transit":false,"i_lat":-6.20132,"station_id":"KAT"},{"station_id":"THB","transit":true,"distance":2029,"line":1,"is_transit":true,"station_name":"Tanah Abang","time":5,"i_lat":-6.185545,"i_long":106.811091},{"line":6,"time":6,"distance":3191,"i_lat":-6.207404,"i_long":106.79689,"transit":false,"is_transit":false,"station_name":"Palmerah","station_id":"PLM"},{"i_long":106.780334,"line":6,"distance":3737,"is_transit":false,"transit":false,"time":7,"station_name":"Kebayoran","station_id":"KBY","i_lat":-6.237242},{"time":8,"transit":false,"station_name":"Pondokranji","i_long":106.74273,"station_id":"PDJ","i_lat":-6.276362,"line":6,"is_transit":false,"distance":6218},{"time":3,"line":6,"is_transit":false,"i_long":106.728916,"station_id":"JMU","distance":2179,"i_lat":-6.288927,"station_name":"Jurangmangu","transit":false},{"line":6,"is_transit":false,"transit":false,"distance":1994,"i_long":106.712277,"time":4,"station_id":"SDM","station_name":"Sudimara","i_lat":-6.296963},{"line":6,"i_lat":-6.314823,"transit":false,"i_long":106.675475,"station_name":"Rawa Buntu","time":6,"distance":4566,"is_transit":false,"station_id":"RU"},{"station_id":"SRP","time":4,"transit":false,"is_transit":false,"i_long":106.66566,"line":6,"distance":2413,"i_lat":-6.319871,"station_name":"Serpong"},{"distance":1784,"line":0,"is_transit":false,"transit":false,"station_id":"CSK","i_long":106.640411,"time":4,"station_name":"Cisauk","i_lat":-6.32484},{"transit":false,"distance":2519,"i_lat":-6.329547,"time":4,"station_id":"CC","line":0,"station_name":"Cicayur","is_transit":false,"i_long":106.617853},{"i_long":106.568863,"time":8,"transit":false,"is_transit":false,"line":6,"distance":5968,"station_id":"PRP","station_name":"Parung Panjang","i_lat":-6.3441410000000005},{"line":0,"transit":false,"distance":7025,"is_transit":false,"time":9,"station_name":"Cilejit","station_id":"CJT","i_lat":-6.354349,"i_long":106.508482},{"is_transit":false,"line":0,"transit":false,"station_name":"Daru","station_id":"DAR","distance":2675,"i_lat":-6.338021,"time":6,"i_long":106.491338}]]}