{"data":[[{"distance":0,"time":0,"transit":false,"i_long":106.665036,"is_transit":false,"station_id":"BPR","station_name":"Batuceper","i_lat":-6.171811,"line":5},{"time":3,"is_transit":false,"i_lat":-6.169933,"distance":1834,"i_long":106.679458,"transit":false,"station_name":"Poris","line":5,"station_id":"PI"},{"line":5,"i_lat":-6.166068,"station_name":"Kalideres","distance":2548,"time":3,"is_transit":false,"transit":false,"station_id":"KDS","i_long":106.701612},{"i_long":106.723064,"time":3,"distance":2504,"station_name":"Rawa Buaya","transit":false,"station_id":"RW","is_transit":false,"i_lat":-6.162758,"line":5},{"distance":1152,"line":5,"i_long":106.737035,"is_transit":false,"station_name":"Bojongindah","time":4,"transit":false,"i_lat":-6.159876,"station_id":"BOI"},{"station_id":"TKO","time":2,"i_long":106.756522,"is_transit":false,"station_name":"Taman Kota","transit":false,"distance":2334,"i_lat":-6.1587309999999995,"line":5},{"is_transit":false,"transit":false,"line":5,"station_name":"Pesing","i_long":106.771379,"time":2,"i_lat":-6.161433,"station_id":"PSG","distance":1614},{"time":2,"i_long":106.788277,"distance":2036,"transit":false,"i_lat":-6.162021,"is_transit":false,"station_id":"GGL","line":5,"station_name":"Grogol"},{"station_name":"Duri","time":3,"distance":1700,"line":1,"station_id":"DU","is_transit":true,"transit":true,"i_lat":-6.155215,"i_long":106.800832},{"station_name":"Angke","distance":1230,"station_id":"AK","time":4,"i_lat":-6.144674,"line":1,"i_long":106.79867,"transit":false,"is_transit":false},{"is_transit":true,"i_long":106.826365,"line":4,"i_lat":-6.132549,"station_name":"Kampung Bandan","station_id":"KPB","distance":4102,"time":9,"transit":true},{"is_transit":false,"i_lat":-6.14505,"station_id":"RJW","distance":1444,"line":11,"time":3,"station_name":"Rajawali","i_long":106.836569,"transit":false},{"is_transit":false,"station_name":"Kemayoran","station_id":"KMO","i_lat":-6.161728,"line":11,"distance":1901,"time":5,"transit":false,"i_long":106.839204},{"station_name":"Pasar Senen","distance":1436,"line":11,"i_long":106.84368,"i_lat":-6.174784,"transit":false,"station_id":"PSE","time":4,"is_transit":false},{"i_lat":-6.185975,"station_name":"Gang Sentiong","line":11,"is_transit":false,"i_long":106.850107,"station_id":"GST","time":8,"distance":1567,"transit":false}],[{"transit":false,"time":0,"station_id":"BPR","is_transit":false,"i_lat":-6.171811,"line":5,"distance":0,"station_name":"Batuceper","i_long":106.665036},{"distance":1834,"station_id":"PI","transit":false,"i_lat":-6.169933,"i_long":106.679458,"station_name":"Poris","line":5,"time":3,"is_transit":false},{"station_name":"Kalideres","i_long":106.701612,"i_lat":-6.166068,"line":5,"transit":false,"station_id":"KDS","time":3,"is_transit":false,"distance":2548},{"distance":2504,"i_lat":-6.162758,"station_id":"RW","time":3,"transit":false,"is_transit":false,"i_long":106.723064,"station_name":"Rawa Buaya","line":5},{"line":5,"time":4,"station_name":"Bojongindah","distance":1152,"i_lat":-6.159876,"i_long":106.737035,"transit":false,"station_id":"BOI","is_transit":false},{"distance":2334,"line":5,"station_id":"TKO","is_transit":false,"station_name":"Taman Kota","i_lat":-6.1587309999999995,"transit":false,"time":2,"i_long":106.756522},{"time":2,"i_lat":-6.161433,"i_long":106.771379,"station_id":"PSG","distance":1614,"station_name":"Pesing","transit":false,"is_transit":false,"line":5},{"i_lat":-6.162021,"station_id":"GGL","station_name":"Grogol","transit":false,"distance":2036,"is_transit":false,"line":5,"time":2,"i_long":106.788277},{"distance":1700,"transit":true,"time":3,"station_id":"DU","line":1,"station_name":"Duri","is_transit":true,"i_lat":-6.155215,"i_long":106.800832},{"transit":false,"is_transit":false,"i_lat":-6.185545,"station_name":"Tanah Abang","station_id":"THB","distance":3632,"line":1,"i_long":106.811091,"time":8},{"distance":2029,"i_long":106.816351,"i_lat":-6.20132,"line":1,"is_transit":false,"time":5,"transit":false,"station_name":"Karet","station_id":"KAT"},{"station_name":"Sudirman Baru","station_id":"SUDB","i_long":106.819881,"time":1,"is_transit":false,"distance":471,"line":1,"i_lat":-6.201433,"transit":false},{"distance":280,"i_long":106.822649,"line":1,"transit":false,"station_id":"SUD","station_name":"Sudirman","is_transit":false,"i_lat":-6.202263,"time":1},{"transit":false,"is_transit":false,"i_lat":-6.209883,"distance":3186,"i_long":106.84912,"station_name":"Manggarai","time":4,"line":2,"station_id":"MRI"},{"station_name":"Matraman","station_id":"MTR","i_long":106.858896,"line":1,"i_lat":-6.212485,"is_transit":false,"time":2,"transit":false,"distance":1275},{"distance":1377,"line":1,"time":8,"station_name":"Jatinegara","i_long":106.86807400000001,"station_id":"JNG","i_lat":-6.215091,"transit":true,"is_transit":true},{"is_transit":false,"i_long":106.861737,"i_lat":-6.209188,"distance":1236,"time":2,"line":11,"station_name":"Pondok Jati","transit":false,"station_id":"POK"},{"i_long":106.855437,"station_name":"Kramat","distance":1829,"is_transit":false,"transit":false,"time":2,"i_lat":-6.193792,"line":11,"station_id":"KMT"},{"is_transit":false,"i_lat":-6.185975,"station_name":"Gang Sentiong","transit":false,"line":11,"i_long":106.850107,"station_id":"GST","time":1,"distance":973}],[{"transit":false,"i_long":106.665036,"station_id":"BPR","time":0,"is_transit":false,"distance":0,"station_name":"Batuceper","i_lat":-6.171811,"line":5},{"station_name":"Poris","station_id":"PI","i_long":106.679458,"line":5,"time":3,"i_lat":-6.169933,"is_transit":false,"distance":1834,"transit":false},{"transit":false,"time":3,"distance":2548,"station_name":"Kalideres","i_long":106.701612,"i_lat":-6.166068,"line":5,"is_transit":false,"station_id":"KDS"},{"i_lat":-6.162758,"time":3,"transit":false,"line":5,"i_long":106.723064,"station_name":"Rawa Buaya","station_id":"RW","distance":2504,"is_transit":false},{"station_id":"BOI","station_name":"Bojongindah","is_transit":false,"i_lat":-6.159876,"distance":1152,"time":4,"transit":false,"i_long":106.737035,"line":5},{"station_name":"Taman Kota","transit":false,"station_id":"TKO","i_lat":-6.1587309999999995,"line":5,"distance":2334,"is_transit":false,"i_long":106.756522,"time":2},{"i_lat":-6.161433,"line":5,"time":2,"is_transit":false,"station_id":"PSG","distance":1614,"station_name":"Pesing","i_long":106.771379,"transit":false},{"i_lat":-6.162021,"line":5,"transit":false,"distance":2036,"station_id":"GGL","is_transit":false,"i_long":106.788277,"time":2,"station_name":"Grogol"},{"i_lat":-6.155215,"station_id":"DU","i_long":106.800832,"line":1,"station_name":"Duri","distance":1700,"time":3,"is_transit":true,"transit":true},{"distance":1230,"station_id":"AK","time":4,"i_long":106.79867,"is_transit":false,"line":1,"station_name":"Angke","transit":false,"i_lat":-6.144674},{"i_long":106.826365,"distance":4102,"station_name":"Kampung Bandan","line":4,"is_transit":true,"station_id":"KPB","time":9,"i_lat":-6.132549,"transit":true},{"station_id":"JAKK","is_transit":true,"i_long":106.812439,"line":2,"station_name":"Jakarta Kota","time":3,"distance":1364,"transit":true,"i_lat":-6.137569},{"time":4,"transit":false,"is_transit":false,"station_name":"Jayakarta","i_lat":-6.141205,"line":2,"station_id":"JAY","distance":1264,"i_long":106.820901},{"distance":1080,"line":2,"station_name":"Manggabesar","time":2,"transit":false,"station_id":"MGB","i_long":106.82482,"is_transit":false,"i_lat":-6.149769},{"distance":906,"transit":false,"i_long":106.827103,"station_name":"Sawah Besar","station_id":"SW","line":2,"is_transit":false,"i_lat":-6.160725,"time":2},{"distance":1149,"i_lat":-6.166716,"station_name":"Juanda","i_long":106.828284,"transit":false,"station_id":"JUA","time":2,"is_transit":false,"line":2},{"is_transit":false,"i_long":106.832183,"distance":2015,"station_id":"GDD","time":4,"line":2,"i_lat":-6.186295,"transit":false,"station_name":"Gondangdia"},{"distance":1750,"transit":false,"line":2,"station_name":"Cikini","is_transit":false,"i_lat":-6.198556,"time":3,"i_long":106.840169,"station_id":"CKI"},{"i_long":106.84912,"station_id":"MRI","station_name":"Manggarai","time":4,"is_transit":true,"distance":1590,"transit":true,"i_lat":-6.209883,"line":2},{"station_id":"MTR","station_name":"Matraman","i_long":106.858896,"distance":1275,"time":2,"transit":false,"is_transit":false,"line":1,"i_lat":-6.212485},{"station_id":"JNG","i_lat":-6.215091,"line":1,"transit":true,"time":8,"distance":1377,"is_transit":true,"station_name":"Jatinegara","i_long":106.86807400000001},{"transit":false,"is_transit":false,"i_lat":-6.209188,"distance":1236,"station_name":"Pondok Jati","station_id":"POK","time":2,"i_long":106.861737,"line":11},{"is_transit":false,"i_long":106.855437,"time":2,"station_id":"KMT","i_lat":-6.193792,"line":11,"transit":false,"station_name":"Kramat","distance":1829},{"i_lat":-6.185975,"i_long":106.850107,"station_id":"GST","is_transit":false,"station_name":"Gang Sentiong","distance":973,"time":1,"line":11,"transit":false}],[{"distance":0,"is_transit":false,"i_lat":-6.171811,"station_id":"BPR","station_name":"Batuceper","time":0,"transit":false,"i_long":106.665036,"line":5},{"transit":false,"line":5,"i_lat":-6.169933,"station_name":"Poris","i_long":106.679458,"is_transit":false,"distance":1834,"station_id":"PI","time":3},{"i_long":106.701612,"transit":false,"is_transit":false,"time":3,"station_name":"Kalideres","station_id":"KDS","distance":2548,"i_lat":-6.166068,"line":5},{"station_id":"RW","transit":false,"is_transit":false,"distance":2504,"time":3,"i_long":106.723064,"line":5,"station_name":"Rawa Buaya","i_lat":-6.162758},{"is_transit":false,"station_id":"BOI","i_lat":-6.159876,"time":4,"station_name":"Bojongindah","line":5,"distance":1152,"transit":false,"i_long":106.737035},{"transit":false,"i_lat":-6.1587309999999995,"line":5,"station_id":"TKO","is_transit":false,"i_long":106.756522,"distance":2334,"station_name":"Taman Kota","time":2},{"line":5,"station_name":"Pesing","i_long":106.771379,"is_transit":false,"i_lat":-6.161433,"time":2,"distance":1614,"transit":false,"station_id":"PSG"},{"i_lat":-6.162021,"transit":false,"line":5,"i_long":106.788277,"station_name":"Grogol","time":2,"distance":2036,"station_id":"GGL","is_transit":false},{"i_long":106.800832,"transit":true,"time":3,"i_lat":-6.155215,"station_id":"DU","distance":1700,"station_name":"Duri","is_transit":true,"line":1},{"distance":3632,"station_name":"Tanah Abang","station_id":"THB","transit":false,"time":8,"is_transit":false,"i_long":106.811091,"line":1,"i_lat":-6.185545},{"i_long":106.816351,"transit":false,"i_lat":-6.20132,"station_id":"KAT","distance":2029,"station_name":"Karet","is_transit":false,"line":1,"time":5},{"i_long":106.819881,"line":1,"station_name":"Sudirman Baru","is_transit":false,"distance":471,"transit":false,"i_lat":-6.201433,"station_id":"SUDB","time":1},{"line":1,"i_lat":-6.202263,"time":1,"station_name":"Sudirman","station_id":"SUD","is_transit":false,"i_long":106.822649,"distance":280,"transit":false},{"station_name":"Manggarai","line":2,"station_id":"MRI","time":4,"transit":true,"is_transit":true,"i_long":106.84912,"distance":3186,"i_lat":-6.209883},{"distance":1590,"station_id":"CKI","i_long":106.840169,"transit":false,"time":4,"is_transit":false,"i_lat":-6.198556,"line":2,"station_name":"Cikini"},{"line":2,"station_name":"Gondangdia","i_lat":-6.186295,"distance":1750,"transit":false,"is_transit":false,"station_id":"GDD","time":3,"i_long":106.832183},{"i_lat":-6.166716,"transit":false,"station_name":"Juanda","distance":2015,"is_transit":false,"time":4,"line":2,"station_id":"JUA","i_long":106.828284},{"is_transit":false,"distance":1149,"time":2,"i_long":106.827103,"transit":false,"station_id":"SW","line":2,"station_name":"Sawah Besar","i_lat":-6.160725},{"i_long":106.82482,"distance":906,"line":2,"station_name":"Manggabesar","is_transit":false,"transit":false,"time":2,"station_id":"MGB","i_lat":-6.149769},{"station_id":"JAY","station_name":"Jayakarta","time":2,"i_lat":-6.141205,"transit":false,"i_long":106.820901,"distance":1080,"line":2,"is_transit":false},{"station_name":"Jakarta Kota","i_long":106.812439,"transit":true,"is_transit":true,"station_id":"JAKK","distance":1264,"i_lat":-6.137569,"time":4,"line":2},{"i_long":106.826365,"time":3,"line":4,"is_transit":true,"i_lat":-6.132549,"station_id":"KPB","transit":true,"distance":1364,"station_name":"Kampung Bandan"},{"station_name":"Rajawali","distance":1444,"time":3,"transit":false,"line":11,"i_long":106.836569,"is_transit":false,"i_lat":-6.14505,"station_id":"RJW"},{"time":5,"i_long":106.839204,"line":11,"is_transit":false,"station_id":"KMO","transit":false,"station_name":"Kemayoran","i_lat":-6.161728,"distance":1901},{"transit":false,"station_id":"PSE","is_transit":false,"i_long":106.84368,"distance":1436,"time":4,"station_name":"Pasar Senen","line":11,"i_lat":-6.174784},{"i_long":106.850107,"station_name":"Gang Sentiong","transit":false,"station_id":"GST","i_lat":-6.185975,"time":8,"distance":1567,"is_transit":false,"line":11}]]}