{"data":[[{"i_lat":-6.171811,"i_long":106.665036,"line":5,"station_id":"BPR","distance":0,"is_transit":false,"transit":false,"time":0,"station_name":"Batuceper"},{"station_id":"PI","is_transit":false,"distance":1834,"i_lat":-6.169933,"i_long":106.679458,"time":3,"station_name":"Poris","transit":false,"line":5},{"transit":false,"i_long":106.701612,"distance":2548,"is_transit":false,"i_lat":-6.166068,"time":3,"station_id":"KDS","line":5,"station_name":"Kalideres"},{"station_id":"RW","time":3,"i_long":106.723064,"is_transit":false,"transit":false,"station_name":"Rawa Buaya","line":5,"distance":2504,"i_lat":-6.162758},{"transit":false,"station_id":"BOI","i_long":106.737035,"line":5,"i_lat":-6.159876,"distance":1152,"time":4,"station_name":"Bojongindah","is_transit":false},{"i_long":106.756522,"time":2,"distance":2334,"is_transit":false,"transit":false,"line":5,"station_id":"TKO","i_lat":-6.1587309999999995,"station_name":"Taman Kota"},{"transit":false,"station_id":"PSG","line":5,"station_name":"Pesing","i_lat":-6.161433,"i_long":106.771379,"is_transit":false,"time":2,"distance":1614},{"time":2,"station_id":"GGL","distance":2036,"i_long":106.788277,"is_transit":false,"line":5,"transit":false,"i_lat":-6.162021,"station_name":"Grogol"},{"station_id":"DU","station_name":"Duri","line":1,"distance":1700,"is_transit":true,"i_long":106.800832,"time":3,"i_lat":-6.155215,"transit":true},{"i_long":106.811091,"distance":3632,"station_name":"Tanah Abang","transit":false,"station_id":"THB","is_transit":false,"line":1,"time":8,"i_lat":-6.185545},{"i_long":106.816351,"i_lat":-6.20132,"station_id":"KAT","line":1,"time":5,"distance":2029,"station_name":"Karet","is_transit":false,"transit":false},{"time":1,"transit":false,"i_long":106.819881,"station_name":"Sudirman Baru","line":1,"i_lat":-6.201433,"station_id":"SUDB","is_transit":false,"distance":471},{"station_name":"Sudirman","is_transit":false,"station_id":"SUD","transit":false,"distance":280,"time":1,"i_lat":-6.202263,"line":1,"i_long":106.822649},{"is_transit":true,"transit":true,"i_lat":-6.209883,"line":2,"i_long":106.84912,"station_name":"Manggarai","distance":3186,"station_id":"MRI","time":4},{"station_id":"TEB","transit":false,"time":4,"distance":2610,"i_long":106.857948,"station_name":"Tebet","line":2,"is_transit":false,"i_lat":-6.226659},{"station_name":"Cawang","i_lat":-6.242512,"line":2,"station_id":"CW","time":2,"distance":1230,"transit":false,"is_transit":false,"i_long":106.856607},{"station_id":"DRN","i_lat":-6.255332,"time":3,"distance":1546,"station_name":"Duren Kalibata","line":2,"transit":false,"is_transit":false,"i_long":106.85449},{"line":2,"time":2,"is_transit":false,"distance":824,"station_id":"PSMB","i_lat":-6.263214,"transit":false,"i_long":106.851577,"station_name":"Pasar Minggu Baru"},{"is_transit":false,"i_long":106.843999,"i_lat":-6.2842400000000005,"transit":false,"distance":2380,"station_id":"PSM","time":2,"line":2,"station_name":"Pasar Minggu"},{"i_long":106.838896,"is_transit":false,"station_id":"TNT","line":2,"i_lat":-6.3080680000000005,"transit":false,"time":4,"station_name":"Tanjung Barat","distance":2820},{"i_lat":-6.330363,"line":2,"station_id":"LNA","time":3,"is_transit":false,"distance":2671,"station_name":"Lenteng Agung","transit":false,"i_long":106.832616},{"time":2,"transit":false,"station_id":"UP","distance":1029,"station_name":"Univ. Pancasila","is_transit":false,"i_lat":-6.339291,"line":2,"i_long":106.834175},{"i_lat":-6.360749,"i_long":106.831474,"distance":2264,"is_transit":false,"line":2,"time":3,"station_name":"Univ. Indonesia","transit":false,"station_id":"UI"},{"line":2,"distance":1109,"is_transit":false,"time":2,"station_name":"Pondok Cina","i_long":106.831114,"station_id":"POC","transit":false,"i_lat":-6.369073},{"i_lat":-6.391065,"station_name":"Depokbaru","distance":2727,"is_transit":false,"line":2,"time":4,"i_long":106.819451,"transit":false,"station_id":"DPB"},{"i_lat":-6.405256,"distance":1584,"station_name":"Depok","i_long":106.816926,"transit":false,"station_id":"DP","is_transit":false,"time":3,"line":2},{"station_id":"CTA","line":2,"station_name":"Citayam","is_transit":false,"distance":5084,"time":6,"i_long":106.800298,"transit":false,"i_lat":-6.448811},{"transit":false,"distance":5197,"line":2,"station_id":"BJD","station_name":"Bojonggede","is_transit":false,"i_lat":-6.493243,"time":5,"i_long":106.792719}],[{"is_transit":false,"station_id":"BPR","time":0,"station_name":"Batuceper","transit":false,"distance":0,"i_long":106.665036,"line":5,"i_lat":-6.171811},{"station_id":"PI","line":5,"distance":1834,"station_name":"Poris","i_long":106.679458,"transit":false,"is_transit":false,"i_lat":-6.169933,"time":3},{"distance":2548,"i_long":106.701612,"station_name":"Kalideres","is_transit":false,"i_lat":-6.166068,"transit":false,"time":3,"station_id":"KDS","line":5},{"i_lat":-6.162758,"station_id":"RW","i_long":106.723064,"time":3,"transit":false,"distance":2504,"line":5,"is_transit":false,"station_name":"Rawa Buaya"},{"station_name":"Bojongindah","is_transit":false,"i_lat":-6.159876,"i_long":106.737035,"line":5,"distance":1152,"time":4,"station_id":"BOI","transit":false},{"station_id":"TKO","i_long":106.756522,"line":5,"time":2,"transit":false,"station_name":"Taman Kota","is_transit":false,"distance":2334,"i_lat":-6.1587309999999995},{"distance":1614,"line":5,"station_name":"Pesing","i_lat":-6.161433,"transit":false,"i_long":106.771379,"is_transit":false,"time":2,"station_id":"PSG"},{"time":2,"i_long":106.788277,"station_name":"Grogol","distance":2036,"is_transit":false,"transit":false,"station_id":"GGL","i_lat":-6.162021,"line":5},{"i_lat":-6.155215,"transit":true,"distance":1700,"line":1,"is_transit":true,"i_long":106.800832,"station_name":"Duri","time":3,"station_id":"DU"},{"line":1,"station_id":"AK","i_long":106.79867,"transit":false,"is_transit":false,"time":4,"distance":1230,"station_name":"Angke","i_lat":-6.144674},{"station_name":"Kampung Bandan","transit":true,"time":9,"station_id":"KPB","i_long":106.826365,"line":4,"is_transit":true,"distance":4102,"i_lat":-6.132549},{"transit":true,"i_lat":-6.137569,"i_long":106.812439,"time":3,"is_transit":true,"distance":1364,"station_id":"JAKK","line":2,"station_name":"Jakarta Kota"},{"station_name":"Jayakarta","station_id":"JAY","i_lat":-6.141205,"distance":1264,"time":4,"is_transit":false,"line":2,"i_long":106.820901,"transit":false},{"is_transit":false,"time":2,"transit":false,"station_name":"Manggabesar","i_long":106.82482,"line":2,"distance":1080,"station_id":"MGB","i_lat":-6.149769},{"station_id":"SW","time":2,"line":2,"is_transit":false,"distance":906,"station_name":"Sawah Besar","i_lat":-6.160725,"i_long":106.827103,"transit":false},{"line":2,"transit":false,"i_lat":-6.166716,"time":2,"i_long":106.828284,"distance":1149,"is_transit":false,"station_id":"JUA","station_name":"Juanda"},{"i_lat":-6.186295,"transit":false,"distance":2015,"line":2,"is_transit":false,"time":4,"station_id":"GDD","station_name":"Gondangdia","i_long":106.832183},{"station_id":"CKI","time":3,"station_name":"Cikini","distance":1750,"is_transit":false,"i_long":106.840169,"line":2,"transit":false,"i_lat":-6.198556},{"i_long":106.84912,"time":4,"line":2,"distance":1590,"station_name":"Manggarai","is_transit":false,"i_lat":-6.209883,"station_id":"MRI","transit":false},{"distance":2610,"station_name":"Tebet","is_transit":false,"i_long":106.857948,"line":2,"transit":false,"i_lat":-6.226659,"time":4,"station_id":"TEB"},{"i_lat":-6.242512,"station_name":"Cawang","is_transit":false,"line":2,"distance":1230,"time":2,"transit":false,"station_id":"CW","i_long":106.856607},{"station_name":"Duren Kalibata","i_long":106.85449,"time":3,"station_id":"DRN","distance":1546,"is_transit":false,"i_lat":-6.255332,"transit":false,"line":2},{"station_name":"Pasar Minggu Baru","distance":824,"is_transit":false,"transit":false,"station_id":"PSMB","i_lat":-6.263214,"i_long":106.851577,"time":2,"line":2},{"transit":false,"is_transit":false,"i_long":106.843999,"station_id":"PSM","time":2,"distance":2380,"i_lat":-6.2842400000000005,"station_name":"Pasar Minggu","line":2},{"distance":2820,"i_lat":-6.3080680000000005,"time":4,"is_transit":false,"i_long":106.838896,"transit":false,"station_id":"TNT","station_name":"Tanjung Barat","line":2},{"i_lat":-6.330363,"station_id":"LNA","station_name":"Lenteng Agung","line":2,"is_transit":false,"i_long":106.832616,"transit":false,"time":3,"distance":2671},{"i_long":106.834175,"station_id":"UP","line":2,"transit":false,"distance":1029,"station_name":"Univ. Pancasila","time":2,"is_transit":false,"i_lat":-6.339291},{"transit":false,"station_id":"UI","station_name":"Univ. Indonesia","is_transit":false,"i_lat":-6.360749,"time":3,"distance":2264,"i_long":106.831474,"line":2},{"station_name":"Pondok Cina","i_long":106.831114,"line":2,"station_id":"POC","is_transit":false,"time":2,"i_lat":-6.369073,"distance":1109,"transit":false},{"distance":2727,"line":2,"time":4,"station_name":"Depokbaru","i_lat":-6.391065,"i_long":106.819451,"is_transit":false,"station_id":"DPB","transit":false},{"transit":false,"station_id":"DP","station_name":"Depok","line":2,"distance":1584,"i_lat":-6.405256,"i_long":106.816926,"time":3,"is_transit":false},{"time":6,"line":2,"transit":false,"i_long":106.800298,"station_name":"Citayam","distance":5084,"station_id":"CTA","is_transit":false,"i_lat":-6.448811},{"i_long":106.792719,"i_lat":-6.493243,"line":2,"transit":false,"distance":5197,"time":5,"station_name":"Bojonggede","station_id":"BJD","is_transit":false}],[{"i_long":106.665036,"distance":0,"transit":false,"station_id":"BPR","is_transit":false,"i_lat":-6.171811,"time":0,"station_name":"Batuceper","line":5},{"distance":1834,"station_name":"Poris","station_id":"PI","time":3,"i_lat":-6.169933,"i_long":106.679458,"transit":false,"is_transit":false,"line":5},{"i_lat":-6.166068,"is_transit":false,"station_id":"KDS","i_long":106.701612,"time":3,"distance":2548,"line":5,"station_name":"Kalideres","transit":false},{"station_id":"RW","i_lat":-6.162758,"transit":false,"distance":2504,"is_transit":false,"i_long":106.723064,"line":5,"station_name":"Rawa Buaya","time":3},{"distance":1152,"is_transit":false,"i_long":106.737035,"transit":false,"time":4,"line":5,"i_lat":-6.159876,"station_id":"BOI","station_name":"Bojongindah"},{"line":5,"transit":false,"distance":2334,"station_id":"TKO","station_name":"Taman Kota","i_lat":-6.1587309999999995,"is_transit":false,"i_long":106.756522,"time":2},{"station_id":"PSG","i_long":106.771379,"transit":false,"line":5,"i_lat":-6.161433,"station_name":"Pesing","is_transit":false,"distance":1614,"time":2},{"line":5,"i_lat":-6.162021,"time":2,"i_long":106.788277,"station_name":"Grogol","transit":false,"station_id":"GGL","is_transit":false,"distance":2036},{"is_transit":true,"station_id":"DU","station_name":"Duri","i_lat":-6.155215,"line":1,"time":3,"distance":1700,"i_long":106.800832,"transit":true},{"i_long":106.79867,"is_transit":false,"transit":false,"station_id":"AK","i_lat":-6.144674,"line":1,"distance":1230,"time":4,"station_name":"Angke"},{"i_long":106.826365,"station_name":"Kampung Bandan","i_lat":-6.132549,"line":4,"distance":4102,"station_id":"KPB","time":9,"transit":true,"is_transit":true},{"i_long":106.836569,"transit":false,"is_transit":false,"time":3,"line":11,"distance":1444,"i_lat":-6.14505,"station_id":"RJW","station_name":"Rajawali"},{"station_name":"Kemayoran","time":5,"i_lat":-6.161728,"distance":1901,"line":11,"transit":false,"is_transit":false,"station_id":"KMO","i_long":106.839204},{"station_name":"Pasar Senen","i_long":106.84368,"transit":false,"i_lat":-6.174784,"is_transit":false,"time":4,"station_id":"PSE","line":11,"distance":1436},{"station_id":"GST","transit":false,"time":8,"i_lat":-6.185975,"is_transit":false,"i_long":106.850107,"distance":1567,"station_name":"Gang Sentiong","line":11},{"line":11,"station_name":"Kramat","station_id":"KMT","transit":false,"time":1,"i_lat":-6.193792,"is_transit":false,"i_long":106.855437,"distance":973},{"i_long":106.861737,"distance":1829,"station_name":"Pondok Jati","station_id":"POK","line":11,"transit":false,"i_lat":-6.209188,"time":2,"is_transit":false},{"transit":true,"time":9,"distance":1236,"i_lat":-6.215091,"line":1,"i_long":106.86807400000001,"station_id":"JNG","station_name":"Jatinegara","is_transit":true},{"i_long":106.858896,"is_transit":false,"transit":false,"station_id":"MTR","distance":1377,"time":2,"station_name":"Matraman","i_lat":-6.212485,"line":1},{"line":2,"i_long":106.84912,"station_id":"MRI","distance":1275,"is_transit":true,"station_name":"Manggarai","transit":true,"time":2,"i_lat":-6.209883},{"station_id":"TEB","is_transit":false,"i_long":106.857948,"distance":2610,"time":4,"line":2,"transit":false,"station_name":"Tebet","i_lat":-6.226659},{"distance":1230,"line":2,"is_transit":false,"transit":false,"i_long":106.856607,"station_name":"Cawang","station_id":"CW","time":2,"i_lat":-6.242512},{"i_lat":-6.255332,"line":2,"i_long":106.85449,"time":3,"station_name":"Duren Kalibata","distance":1546,"is_transit":false,"transit":false,"station_id":"DRN"},{"distance":824,"is_transit":false,"transit":false,"station_id":"PSMB","line":2,"i_long":106.851577,"i_lat":-6.263214,"time":2,"station_name":"Pasar Minggu Baru"},{"i_lat":-6.2842400000000005,"time":2,"is_transit":false,"transit":false,"line":2,"station_id":"PSM","station_name":"Pasar Minggu","distance":2380,"i_long":106.843999},{"transit":false,"i_long":106.838896,"station_name":"Tanjung Barat","time":4,"is_transit":false,"i_lat":-6.3080680000000005,"line":2,"station_id":"TNT","distance":2820},{"i_long":106.832616,"distance":2671,"time":3,"station_name":"Lenteng Agung","station_id":"LNA","i_lat":-6.330363,"line":2,"is_transit":false,"transit":false},{"time":2,"station_id":"UP","i_lat":-6.339291,"i_long":106.834175,"line":2,"distance":1029,"station_name":"Univ. Pancasila","is_transit":false,"transit":false},{"is_transit":false,"line":2,"transit":false,"i_long":106.831474,"distance":2264,"station_name":"Univ. Indonesia","i_lat":-6.360749,"station_id":"UI","time":3},{"transit":false,"is_transit":false,"i_long":106.831114,"line":2,"station_name":"Pondok Cina","time":2,"station_id":"POC","i_lat":-6.369073,"distance":1109},{"i_long":106.819451,"is_transit":false,"transit":false,"i_lat":-6.391065,"station_id":"DPB","distance":2727,"time":4,"station_name":"Depokbaru","line":2},{"is_transit":false,"time":3,"station_name":"Depok","i_lat":-6.405256,"line":2,"station_id":"DP","transit":false,"distance":1584,"i_long":106.816926},{"station_id":"CTA","station_name":"Citayam","i_long":106.800298,"line":2,"time":6,"i_lat":-6.448811,"transit":false,"distance":5084,"is_transit":false},{"transit":false,"distance":5197,"station_id":"BJD","i_lat":-6.493243,"station_name":"Bojonggede","time":5,"is_transit":false,"line":2,"i_long":106.792719}]]}