{"data":[[{"i_long":106.665036,"i_lat":-6.171811,"transit":false,"time":0,"is_transit":false,"station_id":"BPR","line":0,"station_name":"Batuceper","distance":0},{"station_name":"Poris","time":3,"distance":1834,"i_lat":-6.169933,"is_transit":false,"line":5,"transit":false,"station_id":"PI","i_long":106.679458},{"transit":false,"time":3,"is_transit":false,"i_lat":-6.166068,"distance":2548,"line":5,"i_long":106.701612,"station_name":"Kalideres","station_id":"KDS"},{"station_id":"RW","line":5,"distance":2504,"is_transit":false,"station_name":"Rawa Buaya","time":3,"i_long":106.723064,"i_lat":-6.162758,"transit":false},{"i_lat":-6.159876,"station_id":"BOI","time":4,"distance":1152,"line":0,"i_long":106.737035,"is_transit":false,"transit":false,"station_name":"Bojongindah"},{"i_long":106.756522,"station_id":"TKO","i_lat":-6.1587309999999995,"transit":false,"line":5,"distance":2334,"time":2,"station_name":"Taman Kota","is_transit":false},{"distance":1614,"station_id":"PSG","time":2,"i_long":106.771379,"station_name":"Pesing","i_lat":-6.161433,"is_transit":false,"transit":false,"line":5},{"station_name":"Grogol","is_transit":false,"i_long":106.788277,"time":2,"station_id":"GGL","distance":2036,"line":5,"transit":false,"i_lat":-6.162021},{"time":3,"line":1,"distance":1700,"station_id":"DU","station_name":"Duri","transit":true,"i_long":106.800832,"is_transit":true,"i_lat":-6.155215},{"distance":1230,"i_lat":-6.144674,"transit":false,"i_long":106.79867,"line":0,"station_name":"Angke","time":4,"station_id":"AK","is_transit":false},{"is_transit":true,"i_lat":-6.132549,"i_long":106.826365,"station_name":"Kampung Bandan","distance":4102,"transit":true,"line":0,"station_id":"KPB","time":9},{"distance":1444,"station_name":"Rajawali","i_long":106.836569,"time":3,"line":11,"station_id":"RJW","transit":false,"is_transit":false,"i_lat":-6.14505},{"station_name":"Kemayoran","i_lat":-6.161728,"transit":false,"i_long":106.839204,"time":5,"distance":1901,"is_transit":false,"line":11,"station_id":"KMO"},{"i_long":106.84368,"is_transit":false,"station_name":"Pasar Senen","i_lat":-6.174784,"line":11,"station_id":"PSE","transit":false,"time":4,"distance":1436},{"i_lat":-6.185975,"station_name":"Gang Sentiong","i_long":106.850107,"distance":1567,"line":11,"transit":false,"station_id":"GST","time":8,"is_transit":false}],[{"station_id":"BPR","is_transit":false,"transit":false,"distance":0,"i_lat":-6.171811,"i_long":106.665036,"time":0,"station_name":"Batuceper","line":0},{"line":5,"distance":1834,"i_lat":-6.169933,"station_name":"Poris","i_long":106.679458,"time":3,"transit":false,"is_transit":false,"station_id":"PI"},{"station_name":"Kalideres","distance":2548,"station_id":"KDS","transit":false,"line":5,"is_transit":false,"time":3,"i_lat":-6.166068,"i_long":106.701612},{"time":3,"transit":false,"is_transit":false,"distance":2504,"station_id":"RW","line":5,"i_lat":-6.162758,"i_long":106.723064,"station_name":"Rawa Buaya"},{"station_name":"Bojongindah","transit":false,"distance":1152,"line":0,"station_id":"BOI","time":4,"i_lat":-6.159876,"i_long":106.737035,"is_transit":false},{"station_id":"TKO","is_transit":false,"i_lat":-6.1587309999999995,"transit":false,"distance":2334,"i_long":106.756522,"line":5,"station_name":"Taman Kota","time":2},{"station_name":"Pesing","distance":1614,"transit":false,"is_transit":false,"time":2,"i_lat":-6.161433,"i_long":106.771379,"line":5,"station_id":"PSG"},{"distance":2036,"transit":false,"is_transit":false,"i_long":106.788277,"time":2,"i_lat":-6.162021,"station_name":"Grogol","line":5,"station_id":"GGL"},{"i_long":106.800832,"station_id":"DU","transit":true,"distance":1700,"station_name":"Duri","line":1,"time":3,"i_lat":-6.155215,"is_transit":true},{"i_long":106.811091,"station_id":"THB","i_lat":-6.185545,"distance":3632,"line":1,"time":8,"station_name":"Tanah Abang","is_transit":true,"transit":false},{"i_lat":-6.20132,"line":1,"station_name":"Karet","time":5,"station_id":"KAT","i_long":106.816351,"transit":false,"is_transit":false,"distance":2029},{"is_transit":false,"station_name":"Sudirman Baru","distance":471,"line":1,"time":1,"i_lat":-6.201433,"station_id":"SUDB","transit":false,"i_long":106.819881},{"station_id":"SUD","transit":false,"time":1,"i_lat":-6.202263,"station_name":"Sudirman","i_long":106.822649,"is_transit":false,"distance":280,"line":1},{"station_id":"MRI","station_name":"Manggarai","transit":false,"i_lat":-6.209883,"i_long":106.84912,"line":0,"is_transit":true,"time":4,"distance":3186},{"station_id":"MTR","is_transit":false,"station_name":"Matraman","transit":false,"time":2,"distance":1275,"i_long":106.858896,"line":1,"i_lat":-6.212485},{"station_id":"JNG","i_lat":-6.215091,"i_long":106.86807400000001,"time":8,"transit":true,"station_name":"Jatinegara","line":0,"is_transit":true,"distance":1377},{"transit":false,"is_transit":false,"line":11,"station_id":"POK","station_name":"Pondok Jati","time":2,"distance":1236,"i_lat":-6.209188,"i_long":106.861737},{"transit":false,"station_name":"Kramat","station_id":"KMT","time":2,"i_long":106.855437,"i_lat":-6.193792,"line":11,"is_transit":false,"distance":1829},{"line":11,"transit":false,"distance":973,"i_long":106.850107,"time":1,"station_id":"GST","is_transit":false,"i_lat":-6.185975,"station_name":"Gang Sentiong"}],[{"line":0,"station_name":"Batuceper","is_transit":false,"i_lat":-6.171811,"i_long":106.665036,"station_id":"BPR","time":0,"transit":false,"distance":0},{"i_long":106.679458,"transit":false,"line":5,"distance":1834,"station_name":"Poris","time":3,"is_transit":false,"station_id":"PI","i_lat":-6.169933},{"transit":false,"i_lat":-6.166068,"i_long":106.701612,"is_transit":false,"station_id":"KDS","line":5,"distance":2548,"station_name":"Kalideres","time":3},{"i_long":106.723064,"i_lat":-6.162758,"time":3,"transit":false,"station_id":"RW","line":5,"is_transit":false,"station_name":"Rawa Buaya","distance":2504},{"distance":1152,"i_long":106.737035,"station_id":"BOI","station_name":"Bojongindah","transit":false,"line":0,"time":4,"i_lat":-6.159876,"is_transit":false},{"is_transit":false,"time":2,"line":5,"i_lat":-6.1587309999999995,"station_id":"TKO","distance":2334,"transit":false,"station_name":"Taman Kota","i_long":106.756522},{"transit":false,"station_name":"Pesing","distance":1614,"time":2,"line":5,"i_lat":-6.161433,"is_transit":false,"station_id":"PSG","i_long":106.771379},{"time":2,"station_id":"GGL","transit":false,"line":5,"i_lat":-6.162021,"station_name":"Grogol","i_long":106.788277,"is_transit":false,"distance":2036},{"i_lat":-6.155215,"line":1,"i_long":106.800832,"station_name":"Duri","transit":true,"station_id":"DU","distance":1700,"is_transit":true,"time":3},{"station_id":"AK","transit":false,"is_transit":false,"station_name":"Angke","distance":1230,"i_lat":-6.144674,"i_long":106.79867,"time":4,"line":0},{"line":0,"transit":false,"i_lat":-6.132549,"distance":4102,"is_transit":true,"i_long":106.826365,"time":9,"station_id":"KPB","station_name":"Kampung Bandan"},{"time":3,"station_name":"Jakarta Kota","distance":1364,"station_id":"JAKK","is_transit":true,"i_long":106.812439,"transit":true,"i_lat":-6.137569,"line":0},{"distance":1264,"is_transit":false,"station_name":"Jayakarta","transit":false,"line":7,"station_id":"JAY","time":4,"i_lat":-6.141205,"i_long":106.820901},{"station_name":"Manggabesar","line":2,"time":2,"i_lat":-6.149769,"transit":false,"distance":1080,"station_id":"MGB","i_long":106.82482,"is_transit":false},{"i_lat":-6.160725,"station_id":"SW","station_name":"Sawah Besar","is_transit":false,"transit":false,"time":2,"i_long":106.827103,"distance":906,"line":2},{"time":2,"distance":1149,"station_name":"Juanda","station_id":"JUA","transit":false,"i_long":106.828284,"line":2,"is_transit":false,"i_lat":-6.166716},{"time":4,"i_long":106.832183,"is_transit":false,"station_name":"Gondangdia","distance":2015,"i_lat":-6.186295,"station_id":"GDD","transit":false,"line":2},{"transit":false,"time":3,"station_name":"Cikini","i_long":106.840169,"line":0,"is_transit":false,"i_lat":-6.198556,"station_id":"CKI","distance":1750},{"i_long":106.84912,"transit":true,"time":4,"i_lat":-6.209883,"station_name":"Manggarai","is_transit":true,"line":0,"station_id":"MRI","distance":1590},{"line":1,"distance":1275,"station_name":"Matraman","i_lat":-6.212485,"station_id":"MTR","is_transit":false,"transit":false,"time":2,"i_long":106.858896},{"i_long":106.86807400000001,"transit":true,"station_id":"JNG","is_transit":true,"time":8,"line":0,"i_lat":-6.215091,"station_name":"Jatinegara","distance":1377},{"is_transit":false,"time":2,"distance":1236,"station_name":"Pondok Jati","i_lat":-6.209188,"line":11,"station_id":"POK","transit":false,"i_long":106.861737},{"i_lat":-6.193792,"distance":1829,"i_long":106.855437,"line":11,"station_name":"Kramat","time":2,"is_transit":false,"station_id":"KMT","transit":false},{"station_name":"Gang Sentiong","is_transit":false,"transit":false,"time":1,"distance":973,"station_id":"GST","i_lat":-6.185975,"line":11,"i_long":106.850107}],[{"i_long":106.665036,"line":0,"distance":0,"time":0,"is_transit":false,"i_lat":-6.171811,"station_id":"BPR","station_name":"Batuceper","transit":false},{"line":5,"transit":false,"station_name":"Poris","time":3,"is_transit":false,"station_id":"PI","distance":1834,"i_long":106.679458,"i_lat":-6.169933},{"station_id":"KDS","line":5,"distance":2548,"is_transit":false,"transit":false,"time":3,"i_lat":-6.166068,"station_name":"Kalideres","i_long":106.701612},{"distance":2504,"transit":false,"line":5,"i_long":106.723064,"time":3,"is_transit":false,"station_id":"RW","station_name":"Rawa Buaya","i_lat":-6.162758},{"is_transit":false,"line":0,"station_name":"Bojongindah","transit":false,"distance":1152,"time":4,"station_id":"BOI","i_lat":-6.159876,"i_long":106.737035},{"distance":2334,"station_name":"Taman Kota","line":5,"i_long":106.756522,"time":2,"station_id":"TKO","transit":false,"is_transit":false,"i_lat":-6.1587309999999995},{"transit":false,"distance":1614,"line":5,"is_transit":false,"station_name":"Pesing","i_lat":-6.161433,"time":2,"station_id":"PSG","i_long":106.771379},{"i_lat":-6.162021,"i_long":106.788277,"station_id":"GGL","is_transit":false,"time":2,"distance":2036,"line":5,"transit":false,"station_name":"Grogol"},{"is_transit":true,"i_lat":-6.155215,"transit":true,"distance":1700,"station_id":"DU","station_name":"Duri","time":3,"i_long":106.800832,"line":1},{"is_transit":true,"distance":3632,"station_name":"Tanah Abang","transit":false,"line":1,"i_long":106.811091,"i_lat":-6.185545,"time":8,"station_id":"THB"},{"line":1,"i_long":106.816351,"time":5,"is_transit":false,"station_name":"Karet","transit":false,"station_id":"KAT","i_lat":-6.20132,"distance":2029},{"is_transit":false,"i_lat":-6.201433,"i_long":106.819881,"station_id":"SUDB","distance":471,"line":1,"station_name":"Sudirman Baru","transit":false,"time":1},{"time":1,"transit":false,"station_id":"SUD","i_lat":-6.202263,"i_long":106.822649,"line":1,"is_transit":false,"station_name":"Sudirman","distance":280},{"transit":true,"station_id":"MRI","time":4,"i_lat":-6.209883,"is_transit":true,"i_long":106.84912,"station_name":"Manggarai","distance":3186,"line":0},{"station_name":"Cikini","transit":false,"station_id":"CKI","is_transit":false,"time":4,"i_lat":-6.198556,"line":0,"distance":1590,"i_long":106.840169},{"distance":1750,"line":2,"i_lat":-6.186295,"station_id":"GDD","station_name":"Gondangdia","time":3,"i_long":106.832183,"transit":false,"is_transit":false},{"time":4,"station_name":"Juanda","i_lat":-6.166716,"is_transit":false,"i_long":106.828284,"transit":false,"station_id":"JUA","line":2,"distance":2015},{"is_transit":false,"line":2,"i_long":106.827103,"station_name":"Sawah Besar","transit":false,"station_id":"SW","time":2,"distance":1149,"i_lat":-6.160725},{"station_name":"Manggabesar","is_transit":false,"transit":false,"time":2,"i_long":106.82482,"station_id":"MGB","line":2,"i_lat":-6.149769,"distance":906},{"i_long":106.820901,"line":7,"station_name":"Jayakarta","time":2,"distance":1080,"is_transit":false,"transit":false,"station_id":"JAY","i_lat":-6.141205},{"station_id":"JAKK","line":0,"i_lat":-6.137569,"station_name":"Jakarta Kota","distance":1264,"transit":true,"time":4,"is_transit":true,"i_long":106.812439},{"line":0,"station_name":"Kampung Bandan","time":3,"station_id":"KPB","i_long":106.826365,"transit":true,"distance":1364,"i_lat":-6.132549,"is_transit":true},{"line":11,"i_lat":-6.14505,"station_id":"RJW","time":3,"transit":false,"distance":1444,"station_name":"Rajawali","i_long":106.836569,"is_transit":false},{"i_lat":-6.161728,"station_id":"KMO","station_name":"Kemayoran","i_long":106.839204,"time":5,"distance":1901,"line":11,"is_transit":false,"transit":false},{"station_id":"PSE","is_transit":false,"i_lat":-6.174784,"i_long":106.84368,"time":4,"line":11,"transit":false,"distance":1436,"station_name":"Pasar Senen"},{"is_transit":false,"i_lat":-6.185975,"station_name":"Gang Sentiong","station_id":"GST","i_long":106.850107,"time":8,"transit":false,"line":11,"distance":1567}]]}