{"data":[[{"distance":0,"time":0,"is_transit":false,"station_name":"Batuceper","transit":false,"station_id":"BPR","i_lat":-6.171811,"line":5,"i_long":106.665036},{"i_long":106.679458,"is_transit":false,"i_lat":-6.169933,"transit":false,"station_name":"Poris","time":3,"station_id":"PI","line":5,"distance":1834},{"line":5,"is_transit":false,"i_long":106.701612,"transit":false,"i_lat":-6.166068,"station_name":"Kalideres","distance":2548,"time":3,"station_id":"KDS"},{"distance":2504,"is_transit":false,"transit":false,"i_long":106.723064,"time":3,"i_lat":-6.162758,"line":5,"station_name":"Rawa Buaya","station_id":"RW"},{"i_long":106.737035,"distance":1152,"is_transit":false,"transit":false,"line":5,"time":4,"i_lat":-6.159876,"station_id":"BOI","station_name":"Bojongindah"},{"station_name":"Taman Kota","is_transit":false,"time":2,"i_lat":-6.1587309999999995,"station_id":"TKO","i_long":106.756522,"line":5,"distance":2334,"transit":false},{"i_long":106.771379,"line":5,"is_transit":false,"transit":false,"distance":1614,"i_lat":-6.161433,"station_name":"Pesing","time":2,"station_id":"PSG"},{"i_long":106.788277,"is_transit":false,"station_name":"Grogol","station_id":"GGL","line":5,"i_lat":-6.162021,"transit":false,"distance":2036,"time":2},{"time":3,"i_long":106.800832,"is_transit":true,"transit":true,"distance":1700,"station_id":"DU","station_name":"Duri","i_lat":-6.155215,"line":1},{"station_name":"Tanah Abang","distance":3632,"station_id":"THB","i_long":106.811091,"time":8,"transit":false,"is_transit":false,"i_lat":-6.185545,"line":1},{"is_transit":false,"i_lat":-6.20132,"distance":2029,"i_long":106.816351,"transit":false,"time":5,"line":1,"station_id":"KAT","station_name":"Karet"},{"i_lat":-6.201433,"line":1,"time":1,"station_id":"SUDB","i_long":106.819881,"is_transit":false,"transit":false,"station_name":"Sudirman Baru","distance":471},{"distance":280,"transit":false,"station_id":"SUD","line":1,"i_long":106.822649,"station_name":"Sudirman","time":1,"i_lat":-6.202263,"is_transit":false},{"line":2,"transit":true,"i_lat":-6.209883,"station_name":"Manggarai","is_transit":true,"station_id":"MRI","i_long":106.84912,"time":4,"distance":3186},{"is_transit":false,"distance":2610,"time":4,"i_lat":-6.226659,"line":2,"i_long":106.857948,"station_name":"Tebet","station_id":"TEB","transit":false},{"is_transit":false,"station_name":"Cawang","i_long":106.856607,"transit":false,"line":2,"time":2,"distance":1230,"station_id":"CW","i_lat":-6.242512},{"station_name":"Duren Kalibata","is_transit":false,"station_id":"DRN","time":3,"distance":1546,"transit":false,"i_lat":-6.255332,"line":2,"i_long":106.85449},{"transit":false,"time":2,"line":2,"distance":824,"station_id":"PSMB","i_long":106.851577,"i_lat":-6.263214,"is_transit":false,"station_name":"Pasar Minggu Baru"},{"distance":2380,"station_name":"Pasar Minggu","is_transit":false,"transit":false,"i_long":106.843999,"i_lat":-6.2842400000000005,"line":2,"station_id":"PSM","time":2},{"line":2,"station_id":"TNT","time":4,"is_transit":false,"i_long":106.838896,"distance":2820,"i_lat":-6.3080680000000005,"station_name":"Tanjung Barat","transit":false},{"station_name":"Lenteng Agung","transit":false,"time":3,"line":2,"station_id":"LNA","is_transit":false,"i_long":106.832616,"distance":2671,"i_lat":-6.330363},{"station_name":"Univ. Pancasila","i_lat":-6.339291,"i_long":106.834175,"time":2,"station_id":"UP","distance":1029,"line":2,"transit":false,"is_transit":false},{"time":3,"distance":2264,"station_name":"Univ. Indonesia","station_id":"UI","transit":false,"i_long":106.831474,"i_lat":-6.360749,"line":2,"is_transit":false},{"i_lat":-6.369073,"is_transit":false,"time":2,"distance":1109,"station_name":"Pondok Cina","station_id":"POC","i_long":106.831114,"line":2,"transit":false}],[{"line":5,"i_long":106.665036,"i_lat":-6.171811,"station_id":"BPR","time":0,"distance":0,"is_transit":false,"station_name":"Batuceper","transit":false},{"station_name":"Poris","time":3,"i_lat":-6.169933,"line":5,"is_transit":false,"transit":false,"distance":1834,"station_id":"PI","i_long":106.679458},{"line":5,"distance":2548,"transit":false,"station_id":"KDS","i_lat":-6.166068,"station_name":"Kalideres","is_transit":false,"time":3,"i_long":106.701612},{"station_id":"RW","i_long":106.723064,"line":5,"transit":false,"distance":2504,"station_name":"Rawa Buaya","i_lat":-6.162758,"is_transit":false,"time":3},{"station_id":"BOI","station_name":"Bojongindah","time":4,"distance":1152,"i_lat":-6.159876,"is_transit":false,"transit":false,"i_long":106.737035,"line":5},{"line":5,"distance":2334,"transit":false,"station_id":"TKO","is_transit":false,"i_lat":-6.1587309999999995,"station_name":"Taman Kota","time":2,"i_long":106.756522},{"time":2,"i_long":106.771379,"station_name":"Pesing","station_id":"PSG","transit":false,"is_transit":false,"distance":1614,"i_lat":-6.161433,"line":5},{"i_long":106.788277,"transit":false,"is_transit":false,"station_id":"GGL","i_lat":-6.162021,"distance":2036,"time":2,"line":5,"station_name":"Grogol"},{"line":1,"station_name":"Duri","station_id":"DU","distance":1700,"time":3,"i_lat":-6.155215,"i_long":106.800832,"transit":true,"is_transit":true},{"is_transit":false,"station_name":"Angke","i_lat":-6.144674,"distance":1230,"line":1,"time":4,"i_long":106.79867,"transit":false,"station_id":"AK"},{"distance":4102,"station_name":"Kampung Bandan","time":9,"station_id":"KPB","is_transit":true,"i_long":106.826365,"line":4,"transit":true,"i_lat":-6.132549},{"is_transit":true,"transit":true,"time":3,"line":2,"distance":1364,"station_name":"Jakarta Kota","i_lat":-6.137569,"i_long":106.812439,"station_id":"JAKK"},{"station_id":"JAY","is_transit":false,"i_lat":-6.141205,"i_long":106.820901,"line":2,"station_name":"Jayakarta","transit":false,"distance":1264,"time":4},{"transit":false,"i_long":106.82482,"time":2,"is_transit":false,"station_id":"MGB","i_lat":-6.149769,"station_name":"Manggabesar","distance":1080,"line":2},{"i_lat":-6.160725,"distance":906,"is_transit":false,"station_id":"SW","i_long":106.827103,"line":2,"time":2,"station_name":"Sawah Besar","transit":false},{"station_id":"JUA","line":2,"station_name":"Juanda","time":2,"i_lat":-6.166716,"i_long":106.828284,"transit":false,"distance":1149,"is_transit":false},{"line":2,"distance":2015,"time":4,"transit":false,"is_transit":false,"station_name":"Gondangdia","station_id":"GDD","i_long":106.832183,"i_lat":-6.186295},{"station_id":"CKI","is_transit":false,"station_name":"Cikini","i_lat":-6.198556,"distance":1750,"transit":false,"i_long":106.840169,"time":3,"line":2},{"station_name":"Manggarai","is_transit":false,"transit":false,"time":4,"i_long":106.84912,"distance":1590,"line":2,"station_id":"MRI","i_lat":-6.209883},{"i_lat":-6.226659,"is_transit":false,"i_long":106.857948,"line":2,"station_name":"Tebet","distance":2610,"time":4,"station_id":"TEB","transit":false},{"i_lat":-6.242512,"transit":false,"distance":1230,"station_name":"Cawang","time":2,"station_id":"CW","i_long":106.856607,"line":2,"is_transit":false},{"line":2,"station_name":"Duren Kalibata","transit":false,"station_id":"DRN","i_long":106.85449,"is_transit":false,"i_lat":-6.255332,"time":3,"distance":1546},{"line":2,"is_transit":false,"station_name":"Pasar Minggu Baru","time":2,"i_lat":-6.263214,"distance":824,"i_long":106.851577,"station_id":"PSMB","transit":false},{"i_long":106.843999,"is_transit":false,"station_id":"PSM","i_lat":-6.2842400000000005,"time":2,"line":2,"station_name":"Pasar Minggu","distance":2380,"transit":false},{"line":2,"is_transit":false,"transit":false,"station_id":"TNT","distance":2820,"i_lat":-6.3080680000000005,"time":4,"station_name":"Tanjung Barat","i_long":106.838896},{"i_lat":-6.330363,"station_name":"Lenteng Agung","is_transit":false,"i_long":106.832616,"time":3,"distance":2671,"transit":false,"station_id":"LNA","line":2},{"station_id":"UP","distance":1029,"i_long":106.834175,"time":2,"is_transit":false,"line":2,"station_name":"Univ. Pancasila","i_lat":-6.339291,"transit":false},{"i_long":106.831474,"line":2,"distance":2264,"is_transit":false,"station_name":"Univ. Indonesia","transit":false,"time":3,"station_id":"UI","i_lat":-6.360749},{"transit":false,"station_id":"POC","i_long":106.831114,"distance":1109,"time":2,"i_lat":-6.369073,"line":2,"is_transit":false,"station_name":"Pondok Cina"}],[{"i_lat":-6.171811,"distance":0,"station_id":"BPR","transit":false,"time":0,"is_transit":false,"line":5,"station_name":"Batuceper","i_long":106.665036},{"time":3,"station_id":"PI","station_name":"Poris","i_lat":-6.169933,"line":5,"distance":1834,"i_long":106.679458,"is_transit":false,"transit":false},{"i_long":106.701612,"line":5,"time":3,"is_transit":false,"transit":false,"station_id":"KDS","i_lat":-6.166068,"station_name":"Kalideres","distance":2548},{"distance":2504,"transit":false,"time":3,"line":5,"i_lat":-6.162758,"station_name":"Rawa Buaya","i_long":106.723064,"station_id":"RW","is_transit":false},{"station_name":"Bojongindah","distance":1152,"line":5,"time":4,"i_lat":-6.159876,"transit":false,"i_long":106.737035,"station_id":"BOI","is_transit":false},{"distance":2334,"transit":false,"i_lat":-6.1587309999999995,"i_long":106.756522,"line":5,"time":2,"station_id":"TKO","is_transit":false,"station_name":"Taman Kota"},{"station_id":"PSG","line":5,"transit":false,"distance":1614,"station_name":"Pesing","time":2,"i_long":106.771379,"is_transit":false,"i_lat":-6.161433},{"distance":2036,"time":2,"i_long":106.788277,"is_transit":false,"station_id":"GGL","transit":false,"line":5,"station_name":"Grogol","i_lat":-6.162021},{"station_id":"DU","distance":1700,"time":3,"station_name":"Duri","transit":true,"i_long":106.800832,"line":1,"i_lat":-6.155215,"is_transit":true},{"station_id":"AK","distance":1230,"is_transit":false,"station_name":"Angke","time":4,"i_long":106.79867,"line":1,"i_lat":-6.144674,"transit":false},{"line":4,"i_lat":-6.132549,"station_name":"Kampung Bandan","distance":4102,"time":9,"station_id":"KPB","i_long":106.826365,"is_transit":true,"transit":true},{"line":11,"time":3,"transit":false,"i_lat":-6.14505,"is_transit":false,"station_id":"RJW","i_long":106.836569,"station_name":"Rajawali","distance":1444},{"station_name":"Kemayoran","line":11,"transit":false,"i_lat":-6.161728,"i_long":106.839204,"time":5,"station_id":"KMO","distance":1901,"is_transit":false},{"i_long":106.84368,"distance":1436,"time":4,"i_lat":-6.174784,"station_id":"PSE","line":11,"is_transit":false,"station_name":"Pasar Senen","transit":false},{"transit":false,"i_lat":-6.185975,"time":8,"station_id":"GST","is_transit":false,"distance":1567,"station_name":"Gang Sentiong","i_long":106.850107,"line":11},{"distance":973,"station_name":"Kramat","transit":false,"station_id":"KMT","line":11,"time":1,"i_long":106.855437,"is_transit":false,"i_lat":-6.193792},{"i_lat":-6.209188,"station_id":"POK","time":2,"transit":false,"is_transit":false,"station_name":"Pondok Jati","i_long":106.861737,"distance":1829,"line":11},{"transit":true,"station_name":"Jatinegara","time":9,"line":1,"station_id":"JNG","distance":1236,"i_lat":-6.215091,"is_transit":true,"i_long":106.86807400000001},{"station_id":"MTR","i_long":106.858896,"transit":false,"line":1,"time":2,"distance":1377,"station_name":"Matraman","is_transit":false,"i_lat":-6.212485},{"i_lat":-6.209883,"is_transit":true,"line":2,"transit":true,"distance":1275,"time":2,"i_long":106.84912,"station_id":"MRI","station_name":"Manggarai"},{"i_long":106.857948,"distance":2610,"station_id":"TEB","is_transit":false,"transit":false,"i_lat":-6.226659,"station_name":"Tebet","time":4,"line":2},{"transit":false,"line":2,"i_lat":-6.242512,"is_transit":false,"station_id":"CW","i_long":106.856607,"station_name":"Cawang","time":2,"distance":1230},{"station_id":"DRN","i_long":106.85449,"station_name":"Duren Kalibata","i_lat":-6.255332,"time":3,"is_transit":false,"transit":false,"line":2,"distance":1546},{"distance":824,"is_transit":false,"time":2,"station_name":"Pasar Minggu Baru","station_id":"PSMB","i_lat":-6.263214,"transit":false,"i_long":106.851577,"line":2},{"time":2,"station_id":"PSM","station_name":"Pasar Minggu","i_lat":-6.2842400000000005,"line":2,"distance":2380,"is_transit":false,"i_long":106.843999,"transit":false},{"i_lat":-6.3080680000000005,"i_long":106.838896,"time":4,"line":2,"station_id":"TNT","station_name":"Tanjung Barat","transit":false,"distance":2820,"is_transit":false},{"station_id":"LNA","station_name":"Lenteng Agung","i_lat":-6.330363,"i_long":106.832616,"is_transit":false,"line":2,"transit":false,"distance":2671,"time":3},{"station_id":"UP","distance":1029,"transit":false,"line":2,"time":2,"i_long":106.834175,"is_transit":false,"i_lat":-6.339291,"station_name":"Univ. Pancasila"},{"station_name":"Univ. Indonesia","station_id":"UI","i_lat":-6.360749,"line":2,"distance":2264,"is_transit":false,"i_long":106.831474,"transit":false,"time":3},{"station_name":"Pondok Cina","time":2,"station_id":"POC","transit":false,"distance":1109,"is_transit":false,"i_lat":-6.369073,"i_long":106.831114,"line":2}]]}