{"data":[[{"distance":0,"station_id":"BPR","i_lat":-6.171811,"transit":false,"station_name":"Batuceper","is_transit":false,"i_long":106.665036,"line":5,"time":0},{"time":3,"transit":false,"i_lat":-6.169933,"i_long":106.679458,"station_name":"Poris","station_id":"PI","line":5,"distance":1834,"is_transit":false},{"station_name":"Kalideres","i_long":106.701612,"distance":2548,"station_id":"KDS","is_transit":false,"time":3,"transit":false,"i_lat":-6.166068,"line":5},{"is_transit":false,"transit":false,"i_lat":-6.162758,"time":3,"i_long":106.723064,"line":5,"distance":2504,"station_name":"Rawa Buaya","station_id":"RW"},{"transit":false,"time":4,"i_lat":-6.159876,"distance":1152,"station_name":"Bojongindah","is_transit":false,"line":5,"station_id":"BOI","i_long":106.737035},{"station_id":"TKO","line":5,"time":2,"transit":false,"distance":2334,"station_name":"Taman Kota","i_long":106.756522,"is_transit":false,"i_lat":-6.1587309999999995},{"distance":1614,"station_name":"Pesing","i_long":106.771379,"station_id":"PSG","is_transit":false,"line":5,"time":2,"transit":false,"i_lat":-6.161433},{"i_lat":-6.162021,"i_long":106.788277,"station_name":"Grogol","is_transit":false,"time":2,"station_id":"GGL","distance":2036,"transit":false,"line":5},{"line":1,"i_lat":-6.155215,"time":3,"station_id":"DU","transit":true,"i_long":106.800832,"is_transit":true,"distance":1700,"station_name":"Duri"},{"transit":false,"distance":3632,"i_long":106.811091,"station_name":"Tanah Abang","is_transit":false,"i_lat":-6.185545,"station_id":"THB","time":8,"line":1},{"time":5,"is_transit":false,"station_id":"KAT","i_long":106.816351,"distance":2029,"i_lat":-6.20132,"station_name":"Karet","transit":false,"line":1},{"distance":471,"i_lat":-6.201433,"line":1,"i_long":106.819881,"time":1,"station_name":"Sudirman Baru","is_transit":false,"station_id":"SUDB","transit":false},{"i_long":106.822649,"transit":false,"i_lat":-6.202263,"distance":280,"time":1,"line":1,"station_name":"Sudirman","station_id":"SUD","is_transit":false},{"i_lat":-6.209883,"line":2,"station_name":"Manggarai","distance":3186,"time":4,"i_long":106.84912,"is_transit":false,"station_id":"MRI","transit":false},{"transit":false,"distance":1275,"time":2,"station_id":"MTR","i_lat":-6.212485,"line":1,"station_name":"Matraman","is_transit":false,"i_long":106.858896},{"time":8,"i_lat":-6.215091,"line":1,"transit":false,"station_id":"JNG","i_long":106.86807400000001,"station_name":"Jatinegara","distance":1377,"is_transit":false},{"station_id":"KLD","transit":false,"line":1,"i_lat":-6.2135,"is_transit":false,"i_long":106.899548,"time":3,"station_name":"Klender","distance":3395},{"distance":3100,"time":2,"station_name":"Buaran","is_transit":false,"i_long":106.922662,"station_id":"BUA","i_lat":-6.215568,"transit":false,"line":1},{"station_name":"Klenderbaru","is_transit":false,"line":1,"i_long":106.939679,"distance":1305,"station_id":"KLDB","i_lat":-6.217455,"time":1,"transit":false},{"line":1,"time":8,"transit":false,"i_lat":-6.219053,"distance":1385,"i_long":106.951283,"is_transit":false,"station_id":"CUK","station_name":"Cakung"},{"is_transit":false,"station_id":"KRI","i_lat":-6.224515,"distance":3097,"time":3,"station_name":"Kranji","i_long":106.977657,"line":1,"transit":false}],[{"transit":false,"distance":0,"station_id":"BPR","i_lat":-6.171811,"i_long":106.665036,"is_transit":false,"line":5,"time":0,"station_name":"Batuceper"},{"time":3,"i_lat":-6.169933,"transit":false,"line":5,"station_id":"PI","distance":1834,"station_name":"Poris","i_long":106.679458,"is_transit":false},{"station_id":"KDS","i_lat":-6.166068,"transit":false,"distance":2548,"is_transit":false,"line":5,"i_long":106.701612,"time":3,"station_name":"Kalideres"},{"transit":false,"i_long":106.723064,"time":3,"distance":2504,"is_transit":false,"i_lat":-6.162758,"line":5,"station_id":"RW","station_name":"Rawa Buaya"},{"transit":false,"distance":1152,"i_long":106.737035,"station_id":"BOI","time":4,"i_lat":-6.159876,"station_name":"Bojongindah","is_transit":false,"line":5},{"distance":2334,"i_lat":-6.1587309999999995,"station_id":"TKO","time":2,"is_transit":false,"i_long":106.756522,"transit":false,"line":5,"station_name":"Taman Kota"},{"is_transit":false,"i_long":106.771379,"station_id":"PSG","transit":false,"i_lat":-6.161433,"line":5,"distance":1614,"time":2,"station_name":"Pesing"},{"i_long":106.788277,"line":5,"station_id":"GGL","transit":false,"distance":2036,"i_lat":-6.162021,"station_name":"Grogol","time":2,"is_transit":false},{"time":3,"transit":true,"station_name":"Duri","distance":1700,"i_lat":-6.155215,"is_transit":true,"line":1,"station_id":"DU","i_long":106.800832},{"i_lat":-6.144674,"transit":false,"distance":1230,"is_transit":false,"time":4,"station_name":"Angke","station_id":"AK","i_long":106.79867,"line":1},{"station_id":"KPB","distance":4102,"is_transit":true,"i_long":106.826365,"i_lat":-6.132549,"station_name":"Kampung Bandan","line":4,"time":9,"transit":true},{"time":3,"station_name":"Rajawali","i_lat":-6.14505,"i_long":106.836569,"distance":1444,"line":11,"station_id":"RJW","transit":false,"is_transit":false},{"station_name":"Kemayoran","is_transit":false,"time":5,"distance":1901,"i_long":106.839204,"line":11,"transit":false,"station_id":"KMO","i_lat":-6.161728},{"transit":false,"i_lat":-6.174784,"is_transit":false,"i_long":106.84368,"station_id":"PSE","distance":1436,"line":11,"time":4,"station_name":"Pasar Senen"},{"time":8,"line":11,"distance":1567,"station_name":"Gang Sentiong","i_lat":-6.185975,"transit":false,"i_long":106.850107,"is_transit":false,"station_id":"GST"},{"i_long":106.855437,"time":1,"i_lat":-6.193792,"distance":973,"line":11,"station_id":"KMT","station_name":"Kramat","transit":false,"is_transit":false},{"transit":false,"time":2,"line":11,"distance":1829,"station_id":"POK","i_long":106.861737,"station_name":"Pondok Jati","is_transit":false,"i_lat":-6.209188},{"station_id":"JNG","station_name":"Jatinegara","is_transit":true,"i_long":106.86807400000001,"line":1,"transit":true,"distance":1236,"i_lat":-6.215091,"time":9},{"line":1,"i_long":106.899548,"station_id":"KLD","is_transit":false,"time":3,"distance":3395,"i_lat":-6.2135,"transit":false,"station_name":"Klender"},{"distance":3100,"station_id":"BUA","line":1,"station_name":"Buaran","time":2,"is_transit":false,"i_long":106.922662,"transit":false,"i_lat":-6.215568},{"i_lat":-6.217455,"is_transit":false,"i_long":106.939679,"time":1,"station_id":"KLDB","transit":false,"line":1,"station_name":"Klenderbaru","distance":1305},{"is_transit":false,"i_lat":-6.219053,"line":1,"time":8,"i_long":106.951283,"station_id":"CUK","transit":false,"distance":1385,"station_name":"Cakung"},{"transit":false,"distance":3097,"time":3,"station_id":"KRI","station_name":"Kranji","is_transit":false,"i_long":106.977657,"i_lat":-6.224515,"line":1}],[{"line":5,"time":0,"station_id":"BPR","transit":false,"station_name":"Batuceper","distance":0,"is_transit":false,"i_long":106.665036,"i_lat":-6.171811},{"is_transit":false,"distance":1834,"time":3,"line":5,"i_lat":-6.169933,"transit":false,"station_name":"Poris","station_id":"PI","i_long":106.679458},{"distance":2548,"station_id":"KDS","station_name":"Kalideres","i_lat":-6.166068,"time":3,"i_long":106.701612,"is_transit":false,"line":5,"transit":false},{"distance":2504,"i_lat":-6.162758,"station_id":"RW","transit":false,"is_transit":false,"time":3,"station_name":"Rawa Buaya","i_long":106.723064,"line":5},{"i_long":106.737035,"station_id":"BOI","time":4,"transit":false,"is_transit":false,"line":5,"distance":1152,"i_lat":-6.159876,"station_name":"Bojongindah"},{"line":5,"station_name":"Taman Kota","time":2,"distance":2334,"station_id":"TKO","transit":false,"is_transit":false,"i_lat":-6.1587309999999995,"i_long":106.756522},{"line":5,"time":2,"transit":false,"station_name":"Pesing","distance":1614,"is_transit":false,"station_id":"PSG","i_long":106.771379,"i_lat":-6.161433},{"i_long":106.788277,"i_lat":-6.162021,"line":5,"station_id":"GGL","transit":false,"time":2,"is_transit":false,"station_name":"Grogol","distance":2036},{"station_id":"DU","i_lat":-6.155215,"distance":1700,"line":1,"is_transit":true,"i_long":106.800832,"time":3,"transit":true,"station_name":"Duri"},{"distance":1230,"station_id":"AK","time":4,"is_transit":false,"line":1,"station_name":"Angke","i_lat":-6.144674,"i_long":106.79867,"transit":false},{"station_id":"KPB","transit":true,"station_name":"Kampung Bandan","line":4,"i_long":106.826365,"distance":4102,"is_transit":true,"i_lat":-6.132549,"time":9},{"line":2,"station_name":"Jakarta Kota","distance":1364,"i_lat":-6.137569,"station_id":"JAKK","time":3,"transit":true,"is_transit":true,"i_long":106.812439},{"distance":1264,"is_transit":false,"i_long":106.820901,"line":2,"time":4,"transit":false,"station_id":"JAY","station_name":"Jayakarta","i_lat":-6.141205},{"time":2,"i_long":106.82482,"station_name":"Manggabesar","is_transit":false,"transit":false,"line":2,"station_id":"MGB","i_lat":-6.149769,"distance":1080},{"i_long":106.827103,"line":2,"distance":906,"transit":false,"station_name":"Sawah Besar","i_lat":-6.160725,"time":2,"is_transit":false,"station_id":"SW"},{"i_long":106.828284,"station_name":"Juanda","is_transit":false,"station_id":"JUA","i_lat":-6.166716,"line":2,"time":2,"transit":false,"distance":1149},{"i_long":106.832183,"distance":2015,"station_name":"Gondangdia","station_id":"GDD","is_transit":false,"i_lat":-6.186295,"time":4,"transit":false,"line":2},{"i_lat":-6.198556,"time":3,"station_id":"CKI","i_long":106.840169,"transit":false,"station_name":"Cikini","distance":1750,"is_transit":false,"line":2},{"distance":1590,"i_long":106.84912,"line":2,"is_transit":true,"transit":true,"i_lat":-6.209883,"time":4,"station_name":"Manggarai","station_id":"MRI"},{"station_id":"MTR","transit":false,"time":2,"distance":1275,"i_lat":-6.212485,"station_name":"Matraman","is_transit":false,"i_long":106.858896,"line":1},{"is_transit":false,"i_lat":-6.215091,"distance":1377,"time":8,"station_id":"JNG","station_name":"Jatinegara","i_long":106.86807400000001,"transit":false,"line":1},{"station_name":"Klender","distance":3395,"station_id":"KLD","time":3,"is_transit":false,"i_lat":-6.2135,"i_long":106.899548,"line":1,"transit":false},{"line":1,"time":2,"distance":3100,"transit":false,"is_transit":false,"i_lat":-6.215568,"station_id":"BUA","i_long":106.922662,"station_name":"Buaran"},{"is_transit":false,"distance":1305,"transit":false,"station_id":"KLDB","time":1,"line":1,"station_name":"Klenderbaru","i_lat":-6.217455,"i_long":106.939679},{"station_name":"Cakung","i_long":106.951283,"time":8,"transit":false,"is_transit":false,"i_lat":-6.219053,"distance":1385,"line":1,"station_id":"CUK"},{"i_long":106.977657,"time":3,"station_id":"KRI","transit":false,"line":1,"station_name":"Kranji","is_transit":false,"i_lat":-6.224515,"distance":3097}],[{"is_transit":false,"transit":false,"distance":0,"i_lat":-6.171811,"i_long":106.665036,"line":5,"station_id":"BPR","station_name":"Batuceper","time":0},{"transit":false,"station_name":"Poris","station_id":"PI","line":5,"distance":1834,"time":3,"is_transit":false,"i_lat":-6.169933,"i_long":106.679458},{"i_long":106.701612,"i_lat":-6.166068,"transit":false,"station_name":"Kalideres","time":3,"distance":2548,"station_id":"KDS","is_transit":false,"line":5},{"station_name":"Rawa Buaya","station_id":"RW","i_long":106.723064,"transit":false,"distance":2504,"line":5,"is_transit":false,"time":3,"i_lat":-6.162758},{"station_id":"BOI","is_transit":false,"time":4,"distance":1152,"station_name":"Bojongindah","i_lat":-6.159876,"line":5,"transit":false,"i_long":106.737035},{"distance":2334,"transit":false,"line":5,"i_lat":-6.1587309999999995,"time":2,"station_id":"TKO","is_transit":false,"station_name":"Taman Kota","i_long":106.756522},{"transit":false,"station_name":"Pesing","distance":1614,"i_long":106.771379,"line":5,"i_lat":-6.161433,"time":2,"station_id":"PSG","is_transit":false},{"transit":false,"station_id":"GGL","is_transit":false,"i_long":106.788277,"line":5,"time":2,"station_name":"Grogol","i_lat":-6.162021,"distance":2036},{"i_lat":-6.155215,"line":1,"is_transit":true,"station_id":"DU","i_long":106.800832,"distance":1700,"transit":true,"station_name":"Duri","time":3},{"distance":3632,"transit":false,"station_id":"THB","i_lat":-6.185545,"line":1,"station_name":"Tanah Abang","is_transit":false,"i_long":106.811091,"time":8},{"time":5,"station_id":"KAT","distance":2029,"transit":false,"station_name":"Karet","i_long":106.816351,"i_lat":-6.20132,"is_transit":false,"line":1},{"time":1,"station_name":"Sudirman Baru","i_lat":-6.201433,"i_long":106.819881,"line":1,"is_transit":false,"distance":471,"station_id":"SUDB","transit":false},{"transit":false,"i_lat":-6.202263,"distance":280,"line":1,"station_name":"Sudirman","i_long":106.822649,"station_id":"SUD","time":1,"is_transit":false},{"i_long":106.84912,"station_name":"Manggarai","transit":true,"station_id":"MRI","distance":3186,"is_transit":true,"line":2,"time":4,"i_lat":-6.209883},{"is_transit":false,"i_lat":-6.198556,"distance":1590,"line":2,"time":4,"transit":false,"station_name":"Cikini","station_id":"CKI","i_long":106.840169},{"is_transit":false,"station_name":"Gondangdia","i_lat":-6.186295,"distance":1750,"i_long":106.832183,"line":2,"station_id":"GDD","time":3,"transit":false},{"transit":false,"i_long":106.828284,"line":2,"time":4,"is_transit":false,"station_name":"Juanda","station_id":"JUA","distance":2015,"i_lat":-6.166716},{"time":2,"transit":false,"i_long":106.827103,"is_transit":false,"i_lat":-6.160725,"distance":1149,"station_name":"Sawah Besar","line":2,"station_id":"SW"},{"is_transit":false,"station_id":"MGB","distance":906,"transit":false,"i_long":106.82482,"time":2,"station_name":"Manggabesar","i_lat":-6.149769,"line":2},{"time":2,"transit":false,"i_lat":-6.141205,"i_long":106.820901,"is_transit":false,"line":2,"station_name":"Jayakarta","distance":1080,"station_id":"JAY"},{"transit":true,"is_transit":true,"i_lat":-6.137569,"station_name":"Jakarta Kota","time":4,"line":2,"station_id":"JAKK","distance":1264,"i_long":106.812439},{"distance":1364,"station_id":"KPB","i_long":106.826365,"line":4,"time":3,"transit":true,"is_transit":true,"i_lat":-6.132549,"station_name":"Kampung Bandan"},{"station_name":"Rajawali","i_lat":-6.14505,"distance":1444,"line":11,"station_id":"RJW","transit":false,"is_transit":false,"time":3,"i_long":106.836569},{"station_name":"Kemayoran","distance":1901,"transit":false,"is_transit":false,"time":5,"station_id":"KMO","i_lat":-6.161728,"line":11,"i_long":106.839204},{"i_lat":-6.174784,"line":11,"station_name":"Pasar Senen","i_long":106.84368,"time":4,"is_transit":false,"distance":1436,"transit":false,"station_id":"PSE"},{"i_long":106.850107,"distance":1567,"line":11,"station_name":"Gang Sentiong","time":8,"transit":false,"i_lat":-6.185975,"is_transit":false,"station_id":"GST"},{"station_name":"Kramat","station_id":"KMT","line":11,"distance":973,"i_lat":-6.193792,"transit":false,"is_transit":false,"time":1,"i_long":106.855437},{"i_long":106.861737,"is_transit":false,"station_name":"Pondok Jati","station_id":"POK","i_lat":-6.209188,"time":2,"distance":1829,"line":11,"transit":false},{"i_long":106.86807400000001,"time":9,"distance":1236,"transit":true,"i_lat":-6.215091,"station_name":"Jatinegara","station_id":"JNG","is_transit":true,"line":1},{"distance":3395,"i_long":106.899548,"transit":false,"time":3,"is_transit":false,"i_lat":-6.2135,"station_id":"KLD","line":1,"station_name":"Klender"},{"distance":3100,"time":2,"station_name":"Buaran","station_id":"BUA","i_lat":-6.215568,"line":1,"is_transit":false,"transit":false,"i_long":106.922662},{"transit":false,"station_name":"Klenderbaru","is_transit":false,"i_lat":-6.217455,"station_id":"KLDB","distance":1305,"i_long":106.939679,"line":1,"time":1},{"station_id":"CUK","station_name":"Cakung","i_lat":-6.219053,"is_transit":false,"time":8,"transit":false,"i_long":106.951283,"line":1,"distance":1385},{"distance":3097,"i_lat":-6.224515,"transit":false,"station_name":"Kranji","time":3,"is_transit":false,"line":1,"station_id":"KRI","i_long":106.977657}]]}