{"data":[[{"distance":0,"station_id":"BPR","is_transit":false,"station_name":"Batuceper","transit":false,"i_lat":-6.171811,"i_long":106.665036,"line":5,"time":0},{"station_id":"PI","line":5,"i_long":106.679458,"distance":1834,"transit":false,"is_transit":false,"station_name":"Poris","i_lat":-6.169933,"time":3},{"transit":false,"line":5,"i_long":106.701612,"i_lat":-6.166068,"station_id":"KDS","distance":2548,"time":3,"is_transit":false,"station_name":"Kalideres"},{"time":3,"station_name":"Rawa Buaya","line":5,"i_long":106.723064,"transit":false,"i_lat":-6.162758,"station_id":"RW","is_transit":false,"distance":2504},{"station_id":"BOI","time":4,"i_long":106.737035,"i_lat":-6.159876,"is_transit":false,"line":5,"station_name":"Bojongindah","distance":1152,"transit":false},{"station_name":"Taman Kota","i_long":106.756522,"station_id":"TKO","is_transit":false,"transit":false,"time":2,"i_lat":-6.1587309999999995,"line":5,"distance":2334},{"is_transit":false,"i_long":106.771379,"station_id":"PSG","line":5,"time":2,"transit":false,"distance":1614,"i_lat":-6.161433,"station_name":"Pesing"},{"distance":2036,"is_transit":false,"transit":false,"i_long":106.788277,"i_lat":-6.162021,"line":5,"time":2,"station_name":"Grogol","station_id":"GGL"},{"i_lat":-6.155215,"is_transit":true,"station_id":"DU","distance":1700,"time":3,"i_long":106.800832,"transit":true,"line":1,"station_name":"Duri"},{"line":1,"time":8,"is_transit":false,"station_id":"THB","station_name":"Tanah Abang","i_long":106.811091,"distance":3632,"i_lat":-6.185545,"transit":false},{"i_lat":-6.20132,"is_transit":false,"line":1,"station_id":"KAT","transit":false,"time":5,"distance":2029,"i_long":106.816351,"station_name":"Karet"},{"line":1,"i_lat":-6.201433,"station_id":"SUDB","transit":false,"distance":471,"i_long":106.819881,"time":1,"station_name":"Sudirman Baru","is_transit":false},{"line":1,"transit":false,"time":1,"distance":280,"is_transit":false,"station_name":"Sudirman","i_lat":-6.202263,"i_long":106.822649,"station_id":"SUD"},{"is_transit":false,"station_name":"Manggarai","distance":3186,"transit":false,"i_lat":-6.209883,"i_long":106.84912,"time":4,"station_id":"MRI","line":2},{"i_long":106.858896,"distance":1275,"is_transit":false,"i_lat":-6.212485,"time":2,"station_name":"Matraman","transit":false,"line":1,"station_id":"MTR"},{"transit":false,"time":8,"i_long":106.86807400000001,"line":1,"i_lat":-6.215091,"station_name":"Jatinegara","is_transit":false,"distance":1377,"station_id":"JNG"},{"station_name":"Klender","station_id":"KLD","distance":3395,"line":1,"is_transit":false,"i_lat":-6.2135,"time":3,"transit":false,"i_long":106.899548},{"is_transit":false,"i_long":106.922662,"distance":3100,"transit":false,"i_lat":-6.215568,"line":1,"time":2,"station_id":"BUA","station_name":"Buaran"},{"station_id":"KLDB","time":1,"distance":1305,"is_transit":false,"transit":false,"i_lat":-6.217455,"i_long":106.939679,"line":1,"station_name":"Klenderbaru"},{"i_lat":-6.219053,"station_name":"Cakung","time":8,"is_transit":false,"distance":1385,"i_long":106.951283,"station_id":"CUK","line":1,"transit":false},{"time":3,"i_lat":-6.224515,"distance":3097,"station_name":"Kranji","transit":false,"is_transit":false,"i_long":106.977657,"line":1,"station_id":"KRI"},{"distance":2520,"time":4,"is_transit":false,"station_id":"BKS","i_lat":-6.236616,"i_long":106.997013,"line":1,"transit":false,"station_name":"Bekasi"},{"i_lat":-6.248029,"distance":2368,"transit":false,"i_long":107.016735,"line":1,"station_id":"BKST","station_name":"Bekasi Timur","is_transit":false,"time":2},{"station_name":"Tambun","time":7,"i_lat":-6.258864,"line":1,"i_long":107.055722,"is_transit":false,"station_id":"TB","transit":false,"distance":4460},{"is_transit":false,"i_long":107.083084,"distance":3420,"transit":false,"time":3,"line":1,"station_name":"Cibitung","station_id":"CIT","i_lat":-6.261877},{"transit":false,"i_lat":-6.262938,"line":1,"distance":2800,"station_id":"TLM","is_transit":false,"i_long":107.093313,"station_name":"Metland Telaga Murni","time":2},{"transit":false,"time":4,"line":1,"station_name":"Cikarang","is_transit":false,"distance":3689,"i_long":107.144613,"station_id":"CKR","i_lat":-6.2553149999999995}],[{"distance":0,"station_name":"Batuceper","i_lat":-6.171811,"transit":false,"time":0,"i_long":106.665036,"station_id":"BPR","is_transit":false,"line":5},{"station_id":"PI","transit":false,"i_long":106.679458,"distance":1834,"is_transit":false,"time":3,"i_lat":-6.169933,"station_name":"Poris","line":5},{"is_transit":false,"transit":false,"station_name":"Kalideres","i_lat":-6.166068,"i_long":106.701612,"line":5,"station_id":"KDS","distance":2548,"time":3},{"transit":false,"is_transit":false,"distance":2504,"line":5,"station_id":"RW","station_name":"Rawa Buaya","time":3,"i_lat":-6.162758,"i_long":106.723064},{"i_lat":-6.159876,"i_long":106.737035,"distance":1152,"line":5,"station_name":"Bojongindah","station_id":"BOI","is_transit":false,"transit":false,"time":4},{"time":2,"line":5,"station_id":"TKO","transit":false,"i_long":106.756522,"station_name":"Taman Kota","distance":2334,"is_transit":false,"i_lat":-6.1587309999999995},{"station_id":"PSG","is_transit":false,"transit":false,"time":2,"i_long":106.771379,"line":5,"i_lat":-6.161433,"station_name":"Pesing","distance":1614},{"time":2,"i_lat":-6.162021,"i_long":106.788277,"is_transit":false,"station_name":"Grogol","transit":false,"line":5,"station_id":"GGL","distance":2036},{"distance":1700,"is_transit":true,"station_name":"Duri","transit":true,"i_lat":-6.155215,"i_long":106.800832,"station_id":"DU","line":1,"time":3},{"is_transit":false,"station_id":"AK","time":4,"i_lat":-6.144674,"distance":1230,"transit":false,"line":1,"i_long":106.79867,"station_name":"Angke"},{"line":4,"station_name":"Kampung Bandan","is_transit":true,"time":9,"i_lat":-6.132549,"transit":true,"i_long":106.826365,"distance":4102,"station_id":"KPB"},{"transit":false,"time":3,"station_name":"Rajawali","i_long":106.836569,"station_id":"RJW","line":11,"is_transit":false,"distance":1444,"i_lat":-6.14505},{"i_lat":-6.161728,"distance":1901,"is_transit":false,"transit":false,"i_long":106.839204,"station_name":"Kemayoran","line":11,"station_id":"KMO","time":5},{"transit":false,"station_name":"Pasar Senen","distance":1436,"line":11,"i_long":106.84368,"is_transit":false,"station_id":"PSE","time":4,"i_lat":-6.174784},{"i_lat":-6.185975,"line":11,"station_id":"GST","station_name":"Gang Sentiong","transit":false,"time":8,"i_long":106.850107,"distance":1567,"is_transit":false},{"is_transit":false,"station_name":"Kramat","i_lat":-6.193792,"line":11,"time":1,"station_id":"KMT","transit":false,"distance":973,"i_long":106.855437},{"is_transit":false,"time":2,"station_name":"Pondok Jati","line":11,"i_long":106.861737,"station_id":"POK","transit":false,"distance":1829,"i_lat":-6.209188},{"station_id":"JNG","i_lat":-6.215091,"transit":true,"line":1,"is_transit":true,"distance":1236,"i_long":106.86807400000001,"station_name":"Jatinegara","time":9},{"i_long":106.899548,"i_lat":-6.2135,"distance":3395,"line":1,"time":3,"station_id":"KLD","is_transit":false,"station_name":"Klender","transit":false},{"station_id":"BUA","i_lat":-6.215568,"station_name":"Buaran","line":1,"i_long":106.922662,"is_transit":false,"transit":false,"time":2,"distance":3100},{"station_id":"KLDB","line":1,"time":1,"distance":1305,"is_transit":false,"transit":false,"i_lat":-6.217455,"station_name":"Klenderbaru","i_long":106.939679},{"time":8,"station_name":"Cakung","distance":1385,"station_id":"CUK","transit":false,"i_long":106.951283,"i_lat":-6.219053,"line":1,"is_transit":false},{"station_id":"KRI","transit":false,"is_transit":false,"time":3,"i_long":106.977657,"station_name":"Kranji","line":1,"i_lat":-6.224515,"distance":3097},{"station_id":"BKS","is_transit":false,"time":4,"i_lat":-6.236616,"transit":false,"line":1,"i_long":106.997013,"distance":2520,"station_name":"Bekasi"},{"distance":2368,"is_transit":false,"station_id":"BKST","station_name":"Bekasi Timur","time":2,"i_lat":-6.248029,"i_long":107.016735,"transit":false,"line":1},{"station_name":"Tambun","distance":4460,"station_id":"TB","transit":false,"time":7,"i_lat":-6.258864,"is_transit":false,"i_long":107.055722,"line":1},{"transit":false,"station_name":"Cibitung","i_long":107.083084,"line":1,"station_id":"CIT","is_transit":false,"time":3,"distance":3420,"i_lat":-6.261877},{"station_name":"Metland Telaga Murni","i_long":107.093313,"is_transit":false,"station_id":"TLM","distance":2800,"line":1,"i_lat":-6.262938,"transit":false,"time":2},{"is_transit":false,"time":4,"station_name":"Cikarang","line":1,"i_long":107.144613,"transit":false,"distance":3689,"i_lat":-6.2553149999999995,"station_id":"CKR"}],[{"i_long":106.665036,"is_transit":false,"distance":0,"station_id":"BPR","line":5,"time":0,"station_name":"Batuceper","transit":false,"i_lat":-6.171811},{"line":5,"time":3,"i_long":106.679458,"station_name":"Poris","is_transit":false,"i_lat":-6.169933,"distance":1834,"transit":false,"station_id":"PI"},{"time":3,"transit":false,"i_long":106.701612,"is_transit":false,"station_id":"KDS","station_name":"Kalideres","distance":2548,"i_lat":-6.166068,"line":5},{"station_name":"Rawa Buaya","distance":2504,"i_lat":-6.162758,"is_transit":false,"i_long":106.723064,"station_id":"RW","time":3,"line":5,"transit":false},{"i_long":106.737035,"line":5,"transit":false,"station_id":"BOI","distance":1152,"is_transit":false,"station_name":"Bojongindah","time":4,"i_lat":-6.159876},{"is_transit":false,"time":2,"i_lat":-6.1587309999999995,"transit":false,"line":5,"station_id":"TKO","distance":2334,"station_name":"Taman Kota","i_long":106.756522},{"station_id":"PSG","is_transit":false,"i_long":106.771379,"line":5,"transit":false,"distance":1614,"time":2,"i_lat":-6.161433,"station_name":"Pesing"},{"station_id":"GGL","distance":2036,"time":2,"i_long":106.788277,"is_transit":false,"station_name":"Grogol","i_lat":-6.162021,"transit":false,"line":5},{"transit":true,"i_long":106.800832,"time":3,"i_lat":-6.155215,"station_name":"Duri","is_transit":true,"distance":1700,"station_id":"DU","line":1},{"is_transit":false,"distance":1230,"transit":false,"i_lat":-6.144674,"i_long":106.79867,"line":1,"time":4,"station_id":"AK","station_name":"Angke"},{"line":4,"time":9,"distance":4102,"i_long":106.826365,"station_id":"KPB","station_name":"Kampung Bandan","i_lat":-6.132549,"is_transit":true,"transit":true},{"i_long":106.812439,"is_transit":true,"station_id":"JAKK","transit":true,"time":3,"i_lat":-6.137569,"distance":1364,"station_name":"Jakarta Kota","line":2},{"is_transit":false,"station_id":"JAY","distance":1264,"time":4,"transit":false,"i_long":106.820901,"i_lat":-6.141205,"station_name":"Jayakarta","line":2},{"transit":false,"time":2,"distance":1080,"station_name":"Manggabesar","i_lat":-6.149769,"i_long":106.82482,"line":2,"station_id":"MGB","is_transit":false},{"i_lat":-6.160725,"is_transit":false,"i_long":106.827103,"distance":906,"line":2,"transit":false,"station_id":"SW","station_name":"Sawah Besar","time":2},{"i_long":106.828284,"line":2,"is_transit":false,"i_lat":-6.166716,"transit":false,"distance":1149,"time":2,"station_id":"JUA","station_name":"Juanda"},{"distance":2015,"i_lat":-6.186295,"station_id":"GDD","time":4,"line":2,"is_transit":false,"station_name":"Gondangdia","transit":false,"i_long":106.832183},{"station_id":"CKI","is_transit":false,"distance":1750,"line":2,"i_lat":-6.198556,"time":3,"station_name":"Cikini","transit":false,"i_long":106.840169},{"station_id":"MRI","i_lat":-6.209883,"transit":true,"i_long":106.84912,"line":2,"station_name":"Manggarai","distance":1590,"time":4,"is_transit":true},{"station_name":"Matraman","distance":1275,"transit":false,"line":1,"station_id":"MTR","time":2,"i_long":106.858896,"i_lat":-6.212485,"is_transit":false},{"i_lat":-6.215091,"is_transit":false,"station_id":"JNG","time":8,"distance":1377,"transit":false,"station_name":"Jatinegara","i_long":106.86807400000001,"line":1},{"station_name":"Klender","station_id":"KLD","distance":3395,"i_lat":-6.2135,"time":3,"transit":false,"line":1,"i_long":106.899548,"is_transit":false},{"line":1,"station_id":"BUA","is_transit":false,"station_name":"Buaran","i_long":106.922662,"time":2,"i_lat":-6.215568,"transit":false,"distance":3100},{"distance":1305,"i_lat":-6.217455,"transit":false,"station_id":"KLDB","is_transit":false,"station_name":"Klenderbaru","i_long":106.939679,"line":1,"time":1},{"is_transit":false,"station_id":"CUK","station_name":"Cakung","transit":false,"i_lat":-6.219053,"i_long":106.951283,"distance":1385,"time":8,"line":1},{"transit":false,"distance":3097,"i_lat":-6.224515,"i_long":106.977657,"line":1,"station_name":"Kranji","is_transit":false,"station_id":"KRI","time":3},{"i_lat":-6.236616,"line":1,"time":4,"transit":false,"is_transit":false,"distance":2520,"i_long":106.997013,"station_id":"BKS","station_name":"Bekasi"},{"distance":2368,"is_transit":false,"i_long":107.016735,"station_name":"Bekasi Timur","transit":false,"station_id":"BKST","time":2,"i_lat":-6.248029,"line":1},{"line":1,"is_transit":false,"distance":4460,"i_long":107.055722,"station_name":"Tambun","transit":false,"station_id":"TB","time":7,"i_lat":-6.258864},{"time":3,"transit":false,"i_long":107.083084,"distance":3420,"station_name":"Cibitung","is_transit":false,"line":1,"station_id":"CIT","i_lat":-6.261877},{"transit":false,"line":1,"station_name":"Metland Telaga Murni","is_transit":false,"distance":2800,"time":2,"i_lat":-6.262938,"i_long":107.093313,"station_id":"TLM"},{"time":4,"distance":3689,"i_lat":-6.2553149999999995,"i_long":107.144613,"line":1,"is_transit":false,"station_id":"CKR","station_name":"Cikarang","transit":false}],[{"station_name":"Batuceper","is_transit":false,"time":0,"station_id":"BPR","transit":false,"i_lat":-6.171811,"distance":0,"i_long":106.665036,"line":5},{"time":3,"distance":1834,"line":5,"is_transit":false,"station_id":"PI","transit":false,"i_long":106.679458,"i_lat":-6.169933,"station_name":"Poris"},{"time":3,"i_lat":-6.166068,"line":5,"station_id":"KDS","transit":false,"i_long":106.701612,"is_transit":false,"distance":2548,"station_name":"Kalideres"},{"station_id":"RW","is_transit":false,"i_long":106.723064,"transit":false,"time":3,"station_name":"Rawa Buaya","distance":2504,"line":5,"i_lat":-6.162758},{"i_long":106.737035,"is_transit":false,"distance":1152,"transit":false,"station_name":"Bojongindah","time":4,"i_lat":-6.159876,"station_id":"BOI","line":5},{"station_id":"TKO","station_name":"Taman Kota","time":2,"i_lat":-6.1587309999999995,"line":5,"transit":false,"is_transit":false,"distance":2334,"i_long":106.756522},{"station_id":"PSG","station_name":"Pesing","distance":1614,"time":2,"transit":false,"i_lat":-6.161433,"line":5,"is_transit":false,"i_long":106.771379},{"i_lat":-6.162021,"distance":2036,"is_transit":false,"station_name":"Grogol","transit":false,"i_long":106.788277,"line":5,"station_id":"GGL","time":2},{"transit":true,"station_id":"DU","i_long":106.800832,"is_transit":true,"station_name":"Duri","distance":1700,"time":3,"i_lat":-6.155215,"line":1},{"distance":3632,"i_lat":-6.185545,"time":8,"transit":false,"i_long":106.811091,"station_id":"THB","is_transit":false,"line":1,"station_name":"Tanah Abang"},{"transit":false,"line":1,"station_name":"Karet","distance":2029,"time":5,"i_long":106.816351,"is_transit":false,"station_id":"KAT","i_lat":-6.20132},{"station_name":"Sudirman Baru","i_long":106.819881,"line":1,"transit":false,"time":1,"is_transit":false,"station_id":"SUDB","distance":471,"i_lat":-6.201433},{"transit":false,"line":1,"distance":280,"station_name":"Sudirman","i_lat":-6.202263,"time":1,"station_id":"SUD","i_long":106.822649,"is_transit":false},{"is_transit":true,"station_id":"MRI","i_long":106.84912,"i_lat":-6.209883,"time":4,"station_name":"Manggarai","distance":3186,"line":2,"transit":true},{"station_name":"Cikini","i_long":106.840169,"station_id":"CKI","distance":1590,"i_lat":-6.198556,"line":2,"time":4,"transit":false,"is_transit":false},{"time":3,"transit":false,"i_lat":-6.186295,"i_long":106.832183,"is_transit":false,"line":2,"distance":1750,"station_name":"Gondangdia","station_id":"GDD"},{"is_transit":false,"station_name":"Juanda","distance":2015,"i_lat":-6.166716,"transit":false,"time":4,"line":2,"i_long":106.828284,"station_id":"JUA"},{"is_transit":false,"line":2,"station_name":"Sawah Besar","transit":false,"time":2,"i_long":106.827103,"i_lat":-6.160725,"station_id":"SW","distance":1149},{"time":2,"line":2,"distance":906,"transit":false,"station_id":"MGB","station_name":"Manggabesar","i_long":106.82482,"i_lat":-6.149769,"is_transit":false},{"station_id":"JAY","distance":1080,"time":2,"line":2,"station_name":"Jayakarta","transit":false,"i_long":106.820901,"i_lat":-6.141205,"is_transit":false},{"is_transit":true,"time":4,"distance":1264,"i_lat":-6.137569,"line":2,"station_name":"Jakarta Kota","transit":true,"i_long":106.812439,"station_id":"JAKK"},{"line":4,"station_name":"Kampung Bandan","transit":true,"time":3,"station_id":"KPB","distance":1364,"i_lat":-6.132549,"i_long":106.826365,"is_transit":true},{"i_lat":-6.14505,"station_id":"RJW","time":3,"station_name":"Rajawali","transit":false,"line":11,"distance":1444,"i_long":106.836569,"is_transit":false},{"line":11,"transit":false,"i_lat":-6.161728,"station_id":"KMO","distance":1901,"time":5,"station_name":"Kemayoran","is_transit":false,"i_long":106.839204},{"transit":false,"distance":1436,"i_lat":-6.174784,"time":4,"line":11,"station_id":"PSE","i_long":106.84368,"station_name":"Pasar Senen","is_transit":false},{"line":11,"is_transit":false,"station_name":"Gang Sentiong","distance":1567,"station_id":"GST","i_long":106.850107,"i_lat":-6.185975,"time":8,"transit":false},{"distance":973,"is_transit":false,"station_id":"KMT","line":11,"i_long":106.855437,"transit":false,"i_lat":-6.193792,"time":1,"station_name":"Kramat"},{"line":11,"time":2,"is_transit":false,"station_id":"POK","i_long":106.861737,"distance":1829,"transit":false,"i_lat":-6.209188,"station_name":"Pondok Jati"},{"time":9,"line":1,"station_name":"Jatinegara","transit":true,"is_transit":true,"i_lat":-6.215091,"i_long":106.86807400000001,"station_id":"JNG","distance":1236},{"station_name":"Klender","i_lat":-6.2135,"station_id":"KLD","line":1,"distance":3395,"time":3,"i_long":106.899548,"is_transit":false,"transit":false},{"distance":3100,"time":2,"station_id":"BUA","is_transit":false,"transit":false,"i_lat":-6.215568,"i_long":106.922662,"line":1,"station_name":"Buaran"},{"station_name":"Klenderbaru","i_long":106.939679,"distance":1305,"transit":false,"i_lat":-6.217455,"time":1,"is_transit":false,"station_id":"KLDB","line":1},{"station_name":"Cakung","station_id":"CUK","time":8,"i_lat":-6.219053,"i_long":106.951283,"transit":false,"line":1,"distance":1385,"is_transit":false},{"time":3,"station_id":"KRI","line":1,"transit":false,"distance":3097,"i_lat":-6.224515,"is_transit":false,"i_long":106.977657,"station_name":"Kranji"},{"i_long":106.997013,"time":4,"i_lat":-6.236616,"line":1,"transit":false,"station_id":"BKS","distance":2520,"is_transit":false,"station_name":"Bekasi"},{"is_transit":false,"line":1,"i_lat":-6.248029,"time":2,"station_name":"Bekasi Timur","i_long":107.016735,"station_id":"BKST","distance":2368,"transit":false},{"i_lat":-6.258864,"i_long":107.055722,"time":7,"station_name":"Tambun","is_transit":false,"distance":4460,"station_id":"TB","line":1,"transit":false},{"station_name":"Cibitung","transit":false,"line":1,"i_lat":-6.261877,"i_long":107.083084,"distance":3420,"is_transit":false,"station_id":"CIT","time":3},{"station_id":"TLM","transit":false,"is_transit":false,"line":1,"station_name":"Metland Telaga Murni","time":2,"i_lat":-6.262938,"i_long":107.093313,"distance":2800},{"station_id":"CKR","station_name":"Cikarang","transit":false,"time":4,"distance":3689,"i_long":107.144613,"is_transit":false,"line":1,"i_lat":-6.2553149999999995}]]}