{"data":[[{"transit":false,"station_id":"BPR","i_lat":-6.171811,"time":0,"i_long":106.665036,"line":5,"distance":0,"station_name":"Batuceper","is_transit":false},{"line":5,"transit":false,"i_lat":-6.169933,"station_id":"PI","time":3,"distance":1834,"is_transit":false,"i_long":106.679458,"station_name":"Poris"},{"i_lat":-6.166068,"station_id":"KDS","i_long":106.701612,"transit":false,"is_transit":false,"distance":2548,"time":3,"line":5,"station_name":"Kalideres"},{"station_name":"Rawa Buaya","is_transit":false,"line":5,"i_long":106.723064,"distance":2504,"time":3,"i_lat":-6.162758,"transit":false,"station_id":"RW"},{"line":5,"distance":1152,"station_name":"Bojongindah","i_lat":-6.159876,"is_transit":false,"transit":false,"time":4,"i_long":106.737035,"station_id":"BOI"},{"time":2,"transit":false,"station_id":"TKO","station_name":"Taman Kota","i_long":106.756522,"distance":2334,"is_transit":false,"i_lat":-6.1587309999999995,"line":5},{"time":2,"distance":1614,"station_name":"Pesing","i_lat":-6.161433,"is_transit":false,"transit":false,"i_long":106.771379,"station_id":"PSG","line":5},{"station_id":"GGL","transit":false,"is_transit":false,"station_name":"Grogol","time":2,"i_lat":-6.162021,"i_long":106.788277,"distance":2036,"line":5},{"transit":true,"i_lat":-6.155215,"i_long":106.800832,"is_transit":true,"station_id":"DU","distance":1700,"time":3,"station_name":"Duri","line":1},{"station_name":"Tanah Abang","is_transit":false,"distance":3632,"line":1,"transit":false,"time":8,"i_lat":-6.185545,"i_long":106.811091,"station_id":"THB"},{"time":5,"transit":false,"distance":2029,"i_lat":-6.20132,"station_id":"KAT","is_transit":false,"line":1,"station_name":"Karet","i_long":106.816351},{"station_id":"SUDB","station_name":"Sudirman Baru","line":1,"is_transit":false,"i_long":106.819881,"i_lat":-6.201433,"transit":false,"time":1,"distance":471},{"distance":280,"station_name":"Sudirman","line":1,"transit":false,"time":1,"station_id":"SUD","is_transit":false,"i_lat":-6.202263,"i_long":106.822649},{"i_lat":-6.209883,"transit":true,"line":2,"i_long":106.84912,"distance":3186,"station_name":"Manggarai","station_id":"MRI","time":4,"is_transit":true},{"station_id":"TEB","i_lat":-6.226659,"time":4,"distance":2610,"i_long":106.857948,"transit":false,"line":2,"station_name":"Tebet","is_transit":false},{"line":2,"time":2,"i_long":106.856607,"station_name":"Cawang","distance":1230,"is_transit":false,"transit":false,"station_id":"CW","i_lat":-6.242512},{"i_lat":-6.255332,"is_transit":false,"i_long":106.85449,"transit":false,"station_id":"DRN","station_name":"Duren Kalibata","time":3,"line":2,"distance":1546}],[{"i_lat":-6.171811,"transit":false,"station_name":"Batuceper","time":0,"line":5,"i_long":106.665036,"station_id":"BPR","distance":0,"is_transit":false},{"distance":1834,"line":5,"i_long":106.679458,"station_id":"PI","is_transit":false,"i_lat":-6.169933,"transit":false,"station_name":"Poris","time":3},{"distance":2548,"is_transit":false,"time":3,"station_id":"KDS","i_lat":-6.166068,"i_long":106.701612,"line":5,"transit":false,"station_name":"Kalideres"},{"line":5,"is_transit":false,"station_name":"Rawa Buaya","distance":2504,"i_long":106.723064,"station_id":"RW","transit":false,"i_lat":-6.162758,"time":3},{"distance":1152,"is_transit":false,"station_name":"Bojongindah","station_id":"BOI","transit":false,"i_long":106.737035,"line":5,"time":4,"i_lat":-6.159876},{"station_id":"TKO","station_name":"Taman Kota","time":2,"distance":2334,"i_long":106.756522,"line":5,"transit":false,"i_lat":-6.1587309999999995,"is_transit":false},{"time":2,"i_lat":-6.161433,"transit":false,"station_name":"Pesing","station_id":"PSG","distance":1614,"is_transit":false,"line":5,"i_long":106.771379},{"station_name":"Grogol","i_lat":-6.162021,"i_long":106.788277,"transit":false,"time":2,"station_id":"GGL","line":5,"is_transit":false,"distance":2036},{"station_name":"Duri","station_id":"DU","transit":true,"time":3,"i_long":106.800832,"distance":1700,"is_transit":true,"line":1,"i_lat":-6.155215},{"is_transit":false,"time":4,"station_name":"Angke","transit":false,"station_id":"AK","i_long":106.79867,"i_lat":-6.144674,"distance":1230,"line":1},{"station_id":"KPB","line":4,"time":9,"is_transit":true,"i_lat":-6.132549,"transit":true,"station_name":"Kampung Bandan","distance":4102,"i_long":106.826365},{"is_transit":true,"time":3,"station_id":"JAKK","i_lat":-6.137569,"line":2,"transit":true,"i_long":106.812439,"distance":1364,"station_name":"Jakarta Kota"},{"time":4,"transit":false,"is_transit":false,"station_name":"Jayakarta","line":2,"distance":1264,"i_long":106.820901,"i_lat":-6.141205,"station_id":"JAY"},{"time":2,"station_name":"Manggabesar","line":2,"is_transit":false,"station_id":"MGB","distance":1080,"i_lat":-6.149769,"transit":false,"i_long":106.82482},{"time":2,"distance":906,"line":2,"i_lat":-6.160725,"is_transit":false,"i_long":106.827103,"station_name":"Sawah Besar","transit":false,"station_id":"SW"},{"time":2,"transit":false,"station_name":"Juanda","station_id":"JUA","line":2,"i_long":106.828284,"is_transit":false,"distance":1149,"i_lat":-6.166716},{"time":4,"distance":2015,"station_name":"Gondangdia","i_lat":-6.186295,"i_long":106.832183,"is_transit":false,"transit":false,"line":2,"station_id":"GDD"},{"station_name":"Cikini","station_id":"CKI","time":3,"line":2,"distance":1750,"is_transit":false,"i_lat":-6.198556,"transit":false,"i_long":106.840169},{"i_long":106.84912,"i_lat":-6.209883,"line":2,"distance":1590,"transit":false,"station_id":"MRI","station_name":"Manggarai","is_transit":false,"time":4},{"i_long":106.857948,"station_name":"Tebet","transit":false,"line":2,"distance":2610,"time":4,"i_lat":-6.226659,"is_transit":false,"station_id":"TEB"},{"i_lat":-6.242512,"i_long":106.856607,"line":2,"is_transit":false,"transit":false,"station_id":"CW","time":2,"distance":1230,"station_name":"Cawang"},{"is_transit":false,"i_lat":-6.255332,"station_id":"DRN","station_name":"Duren Kalibata","transit":false,"time":3,"i_long":106.85449,"line":2,"distance":1546}],[{"is_transit":false,"station_name":"Batuceper","station_id":"BPR","line":5,"time":0,"i_lat":-6.171811,"i_long":106.665036,"transit":false,"distance":0},{"station_id":"PI","time":3,"i_long":106.679458,"is_transit":false,"distance":1834,"line":5,"transit":false,"station_name":"Poris","i_lat":-6.169933},{"i_lat":-6.166068,"station_id":"KDS","station_name":"Kalideres","is_transit":false,"i_long":106.701612,"time":3,"line":5,"transit":false,"distance":2548},{"i_lat":-6.162758,"distance":2504,"transit":false,"line":5,"is_transit":false,"i_long":106.723064,"station_name":"Rawa Buaya","time":3,"station_id":"RW"},{"i_long":106.737035,"is_transit":false,"i_lat":-6.159876,"station_id":"BOI","time":4,"distance":1152,"transit":false,"line":5,"station_name":"Bojongindah"},{"line":5,"distance":2334,"time":2,"is_transit":false,"transit":false,"station_name":"Taman Kota","i_lat":-6.1587309999999995,"i_long":106.756522,"station_id":"TKO"},{"is_transit":false,"transit":false,"distance":1614,"time":2,"station_name":"Pesing","station_id":"PSG","i_long":106.771379,"line":5,"i_lat":-6.161433},{"station_id":"GGL","is_transit":false,"line":5,"i_lat":-6.162021,"station_name":"Grogol","time":2,"i_long":106.788277,"distance":2036,"transit":false},{"line":1,"i_long":106.800832,"station_name":"Duri","is_transit":true,"i_lat":-6.155215,"transit":true,"time":3,"station_id":"DU","distance":1700},{"line":1,"time":4,"i_lat":-6.144674,"station_id":"AK","i_long":106.79867,"transit":false,"distance":1230,"is_transit":false,"station_name":"Angke"},{"i_lat":-6.132549,"station_name":"Kampung Bandan","transit":true,"i_long":106.826365,"is_transit":true,"time":9,"station_id":"KPB","line":4,"distance":4102},{"i_lat":-6.14505,"distance":1444,"line":11,"time":3,"i_long":106.836569,"is_transit":false,"transit":false,"station_id":"RJW","station_name":"Rajawali"},{"i_lat":-6.161728,"i_long":106.839204,"line":11,"is_transit":false,"distance":1901,"station_name":"Kemayoran","time":5,"station_id":"KMO","transit":false},{"i_long":106.84368,"i_lat":-6.174784,"distance":1436,"is_transit":false,"transit":false,"time":4,"line":11,"station_name":"Pasar Senen","station_id":"PSE"},{"i_long":106.850107,"station_name":"Gang Sentiong","time":8,"i_lat":-6.185975,"distance":1567,"transit":false,"line":11,"is_transit":false,"station_id":"GST"},{"is_transit":false,"station_id":"KMT","station_name":"Kramat","line":11,"transit":false,"i_lat":-6.193792,"i_long":106.855437,"distance":973,"time":1},{"time":2,"distance":1829,"transit":false,"i_lat":-6.209188,"line":11,"is_transit":false,"station_name":"Pondok Jati","station_id":"POK","i_long":106.861737},{"time":9,"transit":true,"i_long":106.86807400000001,"station_name":"Jatinegara","distance":1236,"is_transit":true,"station_id":"JNG","i_lat":-6.215091,"line":1},{"is_transit":false,"station_name":"Matraman","transit":false,"line":1,"i_long":106.858896,"i_lat":-6.212485,"time":2,"station_id":"MTR","distance":1377},{"distance":1275,"transit":true,"i_lat":-6.209883,"is_transit":true,"station_name":"Manggarai","line":2,"station_id":"MRI","i_long":106.84912,"time":2},{"station_name":"Tebet","is_transit":false,"i_long":106.857948,"i_lat":-6.226659,"time":4,"distance":2610,"line":2,"station_id":"TEB","transit":false},{"i_lat":-6.242512,"time":2,"line":2,"is_transit":false,"station_id":"CW","distance":1230,"station_name":"Cawang","i_long":106.856607,"transit":false},{"station_name":"Duren Kalibata","distance":1546,"transit":false,"is_transit":false,"time":3,"station_id":"DRN","i_lat":-6.255332,"line":2,"i_long":106.85449}]]}