{"data":[[{"station_id":"BPR","transit":false,"i_long":106.665036,"station_name":"Batuceper","is_transit":false,"distance":0,"time":0,"i_lat":-6.171811,"line":5},{"transit":false,"station_name":"Poris","station_id":"PI","is_transit":false,"time":3,"i_lat":-6.169933,"distance":1834,"i_long":106.679458,"line":5},{"i_lat":-6.166068,"station_id":"KDS","is_transit":false,"distance":2548,"time":3,"transit":false,"i_long":106.701612,"line":5,"station_name":"Kalideres"},{"i_long":106.723064,"station_name":"Rawa Buaya","distance":2504,"is_transit":false,"time":3,"line":5,"i_lat":-6.162758,"transit":false,"station_id":"RW"},{"station_id":"BOI","transit":false,"line":5,"is_transit":false,"i_long":106.737035,"time":4,"station_name":"Bojongindah","i_lat":-6.159876,"distance":1152},{"station_id":"TKO","is_transit":false,"station_name":"Taman Kota","distance":2334,"time":2,"i_lat":-6.1587309999999995,"i_long":106.756522,"transit":false,"line":5},{"station_id":"PSG","transit":false,"distance":1614,"time":2,"is_transit":false,"station_name":"Pesing","i_lat":-6.161433,"i_long":106.771379,"line":5},{"is_transit":false,"time":2,"i_lat":-6.162021,"transit":false,"station_id":"GGL","station_name":"Grogol","distance":2036,"line":5,"i_long":106.788277},{"is_transit":true,"time":3,"i_lat":-6.155215,"line":1,"distance":1700,"i_long":106.800832,"station_id":"DU","transit":true,"station_name":"Duri"},{"i_long":106.811091,"distance":3632,"station_name":"Tanah Abang","time":8,"is_transit":false,"line":1,"station_id":"THB","i_lat":-6.185545,"transit":false},{"transit":false,"i_lat":-6.20132,"is_transit":false,"time":5,"distance":2029,"line":1,"i_long":106.816351,"station_id":"KAT","station_name":"Karet"},{"station_name":"Sudirman Baru","distance":471,"i_long":106.819881,"line":1,"i_lat":-6.201433,"time":1,"transit":false,"is_transit":false,"station_id":"SUDB"},{"station_id":"SUD","time":1,"is_transit":false,"i_long":106.822649,"line":1,"station_name":"Sudirman","i_lat":-6.202263,"distance":280,"transit":false},{"station_id":"MRI","transit":false,"i_lat":-6.209883,"distance":3186,"time":4,"is_transit":false,"i_long":106.84912,"line":2,"station_name":"Manggarai"},{"station_id":"MTR","i_lat":-6.212485,"line":1,"transit":false,"i_long":106.858896,"station_name":"Matraman","time":2,"is_transit":false,"distance":1275},{"line":1,"station_id":"JNG","transit":false,"i_long":106.86807400000001,"time":8,"station_name":"Jatinegara","is_transit":false,"distance":1377,"i_lat":-6.215091},{"i_lat":-6.2135,"station_name":"Klender","i_long":106.899548,"distance":3395,"transit":false,"station_id":"KLD","line":1,"time":3,"is_transit":false},{"transit":false,"is_transit":false,"station_id":"BUA","i_lat":-6.215568,"i_long":106.922662,"line":1,"station_name":"Buaran","time":2,"distance":3100},{"line":1,"i_long":106.939679,"station_name":"Klenderbaru","station_id":"KLDB","time":1,"transit":false,"is_transit":false,"distance":1305,"i_lat":-6.217455},{"i_lat":-6.219053,"distance":1385,"line":1,"is_transit":false,"time":8,"station_name":"Cakung","station_id":"CUK","transit":false,"i_long":106.951283},{"i_lat":-6.224515,"line":1,"station_name":"Kranji","distance":3097,"time":3,"is_transit":false,"station_id":"KRI","transit":false,"i_long":106.977657},{"i_lat":-6.236616,"distance":2520,"station_id":"BKS","line":1,"is_transit":false,"i_long":106.997013,"transit":false,"station_name":"Bekasi","time":4},{"is_transit":false,"transit":false,"time":2,"i_long":107.016735,"station_name":"Bekasi Timur","distance":2368,"i_lat":-6.248029,"line":1,"station_id":"BKST"},{"i_long":107.055722,"station_name":"Tambun","station_id":"TB","distance":4460,"is_transit":false,"transit":false,"time":7,"i_lat":-6.258864,"line":1}],[{"distance":0,"station_name":"Batuceper","line":5,"transit":false,"i_lat":-6.171811,"time":0,"i_long":106.665036,"station_id":"BPR","is_transit":false},{"i_long":106.679458,"transit":false,"is_transit":false,"distance":1834,"station_name":"Poris","station_id":"PI","line":5,"i_lat":-6.169933,"time":3},{"transit":false,"line":5,"i_long":106.701612,"i_lat":-6.166068,"station_id":"KDS","time":3,"distance":2548,"station_name":"Kalideres","is_transit":false},{"i_lat":-6.162758,"i_long":106.723064,"line":5,"station_name":"Rawa Buaya","time":3,"is_transit":false,"station_id":"RW","distance":2504,"transit":false},{"distance":1152,"line":5,"is_transit":false,"station_id":"BOI","i_lat":-6.159876,"transit":false,"station_name":"Bojongindah","i_long":106.737035,"time":4},{"is_transit":false,"station_name":"Taman Kota","station_id":"TKO","i_lat":-6.1587309999999995,"i_long":106.756522,"time":2,"distance":2334,"transit":false,"line":5},{"i_long":106.771379,"transit":false,"distance":1614,"line":5,"time":2,"i_lat":-6.161433,"is_transit":false,"station_name":"Pesing","station_id":"PSG"},{"is_transit":false,"i_long":106.788277,"i_lat":-6.162021,"station_id":"GGL","station_name":"Grogol","time":2,"line":5,"transit":false,"distance":2036},{"station_name":"Duri","station_id":"DU","distance":1700,"line":1,"transit":true,"time":3,"is_transit":true,"i_long":106.800832,"i_lat":-6.155215},{"is_transit":false,"distance":1230,"time":4,"station_name":"Angke","i_long":106.79867,"line":1,"station_id":"AK","i_lat":-6.144674,"transit":false},{"line":4,"i_long":106.826365,"station_id":"KPB","time":9,"i_lat":-6.132549,"station_name":"Kampung Bandan","distance":4102,"is_transit":true,"transit":true},{"i_lat":-6.14505,"transit":false,"station_name":"Rajawali","station_id":"RJW","is_transit":false,"distance":1444,"time":3,"i_long":106.836569,"line":11},{"station_name":"Kemayoran","is_transit":false,"distance":1901,"i_long":106.839204,"transit":false,"station_id":"KMO","time":5,"i_lat":-6.161728,"line":11},{"is_transit":false,"station_id":"PSE","time":4,"transit":false,"i_long":106.84368,"i_lat":-6.174784,"distance":1436,"station_name":"Pasar Senen","line":11},{"time":8,"distance":1567,"line":11,"i_long":106.850107,"station_name":"Gang Sentiong","transit":false,"is_transit":false,"i_lat":-6.185975,"station_id":"GST"},{"is_transit":false,"transit":false,"station_name":"Kramat","time":1,"distance":973,"station_id":"KMT","line":11,"i_long":106.855437,"i_lat":-6.193792},{"is_transit":false,"i_lat":-6.209188,"i_long":106.861737,"line":11,"transit":false,"station_name":"Pondok Jati","distance":1829,"time":2,"station_id":"POK"},{"i_lat":-6.215091,"line":1,"is_transit":true,"i_long":106.86807400000001,"station_name":"Jatinegara","distance":1236,"transit":true,"time":9,"station_id":"JNG"},{"transit":false,"time":3,"is_transit":false,"line":1,"station_id":"KLD","i_long":106.899548,"distance":3395,"i_lat":-6.2135,"station_name":"Klender"},{"transit":false,"time":2,"station_id":"BUA","distance":3100,"i_lat":-6.215568,"i_long":106.922662,"is_transit":false,"line":1,"station_name":"Buaran"},{"station_name":"Klenderbaru","transit":false,"time":1,"station_id":"KLDB","i_lat":-6.217455,"i_long":106.939679,"line":1,"is_transit":false,"distance":1305},{"station_name":"Cakung","station_id":"CUK","line":1,"distance":1385,"time":8,"transit":false,"i_lat":-6.219053,"i_long":106.951283,"is_transit":false},{"is_transit":false,"transit":false,"i_lat":-6.224515,"station_id":"KRI","i_long":106.977657,"distance":3097,"time":3,"line":1,"station_name":"Kranji"},{"station_id":"BKS","i_lat":-6.236616,"transit":false,"is_transit":false,"time":4,"distance":2520,"i_long":106.997013,"line":1,"station_name":"Bekasi"},{"station_id":"BKST","distance":2368,"transit":false,"i_lat":-6.248029,"time":2,"is_transit":false,"i_long":107.016735,"line":1,"station_name":"Bekasi Timur"},{"time":7,"station_id":"TB","station_name":"Tambun","transit":false,"i_long":107.055722,"i_lat":-6.258864,"distance":4460,"is_transit":false,"line":1}],[{"distance":0,"station_name":"Batuceper","transit":false,"i_lat":-6.171811,"line":5,"i_long":106.665036,"time":0,"station_id":"BPR","is_transit":false},{"station_name":"Poris","transit":false,"i_long":106.679458,"line":5,"time":3,"station_id":"PI","is_transit":false,"distance":1834,"i_lat":-6.169933},{"distance":2548,"i_lat":-6.166068,"line":5,"station_name":"Kalideres","time":3,"i_long":106.701612,"station_id":"KDS","transit":false,"is_transit":false},{"station_name":"Rawa Buaya","transit":false,"station_id":"RW","time":3,"line":5,"is_transit":false,"distance":2504,"i_lat":-6.162758,"i_long":106.723064},{"i_long":106.737035,"station_name":"Bojongindah","time":4,"i_lat":-6.159876,"station_id":"BOI","transit":false,"distance":1152,"line":5,"is_transit":false},{"time":2,"station_id":"TKO","is_transit":false,"i_lat":-6.1587309999999995,"transit":false,"i_long":106.756522,"line":5,"station_name":"Taman Kota","distance":2334},{"i_long":106.771379,"line":5,"i_lat":-6.161433,"station_name":"Pesing","transit":false,"time":2,"distance":1614,"station_id":"PSG","is_transit":false},{"i_lat":-6.162021,"line":5,"i_long":106.788277,"station_name":"Grogol","station_id":"GGL","is_transit":false,"transit":false,"time":2,"distance":2036},{"station_name":"Duri","distance":1700,"is_transit":true,"transit":true,"i_long":106.800832,"time":3,"line":1,"i_lat":-6.155215,"station_id":"DU"},{"station_id":"AK","distance":1230,"station_name":"Angke","line":1,"transit":false,"i_lat":-6.144674,"is_transit":false,"time":4,"i_long":106.79867},{"transit":true,"line":4,"station_name":"Kampung Bandan","station_id":"KPB","i_long":106.826365,"is_transit":true,"time":9,"distance":4102,"i_lat":-6.132549},{"is_transit":true,"line":2,"transit":true,"station_id":"JAKK","i_lat":-6.137569,"time":3,"station_name":"Jakarta Kota","distance":1364,"i_long":106.812439},{"line":2,"station_id":"JAY","i_lat":-6.141205,"distance":1264,"station_name":"Jayakarta","transit":false,"time":4,"is_transit":false,"i_long":106.820901},{"transit":false,"time":2,"i_long":106.82482,"station_id":"MGB","distance":1080,"station_name":"Manggabesar","line":2,"is_transit":false,"i_lat":-6.149769},{"transit":false,"is_transit":false,"station_name":"Sawah Besar","time":2,"i_long":106.827103,"distance":906,"i_lat":-6.160725,"station_id":"SW","line":2},{"i_long":106.828284,"is_transit":false,"station_id":"JUA","transit":false,"line":2,"station_name":"Juanda","time":2,"i_lat":-6.166716,"distance":1149},{"i_lat":-6.186295,"station_id":"GDD","is_transit":false,"line":2,"transit":false,"station_name":"Gondangdia","time":4,"i_long":106.832183,"distance":2015},{"i_long":106.840169,"station_id":"CKI","i_lat":-6.198556,"transit":false,"time":3,"distance":1750,"station_name":"Cikini","is_transit":false,"line":2},{"time":4,"transit":true,"line":2,"i_long":106.84912,"station_id":"MRI","distance":1590,"i_lat":-6.209883,"station_name":"Manggarai","is_transit":true},{"i_lat":-6.212485,"station_name":"Matraman","is_transit":false,"distance":1275,"i_long":106.858896,"transit":false,"line":1,"station_id":"MTR","time":2},{"i_lat":-6.215091,"i_long":106.86807400000001,"time":8,"distance":1377,"station_name":"Jatinegara","is_transit":false,"line":1,"station_id":"JNG","transit":false},{"time":3,"station_name":"Klender","transit":false,"i_lat":-6.2135,"line":1,"station_id":"KLD","is_transit":false,"i_long":106.899548,"distance":3395},{"transit":false,"i_long":106.922662,"line":1,"station_name":"Buaran","time":2,"i_lat":-6.215568,"distance":3100,"is_transit":false,"station_id":"BUA"},{"distance":1305,"station_id":"KLDB","transit":false,"i_long":106.939679,"line":1,"i_lat":-6.217455,"time":1,"is_transit":false,"station_name":"Klenderbaru"},{"line":1,"station_name":"Cakung","i_lat":-6.219053,"is_transit":false,"distance":1385,"station_id":"CUK","time":8,"i_long":106.951283,"transit":false},{"i_lat":-6.224515,"is_transit":false,"distance":3097,"line":1,"station_id":"KRI","time":3,"transit":false,"station_name":"Kranji","i_long":106.977657},{"transit":false,"distance":2520,"is_transit":false,"time":4,"i_lat":-6.236616,"i_long":106.997013,"station_name":"Bekasi","line":1,"station_id":"BKS"},{"transit":false,"station_name":"Bekasi Timur","is_transit":false,"time":2,"line":1,"distance":2368,"i_lat":-6.248029,"station_id":"BKST","i_long":107.016735},{"station_name":"Tambun","distance":4460,"i_long":107.055722,"time":7,"i_lat":-6.258864,"station_id":"TB","is_transit":false,"line":1,"transit":false}],[{"line":5,"station_name":"Batuceper","station_id":"BPR","is_transit":false,"distance":0,"time":0,"transit":false,"i_lat":-6.171811,"i_long":106.665036},{"distance":1834,"time":3,"line":5,"transit":false,"station_name":"Poris","is_transit":false,"station_id":"PI","i_long":106.679458,"i_lat":-6.169933},{"line":5,"distance":2548,"station_id":"KDS","transit":false,"i_lat":-6.166068,"time":3,"station_name":"Kalideres","is_transit":false,"i_long":106.701612},{"station_id":"RW","station_name":"Rawa Buaya","i_lat":-6.162758,"line":5,"transit":false,"distance":2504,"is_transit":false,"time":3,"i_long":106.723064},{"distance":1152,"station_id":"BOI","is_transit":false,"station_name":"Bojongindah","time":4,"i_lat":-6.159876,"i_long":106.737035,"line":5,"transit":false},{"station_id":"TKO","line":5,"distance":2334,"i_lat":-6.1587309999999995,"time":2,"i_long":106.756522,"is_transit":false,"station_name":"Taman Kota","transit":false},{"station_id":"PSG","time":2,"is_transit":false,"distance":1614,"station_name":"Pesing","transit":false,"i_long":106.771379,"line":5,"i_lat":-6.161433},{"i_lat":-6.162021,"line":5,"distance":2036,"time":2,"station_name":"Grogol","is_transit":false,"station_id":"GGL","transit":false,"i_long":106.788277},{"i_long":106.800832,"is_transit":true,"station_id":"DU","time":3,"i_lat":-6.155215,"station_name":"Duri","line":1,"transit":true,"distance":1700},{"station_id":"THB","i_long":106.811091,"line":1,"transit":false,"i_lat":-6.185545,"is_transit":false,"station_name":"Tanah Abang","distance":3632,"time":8},{"line":1,"is_transit":false,"station_name":"Karet","time":5,"transit":false,"distance":2029,"i_lat":-6.20132,"station_id":"KAT","i_long":106.816351},{"i_lat":-6.201433,"station_name":"Sudirman Baru","time":1,"station_id":"SUDB","is_transit":false,"transit":false,"i_long":106.819881,"distance":471,"line":1},{"station_name":"Sudirman","transit":false,"time":1,"station_id":"SUD","i_long":106.822649,"i_lat":-6.202263,"distance":280,"line":1,"is_transit":false},{"distance":3186,"station_name":"Manggarai","i_long":106.84912,"is_transit":true,"transit":true,"station_id":"MRI","i_lat":-6.209883,"time":4,"line":2},{"line":2,"station_id":"CKI","distance":1590,"time":4,"is_transit":false,"i_lat":-6.198556,"i_long":106.840169,"station_name":"Cikini","transit":false},{"station_name":"Gondangdia","is_transit":false,"time":3,"station_id":"GDD","transit":false,"distance":1750,"i_lat":-6.186295,"i_long":106.832183,"line":2},{"i_lat":-6.166716,"i_long":106.828284,"transit":false,"line":2,"station_name":"Juanda","distance":2015,"station_id":"JUA","time":4,"is_transit":false},{"station_name":"Sawah Besar","time":2,"line":2,"is_transit":false,"i_long":106.827103,"station_id":"SW","i_lat":-6.160725,"distance":1149,"transit":false},{"time":2,"line":2,"is_transit":false,"i_lat":-6.149769,"transit":false,"station_name":"Manggabesar","i_long":106.82482,"distance":906,"station_id":"MGB"},{"is_transit":false,"station_id":"JAY","i_long":106.820901,"distance":1080,"i_lat":-6.141205,"transit":false,"time":2,"station_name":"Jayakarta","line":2},{"transit":true,"i_lat":-6.137569,"i_long":106.812439,"station_id":"JAKK","station_name":"Jakarta Kota","distance":1264,"line":2,"is_transit":true,"time":4},{"is_transit":true,"distance":1364,"i_long":106.826365,"transit":true,"line":4,"i_lat":-6.132549,"station_name":"Kampung Bandan","time":3,"station_id":"KPB"},{"distance":1444,"i_long":106.836569,"transit":false,"time":3,"station_id":"RJW","i_lat":-6.14505,"line":11,"station_name":"Rajawali","is_transit":false},{"transit":false,"i_long":106.839204,"is_transit":false,"line":11,"time":5,"i_lat":-6.161728,"station_name":"Kemayoran","station_id":"KMO","distance":1901},{"station_name":"Pasar Senen","is_transit":false,"time":4,"distance":1436,"transit":false,"i_long":106.84368,"line":11,"i_lat":-6.174784,"station_id":"PSE"},{"station_name":"Gang Sentiong","is_transit":false,"i_lat":-6.185975,"station_id":"GST","transit":false,"line":11,"time":8,"i_long":106.850107,"distance":1567},{"station_name":"Kramat","is_transit":false,"distance":973,"i_lat":-6.193792,"line":11,"transit":false,"i_long":106.855437,"station_id":"KMT","time":1},{"distance":1829,"station_id":"POK","is_transit":false,"time":2,"transit":false,"i_lat":-6.209188,"i_long":106.861737,"line":11,"station_name":"Pondok Jati"},{"distance":1236,"i_lat":-6.215091,"line":1,"station_id":"JNG","station_name":"Jatinegara","time":9,"is_transit":true,"i_long":106.86807400000001,"transit":true},{"time":3,"line":1,"station_id":"KLD","transit":false,"is_transit":false,"station_name":"Klender","distance":3395,"i_lat":-6.2135,"i_long":106.899548},{"distance":3100,"time":2,"i_lat":-6.215568,"i_long":106.922662,"line":1,"station_id":"BUA","transit":false,"station_name":"Buaran","is_transit":false},{"is_transit":false,"i_long":106.939679,"transit":false,"i_lat":-6.217455,"line":1,"station_id":"KLDB","station_name":"Klenderbaru","distance":1305,"time":1},{"i_long":106.951283,"distance":1385,"is_transit":false,"i_lat":-6.219053,"station_id":"CUK","line":1,"transit":false,"station_name":"Cakung","time":8},{"station_name":"Kranji","distance":3097,"station_id":"KRI","line":1,"transit":false,"i_long":106.977657,"time":3,"i_lat":-6.224515,"is_transit":false},{"i_lat":-6.236616,"distance":2520,"transit":false,"i_long":106.997013,"line":1,"is_transit":false,"station_id":"BKS","time":4,"station_name":"Bekasi"},{"is_transit":false,"station_id":"BKST","transit":false,"line":1,"distance":2368,"i_long":107.016735,"station_name":"Bekasi Timur","time":2,"i_lat":-6.248029},{"distance":4460,"i_long":107.055722,"i_lat":-6.258864,"transit":false,"line":1,"station_name":"Tambun","time":7,"station_id":"TB","is_transit":false}]]}