{"data":[[{"time":0,"station_name":"Batuceper","line":0,"distance":0,"transit":false,"i_long":106.665036,"i_lat":-6.171811,"station_id":"BPR","is_transit":false},{"station_id":"PI","is_transit":false,"i_lat":-6.169933,"line":5,"transit":false,"station_name":"Poris","distance":1834,"i_long":106.679458,"time":3},{"transit":false,"i_lat":-6.166068,"time":3,"line":5,"i_long":106.701612,"station_id":"KDS","is_transit":false,"distance":2548,"station_name":"Kalideres"},{"distance":2504,"i_lat":-6.162758,"station_id":"RW","line":5,"station_name":"Rawa Buaya","transit":false,"time":3,"i_long":106.723064,"is_transit":false},{"i_lat":-6.159876,"station_id":"BOI","distance":1152,"time":4,"station_name":"Bojongindah","is_transit":false,"i_long":106.737035,"line":0,"transit":false},{"is_transit":false,"i_lat":-6.1587309999999995,"time":2,"distance":2334,"i_long":106.756522,"line":5,"transit":false,"station_name":"Taman Kota","station_id":"TKO"},{"time":2,"distance":1614,"station_name":"Pesing","i_long":106.771379,"is_transit":false,"station_id":"PSG","transit":false,"i_lat":-6.161433,"line":5},{"line":5,"i_lat":-6.162021,"time":2,"i_long":106.788277,"station_name":"Grogol","station_id":"GGL","distance":2036,"is_transit":false,"transit":false},{"time":3,"station_id":"DU","transit":true,"line":1,"is_transit":true,"i_lat":-6.155215,"distance":1700,"station_name":"Duri","i_long":106.800832},{"is_transit":true,"transit":false,"line":1,"time":8,"distance":3632,"station_name":"Tanah Abang","i_lat":-6.185545,"i_long":106.811091,"station_id":"THB"},{"is_transit":false,"station_name":"Karet","transit":false,"i_long":106.816351,"station_id":"KAT","i_lat":-6.20132,"line":1,"time":5,"distance":2029},{"distance":471,"time":1,"station_name":"Sudirman Baru","transit":false,"i_lat":-6.201433,"station_id":"SUDB","i_long":106.819881,"line":1,"is_transit":false},{"time":1,"is_transit":false,"station_id":"SUD","i_long":106.822649,"station_name":"Sudirman","distance":280,"transit":false,"line":1,"i_lat":-6.202263},{"line":0,"transit":true,"i_lat":-6.209883,"i_long":106.84912,"distance":3186,"is_transit":true,"station_name":"Manggarai","station_id":"MRI","time":4},{"transit":false,"is_transit":false,"station_id":"TEB","distance":2610,"i_long":106.857948,"line":2,"station_name":"Tebet","i_lat":-6.226659,"time":4},{"distance":1230,"time":2,"line":0,"i_lat":-6.242512,"i_long":106.856607,"station_name":"Cawang","transit":false,"is_transit":false,"station_id":"CW"},{"station_id":"DRN","is_transit":false,"i_long":106.85449,"time":3,"transit":false,"station_name":"Duren Kalibata","distance":1546,"i_lat":-6.255332,"line":0},{"transit":false,"i_long":106.851577,"i_lat":-6.263214,"is_transit":false,"station_id":"PSMB","distance":824,"time":2,"station_name":"Pasar Minggu Baru","line":2},{"station_name":"Pasar Minggu","line":2,"i_lat":-6.2842400000000005,"transit":false,"time":2,"station_id":"PSM","i_long":106.843999,"is_transit":false,"distance":2380},{"time":4,"transit":false,"i_long":106.838896,"station_name":"Tanjung Barat","i_lat":-6.3080680000000005,"station_id":"TNT","distance":2820,"line":2,"is_transit":false},{"i_lat":-6.330363,"time":3,"transit":false,"i_long":106.832616,"station_id":"LNA","is_transit":false,"distance":2671,"line":2,"station_name":"Lenteng Agung"},{"i_long":106.834175,"station_id":"UP","station_name":"Univ. Pancasila","is_transit":false,"i_lat":-6.339291,"transit":false,"line":2,"time":2,"distance":1029},{"i_lat":-6.360749,"i_long":106.831474,"is_transit":false,"station_name":"Univ. Indonesia","station_id":"UI","time":3,"distance":2264,"transit":false,"line":2},{"transit":false,"i_lat":-6.369073,"distance":1109,"time":2,"station_name":"Pondok Cina","line":2,"station_id":"POC","is_transit":false,"i_long":106.831114},{"transit":false,"i_long":106.819451,"line":0,"distance":2727,"station_id":"DPB","i_lat":-6.391065,"station_name":"Depokbaru","is_transit":false,"time":4},{"time":3,"station_name":"Depok","i_long":106.816926,"i_lat":-6.405256,"is_transit":false,"distance":1584,"line":0,"station_id":"DP","transit":false}],[{"time":0,"station_id":"BPR","distance":0,"station_name":"Batuceper","transit":false,"i_long":106.665036,"is_transit":false,"line":0,"i_lat":-6.171811},{"is_transit":false,"station_name":"Poris","distance":1834,"station_id":"PI","i_long":106.679458,"time":3,"i_lat":-6.169933,"line":5,"transit":false},{"station_name":"Kalideres","i_lat":-6.166068,"transit":false,"line":5,"station_id":"KDS","time":3,"i_long":106.701612,"is_transit":false,"distance":2548},{"is_transit":false,"station_name":"Rawa Buaya","transit":false,"i_long":106.723064,"i_lat":-6.162758,"line":5,"time":3,"distance":2504,"station_id":"RW"},{"is_transit":false,"time":4,"line":0,"station_id":"BOI","transit":false,"station_name":"Bojongindah","i_lat":-6.159876,"distance":1152,"i_long":106.737035},{"station_name":"Taman Kota","transit":false,"is_transit":false,"station_id":"TKO","line":5,"time":2,"distance":2334,"i_long":106.756522,"i_lat":-6.1587309999999995},{"is_transit":false,"transit":false,"distance":1614,"time":2,"station_name":"Pesing","i_long":106.771379,"line":5,"station_id":"PSG","i_lat":-6.161433},{"transit":false,"time":2,"station_name":"Grogol","station_id":"GGL","line":5,"i_lat":-6.162021,"is_transit":false,"i_long":106.788277,"distance":2036},{"i_long":106.800832,"i_lat":-6.155215,"station_id":"DU","line":1,"time":3,"station_name":"Duri","is_transit":true,"transit":true,"distance":1700},{"is_transit":false,"time":4,"station_name":"Angke","i_lat":-6.144674,"station_id":"AK","line":0,"distance":1230,"transit":false,"i_long":106.79867},{"is_transit":true,"time":9,"transit":false,"station_id":"KPB","station_name":"Kampung Bandan","i_long":106.826365,"distance":4102,"i_lat":-6.132549,"line":0},{"time":3,"i_lat":-6.137569,"i_long":106.812439,"station_id":"JAKK","transit":true,"station_name":"Jakarta Kota","distance":1364,"line":0,"is_transit":true},{"station_name":"Jayakarta","i_lat":-6.141205,"line":7,"is_transit":false,"i_long":106.820901,"transit":false,"distance":1264,"station_id":"JAY","time":4},{"station_id":"MGB","station_name":"Manggabesar","time":2,"i_lat":-6.149769,"line":2,"is_transit":false,"transit":false,"i_long":106.82482,"distance":1080},{"i_lat":-6.160725,"line":2,"station_name":"Sawah Besar","distance":906,"transit":false,"i_long":106.827103,"is_transit":false,"time":2,"station_id":"SW"},{"distance":1149,"station_name":"Juanda","station_id":"JUA","transit":false,"is_transit":false,"i_lat":-6.166716,"i_long":106.828284,"line":2,"time":2},{"station_id":"GDD","transit":false,"time":4,"station_name":"Gondangdia","i_long":106.832183,"line":2,"is_transit":false,"distance":2015,"i_lat":-6.186295},{"station_id":"CKI","transit":false,"i_long":106.840169,"time":3,"line":0,"distance":1750,"is_transit":false,"station_name":"Cikini","i_lat":-6.198556},{"i_long":106.84912,"is_transit":true,"transit":true,"station_name":"Manggarai","time":4,"distance":1590,"i_lat":-6.209883,"line":0,"station_id":"MRI"},{"station_id":"TEB","distance":2610,"line":2,"time":4,"station_name":"Tebet","i_long":106.857948,"is_transit":false,"transit":false,"i_lat":-6.226659},{"station_name":"Cawang","transit":false,"i_lat":-6.242512,"station_id":"CW","is_transit":false,"line":0,"i_long":106.856607,"time":2,"distance":1230},{"line":0,"station_name":"Duren Kalibata","station_id":"DRN","is_transit":false,"time":3,"distance":1546,"transit":false,"i_long":106.85449,"i_lat":-6.255332},{"is_transit":false,"station_id":"PSMB","i_long":106.851577,"time":2,"station_name":"Pasar Minggu Baru","distance":824,"transit":false,"i_lat":-6.263214,"line":2},{"station_name":"Pasar Minggu","i_lat":-6.2842400000000005,"i_long":106.843999,"is_transit":false,"time":2,"line":2,"distance":2380,"transit":false,"station_id":"PSM"},{"i_lat":-6.3080680000000005,"station_id":"TNT","distance":2820,"line":2,"transit":false,"is_transit":false,"station_name":"Tanjung Barat","time":4,"i_long":106.838896},{"distance":2671,"station_name":"Lenteng Agung","i_lat":-6.330363,"station_id":"LNA","is_transit":false,"time":3,"i_long":106.832616,"line":2,"transit":false},{"station_name":"Univ. Pancasila","line":2,"i_long":106.834175,"i_lat":-6.339291,"transit":false,"time":2,"distance":1029,"station_id":"UP","is_transit":false},{"line":2,"transit":false,"time":3,"is_transit":false,"i_lat":-6.360749,"station_id":"UI","distance":2264,"station_name":"Univ. Indonesia","i_long":106.831474},{"station_id":"POC","i_lat":-6.369073,"i_long":106.831114,"is_transit":false,"distance":1109,"station_name":"Pondok Cina","time":2,"transit":false,"line":2},{"i_lat":-6.391065,"i_long":106.819451,"station_name":"Depokbaru","distance":2727,"line":0,"station_id":"DPB","transit":false,"is_transit":false,"time":4},{"transit":false,"time":3,"station_id":"DP","is_transit":false,"i_lat":-6.405256,"station_name":"Depok","distance":1584,"i_long":106.816926,"line":0}],[{"transit":false,"station_id":"BPR","i_long":106.665036,"line":0,"time":0,"is_transit":false,"distance":0,"i_lat":-6.171811,"station_name":"Batuceper"},{"station_name":"Poris","line":5,"i_long":106.679458,"station_id":"PI","transit":false,"is_transit":false,"time":3,"distance":1834,"i_lat":-6.169933},{"i_lat":-6.166068,"is_transit":false,"i_long":106.701612,"distance":2548,"transit":false,"line":5,"station_name":"Kalideres","station_id":"KDS","time":3},{"station_id":"RW","station_name":"Rawa Buaya","transit":false,"i_lat":-6.162758,"distance":2504,"is_transit":false,"time":3,"i_long":106.723064,"line":5},{"station_id":"BOI","station_name":"Bojongindah","transit":false,"i_lat":-6.159876,"i_long":106.737035,"distance":1152,"time":4,"line":0,"is_transit":false},{"station_id":"TKO","i_lat":-6.1587309999999995,"line":5,"time":2,"transit":false,"i_long":106.756522,"is_transit":false,"distance":2334,"station_name":"Taman Kota"},{"distance":1614,"station_name":"Pesing","is_transit":false,"i_long":106.771379,"time":2,"transit":false,"station_id":"PSG","line":5,"i_lat":-6.161433},{"station_name":"Grogol","transit":false,"i_long":106.788277,"distance":2036,"line":5,"time":2,"i_lat":-6.162021,"station_id":"GGL","is_transit":false},{"distance":1700,"is_transit":true,"i_long":106.800832,"station_name":"Duri","transit":true,"station_id":"DU","line":1,"i_lat":-6.155215,"time":3},{"station_id":"AK","is_transit":false,"i_long":106.79867,"line":0,"transit":false,"station_name":"Angke","i_lat":-6.144674,"distance":1230,"time":4},{"is_transit":true,"transit":true,"time":9,"line":0,"i_lat":-6.132549,"i_long":106.826365,"distance":4102,"station_id":"KPB","station_name":"Kampung Bandan"},{"station_name":"Rajawali","line":11,"station_id":"RJW","transit":false,"is_transit":false,"time":3,"i_lat":-6.14505,"distance":1444,"i_long":106.836569},{"station_id":"KMO","time":5,"transit":false,"is_transit":false,"distance":1901,"station_name":"Kemayoran","i_long":106.839204,"line":11,"i_lat":-6.161728},{"is_transit":false,"line":11,"time":4,"i_lat":-6.174784,"transit":false,"station_id":"PSE","station_name":"Pasar Senen","i_long":106.84368,"distance":1436},{"transit":false,"station_id":"GST","i_lat":-6.185975,"i_long":106.850107,"line":11,"station_name":"Gang Sentiong","is_transit":false,"distance":1567,"time":8},{"station_id":"KMT","i_lat":-6.193792,"line":11,"is_transit":false,"station_name":"Kramat","time":1,"i_long":106.855437,"transit":false,"distance":973},{"is_transit":false,"station_name":"Pondok Jati","line":11,"time":2,"i_long":106.861737,"transit":false,"station_id":"POK","distance":1829,"i_lat":-6.209188},{"station_id":"JNG","i_lat":-6.215091,"is_transit":true,"time":9,"distance":1236,"station_name":"Jatinegara","i_long":106.86807400000001,"line":0,"transit":true},{"transit":false,"line":1,"i_lat":-6.212485,"time":2,"station_name":"Matraman","i_long":106.858896,"station_id":"MTR","is_transit":false,"distance":1377},{"i_long":106.84912,"station_name":"Manggarai","i_lat":-6.209883,"station_id":"MRI","time":2,"line":0,"is_transit":true,"transit":true,"distance":1275},{"i_lat":-6.226659,"distance":2610,"station_id":"TEB","is_transit":false,"time":4,"transit":false,"i_long":106.857948,"station_name":"Tebet","line":2},{"station_name":"Cawang","station_id":"CW","time":2,"is_transit":false,"transit":false,"i_lat":-6.242512,"distance":1230,"i_long":106.856607,"line":0},{"line":0,"distance":1546,"is_transit":false,"i_long":106.85449,"i_lat":-6.255332,"station_id":"DRN","station_name":"Duren Kalibata","time":3,"transit":false},{"distance":824,"transit":false,"station_id":"PSMB","time":2,"station_name":"Pasar Minggu Baru","is_transit":false,"i_lat":-6.263214,"i_long":106.851577,"line":2},{"line":2,"distance":2380,"station_name":"Pasar Minggu","station_id":"PSM","is_transit":false,"i_lat":-6.2842400000000005,"time":2,"transit":false,"i_long":106.843999},{"i_long":106.838896,"time":4,"station_name":"Tanjung Barat","is_transit":false,"transit":false,"i_lat":-6.3080680000000005,"distance":2820,"line":2,"station_id":"TNT"},{"is_transit":false,"i_long":106.832616,"station_name":"Lenteng Agung","time":3,"line":2,"station_id":"LNA","distance":2671,"transit":false,"i_lat":-6.330363},{"transit":false,"station_id":"UP","station_name":"Univ. Pancasila","i_long":106.834175,"distance":1029,"time":2,"i_lat":-6.339291,"line":2,"is_transit":false},{"distance":2264,"transit":false,"i_long":106.831474,"i_lat":-6.360749,"is_transit":false,"time":3,"line":2,"station_id":"UI","station_name":"Univ. Indonesia"},{"line":2,"is_transit":false,"i_long":106.831114,"distance":1109,"station_id":"POC","i_lat":-6.369073,"transit":false,"station_name":"Pondok Cina","time":2},{"line":0,"is_transit":false,"station_id":"DPB","i_lat":-6.391065,"time":4,"station_name":"Depokbaru","transit":false,"distance":2727,"i_long":106.819451},{"station_id":"DP","time":3,"distance":1584,"line":0,"transit":false,"i_lat":-6.405256,"i_long":106.816926,"is_transit":false,"station_name":"Depok"}]]}