{"data":[[{"i_long":106.665036,"line":0,"time":0,"station_name":"Batuceper","station_id":"BPR","is_transit":false,"transit":false,"distance":0,"i_lat":-6.171811},{"i_long":106.679458,"time":3,"line":5,"transit":false,"station_name":"Poris","station_id":"PI","is_transit":false,"i_lat":-6.169933,"distance":1834},{"distance":2548,"station_name":"Kalideres","station_id":"KDS","transit":false,"is_transit":false,"time":3,"i_lat":-6.166068,"i_long":106.701612,"line":5},{"transit":false,"time":3,"i_lat":-6.162758,"is_transit":false,"station_id":"RW","line":5,"i_long":106.723064,"distance":2504,"station_name":"Rawa Buaya"},{"i_lat":-6.159876,"time":4,"distance":1152,"line":0,"transit":false,"station_name":"Bojongindah","station_id":"BOI","is_transit":false,"i_long":106.737035},{"line":5,"distance":2334,"i_lat":-6.1587309999999995,"time":2,"station_id":"TKO","station_name":"Taman Kota","is_transit":false,"transit":false,"i_long":106.756522},{"i_long":106.771379,"is_transit":false,"station_name":"Pesing","line":5,"station_id":"PSG","time":2,"distance":1614,"transit":false,"i_lat":-6.161433},{"i_long":106.788277,"distance":2036,"transit":false,"station_id":"GGL","line":5,"is_transit":false,"time":2,"station_name":"Grogol","i_lat":-6.162021},{"i_long":106.800832,"line":1,"i_lat":-6.155215,"station_name":"Duri","station_id":"DU","transit":true,"is_transit":true,"time":3,"distance":1700},{"i_lat":-6.185545,"distance":3632,"station_id":"THB","line":1,"time":8,"i_long":106.811091,"station_name":"Tanah Abang","transit":false,"is_transit":true},{"line":1,"i_lat":-6.20132,"station_name":"Karet","i_long":106.816351,"distance":2029,"time":5,"transit":false,"is_transit":false,"station_id":"KAT"},{"transit":false,"station_id":"SUDB","is_transit":false,"line":1,"time":1,"i_lat":-6.201433,"distance":471,"i_long":106.819881,"station_name":"Sudirman Baru"},{"station_name":"Sudirman","time":1,"line":1,"is_transit":false,"station_id":"SUD","transit":false,"distance":280,"i_lat":-6.202263,"i_long":106.822649},{"i_long":106.84912,"line":0,"station_id":"MRI","time":4,"distance":3186,"i_lat":-6.209883,"transit":true,"is_transit":true,"station_name":"Manggarai"},{"station_id":"TEB","time":4,"distance":2610,"i_long":106.857948,"line":2,"i_lat":-6.226659,"is_transit":false,"transit":false,"station_name":"Tebet"},{"station_id":"CW","station_name":"Cawang","i_lat":-6.242512,"is_transit":false,"distance":1230,"transit":false,"i_long":106.856607,"line":0,"time":2},{"i_long":106.85449,"distance":1546,"time":3,"is_transit":false,"station_name":"Duren Kalibata","station_id":"DRN","transit":false,"line":0,"i_lat":-6.255332},{"time":2,"is_transit":false,"distance":824,"i_lat":-6.263214,"i_long":106.851577,"line":2,"station_id":"PSMB","transit":false,"station_name":"Pasar Minggu Baru"},{"time":2,"i_lat":-6.2842400000000005,"distance":2380,"i_long":106.843999,"station_name":"Pasar Minggu","station_id":"PSM","line":2,"is_transit":false,"transit":false},{"is_transit":false,"station_id":"TNT","distance":2820,"transit":false,"station_name":"Tanjung Barat","i_long":106.838896,"i_lat":-6.3080680000000005,"line":2,"time":4},{"station_name":"Lenteng Agung","i_lat":-6.330363,"is_transit":false,"distance":2671,"station_id":"LNA","transit":false,"time":3,"i_long":106.832616,"line":2},{"i_lat":-6.339291,"i_long":106.834175,"is_transit":false,"station_name":"Univ. Pancasila","line":2,"station_id":"UP","time":2,"transit":false,"distance":1029},{"i_lat":-6.360749,"transit":false,"station_name":"Univ. Indonesia","time":3,"i_long":106.831474,"station_id":"UI","distance":2264,"is_transit":false,"line":2},{"transit":false,"is_transit":false,"i_lat":-6.369073,"i_long":106.831114,"line":2,"station_name":"Pondok Cina","distance":1109,"time":2,"station_id":"POC"},{"transit":false,"distance":2727,"time":4,"i_long":106.819451,"is_transit":false,"i_lat":-6.391065,"line":0,"station_id":"DPB","station_name":"Depokbaru"},{"station_id":"DP","distance":1584,"time":3,"transit":false,"station_name":"Depok","is_transit":false,"i_long":106.816926,"line":0,"i_lat":-6.405256},{"line":1,"transit":false,"distance":5084,"i_long":106.800298,"station_id":"CTA","i_lat":-6.448811,"station_name":"Citayam","is_transit":true,"time":6},{"station_id":"BJD","station_name":"Bojonggede","is_transit":false,"i_lat":-6.493243,"transit":false,"distance":5197,"i_long":106.792719,"time":5,"line":0}],[{"station_id":"BPR","station_name":"Batuceper","is_transit":false,"transit":false,"line":0,"i_long":106.665036,"time":0,"distance":0,"i_lat":-6.171811},{"line":5,"is_transit":false,"i_long":106.679458,"time":3,"distance":1834,"i_lat":-6.169933,"station_id":"PI","station_name":"Poris","transit":false},{"i_long":106.701612,"is_transit":false,"line":5,"distance":2548,"time":3,"station_id":"KDS","i_lat":-6.166068,"transit":false,"station_name":"Kalideres"},{"station_name":"Rawa Buaya","transit":false,"line":5,"station_id":"RW","i_lat":-6.162758,"i_long":106.723064,"is_transit":false,"time":3,"distance":2504},{"i_long":106.737035,"distance":1152,"station_name":"Bojongindah","transit":false,"station_id":"BOI","time":4,"is_transit":false,"line":0,"i_lat":-6.159876},{"distance":2334,"station_id":"TKO","i_lat":-6.1587309999999995,"time":2,"station_name":"Taman Kota","i_long":106.756522,"line":5,"transit":false,"is_transit":false},{"i_long":106.771379,"time":2,"distance":1614,"station_name":"Pesing","transit":false,"i_lat":-6.161433,"line":5,"is_transit":false,"station_id":"PSG"},{"transit":false,"distance":2036,"is_transit":false,"station_name":"Grogol","line":5,"station_id":"GGL","time":2,"i_lat":-6.162021,"i_long":106.788277},{"station_name":"Duri","transit":true,"time":3,"is_transit":true,"i_lat":-6.155215,"distance":1700,"i_long":106.800832,"station_id":"DU","line":1},{"transit":false,"is_transit":false,"i_long":106.79867,"time":4,"line":0,"distance":1230,"station_id":"AK","station_name":"Angke","i_lat":-6.144674},{"station_name":"Kampung Bandan","time":9,"distance":4102,"i_lat":-6.132549,"line":0,"station_id":"KPB","transit":false,"is_transit":true,"i_long":106.826365},{"transit":true,"i_long":106.812439,"station_name":"Jakarta Kota","is_transit":true,"distance":1364,"line":0,"time":3,"i_lat":-6.137569,"station_id":"JAKK"},{"transit":false,"time":4,"is_transit":false,"i_long":106.820901,"line":7,"station_name":"Jayakarta","station_id":"JAY","distance":1264,"i_lat":-6.141205},{"line":2,"is_transit":false,"time":2,"distance":1080,"station_name":"Manggabesar","i_long":106.82482,"transit":false,"i_lat":-6.149769,"station_id":"MGB"},{"i_lat":-6.160725,"station_name":"Sawah Besar","time":2,"is_transit":false,"station_id":"SW","line":2,"transit":false,"distance":906,"i_long":106.827103},{"line":2,"distance":1149,"i_long":106.828284,"i_lat":-6.166716,"station_name":"Juanda","transit":false,"station_id":"JUA","time":2,"is_transit":false},{"i_lat":-6.186295,"line":2,"transit":false,"is_transit":false,"station_name":"Gondangdia","station_id":"GDD","time":4,"distance":2015,"i_long":106.832183},{"i_long":106.840169,"station_id":"CKI","distance":1750,"i_lat":-6.198556,"line":0,"transit":false,"station_name":"Cikini","time":3,"is_transit":false},{"is_transit":true,"i_lat":-6.209883,"transit":true,"distance":1590,"i_long":106.84912,"station_id":"MRI","time":4,"line":0,"station_name":"Manggarai"},{"i_lat":-6.226659,"transit":false,"station_id":"TEB","is_transit":false,"station_name":"Tebet","time":4,"distance":2610,"i_long":106.857948,"line":2},{"transit":false,"line":0,"is_transit":false,"distance":1230,"i_lat":-6.242512,"time":2,"station_name":"Cawang","station_id":"CW","i_long":106.856607},{"distance":1546,"station_id":"DRN","transit":false,"is_transit":false,"i_long":106.85449,"i_lat":-6.255332,"line":0,"station_name":"Duren Kalibata","time":3},{"time":2,"is_transit":false,"station_name":"Pasar Minggu Baru","distance":824,"i_long":106.851577,"line":2,"transit":false,"station_id":"PSMB","i_lat":-6.263214},{"i_lat":-6.2842400000000005,"time":2,"transit":false,"i_long":106.843999,"is_transit":false,"line":2,"distance":2380,"station_name":"Pasar Minggu","station_id":"PSM"},{"i_lat":-6.3080680000000005,"line":2,"time":4,"distance":2820,"i_long":106.838896,"station_id":"TNT","station_name":"Tanjung Barat","transit":false,"is_transit":false},{"transit":false,"line":2,"is_transit":false,"station_id":"LNA","i_lat":-6.330363,"station_name":"Lenteng Agung","time":3,"distance":2671,"i_long":106.832616},{"distance":1029,"i_long":106.834175,"transit":false,"station_id":"UP","i_lat":-6.339291,"time":2,"line":2,"is_transit":false,"station_name":"Univ. Pancasila"},{"station_id":"UI","time":3,"distance":2264,"i_lat":-6.360749,"transit":false,"is_transit":false,"station_name":"Univ. Indonesia","i_long":106.831474,"line":2},{"line":2,"i_lat":-6.369073,"transit":false,"i_long":106.831114,"is_transit":false,"station_id":"POC","time":2,"station_name":"Pondok Cina","distance":1109},{"time":4,"line":0,"station_id":"DPB","distance":2727,"i_long":106.819451,"transit":false,"i_lat":-6.391065,"is_transit":false,"station_name":"Depokbaru"},{"i_long":106.816926,"station_name":"Depok","line":0,"transit":false,"station_id":"DP","time":3,"is_transit":false,"i_lat":-6.405256,"distance":1584},{"station_name":"Citayam","i_long":106.800298,"time":6,"station_id":"CTA","i_lat":-6.448811,"is_transit":true,"distance":5084,"line":1,"transit":false},{"station_name":"Bojonggede","line":0,"transit":false,"time":5,"i_lat":-6.493243,"distance":5197,"is_transit":false,"station_id":"BJD","i_long":106.792719}],[{"is_transit":false,"i_long":106.665036,"line":0,"time":0,"i_lat":-6.171811,"transit":false,"distance":0,"station_name":"Batuceper","station_id":"BPR"},{"i_lat":-6.169933,"line":5,"transit":false,"time":3,"station_id":"PI","is_transit":false,"distance":1834,"i_long":106.679458,"station_name":"Poris"},{"is_transit":false,"line":5,"time":3,"distance":2548,"i_lat":-6.166068,"i_long":106.701612,"station_id":"KDS","station_name":"Kalideres","transit":false},{"station_id":"RW","station_name":"Rawa Buaya","time":3,"line":5,"transit":false,"i_long":106.723064,"is_transit":false,"i_lat":-6.162758,"distance":2504},{"station_id":"BOI","time":4,"line":0,"i_long":106.737035,"station_name":"Bojongindah","transit":false,"i_lat":-6.159876,"is_transit":false,"distance":1152},{"station_name":"Taman Kota","station_id":"TKO","transit":false,"time":2,"distance":2334,"line":5,"is_transit":false,"i_long":106.756522,"i_lat":-6.1587309999999995},{"distance":1614,"i_lat":-6.161433,"line":5,"transit":false,"time":2,"station_name":"Pesing","station_id":"PSG","is_transit":false,"i_long":106.771379},{"is_transit":false,"transit":false,"station_id":"GGL","distance":2036,"i_lat":-6.162021,"i_long":106.788277,"line":5,"time":2,"station_name":"Grogol"},{"station_id":"DU","time":3,"transit":true,"i_long":106.800832,"line":1,"station_name":"Duri","is_transit":true,"i_lat":-6.155215,"distance":1700},{"station_name":"Angke","i_long":106.79867,"transit":false,"is_transit":false,"distance":1230,"i_lat":-6.144674,"line":0,"time":4,"station_id":"AK"},{"transit":true,"distance":4102,"i_long":106.826365,"time":9,"is_transit":true,"i_lat":-6.132549,"line":0,"station_name":"Kampung Bandan","station_id":"KPB"},{"station_name":"Rajawali","time":3,"i_lat":-6.14505,"i_long":106.836569,"transit":false,"distance":1444,"line":11,"station_id":"RJW","is_transit":false},{"station_id":"KMO","transit":false,"station_name":"Kemayoran","i_lat":-6.161728,"is_transit":false,"line":11,"distance":1901,"time":5,"i_long":106.839204},{"station_name":"Pasar Senen","time":4,"distance":1436,"i_lat":-6.174784,"line":11,"is_transit":false,"station_id":"PSE","transit":false,"i_long":106.84368},{"line":11,"station_name":"Gang Sentiong","time":8,"is_transit":false,"i_lat":-6.185975,"distance":1567,"transit":false,"i_long":106.850107,"station_id":"GST"},{"i_lat":-6.193792,"i_long":106.855437,"station_id":"KMT","distance":973,"time":1,"is_transit":false,"station_name":"Kramat","transit":false,"line":11},{"line":11,"station_id":"POK","station_name":"Pondok Jati","transit":false,"time":2,"distance":1829,"i_lat":-6.209188,"i_long":106.861737,"is_transit":false},{"station_name":"Jatinegara","i_lat":-6.215091,"i_long":106.86807400000001,"is_transit":true,"distance":1236,"station_id":"JNG","line":0,"transit":true,"time":9},{"i_lat":-6.212485,"station_name":"Matraman","station_id":"MTR","transit":false,"i_long":106.858896,"is_transit":false,"distance":1377,"time":2,"line":1},{"transit":true,"i_long":106.84912,"line":0,"station_id":"MRI","is_transit":true,"distance":1275,"time":2,"station_name":"Manggarai","i_lat":-6.209883},{"i_lat":-6.226659,"i_long":106.857948,"line":2,"station_name":"Tebet","transit":false,"time":4,"station_id":"TEB","distance":2610,"is_transit":false},{"transit":false,"distance":1230,"station_id":"CW","time":2,"i_lat":-6.242512,"is_transit":false,"station_name":"Cawang","i_long":106.856607,"line":0},{"transit":false,"station_name":"Duren Kalibata","station_id":"DRN","line":0,"time":3,"i_lat":-6.255332,"i_long":106.85449,"is_transit":false,"distance":1546},{"transit":false,"station_name":"Pasar Minggu Baru","is_transit":false,"time":2,"station_id":"PSMB","distance":824,"i_lat":-6.263214,"i_long":106.851577,"line":2},{"i_lat":-6.2842400000000005,"distance":2380,"station_name":"Pasar Minggu","is_transit":false,"time":2,"transit":false,"station_id":"PSM","i_long":106.843999,"line":2},{"distance":2820,"station_id":"TNT","is_transit":false,"i_lat":-6.3080680000000005,"line":2,"i_long":106.838896,"time":4,"station_name":"Tanjung Barat","transit":false},{"distance":2671,"i_lat":-6.330363,"time":3,"i_long":106.832616,"transit":false,"line":2,"station_name":"Lenteng Agung","station_id":"LNA","is_transit":false},{"i_long":106.834175,"line":2,"i_lat":-6.339291,"station_name":"Univ. Pancasila","transit":false,"station_id":"UP","distance":1029,"time":2,"is_transit":false},{"transit":false,"station_name":"Univ. Indonesia","time":3,"line":2,"is_transit":false,"distance":2264,"station_id":"UI","i_lat":-6.360749,"i_long":106.831474},{"station_id":"POC","distance":1109,"station_name":"Pondok Cina","line":2,"transit":false,"is_transit":false,"i_lat":-6.369073,"time":2,"i_long":106.831114},{"i_long":106.819451,"station_id":"DPB","is_transit":false,"distance":2727,"transit":false,"line":0,"time":4,"station_name":"Depokbaru","i_lat":-6.391065},{"line":0,"time":3,"i_lat":-6.405256,"is_transit":false,"transit":false,"station_name":"Depok","distance":1584,"station_id":"DP","i_long":106.816926},{"distance":5084,"is_transit":true,"i_lat":-6.448811,"transit":false,"line":1,"time":6,"station_name":"Citayam","i_long":106.800298,"station_id":"CTA"},{"i_long":106.792719,"time":5,"line":0,"i_lat":-6.493243,"station_name":"Bojonggede","is_transit":false,"distance":5197,"transit":false,"station_id":"BJD"}]]}