{"data":[[{"is_transit":false,"distance":0,"line":5,"station_name":"Batuceper","time":0,"i_lat":-6.171811,"transit":false,"station_id":"BPR","i_long":106.665036},{"is_transit":false,"i_long":106.679458,"station_name":"Poris","time":3,"line":5,"transit":false,"i_lat":-6.169933,"station_id":"PI","distance":1834},{"i_lat":-6.166068,"transit":false,"i_long":106.701612,"time":3,"station_name":"Kalideres","line":5,"station_id":"KDS","distance":2548,"is_transit":false},{"i_long":106.723064,"station_id":"RW","line":5,"i_lat":-6.162758,"station_name":"Rawa Buaya","time":3,"distance":2504,"is_transit":false,"transit":false},{"is_transit":false,"station_id":"BOI","station_name":"Bojongindah","i_lat":-6.159876,"time":4,"distance":1152,"transit":false,"i_long":106.737035,"line":5},{"time":2,"distance":2334,"station_id":"TKO","is_transit":false,"i_lat":-6.1587309999999995,"station_name":"Taman Kota","i_long":106.756522,"line":5,"transit":false},{"distance":1614,"i_lat":-6.161433,"station_id":"PSG","transit":false,"line":5,"i_long":106.771379,"station_name":"Pesing","is_transit":false,"time":2},{"i_lat":-6.162021,"distance":2036,"line":5,"transit":false,"i_long":106.788277,"station_id":"GGL","station_name":"Grogol","time":2,"is_transit":false},{"station_name":"Duri","station_id":"DU","i_long":106.800832,"time":3,"distance":1700,"i_lat":-6.155215,"is_transit":true,"transit":true,"line":1},{"time":4,"station_id":"AK","transit":false,"station_name":"Angke","is_transit":false,"distance":1230,"i_lat":-6.144674,"i_long":106.79867,"line":1},{"time":9,"distance":4102,"station_name":"Kampung Bandan","transit":true,"i_lat":-6.132549,"i_long":106.826365,"is_transit":true,"station_id":"KPB","line":4},{"is_transit":false,"i_lat":-6.14505,"station_id":"RJW","i_long":106.836569,"time":3,"distance":1444,"station_name":"Rajawali","transit":false,"line":11},{"is_transit":false,"line":11,"time":5,"i_long":106.839204,"i_lat":-6.161728,"station_name":"Kemayoran","distance":1901,"station_id":"KMO","transit":false},{"time":4,"line":11,"station_name":"Pasar Senen","i_lat":-6.174784,"distance":1436,"station_id":"PSE","transit":false,"i_long":106.84368,"is_transit":false},{"time":8,"station_id":"GST","transit":false,"distance":1567,"line":11,"i_long":106.850107,"i_lat":-6.185975,"station_name":"Gang Sentiong","is_transit":false},{"station_name":"Kramat","i_lat":-6.193792,"station_id":"KMT","is_transit":false,"distance":973,"transit":false,"i_long":106.855437,"line":11,"time":1}],[{"is_transit":false,"time":0,"station_name":"Batuceper","i_lat":-6.171811,"distance":0,"station_id":"BPR","line":5,"transit":false,"i_long":106.665036},{"transit":false,"station_id":"PI","distance":1834,"time":3,"station_name":"Poris","is_transit":false,"line":5,"i_lat":-6.169933,"i_long":106.679458},{"i_lat":-6.166068,"transit":false,"line":5,"station_name":"Kalideres","time":3,"station_id":"KDS","is_transit":false,"i_long":106.701612,"distance":2548},{"line":5,"i_lat":-6.162758,"transit":false,"station_id":"RW","distance":2504,"time":3,"station_name":"Rawa Buaya","is_transit":false,"i_long":106.723064},{"station_id":"BOI","station_name":"Bojongindah","transit":false,"i_long":106.737035,"time":4,"i_lat":-6.159876,"line":5,"is_transit":false,"distance":1152},{"time":2,"distance":2334,"i_long":106.756522,"transit":false,"station_name":"Taman Kota","line":5,"station_id":"TKO","is_transit":false,"i_lat":-6.1587309999999995},{"i_lat":-6.161433,"line":5,"i_long":106.771379,"station_name":"Pesing","distance":1614,"is_transit":false,"time":2,"station_id":"PSG","transit":false},{"station_id":"GGL","transit":false,"i_long":106.788277,"is_transit":false,"line":5,"station_name":"Grogol","i_lat":-6.162021,"time":2,"distance":2036},{"time":3,"station_name":"Duri","i_long":106.800832,"distance":1700,"is_transit":true,"i_lat":-6.155215,"line":1,"station_id":"DU","transit":true},{"station_id":"THB","transit":false,"i_long":106.811091,"distance":3632,"line":1,"station_name":"Tanah Abang","time":8,"i_lat":-6.185545,"is_transit":false},{"i_long":106.816351,"station_id":"KAT","distance":2029,"transit":false,"time":5,"station_name":"Karet","i_lat":-6.20132,"is_transit":false,"line":1},{"i_lat":-6.201433,"station_id":"SUDB","line":1,"time":1,"station_name":"Sudirman Baru","is_transit":false,"transit":false,"i_long":106.819881,"distance":471},{"distance":280,"is_transit":false,"station_id":"SUD","transit":false,"station_name":"Sudirman","i_long":106.822649,"i_lat":-6.202263,"time":1,"line":1},{"station_name":"Manggarai","distance":3186,"station_id":"MRI","transit":false,"is_transit":false,"i_lat":-6.209883,"i_long":106.84912,"time":4,"line":2},{"i_long":106.858896,"i_lat":-6.212485,"is_transit":false,"station_name":"Matraman","station_id":"MTR","line":1,"transit":false,"time":2,"distance":1275},{"transit":true,"is_transit":true,"i_lat":-6.215091,"distance":1377,"time":8,"i_long":106.86807400000001,"station_name":"Jatinegara","line":1,"station_id":"JNG"},{"station_name":"Pondok Jati","i_lat":-6.209188,"distance":1236,"is_transit":false,"i_long":106.861737,"transit":false,"line":11,"time":2,"station_id":"POK"},{"i_long":106.855437,"station_name":"Kramat","distance":1829,"station_id":"KMT","is_transit":false,"i_lat":-6.193792,"line":11,"time":2,"transit":false}],[{"i_long":106.665036,"i_lat":-6.171811,"distance":0,"station_name":"Batuceper","time":0,"station_id":"BPR","is_transit":false,"transit":false,"line":5},{"transit":false,"station_id":"PI","line":5,"distance":1834,"is_transit":false,"station_name":"Poris","i_long":106.679458,"time":3,"i_lat":-6.169933},{"distance":2548,"i_long":106.701612,"station_id":"KDS","transit":false,"station_name":"Kalideres","line":5,"time":3,"is_transit":false,"i_lat":-6.166068},{"time":3,"transit":false,"station_name":"Rawa Buaya","i_lat":-6.162758,"i_long":106.723064,"line":5,"distance":2504,"is_transit":false,"station_id":"RW"},{"station_id":"BOI","distance":1152,"line":5,"time":4,"transit":false,"i_lat":-6.159876,"i_long":106.737035,"station_name":"Bojongindah","is_transit":false},{"i_long":106.756522,"distance":2334,"station_id":"TKO","is_transit":false,"line":5,"time":2,"station_name":"Taman Kota","transit":false,"i_lat":-6.1587309999999995},{"station_id":"PSG","station_name":"Pesing","distance":1614,"transit":false,"time":2,"i_long":106.771379,"i_lat":-6.161433,"is_transit":false,"line":5},{"station_name":"Grogol","station_id":"GGL","i_lat":-6.162021,"distance":2036,"is_transit":false,"transit":false,"i_long":106.788277,"time":2,"line":5},{"i_lat":-6.155215,"distance":1700,"station_id":"DU","i_long":106.800832,"line":1,"transit":true,"is_transit":true,"time":3,"station_name":"Duri"},{"time":4,"distance":1230,"is_transit":false,"station_name":"Angke","line":1,"station_id":"AK","i_lat":-6.144674,"transit":false,"i_long":106.79867},{"time":9,"station_name":"Kampung Bandan","i_long":106.826365,"station_id":"KPB","is_transit":true,"transit":true,"distance":4102,"line":4,"i_lat":-6.132549},{"station_name":"Jakarta Kota","i_lat":-6.137569,"distance":1364,"time":3,"transit":true,"is_transit":true,"line":2,"i_long":106.812439,"station_id":"JAKK"},{"distance":1264,"i_long":106.820901,"station_id":"JAY","transit":false,"i_lat":-6.141205,"is_transit":false,"line":2,"station_name":"Jayakarta","time":4},{"line":2,"transit":false,"station_name":"Manggabesar","i_lat":-6.149769,"distance":1080,"i_long":106.82482,"station_id":"MGB","time":2,"is_transit":false},{"i_lat":-6.160725,"station_name":"Sawah Besar","is_transit":false,"distance":906,"transit":false,"i_long":106.827103,"time":2,"station_id":"SW","line":2},{"is_transit":false,"i_lat":-6.166716,"distance":1149,"station_id":"JUA","i_long":106.828284,"station_name":"Juanda","transit":false,"time":2,"line":2},{"line":2,"station_id":"GDD","station_name":"Gondangdia","distance":2015,"is_transit":false,"transit":false,"time":4,"i_lat":-6.186295,"i_long":106.832183},{"line":2,"distance":1750,"time":3,"station_name":"Cikini","station_id":"CKI","transit":false,"is_transit":false,"i_lat":-6.198556,"i_long":106.840169},{"station_id":"MRI","station_name":"Manggarai","time":4,"transit":true,"is_transit":true,"i_lat":-6.209883,"distance":1590,"line":2,"i_long":106.84912},{"transit":false,"station_id":"MTR","distance":1275,"i_lat":-6.212485,"is_transit":false,"station_name":"Matraman","time":2,"i_long":106.858896,"line":1},{"distance":1377,"station_name":"Jatinegara","time":8,"station_id":"JNG","is_transit":true,"transit":true,"i_lat":-6.215091,"i_long":106.86807400000001,"line":1},{"transit":false,"line":11,"station_name":"Pondok Jati","i_lat":-6.209188,"distance":1236,"is_transit":false,"station_id":"POK","time":2,"i_long":106.861737},{"line":11,"transit":false,"time":2,"distance":1829,"station_name":"Kramat","is_transit":false,"station_id":"KMT","i_lat":-6.193792,"i_long":106.855437}],[{"line":5,"is_transit":false,"station_name":"Batuceper","time":0,"station_id":"BPR","transit":false,"i_lat":-6.171811,"i_long":106.665036,"distance":0},{"is_transit":false,"station_name":"Poris","transit":false,"i_long":106.679458,"line":5,"i_lat":-6.169933,"station_id":"PI","time":3,"distance":1834},{"transit":false,"line":5,"i_long":106.701612,"time":3,"i_lat":-6.166068,"station_name":"Kalideres","station_id":"KDS","is_transit":false,"distance":2548},{"station_id":"RW","station_name":"Rawa Buaya","time":3,"transit":false,"i_long":106.723064,"line":5,"i_lat":-6.162758,"is_transit":false,"distance":2504},{"transit":false,"i_lat":-6.159876,"time":4,"is_transit":false,"i_long":106.737035,"distance":1152,"station_id":"BOI","line":5,"station_name":"Bojongindah"},{"transit":false,"is_transit":false,"line":5,"distance":2334,"time":2,"station_id":"TKO","i_long":106.756522,"station_name":"Taman Kota","i_lat":-6.1587309999999995},{"line":5,"station_id":"PSG","i_long":106.771379,"time":2,"distance":1614,"i_lat":-6.161433,"is_transit":false,"station_name":"Pesing","transit":false},{"time":2,"is_transit":false,"line":5,"i_lat":-6.162021,"i_long":106.788277,"transit":false,"distance":2036,"station_id":"GGL","station_name":"Grogol"},{"distance":1700,"transit":true,"time":3,"station_name":"Duri","i_lat":-6.155215,"is_transit":true,"line":1,"station_id":"DU","i_long":106.800832},{"station_name":"Tanah Abang","station_id":"THB","is_transit":false,"transit":false,"distance":3632,"time":8,"i_lat":-6.185545,"i_long":106.811091,"line":1},{"time":5,"distance":2029,"station_name":"Karet","is_transit":false,"line":1,"i_long":106.816351,"transit":false,"station_id":"KAT","i_lat":-6.20132},{"station_id":"SUDB","station_name":"Sudirman Baru","is_transit":false,"distance":471,"line":1,"time":1,"transit":false,"i_lat":-6.201433,"i_long":106.819881},{"i_lat":-6.202263,"transit":false,"station_name":"Sudirman","is_transit":false,"distance":280,"time":1,"line":1,"i_long":106.822649,"station_id":"SUD"},{"line":2,"transit":true,"i_lat":-6.209883,"station_id":"MRI","station_name":"Manggarai","time":4,"i_long":106.84912,"distance":3186,"is_transit":true},{"transit":false,"station_id":"CKI","i_lat":-6.198556,"i_long":106.840169,"distance":1590,"is_transit":false,"line":2,"station_name":"Cikini","time":4},{"i_long":106.832183,"station_id":"GDD","is_transit":false,"i_lat":-6.186295,"time":3,"line":2,"station_name":"Gondangdia","transit":false,"distance":1750},{"distance":2015,"station_name":"Juanda","station_id":"JUA","i_long":106.828284,"line":2,"is_transit":false,"transit":false,"time":4,"i_lat":-6.166716},{"station_id":"SW","time":2,"distance":1149,"i_lat":-6.160725,"transit":false,"line":2,"station_name":"Sawah Besar","i_long":106.827103,"is_transit":false},{"station_id":"MGB","i_long":106.82482,"time":2,"distance":906,"line":2,"transit":false,"is_transit":false,"station_name":"Manggabesar","i_lat":-6.149769},{"i_lat":-6.141205,"is_transit":false,"line":2,"station_id":"JAY","distance":1080,"transit":false,"time":2,"station_name":"Jayakarta","i_long":106.820901},{"transit":true,"i_long":106.812439,"i_lat":-6.137569,"is_transit":true,"station_name":"Jakarta Kota","distance":1264,"time":4,"station_id":"JAKK","line":2},{"station_id":"KPB","distance":1364,"station_name":"Kampung Bandan","is_transit":true,"line":4,"time":3,"i_lat":-6.132549,"transit":true,"i_long":106.826365},{"station_name":"Rajawali","time":3,"transit":false,"i_lat":-6.14505,"station_id":"RJW","distance":1444,"i_long":106.836569,"line":11,"is_transit":false},{"i_lat":-6.161728,"transit":false,"i_long":106.839204,"line":11,"distance":1901,"station_name":"Kemayoran","station_id":"KMO","time":5,"is_transit":false},{"station_name":"Pasar Senen","i_lat":-6.174784,"station_id":"PSE","distance":1436,"is_transit":false,"transit":false,"line":11,"i_long":106.84368,"time":4},{"i_long":106.850107,"is_transit":false,"i_lat":-6.185975,"station_name":"Gang Sentiong","time":8,"distance":1567,"line":11,"station_id":"GST","transit":false},{"line":11,"is_transit":false,"distance":973,"station_name":"Kramat","time":1,"transit":false,"station_id":"KMT","i_long":106.855437,"i_lat":-6.193792}]]}