{"data":[[{"is_transit":false,"station_name":"Batuceper","time":0,"transit":false,"station_id":"BPR","i_long":106.665036,"i_lat":-6.171811,"line":5,"distance":0},{"distance":1834,"i_lat":-6.169933,"line":5,"station_id":"PI","station_name":"Poris","is_transit":false,"transit":false,"i_long":106.679458,"time":3},{"transit":false,"line":5,"i_long":106.701612,"is_transit":false,"station_name":"Kalideres","time":3,"i_lat":-6.166068,"distance":2548,"station_id":"KDS"},{"station_id":"RW","is_transit":false,"distance":2504,"transit":false,"line":5,"station_name":"Rawa Buaya","i_lat":-6.162758,"i_long":106.723064,"time":3},{"is_transit":false,"transit":false,"i_lat":-6.159876,"distance":1152,"station_id":"BOI","station_name":"Bojongindah","time":4,"i_long":106.737035,"line":5},{"station_id":"TKO","is_transit":false,"transit":false,"i_long":106.756522,"line":5,"station_name":"Taman Kota","time":2,"distance":2334,"i_lat":-6.1587309999999995},{"distance":1614,"line":5,"i_long":106.771379,"time":2,"station_id":"PSG","station_name":"Pesing","transit":false,"is_transit":false,"i_lat":-6.161433},{"is_transit":false,"line":5,"transit":false,"time":2,"station_id":"GRG","i_long":106.788277,"distance":2036,"i_lat":-6.162021,"station_name":"Grogol"},{"time":3,"line":1,"station_name":"Duri","i_lat":-6.155215,"distance":1700,"station_id":"DU","is_transit":true,"transit":true,"i_long":106.800832},{"distance":3632,"station_id":"THB","is_transit":true,"transit":true,"line":1,"i_lat":-6.185545,"i_long":106.811091,"station_name":"Tanah Abang","time":8},{"i_lat":-6.207404,"station_id":"PLM","station_name":"Palmerah","i_long":106.79689,"time":6,"distance":3191,"is_transit":false,"transit":false,"line":6},{"station_name":"Kebayoran","transit":false,"is_transit":false,"station_id":"KBY","i_lat":-6.237242,"distance":3737,"time":7,"line":6,"i_long":106.780334},{"station_name":"Pondokranji","line":6,"is_transit":false,"transit":false,"station_id":"PDJ","time":8,"distance":6218,"i_lat":-6.276362,"i_long":106.74273},{"transit":false,"distance":2179,"station_name":"Jurangmangu","i_lat":-6.288927,"i_long":106.728916,"time":3,"station_id":"JMU","is_transit":false,"line":6},{"station_id":"SDM","time":4,"line":6,"station_name":"Sudimara","transit":false,"distance":1994,"is_transit":false,"i_lat":-6.296963,"i_long":106.712277},{"i_long":106.675475,"distance":4566,"is_transit":false,"line":6,"i_lat":-6.314823,"transit":false,"station_id":"RU","time":6,"station_name":"Rawa Buntu"},{"i_long":106.66566,"is_transit":false,"transit":false,"distance":2413,"station_id":"SRP","i_lat":-6.319871,"time":4,"line":6,"station_name":"Serpong"},{"time":4,"station_name":"Cisauk","transit":false,"distance":1784,"i_lat":-6.32484,"i_long":106.640411,"line":3,"station_id":"CSK","is_transit":false},{"station_id":"CC","line":3,"is_transit":false,"station_name":"Cicayur","time":4,"distance":2519,"transit":false,"i_lat":-6.329547,"i_long":106.617853},{"distance":5968,"transit":false,"is_transit":false,"i_lat":-6.3441410000000005,"station_id":"PRP","line":6,"i_long":106.568863,"time":8,"station_name":"Parung Panjang"},{"station_id":"CJT","line":3,"time":9,"distance":7025,"i_long":106.508482,"station_name":"Cilejit","is_transit":false,"i_lat":-6.354349,"transit":false},{"station_id":"DAR","is_transit":false,"i_lat":-6.338021,"transit":false,"line":0,"station_name":"Daru","distance":2675,"i_long":106.491338,"time":6}],[{"time":0,"is_transit":false,"station_id":"BPR","i_lat":-6.171811,"i_long":106.665036,"station_name":"Batuceper","distance":0,"line":5,"transit":false},{"is_transit":false,"line":5,"station_name":"Poris","i_long":106.679458,"distance":1834,"transit":false,"station_id":"PI","i_lat":-6.169933,"time":3},{"line":5,"time":3,"i_lat":-6.166068,"i_long":106.701612,"distance":2548,"station_name":"Kalideres","station_id":"KDS","transit":false,"is_transit":false},{"time":3,"station_name":"Rawa Buaya","i_long":106.723064,"distance":2504,"station_id":"RW","i_lat":-6.162758,"transit":false,"is_transit":false,"line":5},{"distance":1152,"station_id":"BOI","is_transit":false,"transit":false,"line":5,"time":4,"i_lat":-6.159876,"station_name":"Bojongindah","i_long":106.737035},{"is_transit":false,"i_lat":-6.1587309999999995,"station_id":"TKO","time":2,"distance":2334,"i_long":106.756522,"transit":false,"station_name":"Taman Kota","line":5},{"time":2,"station_name":"Pesing","distance":1614,"is_transit":false,"line":5,"i_long":106.771379,"i_lat":-6.161433,"station_id":"PSG","transit":false},{"station_id":"GRG","i_long":106.788277,"i_lat":-6.162021,"transit":false,"station_name":"Grogol","line":5,"distance":2036,"time":2,"is_transit":false},{"station_name":"Duri","i_long":106.800832,"transit":true,"line":1,"station_id":"DU","is_transit":true,"i_lat":-6.155215,"time":3,"distance":1700},{"transit":false,"station_id":"AK","line":1,"i_long":106.79867,"is_transit":false,"distance":1230,"station_name":"Angke","i_lat":-6.144674,"time":4},{"station_id":"KPB","station_name":"Kampung Bandan","is_transit":true,"distance":4102,"i_long":106.826365,"time":9,"i_lat":-6.132549,"transit":true,"line":4},{"station_name":"Jakarta Kota","is_transit":true,"transit":true,"i_long":106.812439,"i_lat":-6.137569,"time":3,"station_id":"JAKK","distance":1364,"line":2},{"i_lat":-6.141205,"station_id":"JAY","transit":false,"distance":1264,"station_name":"Jayakarta","i_long":106.820901,"time":4,"line":2,"is_transit":false},{"station_id":"MGB","line":2,"transit":false,"time":2,"station_name":"Manggabesar","i_lat":-6.149769,"distance":1080,"is_transit":false,"i_long":106.82482},{"is_transit":false,"i_lat":-6.160725,"i_long":106.827103,"time":2,"distance":906,"station_name":"Sawah Besar","line":2,"station_id":"SW","transit":false},{"station_id":"JUA","time":2,"i_lat":-6.166716,"i_long":106.828284,"line":2,"is_transit":false,"station_name":"Juanda","distance":1149,"transit":false},{"is_transit":false,"transit":false,"station_name":"Gondangdia","i_long":106.832183,"distance":2015,"line":2,"station_id":"GDD","time":4,"i_lat":-6.186295},{"line":2,"station_name":"Cikini","time":3,"is_transit":false,"i_lat":-6.198556,"distance":1750,"transit":false,"station_id":"CKI","i_long":106.840169},{"line":2,"station_id":"MRI","distance":1590,"station_name":"Manggarai","i_lat":-6.209883,"transit":true,"time":4,"is_transit":true,"i_long":106.84912},{"transit":false,"line":1,"station_name":"Sudirman","time":4,"distance":3186,"station_id":"SUD","i_lat":-6.202263,"is_transit":false,"i_long":106.822649},{"transit":false,"i_long":106.819881,"i_lat":-6.201433,"is_transit":false,"station_id":"SUDB","time":1,"station_name":"Sudirman Baru","distance":280,"line":1},{"transit":false,"i_lat":-6.20132,"i_long":106.816351,"is_transit":false,"time":1,"station_id":"KAT","line":1,"distance":471,"station_name":"Karet"},{"time":5,"line":1,"transit":true,"i_long":106.811091,"i_lat":-6.185545,"station_name":"Tanah Abang","station_id":"THB","is_transit":true,"distance":2029},{"i_lat":-6.207404,"transit":false,"distance":3191,"line":6,"station_id":"PLM","i_long":106.79689,"time":6,"station_name":"Palmerah","is_transit":false},{"transit":false,"i_long":106.780334,"line":6,"station_id":"KBY","time":7,"station_name":"Kebayoran","is_transit":false,"i_lat":-6.237242,"distance":3737},{"transit":false,"station_name":"Pondokranji","is_transit":false,"i_long":106.74273,"line":6,"station_id":"PDJ","distance":6218,"i_lat":-6.276362,"time":8},{"station_name":"Jurangmangu","i_long":106.728916,"line":6,"is_transit":false,"distance":2179,"time":3,"i_lat":-6.288927,"station_id":"JMU","transit":false},{"station_name":"Sudimara","i_long":106.712277,"distance":1994,"is_transit":false,"line":6,"time":4,"i_lat":-6.296963,"station_id":"SDM","transit":false},{"distance":4566,"i_long":106.675475,"is_transit":false,"station_name":"Rawa Buntu","station_id":"RU","transit":false,"line":6,"time":6,"i_lat":-6.314823},{"line":6,"station_name":"Serpong","station_id":"SRP","time":4,"i_long":106.66566,"i_lat":-6.319871,"distance":2413,"transit":false,"is_transit":false},{"station_id":"CSK","is_transit":false,"line":3,"station_name":"Cisauk","i_long":106.640411,"distance":1784,"transit":false,"i_lat":-6.32484,"time":4},{"i_lat":-6.329547,"station_id":"CC","i_long":106.617853,"time":4,"station_name":"Cicayur","distance":2519,"is_transit":false,"line":3,"transit":false},{"station_name":"Parung Panjang","is_transit":false,"distance":5968,"i_lat":-6.3441410000000005,"transit":false,"line":6,"time":8,"station_id":"PRP","i_long":106.568863},{"is_transit":false,"i_long":106.508482,"distance":7025,"line":3,"transit":false,"station_id":"CJT","i_lat":-6.354349,"station_name":"Cilejit","time":9},{"station_id":"DAR","line":0,"i_lat":-6.338021,"station_name":"Daru","i_long":106.491338,"time":6,"transit":false,"is_transit":false,"distance":2675}],[{"station_name":"Batuceper","station_id":"BPR","distance":0,"transit":false,"i_lat":-6.171811,"is_transit":false,"i_long":106.665036,"line":5,"time":0},{"i_lat":-6.169933,"time":3,"i_long":106.679458,"line":5,"transit":false,"station_name":"Poris","station_id":"PI","is_transit":false,"distance":1834},{"i_lat":-6.166068,"line":5,"i_long":106.701612,"time":3,"transit":false,"station_name":"Kalideres","is_transit":false,"distance":2548,"station_id":"KDS"},{"time":3,"transit":false,"i_long":106.723064,"line":5,"station_id":"RW","station_name":"Rawa Buaya","is_transit":false,"distance":2504,"i_lat":-6.162758},{"i_long":106.737035,"line":5,"station_id":"BOI","i_lat":-6.159876,"transit":false,"station_name":"Bojongindah","time":4,"distance":1152,"is_transit":false},{"distance":2334,"transit":false,"i_lat":-6.1587309999999995,"is_transit":false,"time":2,"i_long":106.756522,"line":5,"station_name":"Taman Kota","station_id":"TKO"},{"i_lat":-6.161433,"line":5,"station_id":"PSG","distance":1614,"station_name":"Pesing","is_transit":false,"i_long":106.771379,"time":2,"transit":false},{"station_id":"GRG","distance":2036,"i_long":106.788277,"is_transit":false,"station_name":"Grogol","i_lat":-6.162021,"line":5,"transit":false,"time":2},{"is_transit":true,"distance":1700,"time":3,"i_long":106.800832,"transit":true,"station_name":"Duri","line":1,"i_lat":-6.155215,"station_id":"DU"},{"i_long":106.79867,"distance":1230,"station_id":"AK","time":4,"line":1,"is_transit":false,"transit":false,"station_name":"Angke","i_lat":-6.144674},{"station_id":"KPB","station_name":"Kampung Bandan","distance":4102,"time":9,"i_lat":-6.132549,"is_transit":true,"transit":true,"i_long":106.826365,"line":4},{"station_name":"Rajawali","i_long":106.836569,"distance":1444,"time":3,"station_id":"RJW","is_transit":false,"line":11,"i_lat":-6.14505,"transit":false},{"is_transit":false,"distance":1901,"i_lat":-6.161728,"time":5,"station_id":"KMO","transit":false,"station_name":"Kemayoran","i_long":106.839204,"line":11},{"i_lat":-6.174784,"transit":false,"line":11,"station_id":"PSE","time":4,"station_name":"Pasar Senen","distance":1436,"i_long":106.84368,"is_transit":false},{"station_name":"Gang Sentiong","i_long":106.850107,"time":8,"is_transit":false,"line":11,"i_lat":-6.185975,"station_id":"GST","transit":false,"distance":1567},{"station_name":"Kramat","station_id":"KMT","time":1,"i_long":106.855437,"line":11,"distance":973,"i_lat":-6.193792,"is_transit":false,"transit":false},{"i_long":106.861737,"is_transit":false,"station_id":"POK","distance":1829,"i_lat":-6.209188,"line":11,"station_name":"Pondok Jati","time":2,"transit":false},{"transit":true,"is_transit":true,"distance":1236,"station_id":"JNG","i_lat":-6.215091,"station_name":"Jatinegara","i_long":106.86807400000001,"line":1,"time":9},{"i_long":106.858896,"is_transit":false,"transit":false,"line":1,"station_id":"MTR","time":2,"station_name":"Matraman","distance":1377,"i_lat":-6.212485},{"time":2,"station_name":"Manggarai","transit":false,"station_id":"MRI","distance":1275,"line":2,"is_transit":false,"i_long":106.84912,"i_lat":-6.209883},{"time":4,"line":1,"is_transit":false,"station_id":"SUD","distance":3186,"transit":false,"i_lat":-6.202263,"i_long":106.822649,"station_name":"Sudirman"},{"station_name":"Sudirman Baru","i_long":106.819881,"is_transit":false,"time":1,"line":1,"station_id":"SUDB","transit":false,"distance":280,"i_lat":-6.201433},{"station_name":"Karet","i_lat":-6.20132,"time":1,"i_long":106.816351,"is_transit":false,"distance":471,"line":1,"station_id":"KAT","transit":false},{"i_long":106.811091,"distance":2029,"station_name":"Tanah Abang","is_transit":true,"transit":true,"line":1,"station_id":"THB","time":5,"i_lat":-6.185545},{"time":6,"transit":false,"station_id":"PLM","station_name":"Palmerah","is_transit":false,"i_lat":-6.207404,"i_long":106.79689,"distance":3191,"line":6},{"i_lat":-6.237242,"line":6,"distance":3737,"i_long":106.780334,"is_transit":false,"transit":false,"station_name":"Kebayoran","time":7,"station_id":"KBY"},{"i_lat":-6.276362,"distance":6218,"time":8,"is_transit":false,"i_long":106.74273,"line":6,"transit":false,"station_name":"Pondokranji","station_id":"PDJ"},{"distance":2179,"station_name":"Jurangmangu","i_long":106.728916,"time":3,"i_lat":-6.288927,"station_id":"JMU","line":6,"transit":false,"is_transit":false},{"i_lat":-6.296963,"station_name":"Sudimara","is_transit":false,"line":6,"transit":false,"station_id":"SDM","distance":1994,"i_long":106.712277,"time":4},{"line":6,"i_lat":-6.314823,"i_long":106.675475,"station_id":"RU","station_name":"Rawa Buntu","is_transit":false,"distance":4566,"transit":false,"time":6},{"i_long":106.66566,"transit":false,"i_lat":-6.319871,"station_id":"SRP","line":6,"distance":2413,"is_transit":false,"station_name":"Serpong","time":4},{"station_name":"Cisauk","time":4,"is_transit":false,"distance":1784,"station_id":"CSK","i_lat":-6.32484,"line":3,"i_long":106.640411,"transit":false},{"is_transit":false,"distance":2519,"i_long":106.617853,"line":3,"time":4,"transit":false,"station_name":"Cicayur","station_id":"CC","i_lat":-6.329547},{"distance":5968,"line":6,"station_name":"Parung Panjang","i_lat":-6.3441410000000005,"i_long":106.568863,"station_id":"PRP","transit":false,"is_transit":false,"time":8},{"station_name":"Cilejit","time":9,"station_id":"CJT","transit":false,"i_long":106.508482,"line":3,"is_transit":false,"i_lat":-6.354349,"distance":7025},{"station_name":"Daru","is_transit":false,"i_long":106.491338,"line":0,"station_id":"DAR","transit":false,"time":6,"distance":2675,"i_lat":-6.338021}]]}