{"data":[[{"time":0,"station_id":"BUA","distance":0,"i_lat":-6.215568,"is_transit":false,"transit":false,"line":1,"station_name":"Buaran","i_long":106.922662},{"transit":false,"time":2,"station_id":"KLD","is_transit":false,"i_long":106.899548,"i_lat":-6.2135,"station_name":"Klender","distance":3100,"line":1},{"i_long":106.86807400000001,"is_transit":false,"transit":false,"time":3,"line":1,"station_name":"Jatinegara","distance":3395,"i_lat":-6.215091,"station_id":"JNG"},{"is_transit":false,"distance":1377,"transit":false,"i_long":106.858896,"station_name":"Matraman","time":2,"station_id":"MTR","i_lat":-6.212485,"line":1},{"is_transit":true,"line":2,"station_name":"Manggarai","distance":1275,"station_id":"MRI","time":2,"i_long":106.84912,"i_lat":-6.209883,"transit":true},{"station_id":"TEB","station_name":"Tebet","line":2,"is_transit":false,"time":4,"i_lat":-6.226659,"i_long":106.857948,"distance":2610,"transit":false},{"transit":false,"distance":1230,"time":2,"i_lat":-6.242512,"i_long":106.856607,"line":2,"station_id":"CW","station_name":"Cawang","is_transit":false},{"transit":false,"station_id":"DRN","station_name":"Duren Kalibata","i_lat":-6.255332,"is_transit":false,"i_long":106.85449,"line":2,"time":3,"distance":1546},{"i_long":106.851577,"i_lat":-6.263214,"distance":824,"transit":false,"line":2,"station_id":"PSMB","time":2,"station_name":"Pasar Minggu Baru","is_transit":false},{"station_id":"PSM","time":2,"station_name":"Pasar Minggu","i_lat":-6.2842400000000005,"transit":false,"line":2,"i_long":106.843999,"is_transit":false,"distance":2380},{"is_transit":false,"transit":false,"station_name":"Tanjung Barat","station_id":"TNT","i_long":106.838896,"line":2,"time":4,"distance":2820,"i_lat":-6.3080680000000005}],[{"i_long":106.922662,"line":1,"distance":0,"station_name":"Buaran","time":0,"station_id":"BUA","transit":false,"i_lat":-6.215568,"is_transit":false},{"is_transit":false,"i_long":106.899548,"transit":false,"line":1,"time":2,"station_id":"KLD","distance":3100,"i_lat":-6.2135,"station_name":"Klender"},{"distance":3395,"line":1,"station_name":"Jatinegara","time":3,"transit":true,"station_id":"JNG","is_transit":true,"i_lat":-6.215091,"i_long":106.86807400000001},{"station_id":"POK","station_name":"Pondok Jati","i_long":106.861737,"distance":1236,"line":11,"transit":false,"is_transit":false,"time":2,"i_lat":-6.209188},{"station_id":"KMT","time":2,"distance":1829,"transit":false,"i_lat":-6.193792,"i_long":106.855437,"line":11,"is_transit":false,"station_name":"Kramat"},{"distance":973,"time":1,"transit":false,"i_long":106.850107,"is_transit":false,"line":11,"i_lat":-6.185975,"station_name":"Gang Sentiong","station_id":"GST"},{"i_long":106.84368,"distance":1567,"station_id":"PSE","time":8,"station_name":"Pasar Senen","i_lat":-6.174784,"line":11,"transit":false,"is_transit":false},{"station_name":"Kemayoran","transit":false,"station_id":"KMO","i_lat":-6.161728,"line":11,"time":4,"distance":1436,"is_transit":false,"i_long":106.839204},{"station_name":"Rajawali","is_transit":false,"station_id":"RJW","transit":false,"i_lat":-6.14505,"distance":1901,"time":5,"i_long":106.836569,"line":11},{"transit":true,"i_long":106.826365,"line":4,"is_transit":true,"time":3,"distance":1444,"station_id":"KPB","i_lat":-6.132549,"station_name":"Kampung Bandan"},{"line":1,"station_id":"AK","transit":false,"i_lat":-6.144674,"i_long":106.79867,"time":9,"station_name":"Angke","is_transit":false,"distance":4102},{"station_name":"Duri","transit":false,"distance":1230,"station_id":"DU","i_lat":-6.155215,"line":1,"is_transit":false,"time":4,"i_long":106.800832},{"is_transit":false,"i_long":106.811091,"i_lat":-6.185545,"line":1,"station_name":"Tanah Abang","distance":3632,"station_id":"THB","transit":false,"time":8},{"station_name":"Karet","distance":2029,"time":5,"transit":false,"i_lat":-6.20132,"i_long":106.816351,"station_id":"KAT","line":1,"is_transit":false},{"distance":471,"is_transit":false,"line":1,"transit":false,"i_lat":-6.201433,"station_name":"Sudirman Baru","station_id":"SUDB","time":1,"i_long":106.819881},{"station_id":"SUD","time":1,"transit":false,"i_long":106.822649,"line":1,"is_transit":false,"i_lat":-6.202263,"distance":280,"station_name":"Sudirman"},{"is_transit":true,"i_lat":-6.209883,"i_long":106.84912,"time":4,"line":2,"station_name":"Manggarai","transit":true,"station_id":"MRI","distance":3186},{"i_lat":-6.226659,"transit":false,"line":2,"station_id":"TEB","time":4,"station_name":"Tebet","is_transit":false,"distance":2610,"i_long":106.857948},{"station_name":"Cawang","distance":1230,"i_lat":-6.242512,"transit":false,"is_transit":false,"station_id":"CW","time":2,"line":2,"i_long":106.856607},{"transit":false,"is_transit":false,"distance":1546,"line":2,"time":3,"station_name":"Duren Kalibata","i_lat":-6.255332,"station_id":"DRN","i_long":106.85449},{"transit":false,"is_transit":false,"time":2,"station_id":"PSMB","i_long":106.851577,"distance":824,"i_lat":-6.263214,"station_name":"Pasar Minggu Baru","line":2},{"i_lat":-6.2842400000000005,"distance":2380,"station_id":"PSM","station_name":"Pasar Minggu","line":2,"is_transit":false,"time":2,"i_long":106.843999,"transit":false},{"line":2,"station_name":"Tanjung Barat","time":4,"distance":2820,"i_lat":-6.3080680000000005,"station_id":"TNT","transit":false,"i_long":106.838896,"is_transit":false}],[{"i_lat":-6.215568,"station_name":"Buaran","is_transit":false,"time":0,"i_long":106.922662,"station_id":"BUA","line":1,"distance":0,"transit":false},{"transit":false,"station_id":"KLD","line":1,"time":2,"is_transit":false,"distance":3100,"i_lat":-6.2135,"i_long":106.899548,"station_name":"Klender"},{"i_lat":-6.215091,"distance":3395,"station_id":"JNG","i_long":106.86807400000001,"transit":true,"line":1,"time":3,"station_name":"Jatinegara","is_transit":true},{"line":11,"i_long":106.861737,"is_transit":false,"distance":1236,"time":2,"station_name":"Pondok Jati","transit":false,"i_lat":-6.209188,"station_id":"POK"},{"distance":1829,"i_lat":-6.193792,"transit":false,"line":11,"i_long":106.855437,"is_transit":false,"time":2,"station_name":"Kramat","station_id":"KMT"},{"i_long":106.850107,"i_lat":-6.185975,"distance":973,"station_id":"GST","time":1,"line":11,"station_name":"Gang Sentiong","is_transit":false,"transit":false},{"line":11,"i_lat":-6.174784,"station_id":"PSE","transit":false,"is_transit":false,"distance":1567,"i_long":106.84368,"time":8,"station_name":"Pasar Senen"},{"transit":false,"time":4,"distance":1436,"station_name":"Kemayoran","is_transit":false,"i_lat":-6.161728,"i_long":106.839204,"station_id":"KMO","line":11},{"distance":1901,"transit":false,"station_name":"Rajawali","is_transit":false,"station_id":"RJW","i_lat":-6.14505,"time":5,"line":11,"i_long":106.836569},{"i_lat":-6.132549,"is_transit":true,"station_id":"KPB","station_name":"Kampung Bandan","transit":true,"distance":1444,"time":3,"i_long":106.826365,"line":4},{"station_name":"Jakarta Kota","is_transit":true,"time":3,"station_id":"JAKK","distance":1364,"i_lat":-6.137569,"i_long":106.812439,"transit":true,"line":2},{"distance":1264,"i_long":106.820901,"station_id":"JAY","line":2,"i_lat":-6.141205,"is_transit":false,"time":4,"transit":false,"station_name":"Jayakarta"},{"transit":false,"i_long":106.82482,"distance":1080,"station_name":"Manggabesar","is_transit":false,"station_id":"MGB","i_lat":-6.149769,"time":2,"line":2},{"transit":false,"station_id":"SW","time":2,"station_name":"Sawah Besar","line":2,"is_transit":false,"distance":906,"i_long":106.827103,"i_lat":-6.160725},{"station_id":"JUA","transit":false,"time":2,"i_long":106.828284,"i_lat":-6.166716,"station_name":"Juanda","distance":1149,"is_transit":false,"line":2},{"station_id":"GDD","i_lat":-6.186295,"i_long":106.832183,"station_name":"Gondangdia","distance":2015,"line":2,"transit":false,"is_transit":false,"time":4},{"transit":false,"station_id":"CKI","i_lat":-6.198556,"line":2,"time":3,"is_transit":false,"distance":1750,"i_long":106.840169,"station_name":"Cikini"},{"is_transit":false,"transit":false,"station_name":"Manggarai","i_lat":-6.209883,"line":2,"i_long":106.84912,"time":4,"distance":1590,"station_id":"MRI"},{"i_long":106.857948,"line":2,"station_name":"Tebet","distance":2610,"station_id":"TEB","time":4,"i_lat":-6.226659,"transit":false,"is_transit":false},{"line":2,"i_lat":-6.242512,"is_transit":false,"station_name":"Cawang","transit":false,"station_id":"CW","distance":1230,"time":2,"i_long":106.856607},{"time":3,"transit":false,"is_transit":false,"i_long":106.85449,"line":2,"station_name":"Duren Kalibata","distance":1546,"i_lat":-6.255332,"station_id":"DRN"},{"time":2,"i_long":106.851577,"line":2,"transit":false,"is_transit":false,"distance":824,"i_lat":-6.263214,"station_name":"Pasar Minggu Baru","station_id":"PSMB"},{"station_name":"Pasar Minggu","i_long":106.843999,"is_transit":false,"line":2,"transit":false,"station_id":"PSM","time":2,"distance":2380,"i_lat":-6.2842400000000005},{"station_id":"TNT","i_long":106.838896,"i_lat":-6.3080680000000005,"time":4,"station_name":"Tanjung Barat","transit":false,"distance":2820,"line":2,"is_transit":false}]]}