{"data":[[{"distance":0,"time":0,"station_name":"Buaran","line":1,"i_lat":-6.215568,"transit":false,"i_long":106.922662,"station_id":"BUA","is_transit":false},{"i_long":106.899548,"i_lat":-6.2135,"station_id":"KLD","transit":false,"station_name":"Klender","line":1,"time":2,"distance":3100,"is_transit":false},{"time":3,"station_name":"Jatinegara","is_transit":false,"distance":3395,"transit":false,"line":1,"i_long":106.86807400000001,"i_lat":-6.215091,"station_id":"JNG"},{"station_id":"MTR","i_long":106.858896,"station_name":"Matraman","i_lat":-6.212485,"distance":1377,"line":1,"is_transit":false,"time":2,"transit":false},{"time":2,"i_long":106.84912,"transit":true,"i_lat":-6.209883,"station_id":"MRI","line":2,"distance":1275,"station_name":"Manggarai","is_transit":true},{"time":4,"is_transit":false,"i_lat":-6.226659,"station_id":"TEB","distance":2610,"transit":false,"i_long":106.857948,"line":2,"station_name":"Tebet"},{"is_transit":false,"i_lat":-6.242512,"distance":1230,"station_id":"CW","i_long":106.856607,"line":2,"station_name":"Cawang","transit":false,"time":2},{"transit":false,"i_long":106.85449,"i_lat":-6.255332,"station_name":"Duren Kalibata","is_transit":false,"station_id":"DRN","line":2,"time":3,"distance":1546},{"i_lat":-6.263214,"i_long":106.851577,"station_id":"PSMB","time":2,"distance":824,"transit":false,"line":2,"station_name":"Pasar Minggu Baru","is_transit":false},{"is_transit":false,"transit":false,"line":2,"i_lat":-6.2842400000000005,"distance":2380,"i_long":106.843999,"time":2,"station_id":"PSM","station_name":"Pasar Minggu"},{"i_long":106.838896,"transit":false,"station_name":"Tanjung Barat","i_lat":-6.3080680000000005,"station_id":"TNT","time":4,"is_transit":false,"distance":2820,"line":2},{"station_name":"Lenteng Agung","is_transit":false,"i_lat":-6.330363,"i_long":106.832616,"line":2,"station_id":"LNA","transit":false,"time":3,"distance":2671},{"transit":false,"station_name":"Univ. Pancasila","time":2,"i_long":106.834175,"distance":1029,"is_transit":false,"line":2,"station_id":"UP","i_lat":-6.339291},{"distance":2264,"is_transit":false,"i_long":106.831474,"station_name":"Univ. Indonesia","i_lat":-6.360749,"station_id":"UI","line":2,"time":3,"transit":false},{"station_id":"POC","station_name":"Pondok Cina","i_long":106.831114,"line":2,"is_transit":false,"distance":1109,"time":2,"transit":false,"i_lat":-6.369073},{"distance":2727,"station_id":"DPB","station_name":"Depokbaru","line":2,"i_lat":-6.391065,"transit":false,"i_long":106.819451,"time":4,"is_transit":false},{"distance":1584,"is_transit":false,"station_id":"DP","station_name":"Depok","i_lat":-6.405256,"transit":false,"i_long":106.816926,"line":2,"time":3}],[{"line":1,"distance":0,"transit":false,"is_transit":false,"time":0,"station_id":"BUA","i_lat":-6.215568,"station_name":"Buaran","i_long":106.922662},{"transit":false,"is_transit":false,"time":2,"distance":3100,"station_id":"KLD","i_lat":-6.2135,"i_long":106.899548,"line":1,"station_name":"Klender"},{"is_transit":true,"transit":true,"time":3,"station_id":"JNG","station_name":"Jatinegara","i_lat":-6.215091,"i_long":106.86807400000001,"distance":3395,"line":1},{"station_id":"POK","i_lat":-6.209188,"line":11,"time":2,"is_transit":false,"distance":1236,"station_name":"Pondok Jati","i_long":106.861737,"transit":false},{"transit":false,"i_lat":-6.193792,"is_transit":false,"distance":1829,"i_long":106.855437,"line":11,"time":2,"station_name":"Kramat","station_id":"KMT"},{"transit":false,"distance":973,"i_long":106.850107,"is_transit":false,"station_id":"GST","station_name":"Gang Sentiong","i_lat":-6.185975,"time":1,"line":11},{"i_long":106.84368,"is_transit":false,"time":8,"station_name":"Pasar Senen","transit":false,"i_lat":-6.174784,"station_id":"PSE","line":11,"distance":1567},{"line":11,"time":4,"distance":1436,"station_name":"Kemayoran","transit":false,"i_lat":-6.161728,"i_long":106.839204,"station_id":"KMO","is_transit":false},{"station_name":"Rajawali","transit":false,"distance":1901,"station_id":"RJW","line":11,"i_long":106.836569,"is_transit":false,"time":5,"i_lat":-6.14505},{"transit":true,"i_lat":-6.132549,"time":3,"station_name":"Kampung Bandan","distance":1444,"i_long":106.826365,"line":4,"station_id":"KPB","is_transit":true},{"distance":4102,"is_transit":false,"station_id":"AK","transit":false,"time":9,"station_name":"Angke","line":1,"i_lat":-6.144674,"i_long":106.79867},{"i_long":106.800832,"station_id":"DU","i_lat":-6.155215,"distance":1230,"station_name":"Duri","is_transit":false,"line":1,"transit":false,"time":4},{"i_long":106.811091,"is_transit":false,"i_lat":-6.185545,"time":8,"station_id":"THB","distance":3632,"station_name":"Tanah Abang","transit":false,"line":1},{"distance":2029,"station_id":"KAT","i_lat":-6.20132,"is_transit":false,"time":5,"transit":false,"i_long":106.816351,"station_name":"Karet","line":1},{"station_id":"SUDB","i_lat":-6.201433,"is_transit":false,"distance":471,"line":1,"transit":false,"time":1,"i_long":106.819881,"station_name":"Sudirman Baru"},{"station_id":"SUD","distance":280,"is_transit":false,"time":1,"station_name":"Sudirman","i_lat":-6.202263,"i_long":106.822649,"line":1,"transit":false},{"station_id":"MRI","i_lat":-6.209883,"station_name":"Manggarai","transit":true,"i_long":106.84912,"time":4,"line":2,"distance":3186,"is_transit":true},{"transit":false,"station_id":"TEB","i_long":106.857948,"is_transit":false,"distance":2610,"time":4,"station_name":"Tebet","line":2,"i_lat":-6.226659},{"time":2,"i_lat":-6.242512,"i_long":106.856607,"station_name":"Cawang","line":2,"distance":1230,"station_id":"CW","is_transit":false,"transit":false},{"time":3,"station_id":"DRN","is_transit":false,"i_long":106.85449,"distance":1546,"station_name":"Duren Kalibata","line":2,"i_lat":-6.255332,"transit":false},{"i_long":106.851577,"line":2,"time":2,"distance":824,"transit":false,"station_name":"Pasar Minggu Baru","station_id":"PSMB","is_transit":false,"i_lat":-6.263214},{"i_long":106.843999,"is_transit":false,"distance":2380,"station_name":"Pasar Minggu","line":2,"time":2,"i_lat":-6.2842400000000005,"transit":false,"station_id":"PSM"},{"distance":2820,"time":4,"station_id":"TNT","is_transit":false,"i_lat":-6.3080680000000005,"i_long":106.838896,"transit":false,"line":2,"station_name":"Tanjung Barat"},{"line":2,"station_name":"Lenteng Agung","i_long":106.832616,"station_id":"LNA","is_transit":false,"distance":2671,"time":3,"i_lat":-6.330363,"transit":false},{"i_long":106.834175,"transit":false,"line":2,"station_id":"UP","time":2,"distance":1029,"station_name":"Univ. Pancasila","is_transit":false,"i_lat":-6.339291},{"i_long":106.831474,"line":2,"station_id":"UI","station_name":"Univ. Indonesia","i_lat":-6.360749,"transit":false,"time":3,"distance":2264,"is_transit":false},{"i_long":106.831114,"distance":1109,"station_id":"POC","line":2,"time":2,"i_lat":-6.369073,"is_transit":false,"transit":false,"station_name":"Pondok Cina"},{"distance":2727,"station_id":"DPB","i_long":106.819451,"transit":false,"i_lat":-6.391065,"is_transit":false,"time":4,"station_name":"Depokbaru","line":2},{"is_transit":false,"time":3,"distance":1584,"station_name":"Depok","line":2,"i_long":106.816926,"transit":false,"i_lat":-6.405256,"station_id":"DP"}],[{"i_lat":-6.215568,"station_id":"BUA","time":0,"station_name":"Buaran","line":1,"transit":false,"distance":0,"is_transit":false,"i_long":106.922662},{"time":2,"distance":3100,"line":1,"i_long":106.899548,"transit":false,"is_transit":false,"station_id":"KLD","station_name":"Klender","i_lat":-6.2135},{"i_lat":-6.215091,"is_transit":true,"station_name":"Jatinegara","station_id":"JNG","i_long":106.86807400000001,"time":3,"transit":true,"distance":3395,"line":1},{"time":2,"distance":1236,"i_lat":-6.209188,"transit":false,"is_transit":false,"i_long":106.861737,"line":11,"station_id":"POK","station_name":"Pondok Jati"},{"station_id":"KMT","time":2,"transit":false,"is_transit":false,"station_name":"Kramat","i_lat":-6.193792,"i_long":106.855437,"distance":1829,"line":11},{"i_long":106.850107,"transit":false,"is_transit":false,"station_id":"GST","i_lat":-6.185975,"distance":973,"time":1,"line":11,"station_name":"Gang Sentiong"},{"i_lat":-6.174784,"i_long":106.84368,"is_transit":false,"station_id":"PSE","transit":false,"line":11,"station_name":"Pasar Senen","distance":1567,"time":8},{"station_id":"KMO","line":11,"is_transit":false,"time":4,"transit":false,"distance":1436,"station_name":"Kemayoran","i_long":106.839204,"i_lat":-6.161728},{"transit":false,"i_lat":-6.14505,"time":5,"is_transit":false,"distance":1901,"station_id":"RJW","station_name":"Rajawali","i_long":106.836569,"line":11},{"i_lat":-6.132549,"station_id":"KPB","time":3,"is_transit":true,"station_name":"Kampung Bandan","line":4,"transit":true,"i_long":106.826365,"distance":1444},{"time":3,"line":2,"distance":1364,"i_long":106.812439,"is_transit":true,"station_id":"JAKK","transit":true,"station_name":"Jakarta Kota","i_lat":-6.137569},{"is_transit":false,"line":2,"time":4,"transit":false,"station_name":"Jayakarta","station_id":"JAY","distance":1264,"i_long":106.820901,"i_lat":-6.141205},{"station_name":"Manggabesar","distance":1080,"transit":false,"i_lat":-6.149769,"time":2,"i_long":106.82482,"line":2,"station_id":"MGB","is_transit":false},{"is_transit":false,"station_name":"Sawah Besar","line":2,"transit":false,"i_long":106.827103,"time":2,"i_lat":-6.160725,"distance":906,"station_id":"SW"},{"station_name":"Juanda","is_transit":false,"distance":1149,"transit":false,"line":2,"time":2,"station_id":"JUA","i_lat":-6.166716,"i_long":106.828284},{"station_name":"Gondangdia","i_lat":-6.186295,"time":4,"transit":false,"is_transit":false,"distance":2015,"station_id":"GDD","i_long":106.832183,"line":2},{"time":3,"is_transit":false,"distance":1750,"station_id":"CKI","station_name":"Cikini","transit":false,"i_lat":-6.198556,"i_long":106.840169,"line":2},{"i_long":106.84912,"station_name":"Manggarai","station_id":"MRI","i_lat":-6.209883,"transit":false,"time":4,"line":2,"distance":1590,"is_transit":false},{"line":2,"is_transit":false,"distance":2610,"time":4,"station_id":"TEB","transit":false,"station_name":"Tebet","i_lat":-6.226659,"i_long":106.857948},{"transit":false,"is_transit":false,"i_long":106.856607,"line":2,"time":2,"i_lat":-6.242512,"station_id":"CW","distance":1230,"station_name":"Cawang"},{"distance":1546,"station_id":"DRN","i_long":106.85449,"transit":false,"time":3,"station_name":"Duren Kalibata","is_transit":false,"i_lat":-6.255332,"line":2},{"transit":false,"is_transit":false,"station_id":"PSMB","i_long":106.851577,"line":2,"station_name":"Pasar Minggu Baru","time":2,"i_lat":-6.263214,"distance":824},{"is_transit":false,"time":2,"distance":2380,"i_lat":-6.2842400000000005,"transit":false,"line":2,"station_name":"Pasar Minggu","station_id":"PSM","i_long":106.843999},{"i_long":106.838896,"is_transit":false,"station_id":"TNT","line":2,"time":4,"transit":false,"i_lat":-6.3080680000000005,"station_name":"Tanjung Barat","distance":2820},{"transit":false,"station_name":"Lenteng Agung","line":2,"is_transit":false,"time":3,"distance":2671,"station_id":"LNA","i_lat":-6.330363,"i_long":106.832616},{"station_name":"Univ. Pancasila","transit":false,"i_lat":-6.339291,"station_id":"UP","time":2,"i_long":106.834175,"line":2,"distance":1029,"is_transit":false},{"i_lat":-6.360749,"transit":false,"line":2,"station_id":"UI","distance":2264,"is_transit":false,"i_long":106.831474,"station_name":"Univ. Indonesia","time":3},{"is_transit":false,"time":2,"i_lat":-6.369073,"station_id":"POC","station_name":"Pondok Cina","transit":false,"distance":1109,"i_long":106.831114,"line":2},{"i_lat":-6.391065,"transit":false,"i_long":106.819451,"time":4,"station_id":"DPB","station_name":"Depokbaru","line":2,"is_transit":false,"distance":2727},{"station_id":"DP","i_lat":-6.405256,"line":2,"distance":1584,"is_transit":false,"i_long":106.816926,"transit":false,"time":3,"station_name":"Depok"}]]}