{"data":[[{"i_lat":-6.215568,"i_long":106.922662,"line":0,"station_name":"Buaran","station_id":"BUA","is_transit":false,"time":0,"transit":false,"distance":0},{"i_lat":-6.2135,"distance":3100,"is_transit":false,"time":2,"transit":false,"i_long":106.899548,"line":1,"station_name":"Klender","station_id":"KLD"},{"i_lat":-6.215091,"i_long":106.86807400000001,"time":3,"line":0,"station_id":"JNG","station_name":"Jatinegara","transit":false,"distance":3395,"is_transit":true},{"distance":1377,"station_id":"MTR","transit":false,"line":1,"is_transit":false,"station_name":"Matraman","i_lat":-6.212485,"time":2,"i_long":106.858896},{"is_transit":true,"time":2,"station_id":"MRI","i_long":106.84912,"line":0,"transit":true,"station_name":"Manggarai","distance":1275,"i_lat":-6.209883},{"time":4,"distance":1590,"i_lat":-6.198556,"i_long":106.840169,"line":0,"station_name":"Cikini","transit":false,"is_transit":false,"station_id":"CKI"},{"i_long":106.832183,"distance":1750,"station_id":"GDD","is_transit":false,"station_name":"Gondangdia","time":3,"transit":false,"i_lat":-6.186295,"line":2}],[{"i_long":106.922662,"is_transit":false,"station_name":"Buaran","time":0,"line":0,"station_id":"BUA","distance":0,"transit":false,"i_lat":-6.215568},{"time":2,"i_long":106.899548,"station_id":"KLD","distance":3100,"line":1,"transit":false,"station_name":"Klender","is_transit":false,"i_lat":-6.2135},{"station_id":"JNG","station_name":"Jatinegara","is_transit":true,"distance":3395,"time":3,"line":0,"transit":true,"i_lat":-6.215091,"i_long":106.86807400000001},{"station_id":"POK","station_name":"Pondok Jati","distance":1236,"transit":false,"is_transit":false,"time":2,"i_lat":-6.209188,"line":11,"i_long":106.861737},{"distance":1829,"transit":false,"time":2,"station_id":"KMT","line":11,"station_name":"Kramat","i_lat":-6.193792,"i_long":106.855437,"is_transit":false},{"line":11,"station_id":"GST","is_transit":false,"station_name":"Gang Sentiong","distance":973,"i_lat":-6.185975,"transit":false,"time":1,"i_long":106.850107},{"time":8,"line":11,"is_transit":false,"station_id":"PSE","distance":1567,"i_lat":-6.174784,"transit":false,"i_long":106.84368,"station_name":"Pasar Senen"},{"i_lat":-6.161728,"line":11,"time":4,"transit":false,"is_transit":false,"station_id":"KMO","station_name":"Kemayoran","distance":1436,"i_long":106.839204},{"station_name":"Rajawali","i_long":106.836569,"station_id":"RJW","is_transit":false,"distance":1901,"time":5,"i_lat":-6.14505,"transit":false,"line":11},{"is_transit":true,"time":3,"i_long":106.826365,"line":0,"station_id":"KPB","transit":true,"station_name":"Kampung Bandan","i_lat":-6.132549,"distance":1444},{"station_name":"Jakarta Kota","time":3,"distance":1364,"is_transit":true,"i_long":106.812439,"station_id":"JAKK","transit":true,"i_lat":-6.137569,"line":0},{"station_id":"JAY","distance":1264,"i_long":106.820901,"transit":false,"time":4,"station_name":"Jayakarta","i_lat":-6.141205,"line":7,"is_transit":false},{"is_transit":false,"time":2,"line":2,"station_name":"Manggabesar","station_id":"MGB","distance":1080,"transit":false,"i_lat":-6.149769,"i_long":106.82482},{"line":2,"station_id":"SW","time":2,"transit":false,"is_transit":false,"distance":906,"station_name":"Sawah Besar","i_lat":-6.160725,"i_long":106.827103},{"line":2,"transit":false,"distance":1149,"i_lat":-6.166716,"station_id":"JUA","i_long":106.828284,"station_name":"Juanda","is_transit":false,"time":2},{"station_id":"GDD","station_name":"Gondangdia","is_transit":false,"distance":2015,"time":4,"i_long":106.832183,"transit":false,"line":2,"i_lat":-6.186295}],[{"i_lat":-6.215568,"i_long":106.922662,"distance":0,"time":0,"is_transit":false,"station_name":"Buaran","line":0,"station_id":"BUA","transit":false},{"station_id":"KLD","i_lat":-6.2135,"distance":3100,"i_long":106.899548,"station_name":"Klender","is_transit":false,"time":2,"transit":false,"line":1},{"i_lat":-6.215091,"time":3,"line":0,"i_long":106.86807400000001,"distance":3395,"station_name":"Jatinegara","transit":false,"station_id":"JNG","is_transit":true},{"i_lat":-6.212485,"time":2,"station_name":"Matraman","line":1,"is_transit":false,"distance":1377,"transit":false,"station_id":"MTR","i_long":106.858896},{"distance":1275,"is_transit":true,"transit":false,"time":2,"station_name":"Manggarai","line":0,"station_id":"MRI","i_lat":-6.209883,"i_long":106.84912},{"line":1,"transit":false,"i_lat":-6.202263,"is_transit":false,"station_id":"SUD","station_name":"Sudirman","distance":3186,"time":4,"i_long":106.822649},{"i_long":106.819881,"is_transit":false,"i_lat":-6.201433,"station_id":"SUDB","distance":280,"time":1,"station_name":"Sudirman Baru","transit":false,"line":1},{"is_transit":false,"time":1,"transit":false,"i_lat":-6.20132,"distance":471,"line":1,"i_long":106.816351,"station_id":"KAT","station_name":"Karet"},{"station_id":"THB","time":5,"transit":false,"is_transit":true,"station_name":"Tanah Abang","distance":2029,"i_lat":-6.185545,"line":1,"i_long":106.811091},{"station_id":"DU","is_transit":true,"transit":true,"i_lat":-6.155215,"i_long":106.800832,"distance":3632,"line":1,"station_name":"Duri","time":8},{"transit":false,"station_id":"AK","time":4,"i_lat":-6.144674,"distance":1230,"i_long":106.79867,"line":0,"station_name":"Angke","is_transit":false},{"i_lat":-6.132549,"station_id":"KPB","i_long":106.826365,"station_name":"Kampung Bandan","transit":false,"is_transit":true,"time":9,"distance":4102,"line":0},{"is_transit":true,"time":3,"station_id":"JAKK","transit":true,"i_long":106.812439,"line":0,"distance":1364,"i_lat":-6.137569,"station_name":"Jakarta Kota"},{"time":4,"is_transit":false,"i_lat":-6.141205,"station_id":"JAY","station_name":"Jayakarta","line":7,"distance":1264,"transit":false,"i_long":106.820901},{"station_name":"Manggabesar","transit":false,"line":2,"station_id":"MGB","i_lat":-6.149769,"i_long":106.82482,"time":2,"distance":1080,"is_transit":false},{"is_transit":false,"distance":906,"time":2,"i_long":106.827103,"station_id":"SW","i_lat":-6.160725,"line":2,"station_name":"Sawah Besar","transit":false},{"is_transit":false,"transit":false,"station_id":"JUA","i_long":106.828284,"line":2,"i_lat":-6.166716,"station_name":"Juanda","time":2,"distance":1149},{"line":2,"distance":2015,"i_lat":-6.186295,"i_long":106.832183,"station_id":"GDD","is_transit":false,"station_name":"Gondangdia","transit":false,"time":4}],[{"station_id":"BUA","distance":0,"station_name":"Buaran","i_long":106.922662,"time":0,"transit":false,"line":0,"i_lat":-6.215568,"is_transit":false},{"i_lat":-6.2135,"line":1,"time":2,"distance":3100,"station_id":"KLD","transit":false,"i_long":106.899548,"is_transit":false,"station_name":"Klender"},{"i_lat":-6.215091,"is_transit":true,"time":3,"distance":3395,"station_name":"Jatinegara","i_long":106.86807400000001,"line":0,"transit":true,"station_id":"JNG"},{"station_name":"Pondok Jati","is_transit":false,"line":11,"distance":1236,"station_id":"POK","time":2,"transit":false,"i_lat":-6.209188,"i_long":106.861737},{"is_transit":false,"transit":false,"line":11,"time":2,"distance":1829,"i_lat":-6.193792,"station_id":"KMT","station_name":"Kramat","i_long":106.855437},{"station_id":"GST","i_long":106.850107,"line":11,"station_name":"Gang Sentiong","time":1,"is_transit":false,"i_lat":-6.185975,"distance":973,"transit":false},{"is_transit":false,"time":8,"i_long":106.84368,"distance":1567,"line":11,"station_id":"PSE","station_name":"Pasar Senen","transit":false,"i_lat":-6.174784},{"i_lat":-6.161728,"station_name":"Kemayoran","is_transit":false,"distance":1436,"i_long":106.839204,"station_id":"KMO","time":4,"transit":false,"line":11},{"station_id":"RJW","is_transit":false,"line":11,"distance":1901,"i_long":106.836569,"time":5,"station_name":"Rajawali","transit":false,"i_lat":-6.14505},{"station_name":"Kampung Bandan","i_lat":-6.132549,"line":0,"i_long":106.826365,"transit":true,"is_transit":true,"distance":1444,"station_id":"KPB","time":3},{"transit":false,"station_name":"Angke","i_lat":-6.144674,"is_transit":false,"station_id":"AK","distance":4102,"line":0,"time":9,"i_long":106.79867},{"distance":1230,"i_long":106.800832,"transit":true,"i_lat":-6.155215,"line":1,"station_name":"Duri","is_transit":true,"station_id":"DU","time":4},{"is_transit":true,"station_name":"Tanah Abang","station_id":"THB","distance":3632,"line":1,"time":8,"i_lat":-6.185545,"i_long":106.811091,"transit":false},{"time":5,"i_long":106.816351,"distance":2029,"line":1,"station_id":"KAT","i_lat":-6.20132,"station_name":"Karet","transit":false,"is_transit":false},{"i_long":106.819881,"transit":false,"station_name":"Sudirman Baru","i_lat":-6.201433,"station_id":"SUDB","line":1,"distance":471,"is_transit":false,"time":1},{"time":1,"line":1,"is_transit":false,"station_name":"Sudirman","distance":280,"station_id":"SUD","transit":false,"i_long":106.822649,"i_lat":-6.202263},{"time":4,"i_long":106.84912,"is_transit":true,"i_lat":-6.209883,"distance":3186,"transit":true,"line":0,"station_id":"MRI","station_name":"Manggarai"},{"i_lat":-6.198556,"station_name":"Cikini","i_long":106.840169,"time":4,"line":0,"distance":1590,"station_id":"CKI","is_transit":false,"transit":false},{"station_name":"Gondangdia","time":3,"i_lat":-6.186295,"transit":false,"is_transit":false,"distance":1750,"station_id":"GDD","i_long":106.832183,"line":2}]]}