{"data":[[{"is_transit":false,"time":0,"distance":0,"i_lat":-6.215568,"i_long":106.922662,"line":1,"station_name":"Buaran","station_id":"BUA","transit":false},{"i_long":106.899548,"station_id":"KLD","transit":false,"time":2,"is_transit":false,"distance":3100,"line":1,"i_lat":-6.2135,"station_name":"Klender"},{"i_lat":-6.215091,"line":1,"transit":false,"i_long":106.86807400000001,"station_name":"Jatinegara","is_transit":false,"station_id":"JNG","distance":3395,"time":3},{"i_lat":-6.212485,"station_name":"Matraman","transit":false,"time":2,"i_long":106.858896,"is_transit":false,"station_id":"MTR","line":1,"distance":1377},{"line":2,"distance":1275,"i_long":106.84912,"transit":true,"station_id":"MRI","i_lat":-6.209883,"station_name":"Manggarai","time":2,"is_transit":true},{"station_name":"Tebet","i_long":106.857948,"distance":2610,"i_lat":-6.226659,"line":2,"station_id":"TEB","is_transit":false,"time":4,"transit":false},{"i_long":106.856607,"i_lat":-6.242512,"line":2,"time":2,"station_id":"CW","transit":false,"station_name":"Cawang","is_transit":false,"distance":1230},{"is_transit":false,"line":2,"i_lat":-6.255332,"station_name":"Duren Kalibata","station_id":"DRN","time":3,"transit":false,"i_long":106.85449,"distance":1546}],[{"i_lat":-6.215568,"transit":false,"i_long":106.922662,"line":1,"station_name":"Buaran","is_transit":false,"distance":0,"time":0,"station_id":"BUA"},{"station_name":"Klender","transit":false,"station_id":"KLD","i_long":106.899548,"i_lat":-6.2135,"is_transit":false,"time":2,"distance":3100,"line":1},{"distance":3395,"transit":true,"i_lat":-6.215091,"i_long":106.86807400000001,"station_id":"JNG","time":3,"line":1,"is_transit":true,"station_name":"Jatinegara"},{"transit":false,"distance":1236,"line":11,"i_lat":-6.209188,"station_name":"Pondok Jati","station_id":"POK","i_long":106.861737,"time":2,"is_transit":false},{"i_long":106.855437,"transit":false,"i_lat":-6.193792,"line":11,"is_transit":false,"distance":1829,"station_id":"KMT","station_name":"Kramat","time":2},{"transit":false,"i_lat":-6.185975,"i_long":106.850107,"station_id":"GST","is_transit":false,"time":1,"line":11,"station_name":"Gang Sentiong","distance":973},{"station_id":"PSE","is_transit":false,"time":8,"distance":1567,"transit":false,"line":11,"i_lat":-6.174784,"i_long":106.84368,"station_name":"Pasar Senen"},{"time":4,"i_lat":-6.161728,"station_name":"Kemayoran","transit":false,"distance":1436,"i_long":106.839204,"line":11,"station_id":"KMO","is_transit":false},{"station_id":"RJW","time":5,"is_transit":false,"i_lat":-6.14505,"station_name":"Rajawali","transit":false,"i_long":106.836569,"line":11,"distance":1901},{"transit":true,"station_id":"KPB","is_transit":true,"distance":1444,"i_lat":-6.132549,"station_name":"Kampung Bandan","i_long":106.826365,"time":3,"line":4},{"transit":false,"station_name":"Angke","station_id":"AK","is_transit":false,"distance":4102,"i_lat":-6.144674,"line":1,"time":9,"i_long":106.79867},{"i_long":106.800832,"station_id":"DU","station_name":"Duri","time":4,"distance":1230,"line":1,"i_lat":-6.155215,"transit":false,"is_transit":false},{"line":1,"i_long":106.811091,"transit":false,"station_id":"THB","is_transit":false,"i_lat":-6.185545,"station_name":"Tanah Abang","time":8,"distance":3632},{"station_id":"KAT","line":1,"is_transit":false,"time":5,"transit":false,"station_name":"Karet","i_lat":-6.20132,"i_long":106.816351,"distance":2029},{"station_id":"SUDB","distance":471,"i_lat":-6.201433,"time":1,"i_long":106.819881,"is_transit":false,"transit":false,"station_name":"Sudirman Baru","line":1},{"distance":280,"station_id":"SUD","line":1,"is_transit":false,"i_lat":-6.202263,"station_name":"Sudirman","time":1,"transit":false,"i_long":106.822649},{"station_name":"Manggarai","time":4,"transit":true,"station_id":"MRI","i_lat":-6.209883,"i_long":106.84912,"distance":3186,"is_transit":true,"line":2},{"is_transit":false,"line":2,"station_name":"Tebet","transit":false,"station_id":"TEB","distance":2610,"i_long":106.857948,"time":4,"i_lat":-6.226659},{"station_name":"Cawang","i_lat":-6.242512,"is_transit":false,"station_id":"CW","line":2,"i_long":106.856607,"transit":false,"time":2,"distance":1230},{"station_id":"DRN","is_transit":false,"transit":false,"line":2,"time":3,"i_long":106.85449,"distance":1546,"i_lat":-6.255332,"station_name":"Duren Kalibata"}],[{"transit":false,"is_transit":false,"i_lat":-6.215568,"i_long":106.922662,"line":1,"distance":0,"station_id":"BUA","time":0,"station_name":"Buaran"},{"distance":3100,"i_lat":-6.2135,"station_id":"KLD","is_transit":false,"i_long":106.899548,"station_name":"Klender","transit":false,"time":2,"line":1},{"is_transit":true,"i_lat":-6.215091,"i_long":106.86807400000001,"station_id":"JNG","time":3,"distance":3395,"line":1,"station_name":"Jatinegara","transit":true},{"station_name":"Pondok Jati","station_id":"POK","is_transit":false,"i_long":106.861737,"i_lat":-6.209188,"line":11,"transit":false,"time":2,"distance":1236},{"time":2,"station_name":"Kramat","i_long":106.855437,"line":11,"station_id":"KMT","transit":false,"i_lat":-6.193792,"is_transit":false,"distance":1829},{"distance":973,"time":1,"i_long":106.850107,"station_name":"Gang Sentiong","is_transit":false,"transit":false,"line":11,"station_id":"GST","i_lat":-6.185975},{"transit":false,"time":8,"i_lat":-6.174784,"station_name":"Pasar Senen","i_long":106.84368,"line":11,"is_transit":false,"distance":1567,"station_id":"PSE"},{"transit":false,"i_long":106.839204,"distance":1436,"is_transit":false,"station_name":"Kemayoran","line":11,"i_lat":-6.161728,"time":4,"station_id":"KMO"},{"distance":1901,"i_lat":-6.14505,"i_long":106.836569,"line":11,"transit":false,"station_id":"RJW","is_transit":false,"station_name":"Rajawali","time":5},{"i_lat":-6.132549,"station_id":"KPB","transit":true,"station_name":"Kampung Bandan","i_long":106.826365,"distance":1444,"line":4,"time":3,"is_transit":true},{"time":3,"station_name":"Jakarta Kota","i_lat":-6.137569,"is_transit":true,"transit":true,"distance":1364,"i_long":106.812439,"station_id":"JAKK","line":2},{"i_lat":-6.141205,"transit":false,"station_id":"JAY","station_name":"Jayakarta","is_transit":false,"distance":1264,"line":2,"i_long":106.820901,"time":4},{"station_name":"Manggabesar","time":2,"line":2,"transit":false,"is_transit":false,"station_id":"MGB","distance":1080,"i_lat":-6.149769,"i_long":106.82482},{"transit":false,"station_name":"Sawah Besar","is_transit":false,"line":2,"time":2,"i_long":106.827103,"i_lat":-6.160725,"station_id":"SW","distance":906},{"station_name":"Juanda","distance":1149,"time":2,"line":2,"transit":false,"station_id":"JUA","is_transit":false,"i_long":106.828284,"i_lat":-6.166716},{"distance":2015,"station_name":"Gondangdia","is_transit":false,"i_long":106.832183,"line":2,"transit":false,"station_id":"GDD","i_lat":-6.186295,"time":4},{"is_transit":false,"line":2,"station_id":"CKI","distance":1750,"i_long":106.840169,"transit":false,"station_name":"Cikini","i_lat":-6.198556,"time":3},{"line":2,"i_lat":-6.209883,"is_transit":false,"time":4,"transit":false,"distance":1590,"i_long":106.84912,"station_id":"MRI","station_name":"Manggarai"},{"line":2,"i_lat":-6.226659,"station_name":"Tebet","i_long":106.857948,"transit":false,"station_id":"TEB","is_transit":false,"time":4,"distance":2610},{"is_transit":false,"distance":1230,"i_lat":-6.242512,"i_long":106.856607,"station_id":"CW","station_name":"Cawang","line":2,"time":2,"transit":false},{"i_lat":-6.255332,"time":3,"is_transit":false,"transit":false,"line":2,"i_long":106.85449,"station_id":"DRN","station_name":"Duren Kalibata","distance":1546}]]}