{"data":[[{"time":0,"distance":0,"i_long":106.922662,"station_id":"BUA","is_transit":false,"station_name":"Buaran","line":0,"i_lat":-6.215568,"transit":false},{"line":1,"i_long":106.899548,"station_name":"Klender","time":2,"is_transit":false,"station_id":"KLD","transit":false,"i_lat":-6.2135,"distance":3100},{"station_id":"JNG","station_name":"Jatinegara","i_lat":-6.215091,"transit":true,"is_transit":true,"distance":3395,"i_long":106.86807400000001,"time":3,"line":0},{"station_name":"Pondok Jati","i_long":106.861737,"is_transit":false,"line":11,"transit":false,"time":2,"distance":1236,"i_lat":-6.209188,"station_id":"POK"},{"line":11,"time":2,"transit":false,"station_id":"KMT","is_transit":false,"i_lat":-6.193792,"station_name":"Kramat","i_long":106.855437,"distance":1829},{"i_lat":-6.185975,"station_id":"GST","time":1,"i_long":106.850107,"station_name":"Gang Sentiong","transit":false,"line":11,"is_transit":false,"distance":973},{"time":8,"station_name":"Pasar Senen","transit":false,"station_id":"PSE","i_long":106.84368,"line":11,"distance":1567,"is_transit":false,"i_lat":-6.174784},{"i_lat":-6.161728,"station_name":"Kemayoran","i_long":106.839204,"is_transit":false,"line":11,"station_id":"KMO","transit":false,"distance":1436,"time":4}],[{"is_transit":false,"distance":0,"i_lat":-6.215568,"station_name":"Buaran","line":0,"time":0,"transit":false,"i_long":106.922662,"station_id":"BUA"},{"station_id":"KLD","time":2,"is_transit":false,"station_name":"Klender","i_lat":-6.2135,"line":1,"transit":false,"i_long":106.899548,"distance":3100},{"is_transit":true,"transit":false,"i_lat":-6.215091,"time":3,"station_name":"Jatinegara","i_long":106.86807400000001,"station_id":"JNG","distance":3395,"line":0},{"transit":false,"i_long":106.858896,"time":2,"line":1,"distance":1377,"station_name":"Matraman","is_transit":false,"station_id":"MTR","i_lat":-6.212485},{"distance":1275,"time":2,"i_long":106.84912,"is_transit":true,"station_name":"Manggarai","i_lat":-6.209883,"transit":false,"station_id":"MRI","line":0},{"i_lat":-6.202263,"time":4,"transit":false,"distance":3186,"station_name":"Sudirman","i_long":106.822649,"line":1,"station_id":"SUD","is_transit":false},{"station_name":"Sudirman Baru","line":1,"i_long":106.819881,"is_transit":false,"station_id":"SUDB","distance":280,"transit":false,"time":1,"i_lat":-6.201433},{"time":1,"is_transit":false,"station_name":"Karet","i_long":106.816351,"line":1,"station_id":"KAT","i_lat":-6.20132,"transit":false,"distance":471},{"i_lat":-6.185545,"station_id":"THB","is_transit":true,"time":5,"i_long":106.811091,"distance":2029,"line":1,"transit":false,"station_name":"Tanah Abang"},{"station_id":"DU","i_lat":-6.155215,"i_long":106.800832,"distance":3632,"station_name":"Duri","is_transit":true,"line":1,"transit":true,"time":8},{"station_id":"AK","i_lat":-6.144674,"time":4,"distance":1230,"i_long":106.79867,"line":0,"station_name":"Angke","transit":false,"is_transit":false},{"is_transit":true,"transit":true,"i_lat":-6.132549,"line":0,"station_id":"KPB","station_name":"Kampung Bandan","i_long":106.826365,"time":9,"distance":4102},{"time":3,"i_long":106.836569,"station_name":"Rajawali","station_id":"RJW","line":11,"transit":false,"distance":1444,"i_lat":-6.14505,"is_transit":false},{"line":11,"time":5,"i_lat":-6.161728,"i_long":106.839204,"distance":1901,"transit":false,"station_name":"Kemayoran","station_id":"KMO","is_transit":false}],[{"time":0,"transit":false,"distance":0,"station_id":"BUA","line":0,"is_transit":false,"i_long":106.922662,"i_lat":-6.215568,"station_name":"Buaran"},{"station_name":"Klender","station_id":"KLD","is_transit":false,"i_lat":-6.2135,"time":2,"i_long":106.899548,"line":1,"distance":3100,"transit":false},{"i_lat":-6.215091,"time":3,"station_name":"Jatinegara","line":0,"station_id":"JNG","is_transit":true,"transit":false,"i_long":106.86807400000001,"distance":3395},{"time":2,"station_name":"Matraman","line":1,"transit":false,"i_lat":-6.212485,"station_id":"MTR","distance":1377,"i_long":106.858896,"is_transit":false},{"distance":1275,"line":0,"station_name":"Manggarai","station_id":"MRI","i_lat":-6.209883,"is_transit":true,"time":2,"i_long":106.84912,"transit":true},{"time":4,"i_lat":-6.198556,"is_transit":false,"line":0,"transit":false,"i_long":106.840169,"distance":1590,"station_id":"CKI","station_name":"Cikini"},{"is_transit":false,"station_id":"GDD","line":2,"station_name":"Gondangdia","i_lat":-6.186295,"distance":1750,"time":3,"transit":false,"i_long":106.832183},{"station_name":"Juanda","distance":2015,"line":2,"i_lat":-6.166716,"station_id":"JUA","time":4,"is_transit":false,"i_long":106.828284,"transit":false},{"station_name":"Sawah Besar","time":2,"distance":1149,"i_long":106.827103,"line":2,"is_transit":false,"transit":false,"i_lat":-6.160725,"station_id":"SW"},{"station_name":"Manggabesar","station_id":"MGB","time":2,"distance":906,"i_long":106.82482,"transit":false,"line":2,"is_transit":false,"i_lat":-6.149769},{"transit":false,"i_lat":-6.141205,"time":2,"is_transit":false,"line":7,"distance":1080,"i_long":106.820901,"station_name":"Jayakarta","station_id":"JAY"},{"transit":true,"station_id":"JAKK","time":4,"line":0,"distance":1264,"is_transit":true,"station_name":"Jakarta Kota","i_lat":-6.137569,"i_long":106.812439},{"is_transit":true,"line":0,"distance":1364,"transit":true,"i_long":106.826365,"i_lat":-6.132549,"station_name":"Kampung Bandan","time":3,"station_id":"KPB"},{"transit":false,"time":3,"i_lat":-6.14505,"i_long":106.836569,"line":11,"distance":1444,"is_transit":false,"station_name":"Rajawali","station_id":"RJW"},{"station_id":"KMO","i_lat":-6.161728,"time":5,"station_name":"Kemayoran","transit":false,"distance":1901,"i_long":106.839204,"is_transit":false,"line":11}]]}