{"data":[[{"i_lat":-6.215568,"time":0,"station_name":"Buaran","line":1,"is_transit":false,"station_id":"BUA","i_long":106.922662,"transit":false,"distance":0},{"i_lat":-6.2135,"i_long":106.899548,"is_transit":false,"time":2,"line":1,"distance":3100,"station_name":"Klender","station_id":"KLD","transit":false},{"is_transit":false,"station_id":"JNG","time":3,"line":1,"distance":3395,"i_long":106.86807400000001,"transit":false,"i_lat":-6.215091,"station_name":"Jatinegara"},{"station_id":"MTR","distance":1377,"transit":false,"station_name":"Matraman","time":2,"line":1,"is_transit":false,"i_long":106.858896,"i_lat":-6.212485},{"station_name":"Manggarai","time":2,"i_lat":-6.209883,"line":2,"i_long":106.84912,"distance":1275,"station_id":"MRI","is_transit":true,"transit":true},{"is_transit":false,"transit":false,"station_name":"Cikini","station_id":"CKI","i_lat":-6.198556,"i_long":106.840169,"time":4,"line":2,"distance":1590},{"transit":false,"station_name":"Gondangdia","station_id":"GDD","i_lat":-6.186295,"distance":1750,"is_transit":false,"line":2,"i_long":106.832183,"time":3}],[{"line":1,"i_long":106.922662,"is_transit":false,"station_id":"BUA","station_name":"Buaran","i_lat":-6.215568,"distance":0,"transit":false,"time":0},{"i_long":106.899548,"distance":3100,"station_name":"Klender","i_lat":-6.2135,"line":1,"transit":false,"time":2,"station_id":"KLD","is_transit":false},{"i_lat":-6.215091,"line":1,"station_id":"JNG","i_long":106.86807400000001,"transit":true,"distance":3395,"time":3,"is_transit":true,"station_name":"Jatinegara"},{"station_id":"POK","distance":1236,"is_transit":false,"time":2,"i_lat":-6.209188,"transit":false,"i_long":106.861737,"station_name":"Pondok Jati","line":11},{"distance":1829,"station_name":"Kramat","station_id":"KMT","time":2,"transit":false,"line":11,"i_lat":-6.193792,"is_transit":false,"i_long":106.855437},{"i_long":106.850107,"time":1,"station_id":"GST","is_transit":false,"distance":973,"line":11,"transit":false,"i_lat":-6.185975,"station_name":"Gang Sentiong"},{"is_transit":false,"i_lat":-6.174784,"line":11,"station_name":"Pasar Senen","station_id":"PSE","time":8,"transit":false,"distance":1567,"i_long":106.84368},{"station_id":"KMO","i_lat":-6.161728,"line":11,"station_name":"Kemayoran","is_transit":false,"time":4,"distance":1436,"transit":false,"i_long":106.839204},{"line":11,"station_id":"RJW","time":5,"distance":1901,"station_name":"Rajawali","transit":false,"i_lat":-6.14505,"i_long":106.836569,"is_transit":false},{"i_lat":-6.132549,"line":4,"transit":true,"station_id":"KPB","time":3,"i_long":106.826365,"station_name":"Kampung Bandan","distance":1444,"is_transit":true},{"time":3,"transit":true,"i_long":106.812439,"distance":1364,"is_transit":true,"station_name":"Jakarta Kota","i_lat":-6.137569,"line":2,"station_id":"JAKK"},{"distance":1264,"station_name":"Jayakarta","i_long":106.820901,"transit":false,"station_id":"JAY","is_transit":false,"time":4,"i_lat":-6.141205,"line":2},{"i_long":106.82482,"line":2,"is_transit":false,"transit":false,"station_id":"MGB","station_name":"Manggabesar","distance":1080,"time":2,"i_lat":-6.149769},{"transit":false,"time":2,"station_id":"SW","i_long":106.827103,"distance":906,"line":2,"station_name":"Sawah Besar","is_transit":false,"i_lat":-6.160725},{"transit":false,"distance":1149,"station_name":"Juanda","station_id":"JUA","i_lat":-6.166716,"time":2,"line":2,"i_long":106.828284,"is_transit":false},{"station_name":"Gondangdia","transit":false,"station_id":"GDD","line":2,"is_transit":false,"distance":2015,"time":4,"i_lat":-6.186295,"i_long":106.832183}],[{"station_name":"Buaran","station_id":"BUA","i_long":106.922662,"time":0,"transit":false,"is_transit":false,"line":1,"distance":0,"i_lat":-6.215568},{"transit":false,"distance":3100,"station_id":"KLD","time":2,"line":1,"i_lat":-6.2135,"i_long":106.899548,"station_name":"Klender","is_transit":false},{"i_long":106.86807400000001,"station_id":"JNG","time":3,"i_lat":-6.215091,"is_transit":false,"transit":false,"line":1,"distance":3395,"station_name":"Jatinegara"},{"i_lat":-6.212485,"transit":false,"line":1,"distance":1377,"station_id":"MTR","is_transit":false,"station_name":"Matraman","time":2,"i_long":106.858896},{"i_long":106.84912,"station_id":"MRI","transit":false,"line":2,"i_lat":-6.209883,"station_name":"Manggarai","distance":1275,"time":2,"is_transit":false},{"station_id":"SUD","is_transit":false,"transit":false,"i_lat":-6.202263,"station_name":"Sudirman","time":4,"i_long":106.822649,"distance":3186,"line":1},{"distance":280,"transit":false,"station_id":"SUDB","station_name":"Sudirman Baru","line":1,"is_transit":false,"i_lat":-6.201433,"i_long":106.819881,"time":1},{"station_id":"KAT","transit":false,"i_lat":-6.20132,"line":1,"is_transit":false,"time":1,"i_long":106.816351,"distance":471,"station_name":"Karet"},{"transit":false,"station_id":"THB","line":1,"time":5,"i_lat":-6.185545,"station_name":"Tanah Abang","is_transit":false,"i_long":106.811091,"distance":2029},{"transit":false,"line":1,"time":8,"is_transit":false,"i_long":106.800832,"station_id":"DU","i_lat":-6.155215,"station_name":"Duri","distance":3632},{"distance":1230,"time":4,"line":1,"i_lat":-6.144674,"station_name":"Angke","station_id":"AK","i_long":106.79867,"transit":false,"is_transit":false},{"distance":4102,"transit":true,"i_long":106.826365,"time":9,"line":4,"is_transit":true,"station_name":"Kampung Bandan","station_id":"KPB","i_lat":-6.132549},{"station_name":"Jakarta Kota","i_long":106.812439,"line":2,"is_transit":true,"time":3,"distance":1364,"transit":true,"station_id":"JAKK","i_lat":-6.137569},{"transit":false,"station_id":"JAY","time":4,"i_lat":-6.141205,"line":2,"distance":1264,"is_transit":false,"station_name":"Jayakarta","i_long":106.820901},{"is_transit":false,"transit":false,"i_long":106.82482,"station_name":"Manggabesar","station_id":"MGB","distance":1080,"time":2,"i_lat":-6.149769,"line":2},{"transit":false,"i_lat":-6.160725,"time":2,"line":2,"distance":906,"i_long":106.827103,"station_name":"Sawah Besar","station_id":"SW","is_transit":false},{"i_long":106.828284,"station_id":"JUA","transit":false,"distance":1149,"is_transit":false,"time":2,"i_lat":-6.166716,"station_name":"Juanda","line":2},{"time":4,"transit":false,"distance":2015,"i_long":106.832183,"station_name":"Gondangdia","is_transit":false,"i_lat":-6.186295,"line":2,"station_id":"GDD"}],[{"station_id":"BUA","line":1,"distance":0,"is_transit":false,"i_lat":-6.215568,"i_long":106.922662,"transit":false,"station_name":"Buaran","time":0},{"distance":3100,"transit":false,"station_id":"KLD","is_transit":false,"i_lat":-6.2135,"station_name":"Klender","time":2,"line":1,"i_long":106.899548},{"time":3,"i_lat":-6.215091,"distance":3395,"line":1,"i_long":106.86807400000001,"is_transit":true,"station_name":"Jatinegara","transit":true,"station_id":"JNG"},{"i_long":106.861737,"station_name":"Pondok Jati","time":2,"line":11,"distance":1236,"transit":false,"is_transit":false,"station_id":"POK","i_lat":-6.209188},{"transit":false,"i_long":106.855437,"line":11,"is_transit":false,"station_id":"KMT","i_lat":-6.193792,"distance":1829,"station_name":"Kramat","time":2},{"line":11,"station_id":"GST","distance":973,"is_transit":false,"station_name":"Gang Sentiong","transit":false,"i_lat":-6.185975,"i_long":106.850107,"time":1},{"transit":false,"i_lat":-6.174784,"i_long":106.84368,"time":8,"distance":1567,"is_transit":false,"station_name":"Pasar Senen","line":11,"station_id":"PSE"},{"line":11,"i_long":106.839204,"station_name":"Kemayoran","is_transit":false,"i_lat":-6.161728,"transit":false,"time":4,"distance":1436,"station_id":"KMO"},{"i_lat":-6.14505,"time":5,"line":11,"is_transit":false,"distance":1901,"station_name":"Rajawali","transit":false,"station_id":"RJW","i_long":106.836569},{"i_lat":-6.132549,"station_name":"Kampung Bandan","station_id":"KPB","time":3,"is_transit":true,"distance":1444,"transit":true,"i_long":106.826365,"line":4},{"is_transit":false,"station_id":"AK","transit":false,"distance":4102,"station_name":"Angke","time":9,"i_lat":-6.144674,"i_long":106.79867,"line":1},{"i_long":106.800832,"transit":false,"time":4,"distance":1230,"is_transit":false,"station_name":"Duri","line":1,"i_lat":-6.155215,"station_id":"DU"},{"line":1,"distance":3632,"transit":false,"station_id":"THB","time":8,"is_transit":false,"station_name":"Tanah Abang","i_lat":-6.185545,"i_long":106.811091},{"is_transit":false,"time":5,"i_lat":-6.20132,"transit":false,"station_name":"Karet","distance":2029,"station_id":"KAT","i_long":106.816351,"line":1},{"i_lat":-6.201433,"line":1,"is_transit":false,"time":1,"distance":471,"transit":false,"i_long":106.819881,"station_name":"Sudirman Baru","station_id":"SUDB"},{"i_long":106.822649,"line":1,"distance":280,"station_id":"SUD","station_name":"Sudirman","time":1,"is_transit":false,"i_lat":-6.202263,"transit":false},{"distance":3186,"is_transit":true,"station_name":"Manggarai","time":4,"transit":true,"station_id":"MRI","i_long":106.84912,"i_lat":-6.209883,"line":2},{"transit":false,"is_transit":false,"i_lat":-6.198556,"station_id":"CKI","distance":1590,"time":4,"line":2,"station_name":"Cikini","i_long":106.840169},{"distance":1750,"station_id":"GDD","is_transit":false,"transit":false,"time":3,"station_name":"Gondangdia","i_lat":-6.186295,"i_long":106.832183,"line":2}]]}