{"data":[[{"i_lat":-6.215568,"station_name":"Buaran","is_transit":false,"transit":false,"distance":0,"i_long":106.922662,"line":1,"time":0,"station_id":"BUA"},{"station_name":"Klender","line":1,"station_id":"KLD","is_transit":false,"time":2,"i_lat":-6.2135,"transit":false,"i_long":106.899548,"distance":3100},{"station_id":"JNG","station_name":"Jatinegara","transit":false,"i_lat":-6.215091,"is_transit":false,"i_long":106.86807400000001,"line":1,"time":3,"distance":3395},{"time":2,"transit":false,"station_id":"MTR","station_name":"Matraman","is_transit":false,"i_long":106.858896,"i_lat":-6.212485,"distance":1377,"line":1},{"i_long":106.84912,"line":2,"distance":1275,"i_lat":-6.209883,"transit":true,"station_id":"MRI","station_name":"Manggarai","time":2,"is_transit":true},{"i_lat":-6.198556,"is_transit":false,"line":2,"transit":false,"time":4,"distance":1590,"station_id":"CKI","station_name":"Cikini","i_long":106.840169},{"time":3,"distance":1750,"i_lat":-6.186295,"i_long":106.832183,"station_name":"Gondangdia","line":2,"is_transit":false,"station_id":"GDD","transit":false},{"station_name":"Juanda","i_lat":-6.166716,"station_id":"JUA","transit":false,"time":4,"is_transit":false,"i_long":106.828284,"line":2,"distance":2015}],[{"transit":false,"station_name":"Buaran","i_lat":-6.215568,"distance":0,"i_long":106.922662,"time":0,"line":1,"station_id":"BUA","is_transit":false},{"station_name":"Klender","transit":false,"i_lat":-6.2135,"distance":3100,"line":1,"is_transit":false,"station_id":"KLD","i_long":106.899548,"time":2},{"station_name":"Jatinegara","station_id":"JNG","distance":3395,"transit":true,"i_long":106.86807400000001,"line":1,"time":3,"i_lat":-6.215091,"is_transit":true},{"line":11,"distance":1236,"station_id":"POK","i_lat":-6.209188,"time":2,"i_long":106.861737,"station_name":"Pondok Jati","is_transit":false,"transit":false},{"is_transit":false,"i_lat":-6.193792,"time":2,"distance":1829,"line":11,"station_name":"Kramat","station_id":"KMT","transit":false,"i_long":106.855437},{"is_transit":false,"line":11,"i_long":106.850107,"station_id":"GST","distance":973,"station_name":"Gang Sentiong","i_lat":-6.185975,"time":1,"transit":false},{"station_name":"Pasar Senen","i_long":106.84368,"line":11,"i_lat":-6.174784,"transit":false,"station_id":"PSE","time":8,"distance":1567,"is_transit":false},{"i_long":106.839204,"station_id":"KMO","station_name":"Kemayoran","i_lat":-6.161728,"line":11,"distance":1436,"transit":false,"time":4,"is_transit":false},{"i_long":106.836569,"is_transit":false,"line":11,"distance":1901,"station_name":"Rajawali","station_id":"RJW","transit":false,"i_lat":-6.14505,"time":5},{"line":4,"time":3,"distance":1444,"is_transit":true,"station_id":"KPB","i_long":106.826365,"station_name":"Kampung Bandan","transit":true,"i_lat":-6.132549},{"station_name":"Jakarta Kota","transit":true,"line":2,"station_id":"JAKK","distance":1364,"is_transit":true,"time":3,"i_lat":-6.137569,"i_long":106.812439},{"station_id":"JAY","transit":false,"time":4,"distance":1264,"station_name":"Jayakarta","i_long":106.820901,"line":2,"is_transit":false,"i_lat":-6.141205},{"distance":1080,"is_transit":false,"i_lat":-6.149769,"time":2,"i_long":106.82482,"line":2,"transit":false,"station_id":"MGB","station_name":"Manggabesar"},{"station_id":"SW","is_transit":false,"time":2,"i_lat":-6.160725,"distance":906,"station_name":"Sawah Besar","transit":false,"line":2,"i_long":106.827103},{"i_lat":-6.166716,"time":2,"station_name":"Juanda","line":2,"is_transit":false,"transit":false,"station_id":"JUA","i_long":106.828284,"distance":1149}],[{"time":0,"distance":0,"transit":false,"station_id":"BUA","is_transit":false,"station_name":"Buaran","i_long":106.922662,"i_lat":-6.215568,"line":1},{"i_long":106.899548,"time":2,"transit":false,"line":1,"is_transit":false,"distance":3100,"station_id":"KLD","i_lat":-6.2135,"station_name":"Klender"},{"i_long":106.86807400000001,"transit":false,"station_name":"Jatinegara","line":1,"i_lat":-6.215091,"is_transit":false,"time":3,"distance":3395,"station_id":"JNG"},{"station_id":"MTR","line":1,"time":2,"station_name":"Matraman","distance":1377,"is_transit":false,"transit":false,"i_long":106.858896,"i_lat":-6.212485},{"line":2,"i_long":106.84912,"is_transit":false,"station_name":"Manggarai","transit":false,"i_lat":-6.209883,"station_id":"MRI","time":2,"distance":1275},{"station_name":"Sudirman","time":4,"transit":false,"line":1,"station_id":"SUD","i_lat":-6.202263,"is_transit":false,"distance":3186,"i_long":106.822649},{"station_id":"SUDB","station_name":"Sudirman Baru","i_lat":-6.201433,"is_transit":false,"transit":false,"i_long":106.819881,"time":1,"distance":280,"line":1},{"station_id":"KAT","i_lat":-6.20132,"i_long":106.816351,"is_transit":false,"station_name":"Karet","time":1,"transit":false,"line":1,"distance":471},{"transit":false,"line":1,"station_id":"THB","distance":2029,"station_name":"Tanah Abang","is_transit":false,"i_lat":-6.185545,"i_long":106.811091,"time":5},{"station_id":"DU","i_lat":-6.155215,"i_long":106.800832,"line":1,"distance":3632,"station_name":"Duri","is_transit":false,"time":8,"transit":false},{"is_transit":false,"i_long":106.79867,"time":4,"distance":1230,"i_lat":-6.144674,"transit":false,"station_name":"Angke","station_id":"AK","line":1},{"is_transit":true,"time":9,"line":4,"i_lat":-6.132549,"i_long":106.826365,"distance":4102,"transit":true,"station_name":"Kampung Bandan","station_id":"KPB"},{"i_long":106.812439,"distance":1364,"line":2,"station_name":"Jakarta Kota","time":3,"station_id":"JAKK","i_lat":-6.137569,"is_transit":true,"transit":true},{"i_long":106.820901,"is_transit":false,"time":4,"line":2,"i_lat":-6.141205,"transit":false,"distance":1264,"station_id":"JAY","station_name":"Jayakarta"},{"station_id":"MGB","station_name":"Manggabesar","line":2,"i_long":106.82482,"transit":false,"is_transit":false,"i_lat":-6.149769,"time":2,"distance":1080},{"station_name":"Sawah Besar","is_transit":false,"transit":false,"time":2,"distance":906,"i_long":106.827103,"line":2,"station_id":"SW","i_lat":-6.160725},{"line":2,"station_id":"JUA","is_transit":false,"transit":false,"i_lat":-6.166716,"distance":1149,"station_name":"Juanda","time":2,"i_long":106.828284}],[{"line":1,"station_id":"BUA","i_long":106.922662,"is_transit":false,"distance":0,"time":0,"i_lat":-6.215568,"station_name":"Buaran","transit":false},{"i_lat":-6.2135,"station_name":"Klender","is_transit":false,"station_id":"KLD","i_long":106.899548,"time":2,"distance":3100,"transit":false,"line":1},{"time":3,"line":1,"i_long":106.86807400000001,"transit":true,"station_id":"JNG","is_transit":true,"i_lat":-6.215091,"station_name":"Jatinegara","distance":3395},{"i_long":106.861737,"station_name":"Pondok Jati","station_id":"POK","i_lat":-6.209188,"line":11,"transit":false,"time":2,"distance":1236,"is_transit":false},{"transit":false,"i_lat":-6.193792,"i_long":106.855437,"time":2,"station_name":"Kramat","line":11,"distance":1829,"station_id":"KMT","is_transit":false},{"line":11,"distance":973,"station_id":"GST","is_transit":false,"transit":false,"time":1,"i_lat":-6.185975,"i_long":106.850107,"station_name":"Gang Sentiong"},{"distance":1567,"station_id":"PSE","transit":false,"time":8,"i_lat":-6.174784,"is_transit":false,"line":11,"i_long":106.84368,"station_name":"Pasar Senen"},{"is_transit":false,"transit":false,"station_id":"KMO","time":4,"station_name":"Kemayoran","i_long":106.839204,"i_lat":-6.161728,"line":11,"distance":1436},{"line":11,"station_name":"Rajawali","is_transit":false,"i_lat":-6.14505,"station_id":"RJW","transit":false,"time":5,"distance":1901,"i_long":106.836569},{"i_long":106.826365,"is_transit":true,"transit":true,"station_name":"Kampung Bandan","line":4,"distance":1444,"i_lat":-6.132549,"station_id":"KPB","time":3},{"i_lat":-6.144674,"line":1,"is_transit":false,"distance":4102,"transit":false,"station_id":"AK","i_long":106.79867,"station_name":"Angke","time":9},{"distance":1230,"time":4,"is_transit":false,"i_lat":-6.155215,"i_long":106.800832,"transit":false,"station_id":"DU","line":1,"station_name":"Duri"},{"transit":false,"distance":3632,"time":8,"i_lat":-6.185545,"i_long":106.811091,"line":1,"station_name":"Tanah Abang","station_id":"THB","is_transit":false},{"i_lat":-6.20132,"is_transit":false,"transit":false,"i_long":106.816351,"time":5,"distance":2029,"station_id":"KAT","line":1,"station_name":"Karet"},{"time":1,"is_transit":false,"station_name":"Sudirman Baru","station_id":"SUDB","i_long":106.819881,"distance":471,"line":1,"transit":false,"i_lat":-6.201433},{"station_name":"Sudirman","i_long":106.822649,"is_transit":false,"time":1,"i_lat":-6.202263,"line":1,"transit":false,"station_id":"SUD","distance":280},{"is_transit":true,"station_name":"Manggarai","station_id":"MRI","transit":true,"time":4,"line":2,"distance":3186,"i_long":106.84912,"i_lat":-6.209883},{"station_name":"Cikini","i_lat":-6.198556,"station_id":"CKI","is_transit":false,"transit":false,"time":4,"i_long":106.840169,"distance":1590,"line":2},{"i_lat":-6.186295,"distance":1750,"station_id":"GDD","is_transit":false,"time":3,"i_long":106.832183,"line":2,"transit":false,"station_name":"Gondangdia"},{"is_transit":false,"station_id":"JUA","i_lat":-6.166716,"distance":2015,"line":2,"i_long":106.828284,"station_name":"Juanda","time":4,"transit":false}]]}