{"data":[[{"i_long":106.922662,"transit":false,"is_transit":false,"station_id":"BUA","station_name":"Buaran","time":0,"line":1,"distance":0,"i_lat":-6.215568},{"i_lat":-6.2135,"station_id":"KLD","transit":false,"line":1,"i_long":106.899548,"time":2,"distance":3100,"is_transit":false,"station_name":"Klender"},{"i_long":106.86807400000001,"line":1,"station_id":"JNG","time":3,"is_transit":false,"transit":false,"station_name":"Jatinegara","i_lat":-6.215091,"distance":3395},{"distance":1377,"station_name":"Matraman","time":2,"transit":false,"line":1,"station_id":"MTR","is_transit":false,"i_lat":-6.212485,"i_long":106.858896},{"is_transit":true,"i_lat":-6.209883,"time":2,"distance":1275,"line":2,"i_long":106.84912,"station_name":"Manggarai","station_id":"MRI","transit":true},{"i_lat":-6.226659,"i_long":106.857948,"time":4,"station_name":"Tebet","line":2,"station_id":"TEB","is_transit":false,"transit":false,"distance":2610},{"distance":1230,"time":2,"is_transit":false,"i_long":106.856607,"station_id":"CW","i_lat":-6.242512,"station_name":"Cawang","line":2,"transit":false},{"time":3,"is_transit":false,"i_long":106.85449,"distance":1546,"station_id":"DRN","station_name":"Duren Kalibata","transit":false,"i_lat":-6.255332,"line":2}],[{"station_id":"BUA","station_name":"Buaran","i_lat":-6.215568,"line":1,"transit":false,"is_transit":false,"i_long":106.922662,"time":0,"distance":0},{"transit":false,"line":1,"i_lat":-6.2135,"is_transit":false,"distance":3100,"station_id":"KLD","station_name":"Klender","i_long":106.899548,"time":2},{"time":3,"transit":true,"line":1,"distance":3395,"station_id":"JNG","i_lat":-6.215091,"i_long":106.86807400000001,"is_transit":true,"station_name":"Jatinegara"},{"transit":false,"station_id":"POK","line":11,"is_transit":false,"station_name":"Pondok Jati","i_lat":-6.209188,"time":2,"i_long":106.861737,"distance":1236},{"i_lat":-6.193792,"transit":false,"station_id":"KMT","is_transit":false,"time":2,"i_long":106.855437,"line":11,"station_name":"Kramat","distance":1829},{"time":1,"station_id":"GST","distance":973,"station_name":"Gang Sentiong","is_transit":false,"i_long":106.850107,"line":11,"transit":false,"i_lat":-6.185975},{"i_lat":-6.174784,"station_name":"Pasar Senen","is_transit":false,"time":8,"i_long":106.84368,"distance":1567,"station_id":"PSE","line":11,"transit":false},{"line":11,"i_lat":-6.161728,"transit":false,"station_id":"KMO","is_transit":false,"i_long":106.839204,"time":4,"distance":1436,"station_name":"Kemayoran"},{"station_id":"RJW","i_long":106.836569,"is_transit":false,"i_lat":-6.14505,"time":5,"line":11,"distance":1901,"station_name":"Rajawali","transit":false},{"line":4,"time":3,"station_id":"KPB","i_lat":-6.132549,"distance":1444,"is_transit":true,"i_long":106.826365,"transit":true,"station_name":"Kampung Bandan"},{"distance":4102,"i_long":106.79867,"station_id":"AK","i_lat":-6.144674,"is_transit":false,"line":1,"time":9,"station_name":"Angke","transit":false},{"transit":false,"i_long":106.800832,"time":4,"distance":1230,"line":1,"station_name":"Duri","station_id":"DU","is_transit":false,"i_lat":-6.155215},{"station_id":"THB","i_lat":-6.185545,"distance":3632,"is_transit":false,"line":1,"time":8,"transit":false,"station_name":"Tanah Abang","i_long":106.811091},{"distance":2029,"is_transit":false,"time":5,"i_lat":-6.20132,"station_id":"KAT","station_name":"Karet","line":1,"i_long":106.816351,"transit":false},{"line":1,"is_transit":false,"time":1,"station_name":"Sudirman Baru","station_id":"SUDB","transit":false,"i_lat":-6.201433,"i_long":106.819881,"distance":471},{"line":1,"i_lat":-6.202263,"time":1,"is_transit":false,"i_long":106.822649,"station_id":"SUD","distance":280,"station_name":"Sudirman","transit":false},{"line":2,"station_name":"Manggarai","i_lat":-6.209883,"distance":3186,"is_transit":true,"station_id":"MRI","transit":true,"i_long":106.84912,"time":4},{"distance":2610,"line":2,"i_lat":-6.226659,"station_name":"Tebet","i_long":106.857948,"is_transit":false,"station_id":"TEB","time":4,"transit":false},{"time":2,"transit":false,"i_lat":-6.242512,"line":2,"i_long":106.856607,"station_name":"Cawang","is_transit":false,"distance":1230,"station_id":"CW"},{"station_id":"DRN","transit":false,"line":2,"station_name":"Duren Kalibata","is_transit":false,"i_lat":-6.255332,"i_long":106.85449,"time":3,"distance":1546}],[{"distance":0,"time":0,"station_name":"Buaran","is_transit":false,"transit":false,"station_id":"BUA","i_lat":-6.215568,"i_long":106.922662,"line":1},{"distance":3100,"station_name":"Klender","transit":false,"i_long":106.899548,"station_id":"KLD","time":2,"line":1,"i_lat":-6.2135,"is_transit":false},{"time":3,"station_name":"Jatinegara","transit":true,"distance":3395,"i_lat":-6.215091,"station_id":"JNG","i_long":106.86807400000001,"is_transit":true,"line":1},{"line":11,"transit":false,"station_id":"POK","station_name":"Pondok Jati","time":2,"is_transit":false,"i_lat":-6.209188,"distance":1236,"i_long":106.861737},{"distance":1829,"line":11,"is_transit":false,"station_name":"Kramat","station_id":"KMT","i_long":106.855437,"i_lat":-6.193792,"time":2,"transit":false},{"time":1,"station_id":"GST","station_name":"Gang Sentiong","is_transit":false,"i_long":106.850107,"transit":false,"i_lat":-6.185975,"line":11,"distance":973},{"transit":false,"station_id":"PSE","i_lat":-6.174784,"i_long":106.84368,"station_name":"Pasar Senen","is_transit":false,"distance":1567,"line":11,"time":8},{"transit":false,"station_name":"Kemayoran","i_lat":-6.161728,"i_long":106.839204,"distance":1436,"station_id":"KMO","line":11,"is_transit":false,"time":4},{"time":5,"distance":1901,"transit":false,"station_name":"Rajawali","line":11,"i_lat":-6.14505,"i_long":106.836569,"station_id":"RJW","is_transit":false},{"station_name":"Kampung Bandan","time":3,"station_id":"KPB","transit":true,"is_transit":true,"distance":1444,"i_lat":-6.132549,"line":4,"i_long":106.826365},{"distance":1364,"is_transit":true,"time":3,"station_name":"Jakarta Kota","station_id":"JAKK","i_long":106.812439,"transit":true,"line":2,"i_lat":-6.137569},{"distance":1264,"station_id":"JAY","is_transit":false,"i_lat":-6.141205,"time":4,"transit":false,"i_long":106.820901,"line":2,"station_name":"Jayakarta"},{"transit":false,"i_lat":-6.149769,"i_long":106.82482,"distance":1080,"station_name":"Manggabesar","time":2,"station_id":"MGB","line":2,"is_transit":false},{"i_lat":-6.160725,"time":2,"i_long":106.827103,"station_name":"Sawah Besar","is_transit":false,"transit":false,"distance":906,"station_id":"SW","line":2},{"line":2,"station_id":"JUA","i_lat":-6.166716,"distance":1149,"is_transit":false,"time":2,"station_name":"Juanda","transit":false,"i_long":106.828284},{"distance":2015,"station_id":"GDD","line":2,"transit":false,"i_long":106.832183,"time":4,"is_transit":false,"station_name":"Gondangdia","i_lat":-6.186295},{"transit":false,"station_id":"CKI","time":3,"is_transit":false,"i_lat":-6.198556,"i_long":106.840169,"station_name":"Cikini","line":2,"distance":1750},{"line":2,"is_transit":false,"station_id":"MRI","time":4,"station_name":"Manggarai","distance":1590,"transit":false,"i_lat":-6.209883,"i_long":106.84912},{"line":2,"transit":false,"is_transit":false,"i_lat":-6.226659,"time":4,"station_id":"TEB","distance":2610,"station_name":"Tebet","i_long":106.857948},{"station_id":"CW","is_transit":false,"line":2,"i_lat":-6.242512,"time":2,"station_name":"Cawang","distance":1230,"i_long":106.856607,"transit":false},{"time":3,"line":2,"station_id":"DRN","is_transit":false,"station_name":"Duren Kalibata","i_lat":-6.255332,"transit":false,"distance":1546,"i_long":106.85449}]]}