{"data":[[{"time":0,"is_transit":false,"transit":false,"i_long":106.922662,"distance":0,"line":1,"station_id":"BUA","station_name":"Buaran","i_lat":-6.215568},{"i_lat":-6.2135,"time":2,"station_name":"Klender","station_id":"KLD","transit":false,"is_transit":false,"i_long":106.899548,"line":1,"distance":3100},{"distance":3395,"i_lat":-6.215091,"transit":false,"station_name":"Jatinegara","time":3,"line":1,"station_id":"JNG","is_transit":false,"i_long":106.86807400000001},{"i_lat":-6.212485,"time":2,"station_id":"MTR","station_name":"Matraman","is_transit":false,"distance":1377,"line":1,"i_long":106.858896,"transit":false},{"station_name":"Manggarai","is_transit":false,"i_long":106.84912,"time":2,"i_lat":-6.209883,"line":2,"station_id":"MRI","transit":false,"distance":1275},{"is_transit":false,"distance":3186,"transit":false,"time":4,"i_lat":-6.202263,"line":1,"station_name":"Sudirman","station_id":"SUD","i_long":106.822649},{"distance":280,"time":1,"line":1,"i_lat":-6.201433,"station_id":"SUDB","i_long":106.819881,"station_name":"Sudirman Baru","transit":false,"is_transit":false},{"i_lat":-6.20132,"i_long":106.816351,"line":1,"distance":471,"transit":false,"time":1,"station_id":"KAT","is_transit":false,"station_name":"Karet"},{"transit":false,"i_lat":-6.185545,"station_id":"THB","i_long":106.811091,"station_name":"Tanah Abang","time":5,"distance":2029,"line":1,"is_transit":false},{"station_id":"DU","i_lat":-6.155215,"distance":3632,"line":1,"transit":true,"time":8,"i_long":106.800832,"is_transit":true,"station_name":"Duri"},{"i_long":106.788277,"station_name":"Grogol","transit":false,"station_id":"GGL","is_transit":false,"time":3,"i_lat":-6.162021,"line":5,"distance":1700},{"station_name":"Pesing","i_long":106.771379,"transit":false,"station_id":"PSG","time":2,"is_transit":false,"line":5,"i_lat":-6.161433,"distance":2036},{"distance":1614,"is_transit":false,"station_id":"TKO","station_name":"Taman Kota","transit":false,"i_lat":-6.1587309999999995,"i_long":106.756522,"time":2,"line":5},{"station_id":"BOI","transit":false,"station_name":"Bojongindah","distance":2334,"line":5,"time":2,"is_transit":false,"i_long":106.737035,"i_lat":-6.159876},{"is_transit":false,"station_name":"Rawa Buaya","i_lat":-6.162758,"line":5,"station_id":"RW","i_long":106.723064,"transit":false,"distance":1152,"time":4}],[{"station_id":"BUA","transit":false,"line":1,"i_lat":-6.215568,"station_name":"Buaran","time":0,"is_transit":false,"distance":0,"i_long":106.922662},{"line":1,"is_transit":false,"transit":false,"station_id":"KLD","distance":3100,"station_name":"Klender","time":2,"i_lat":-6.2135,"i_long":106.899548},{"line":1,"distance":3395,"is_transit":true,"station_name":"Jatinegara","transit":true,"time":3,"station_id":"JNG","i_lat":-6.215091,"i_long":106.86807400000001},{"i_lat":-6.209188,"line":11,"transit":false,"station_id":"POK","distance":1236,"i_long":106.861737,"time":2,"station_name":"Pondok Jati","is_transit":false},{"line":11,"station_name":"Kramat","transit":false,"time":2,"i_lat":-6.193792,"distance":1829,"station_id":"KMT","i_long":106.855437,"is_transit":false},{"i_long":106.850107,"distance":973,"i_lat":-6.185975,"station_id":"GST","is_transit":false,"transit":false,"time":1,"station_name":"Gang Sentiong","line":11},{"i_lat":-6.174784,"i_long":106.84368,"line":11,"station_name":"Pasar Senen","transit":false,"time":8,"station_id":"PSE","is_transit":false,"distance":1567},{"is_transit":false,"station_name":"Kemayoran","i_long":106.839204,"station_id":"KMO","time":4,"distance":1436,"i_lat":-6.161728,"line":11,"transit":false},{"station_name":"Rajawali","line":11,"is_transit":false,"transit":false,"station_id":"RJW","i_lat":-6.14505,"distance":1901,"time":5,"i_long":106.836569},{"station_id":"KPB","transit":true,"distance":1444,"time":3,"line":4,"i_long":106.826365,"i_lat":-6.132549,"station_name":"Kampung Bandan","is_transit":true},{"i_lat":-6.144674,"line":1,"transit":false,"is_transit":false,"time":9,"i_long":106.79867,"station_id":"AK","station_name":"Angke","distance":4102},{"transit":true,"time":4,"i_lat":-6.155215,"line":1,"distance":1230,"station_id":"DU","station_name":"Duri","is_transit":true,"i_long":106.800832},{"is_transit":false,"i_long":106.788277,"line":5,"distance":1700,"transit":false,"i_lat":-6.162021,"time":3,"station_name":"Grogol","station_id":"GGL"},{"station_name":"Pesing","station_id":"PSG","is_transit":false,"i_long":106.771379,"line":5,"transit":false,"time":2,"distance":2036,"i_lat":-6.161433},{"station_name":"Taman Kota","time":2,"i_long":106.756522,"i_lat":-6.1587309999999995,"line":5,"transit":false,"distance":1614,"station_id":"TKO","is_transit":false},{"transit":false,"time":2,"distance":2334,"station_name":"Bojongindah","station_id":"BOI","i_long":106.737035,"is_transit":false,"line":5,"i_lat":-6.159876},{"distance":1152,"transit":false,"i_lat":-6.162758,"i_long":106.723064,"station_id":"RW","line":5,"station_name":"Rawa Buaya","is_transit":false,"time":4}],[{"is_transit":false,"transit":false,"i_long":106.922662,"i_lat":-6.215568,"station_id":"BUA","station_name":"Buaran","time":0,"distance":0,"line":1},{"transit":false,"station_name":"Klender","is_transit":false,"i_long":106.899548,"distance":3100,"time":2,"station_id":"KLD","i_lat":-6.2135,"line":1},{"transit":false,"i_long":106.86807400000001,"line":1,"station_name":"Jatinegara","distance":3395,"station_id":"JNG","time":3,"i_lat":-6.215091,"is_transit":false},{"time":2,"distance":1377,"i_long":106.858896,"station_name":"Matraman","line":1,"i_lat":-6.212485,"is_transit":false,"transit":false,"station_id":"MTR"},{"station_name":"Manggarai","is_transit":true,"time":2,"distance":1275,"station_id":"MRI","i_long":106.84912,"i_lat":-6.209883,"transit":true,"line":2},{"station_id":"CKI","station_name":"Cikini","transit":false,"line":2,"time":4,"is_transit":false,"distance":1590,"i_long":106.840169,"i_lat":-6.198556},{"i_long":106.832183,"line":2,"transit":false,"station_id":"GDD","station_name":"Gondangdia","distance":1750,"time":3,"i_lat":-6.186295,"is_transit":false},{"i_lat":-6.166716,"i_long":106.828284,"is_transit":false,"station_id":"JUA","line":2,"time":4,"transit":false,"station_name":"Juanda","distance":2015},{"line":2,"time":2,"distance":1149,"is_transit":false,"i_lat":-6.160725,"i_long":106.827103,"station_name":"Sawah Besar","transit":false,"station_id":"SW"},{"transit":false,"distance":906,"is_transit":false,"time":2,"station_name":"Manggabesar","station_id":"MGB","line":2,"i_lat":-6.149769,"i_long":106.82482},{"station_name":"Jayakarta","transit":false,"i_long":106.820901,"station_id":"JAY","time":2,"i_lat":-6.141205,"line":2,"is_transit":false,"distance":1080},{"time":4,"station_id":"JAKK","is_transit":true,"line":2,"station_name":"Jakarta Kota","i_long":106.812439,"transit":true,"distance":1264,"i_lat":-6.137569},{"i_lat":-6.132549,"time":3,"distance":1364,"station_id":"KPB","is_transit":true,"transit":true,"station_name":"Kampung Bandan","i_long":106.826365,"line":4},{"i_lat":-6.144674,"i_long":106.79867,"station_id":"AK","is_transit":false,"transit":false,"line":1,"time":9,"station_name":"Angke","distance":4102},{"time":4,"i_lat":-6.155215,"station_id":"DU","distance":1230,"transit":true,"station_name":"Duri","is_transit":true,"i_long":106.800832,"line":1},{"distance":1700,"i_long":106.788277,"station_name":"Grogol","transit":false,"station_id":"GGL","is_transit":false,"time":3,"line":5,"i_lat":-6.162021},{"time":2,"station_name":"Pesing","is_transit":false,"distance":2036,"i_long":106.771379,"line":5,"transit":false,"station_id":"PSG","i_lat":-6.161433},{"i_long":106.756522,"distance":1614,"transit":false,"station_name":"Taman Kota","i_lat":-6.1587309999999995,"is_transit":false,"station_id":"TKO","line":5,"time":2},{"station_id":"BOI","i_lat":-6.159876,"line":5,"distance":2334,"station_name":"Bojongindah","i_long":106.737035,"time":2,"transit":false,"is_transit":false},{"transit":false,"distance":1152,"i_long":106.723064,"time":4,"line":5,"station_id":"RW","station_name":"Rawa Buaya","is_transit":false,"i_lat":-6.162758}],[{"distance":0,"station_id":"BUA","time":0,"i_long":106.922662,"is_transit":false,"line":1,"station_name":"Buaran","i_lat":-6.215568,"transit":false},{"station_id":"KLD","i_long":106.899548,"station_name":"Klender","is_transit":false,"time":2,"line":1,"transit":false,"i_lat":-6.2135,"distance":3100},{"distance":3395,"transit":true,"is_transit":true,"i_lat":-6.215091,"i_long":106.86807400000001,"station_id":"JNG","time":3,"line":1,"station_name":"Jatinegara"},{"i_long":106.861737,"line":11,"station_id":"POK","i_lat":-6.209188,"is_transit":false,"transit":false,"time":2,"distance":1236,"station_name":"Pondok Jati"},{"station_name":"Kramat","station_id":"KMT","i_lat":-6.193792,"time":2,"is_transit":false,"i_long":106.855437,"line":11,"distance":1829,"transit":false},{"time":1,"station_name":"Gang Sentiong","distance":973,"station_id":"GST","transit":false,"i_long":106.850107,"i_lat":-6.185975,"line":11,"is_transit":false},{"station_name":"Pasar Senen","is_transit":false,"line":11,"distance":1567,"i_lat":-6.174784,"i_long":106.84368,"transit":false,"time":8,"station_id":"PSE"},{"i_lat":-6.161728,"station_name":"Kemayoran","is_transit":false,"time":4,"line":11,"distance":1436,"station_id":"KMO","i_long":106.839204,"transit":false},{"station_id":"RJW","is_transit":false,"distance":1901,"i_lat":-6.14505,"line":11,"time":5,"station_name":"Rajawali","i_long":106.836569,"transit":false},{"is_transit":true,"transit":true,"line":4,"i_long":106.826365,"station_name":"Kampung Bandan","station_id":"KPB","distance":1444,"i_lat":-6.132549,"time":3},{"i_lat":-6.137569,"i_long":106.812439,"line":2,"station_name":"Jakarta Kota","time":3,"is_transit":true,"transit":true,"distance":1364,"station_id":"JAKK"},{"i_long":106.820901,"transit":false,"time":4,"station_name":"Jayakarta","station_id":"JAY","line":2,"is_transit":false,"distance":1264,"i_lat":-6.141205},{"i_long":106.82482,"time":2,"transit":false,"station_name":"Manggabesar","i_lat":-6.149769,"line":2,"station_id":"MGB","distance":1080,"is_transit":false},{"i_lat":-6.160725,"transit":false,"station_id":"SW","is_transit":false,"line":2,"distance":906,"station_name":"Sawah Besar","time":2,"i_long":106.827103},{"station_name":"Juanda","is_transit":false,"i_lat":-6.166716,"time":2,"distance":1149,"i_long":106.828284,"station_id":"JUA","line":2,"transit":false},{"i_long":106.832183,"time":4,"station_id":"GDD","transit":false,"is_transit":false,"i_lat":-6.186295,"station_name":"Gondangdia","line":2,"distance":2015},{"i_long":106.840169,"i_lat":-6.198556,"time":3,"station_name":"Cikini","station_id":"CKI","is_transit":false,"distance":1750,"transit":false,"line":2},{"i_long":106.84912,"station_name":"Manggarai","station_id":"MRI","transit":true,"is_transit":true,"time":4,"line":2,"distance":1590,"i_lat":-6.209883},{"i_long":106.822649,"transit":false,"station_name":"Sudirman","line":1,"station_id":"SUD","is_transit":false,"distance":3186,"time":4,"i_lat":-6.202263},{"line":1,"i_long":106.819881,"station_id":"SUDB","is_transit":false,"station_name":"Sudirman Baru","transit":false,"time":1,"distance":280,"i_lat":-6.201433},{"station_name":"Karet","time":1,"transit":false,"is_transit":false,"i_lat":-6.20132,"i_long":106.816351,"line":1,"station_id":"KAT","distance":471},{"line":1,"station_id":"THB","time":5,"transit":false,"i_lat":-6.185545,"is_transit":false,"i_long":106.811091,"distance":2029,"station_name":"Tanah Abang"},{"i_long":106.800832,"distance":3632,"station_name":"Duri","line":1,"station_id":"DU","is_transit":true,"time":8,"i_lat":-6.155215,"transit":true},{"line":5,"distance":1700,"i_long":106.788277,"transit":false,"time":3,"station_name":"Grogol","is_transit":false,"station_id":"GGL","i_lat":-6.162021},{"station_name":"Pesing","is_transit":false,"distance":2036,"i_long":106.771379,"transit":false,"station_id":"PSG","time":2,"i_lat":-6.161433,"line":5},{"i_lat":-6.1587309999999995,"i_long":106.756522,"line":5,"is_transit":false,"distance":1614,"station_id":"TKO","transit":false,"time":2,"station_name":"Taman Kota"},{"distance":2334,"transit":false,"station_name":"Bojongindah","i_long":106.737035,"i_lat":-6.159876,"time":2,"line":5,"is_transit":false,"station_id":"BOI"},{"i_lat":-6.162758,"distance":1152,"is_transit":false,"station_name":"Rawa Buaya","station_id":"RW","transit":false,"line":5,"i_long":106.723064,"time":4}]]}