{"data":[[{"i_lat":-6.215568,"time":0,"line":0,"i_long":106.922662,"station_id":"BUA","station_name":"Buaran","is_transit":false,"transit":false,"distance":0},{"station_id":"KLD","time":2,"distance":3100,"is_transit":false,"station_name":"Klender","i_lat":-6.2135,"line":1,"transit":false,"i_long":106.899548},{"i_lat":-6.215091,"distance":3395,"i_long":106.86807400000001,"transit":false,"is_transit":true,"station_name":"Jatinegara","line":0,"station_id":"JNG","time":3},{"is_transit":false,"distance":1377,"line":1,"transit":false,"time":2,"station_id":"MTR","i_lat":-6.212485,"i_long":106.858896,"station_name":"Matraman"},{"station_id":"MRI","is_transit":true,"transit":false,"line":0,"time":2,"distance":1275,"station_name":"Manggarai","i_long":106.84912,"i_lat":-6.209883},{"i_lat":-6.202263,"line":1,"station_id":"SUD","is_transit":false,"distance":3186,"transit":false,"i_long":106.822649,"station_name":"Sudirman","time":4},{"station_id":"SUDB","transit":false,"distance":280,"is_transit":false,"station_name":"Sudirman Baru","i_long":106.819881,"time":1,"i_lat":-6.201433,"line":1},{"time":1,"line":1,"i_long":106.816351,"transit":false,"distance":471,"is_transit":false,"station_name":"Karet","station_id":"KAT","i_lat":-6.20132},{"is_transit":true,"station_id":"THB","transit":false,"i_long":106.811091,"station_name":"Tanah Abang","distance":2029,"line":1,"time":5,"i_lat":-6.185545},{"time":8,"distance":3632,"station_id":"DU","station_name":"Duri","transit":true,"i_lat":-6.155215,"line":1,"i_long":106.800832,"is_transit":true},{"i_long":106.788277,"i_lat":-6.162021,"distance":1700,"transit":false,"station_name":"Grogol","line":5,"station_id":"GGL","is_transit":false,"time":3},{"line":5,"time":2,"is_transit":false,"distance":2036,"i_long":106.771379,"transit":false,"i_lat":-6.161433,"station_name":"Pesing","station_id":"PSG"}],[{"i_long":106.922662,"station_name":"Buaran","line":0,"is_transit":false,"i_lat":-6.215568,"time":0,"transit":false,"station_id":"BUA","distance":0},{"i_long":106.899548,"distance":3100,"i_lat":-6.2135,"station_name":"Klender","transit":false,"station_id":"KLD","is_transit":false,"time":2,"line":1},{"i_long":106.86807400000001,"distance":3395,"is_transit":true,"transit":true,"line":0,"i_lat":-6.215091,"station_name":"Jatinegara","time":3,"station_id":"JNG"},{"i_long":106.861737,"time":2,"station_name":"Pondok Jati","station_id":"POK","distance":1236,"line":11,"is_transit":false,"i_lat":-6.209188,"transit":false},{"i_long":106.855437,"station_name":"Kramat","station_id":"KMT","time":2,"is_transit":false,"transit":false,"i_lat":-6.193792,"line":11,"distance":1829},{"station_id":"GST","distance":973,"line":11,"transit":false,"time":1,"i_lat":-6.185975,"i_long":106.850107,"station_name":"Gang Sentiong","is_transit":false},{"is_transit":false,"i_long":106.84368,"distance":1567,"station_name":"Pasar Senen","i_lat":-6.174784,"line":11,"time":8,"transit":false,"station_id":"PSE"},{"transit":false,"time":4,"i_lat":-6.161728,"line":11,"station_name":"Kemayoran","i_long":106.839204,"distance":1436,"is_transit":false,"station_id":"KMO"},{"i_long":106.836569,"is_transit":false,"station_id":"RJW","time":5,"transit":false,"distance":1901,"i_lat":-6.14505,"station_name":"Rajawali","line":11},{"station_id":"KPB","time":3,"distance":1444,"transit":true,"i_lat":-6.132549,"is_transit":true,"i_long":106.826365,"line":0,"station_name":"Kampung Bandan"},{"distance":4102,"is_transit":false,"station_name":"Angke","station_id":"AK","transit":false,"i_long":106.79867,"i_lat":-6.144674,"line":0,"time":9},{"distance":1230,"i_lat":-6.155215,"station_id":"DU","transit":true,"is_transit":true,"time":4,"i_long":106.800832,"station_name":"Duri","line":1},{"station_id":"GGL","is_transit":false,"station_name":"Grogol","transit":false,"i_lat":-6.162021,"time":3,"distance":1700,"i_long":106.788277,"line":5},{"i_long":106.771379,"time":2,"is_transit":false,"station_name":"Pesing","station_id":"PSG","i_lat":-6.161433,"distance":2036,"line":5,"transit":false}],[{"station_id":"BUA","transit":false,"time":0,"distance":0,"station_name":"Buaran","i_long":106.922662,"is_transit":false,"i_lat":-6.215568,"line":0},{"i_long":106.899548,"line":1,"i_lat":-6.2135,"transit":false,"station_id":"KLD","is_transit":false,"time":2,"distance":3100,"station_name":"Klender"},{"i_lat":-6.215091,"i_long":106.86807400000001,"station_id":"JNG","transit":false,"is_transit":true,"distance":3395,"station_name":"Jatinegara","line":0,"time":3},{"time":2,"station_name":"Matraman","is_transit":false,"line":1,"distance":1377,"station_id":"MTR","transit":false,"i_lat":-6.212485,"i_long":106.858896},{"i_lat":-6.209883,"line":0,"distance":1275,"time":2,"station_id":"MRI","transit":true,"is_transit":true,"station_name":"Manggarai","i_long":106.84912},{"line":0,"is_transit":false,"station_name":"Cikini","distance":1590,"i_long":106.840169,"time":4,"transit":false,"station_id":"CKI","i_lat":-6.198556},{"distance":1750,"station_id":"GDD","transit":false,"i_lat":-6.186295,"i_long":106.832183,"station_name":"Gondangdia","line":2,"time":3,"is_transit":false},{"line":2,"transit":false,"distance":2015,"station_name":"Juanda","time":4,"i_long":106.828284,"is_transit":false,"i_lat":-6.166716,"station_id":"JUA"},{"distance":1149,"time":2,"line":2,"transit":false,"i_lat":-6.160725,"station_id":"SW","is_transit":false,"i_long":106.827103,"station_name":"Sawah Besar"},{"distance":906,"station_id":"MGB","transit":false,"is_transit":false,"station_name":"Manggabesar","i_lat":-6.149769,"line":2,"time":2,"i_long":106.82482},{"i_long":106.820901,"station_id":"JAY","is_transit":false,"transit":false,"station_name":"Jayakarta","i_lat":-6.141205,"line":7,"distance":1080,"time":2},{"i_long":106.812439,"transit":true,"station_name":"Jakarta Kota","station_id":"JAKK","is_transit":true,"i_lat":-6.137569,"time":4,"line":0,"distance":1264},{"is_transit":true,"station_name":"Kampung Bandan","i_lat":-6.132549,"i_long":106.826365,"station_id":"KPB","line":0,"time":3,"transit":false,"distance":1364},{"station_id":"AK","i_long":106.79867,"line":0,"is_transit":false,"distance":4102,"station_name":"Angke","time":9,"transit":false,"i_lat":-6.144674},{"time":4,"distance":1230,"is_transit":true,"station_name":"Duri","i_long":106.800832,"transit":true,"station_id":"DU","i_lat":-6.155215,"line":1},{"station_id":"GGL","time":3,"is_transit":false,"transit":false,"i_lat":-6.162021,"station_name":"Grogol","i_long":106.788277,"distance":1700,"line":5},{"distance":2036,"i_lat":-6.161433,"is_transit":false,"time":2,"transit":false,"station_id":"PSG","i_long":106.771379,"station_name":"Pesing","line":5}],[{"station_id":"BUA","distance":0,"line":0,"is_transit":false,"time":0,"station_name":"Buaran","i_long":106.922662,"transit":false,"i_lat":-6.215568},{"time":2,"line":1,"is_transit":false,"distance":3100,"station_name":"Klender","i_long":106.899548,"station_id":"KLD","i_lat":-6.2135,"transit":false},{"is_transit":true,"distance":3395,"transit":true,"station_id":"JNG","i_long":106.86807400000001,"station_name":"Jatinegara","i_lat":-6.215091,"line":0,"time":3},{"line":11,"time":2,"i_long":106.861737,"transit":false,"distance":1236,"station_name":"Pondok Jati","is_transit":false,"station_id":"POK","i_lat":-6.209188},{"transit":false,"station_name":"Kramat","time":2,"distance":1829,"station_id":"KMT","i_long":106.855437,"line":11,"i_lat":-6.193792,"is_transit":false},{"station_id":"GST","is_transit":false,"i_long":106.850107,"line":11,"transit":false,"i_lat":-6.185975,"distance":973,"time":1,"station_name":"Gang Sentiong"},{"line":11,"i_long":106.84368,"transit":false,"time":8,"station_id":"PSE","is_transit":false,"distance":1567,"i_lat":-6.174784,"station_name":"Pasar Senen"},{"i_lat":-6.161728,"distance":1436,"station_name":"Kemayoran","i_long":106.839204,"station_id":"KMO","time":4,"line":11,"transit":false,"is_transit":false},{"time":5,"station_name":"Rajawali","i_lat":-6.14505,"distance":1901,"transit":false,"i_long":106.836569,"line":11,"station_id":"RJW","is_transit":false},{"line":0,"is_transit":true,"i_long":106.826365,"station_id":"KPB","time":3,"station_name":"Kampung Bandan","i_lat":-6.132549,"distance":1444,"transit":true},{"distance":1364,"i_lat":-6.137569,"station_id":"JAKK","line":0,"i_long":106.812439,"time":3,"station_name":"Jakarta Kota","is_transit":true,"transit":true},{"transit":false,"station_id":"JAY","time":4,"i_lat":-6.141205,"line":7,"distance":1264,"station_name":"Jayakarta","i_long":106.820901,"is_transit":false},{"transit":false,"i_long":106.82482,"station_id":"MGB","station_name":"Manggabesar","distance":1080,"line":2,"i_lat":-6.149769,"time":2,"is_transit":false},{"station_id":"SW","transit":false,"time":2,"i_long":106.827103,"distance":906,"station_name":"Sawah Besar","i_lat":-6.160725,"is_transit":false,"line":2},{"i_long":106.828284,"time":2,"transit":false,"line":2,"is_transit":false,"distance":1149,"station_id":"JUA","station_name":"Juanda","i_lat":-6.166716},{"station_id":"GDD","station_name":"Gondangdia","line":2,"distance":2015,"i_lat":-6.186295,"time":4,"is_transit":false,"i_long":106.832183,"transit":false},{"i_lat":-6.198556,"is_transit":false,"line":0,"distance":1750,"station_id":"CKI","transit":false,"station_name":"Cikini","time":3,"i_long":106.840169},{"transit":true,"distance":1590,"i_lat":-6.209883,"time":4,"is_transit":true,"i_long":106.84912,"line":0,"station_name":"Manggarai","station_id":"MRI"},{"is_transit":false,"time":4,"station_name":"Sudirman","line":1,"i_long":106.822649,"i_lat":-6.202263,"transit":false,"station_id":"SUD","distance":3186},{"line":1,"station_name":"Sudirman Baru","distance":280,"time":1,"transit":false,"i_lat":-6.201433,"station_id":"SUDB","i_long":106.819881,"is_transit":false},{"is_transit":false,"transit":false,"station_name":"Karet","line":1,"distance":471,"station_id":"KAT","i_lat":-6.20132,"i_long":106.816351,"time":1},{"time":5,"line":1,"station_id":"THB","station_name":"Tanah Abang","i_long":106.811091,"transit":false,"distance":2029,"i_lat":-6.185545,"is_transit":true},{"i_long":106.800832,"i_lat":-6.155215,"line":1,"station_name":"Duri","transit":true,"is_transit":true,"distance":3632,"station_id":"DU","time":8},{"is_transit":false,"time":3,"i_long":106.788277,"station_name":"Grogol","distance":1700,"transit":false,"station_id":"GGL","i_lat":-6.162021,"line":5},{"station_name":"Pesing","time":2,"station_id":"PSG","transit":false,"distance":2036,"i_lat":-6.161433,"i_long":106.771379,"line":5,"is_transit":false}]]}