{"data":[[{"line":1,"i_lat":-6.215568,"time":0,"i_long":106.922662,"is_transit":false,"station_name":"Buaran","station_id":"BUA","distance":0,"transit":false},{"station_name":"Klender","distance":3100,"i_long":106.899548,"line":1,"station_id":"KLD","i_lat":-6.2135,"is_transit":false,"transit":false,"time":2},{"line":1,"transit":true,"station_name":"Jatinegara","i_lat":-6.215091,"distance":3395,"is_transit":true,"station_id":"JNG","time":3,"i_long":106.86807400000001},{"line":11,"station_name":"Pondok Jati","time":2,"is_transit":false,"transit":false,"i_lat":-6.209188,"i_long":106.861737,"station_id":"POK","distance":1236},{"transit":false,"i_long":106.855437,"line":11,"station_id":"KMT","station_name":"Kramat","time":2,"is_transit":false,"i_lat":-6.193792,"distance":1829},{"i_lat":-6.185975,"is_transit":false,"i_long":106.850107,"line":11,"station_id":"GST","distance":973,"transit":false,"station_name":"Gang Sentiong","time":1},{"i_long":106.84368,"line":11,"transit":false,"station_id":"PSE","distance":1567,"i_lat":-6.174784,"is_transit":false,"time":8,"station_name":"Pasar Senen"},{"station_name":"Kemayoran","station_id":"KMO","is_transit":false,"time":4,"distance":1436,"line":11,"i_long":106.839204,"transit":false,"i_lat":-6.161728}],[{"station_id":"BUA","time":0,"transit":false,"is_transit":false,"i_long":106.922662,"line":1,"station_name":"Buaran","distance":0,"i_lat":-6.215568},{"i_long":106.899548,"station_id":"KLD","is_transit":false,"line":1,"time":2,"i_lat":-6.2135,"transit":false,"distance":3100,"station_name":"Klender"},{"time":3,"i_lat":-6.215091,"i_long":106.86807400000001,"station_name":"Jatinegara","is_transit":false,"distance":3395,"line":1,"transit":false,"station_id":"JNG"},{"distance":1377,"i_lat":-6.212485,"station_name":"Matraman","station_id":"MTR","line":1,"i_long":106.858896,"time":2,"is_transit":false,"transit":false},{"station_id":"MRI","i_lat":-6.209883,"line":2,"station_name":"Manggarai","i_long":106.84912,"is_transit":false,"time":2,"distance":1275,"transit":false},{"line":1,"distance":3186,"is_transit":false,"station_name":"Sudirman","transit":false,"station_id":"SUD","time":4,"i_lat":-6.202263,"i_long":106.822649},{"station_name":"Sudirman Baru","distance":280,"line":1,"i_lat":-6.201433,"is_transit":false,"time":1,"station_id":"SUDB","i_long":106.819881,"transit":false},{"transit":false,"distance":471,"station_name":"Karet","is_transit":false,"i_long":106.816351,"time":1,"line":1,"i_lat":-6.20132,"station_id":"KAT"},{"station_name":"Tanah Abang","station_id":"THB","line":1,"time":5,"transit":false,"is_transit":false,"distance":2029,"i_long":106.811091,"i_lat":-6.185545},{"station_name":"Duri","i_lat":-6.155215,"transit":false,"distance":3632,"is_transit":false,"station_id":"DU","time":8,"i_long":106.800832,"line":1},{"time":4,"i_lat":-6.144674,"i_long":106.79867,"distance":1230,"station_id":"AK","transit":false,"station_name":"Angke","is_transit":false,"line":1},{"station_name":"Kampung Bandan","station_id":"KPB","transit":true,"is_transit":true,"time":9,"distance":4102,"i_lat":-6.132549,"i_long":106.826365,"line":4},{"is_transit":false,"station_id":"RJW","station_name":"Rajawali","distance":1444,"i_lat":-6.14505,"time":3,"transit":false,"i_long":106.836569,"line":11},{"line":11,"station_name":"Kemayoran","distance":1901,"time":5,"is_transit":false,"i_long":106.839204,"station_id":"KMO","transit":false,"i_lat":-6.161728}],[{"transit":false,"station_name":"Buaran","is_transit":false,"time":0,"i_long":106.922662,"station_id":"BUA","distance":0,"line":1,"i_lat":-6.215568},{"station_name":"Klender","i_lat":-6.2135,"time":2,"i_long":106.899548,"transit":false,"line":1,"station_id":"KLD","distance":3100,"is_transit":false},{"time":3,"distance":3395,"i_long":106.86807400000001,"line":1,"transit":false,"station_name":"Jatinegara","is_transit":false,"station_id":"JNG","i_lat":-6.215091},{"line":1,"station_id":"MTR","time":2,"i_lat":-6.212485,"i_long":106.858896,"station_name":"Matraman","transit":false,"is_transit":false,"distance":1377},{"transit":true,"distance":1275,"i_long":106.84912,"is_transit":true,"station_name":"Manggarai","i_lat":-6.209883,"station_id":"MRI","time":2,"line":2},{"station_name":"Cikini","line":2,"transit":false,"is_transit":false,"i_lat":-6.198556,"time":4,"distance":1590,"station_id":"CKI","i_long":106.840169},{"transit":false,"time":3,"is_transit":false,"i_long":106.832183,"distance":1750,"line":2,"station_name":"Gondangdia","i_lat":-6.186295,"station_id":"GDD"},{"station_id":"JUA","time":4,"line":2,"transit":false,"is_transit":false,"i_lat":-6.166716,"station_name":"Juanda","distance":2015,"i_long":106.828284},{"station_id":"SW","distance":1149,"i_long":106.827103,"transit":false,"line":2,"i_lat":-6.160725,"time":2,"station_name":"Sawah Besar","is_transit":false},{"i_long":106.82482,"transit":false,"is_transit":false,"station_id":"MGB","distance":906,"i_lat":-6.149769,"line":2,"time":2,"station_name":"Manggabesar"},{"station_id":"JAY","transit":false,"station_name":"Jayakarta","time":2,"i_long":106.820901,"distance":1080,"line":2,"is_transit":false,"i_lat":-6.141205},{"i_long":106.812439,"i_lat":-6.137569,"time":4,"station_name":"Jakarta Kota","line":2,"is_transit":true,"transit":true,"station_id":"JAKK","distance":1264},{"station_name":"Kampung Bandan","transit":true,"time":3,"i_long":106.826365,"distance":1364,"i_lat":-6.132549,"is_transit":true,"line":4,"station_id":"KPB"},{"i_lat":-6.14505,"i_long":106.836569,"transit":false,"distance":1444,"line":11,"is_transit":false,"time":3,"station_name":"Rajawali","station_id":"RJW"},{"time":5,"station_name":"Kemayoran","line":11,"station_id":"KMO","i_long":106.839204,"distance":1901,"i_lat":-6.161728,"transit":false,"is_transit":false}]]}