{"data":[[{"station_id":"BUA","line":1,"time":0,"station_name":"Buaran","distance":0,"i_lat":-6.215568,"is_transit":false,"i_long":106.922662,"transit":false},{"i_lat":-6.2135,"station_id":"KLD","time":2,"transit":false,"distance":3100,"station_name":"Klender","line":1,"is_transit":false,"i_long":106.899548},{"station_name":"Jatinegara","is_transit":false,"line":1,"i_lat":-6.215091,"distance":3395,"i_long":106.86807400000001,"time":3,"transit":false,"station_id":"JNG"},{"transit":false,"station_id":"MTR","i_long":106.858896,"time":2,"station_name":"Matraman","i_lat":-6.212485,"line":1,"is_transit":false,"distance":1377},{"line":2,"transit":false,"station_id":"MRI","i_long":106.84912,"time":2,"i_lat":-6.209883,"is_transit":false,"distance":1275,"station_name":"Manggarai"},{"i_lat":-6.202263,"line":1,"time":4,"distance":3186,"i_long":106.822649,"transit":false,"is_transit":false,"station_id":"SUD","station_name":"Sudirman"},{"station_name":"Sudirman Baru","i_lat":-6.201433,"is_transit":false,"line":1,"time":1,"distance":280,"station_id":"SUDB","i_long":106.819881,"transit":false},{"i_long":106.816351,"time":1,"distance":471,"station_id":"KAT","station_name":"Karet","is_transit":false,"transit":false,"line":1,"i_lat":-6.20132},{"i_lat":-6.185545,"i_long":106.811091,"is_transit":true,"line":1,"transit":true,"station_id":"THB","time":5,"distance":2029,"station_name":"Tanah Abang"},{"station_id":"PLM","is_transit":false,"distance":3191,"station_name":"Palmerah","line":6,"transit":false,"time":6,"i_lat":-6.207404,"i_long":106.79689},{"time":7,"transit":false,"i_long":106.780334,"line":6,"i_lat":-6.237242,"distance":3737,"station_id":"KBY","station_name":"Kebayoran","is_transit":false},{"time":8,"station_name":"Pondokranji","distance":6218,"is_transit":false,"transit":false,"station_id":"PDJ","i_lat":-6.276362,"line":6,"i_long":106.74273},{"station_name":"Jurangmangu","i_long":106.728916,"line":6,"i_lat":-6.288927,"station_id":"JMU","is_transit":false,"distance":2179,"time":3,"transit":false},{"station_id":"SDM","distance":1994,"station_name":"Sudimara","line":6,"time":4,"i_lat":-6.296963,"i_long":106.712277,"transit":false,"is_transit":false},{"distance":4566,"transit":false,"is_transit":false,"i_lat":-6.314823,"i_long":106.675475,"line":6,"station_id":"RU","station_name":"Rawa Buntu","time":6},{"line":6,"time":4,"station_id":"SRP","i_lat":-6.319871,"is_transit":false,"distance":2413,"transit":false,"station_name":"Serpong","i_long":106.66566},{"time":4,"distance":1784,"i_long":106.640411,"line":3,"station_name":"Cisauk","transit":false,"is_transit":false,"station_id":"CSK","i_lat":-6.32484},{"distance":2519,"transit":false,"i_lat":-6.329547,"i_long":106.617853,"station_name":"Cicayur","line":3,"station_id":"CC","is_transit":false,"time":4},{"i_lat":-6.3441410000000005,"time":8,"station_name":"Parung Panjang","line":6,"station_id":"PRP","is_transit":false,"distance":5968,"transit":false,"i_long":106.568863},{"time":9,"i_long":106.508482,"distance":7025,"is_transit":false,"station_name":"Cilejit","line":3,"station_id":"CJT","transit":false,"i_lat":-6.354349},{"i_long":106.491338,"is_transit":false,"station_name":"Daru","time":6,"line":0,"i_lat":-6.338021,"transit":false,"distance":2675,"station_id":"DAR"},{"transit":false,"distance":3902,"is_transit":false,"i_lat":-6.327251,"i_long":106.460812,"station_name":"Tenjo","time":5,"station_id":"TEJ","line":6},{"transit":false,"station_name":"Tigaraksa","station_id":"TGS","i_lat":-6.328533,"line":6,"i_long":106.425991,"is_transit":false,"time":5,"distance":2974}],[{"distance":0,"station_id":"BUA","transit":false,"is_transit":false,"station_name":"Buaran","i_lat":-6.215568,"i_long":106.922662,"line":1,"time":0},{"i_lat":-6.2135,"station_name":"Klender","line":1,"station_id":"KLD","is_transit":false,"transit":false,"distance":3100,"i_long":106.899548,"time":2},{"distance":3395,"i_lat":-6.215091,"station_id":"JNG","time":3,"station_name":"Jatinegara","is_transit":true,"i_long":106.86807400000001,"line":1,"transit":true},{"distance":1236,"station_name":"Pondok Jati","transit":false,"line":11,"is_transit":false,"i_lat":-6.209188,"station_id":"POK","i_long":106.861737,"time":2},{"transit":false,"is_transit":false,"distance":1829,"station_name":"Kramat","station_id":"KMT","i_lat":-6.193792,"i_long":106.855437,"time":2,"line":11},{"distance":973,"line":11,"station_name":"Gang Sentiong","is_transit":false,"time":1,"transit":false,"i_lat":-6.185975,"i_long":106.850107,"station_id":"GST"},{"station_id":"PSE","transit":false,"i_lat":-6.174784,"i_long":106.84368,"line":11,"station_name":"Pasar Senen","is_transit":false,"time":8,"distance":1567},{"line":11,"time":4,"station_name":"Kemayoran","is_transit":false,"i_long":106.839204,"distance":1436,"transit":false,"i_lat":-6.161728,"station_id":"KMO"},{"distance":1901,"transit":false,"line":11,"time":5,"i_long":106.836569,"is_transit":false,"station_id":"RJW","station_name":"Rajawali","i_lat":-6.14505},{"transit":true,"i_long":106.826365,"distance":1444,"line":4,"i_lat":-6.132549,"station_id":"KPB","time":3,"station_name":"Kampung Bandan","is_transit":true},{"station_id":"AK","time":9,"is_transit":false,"i_long":106.79867,"i_lat":-6.144674,"transit":false,"distance":4102,"station_name":"Angke","line":1},{"station_name":"Duri","station_id":"DU","time":4,"i_long":106.800832,"distance":1230,"is_transit":false,"line":1,"i_lat":-6.155215,"transit":false},{"i_lat":-6.185545,"station_id":"THB","i_long":106.811091,"transit":true,"station_name":"Tanah Abang","time":8,"is_transit":true,"line":1,"distance":3632},{"is_transit":false,"station_id":"PLM","station_name":"Palmerah","i_long":106.79689,"time":6,"distance":3191,"line":6,"i_lat":-6.207404,"transit":false},{"station_id":"KBY","distance":3737,"i_long":106.780334,"transit":false,"line":6,"station_name":"Kebayoran","time":7,"is_transit":false,"i_lat":-6.237242},{"line":6,"distance":6218,"i_long":106.74273,"transit":false,"i_lat":-6.276362,"station_name":"Pondokranji","station_id":"PDJ","time":8,"is_transit":false},{"distance":2179,"is_transit":false,"station_id":"JMU","line":6,"transit":false,"i_lat":-6.288927,"station_name":"Jurangmangu","i_long":106.728916,"time":3},{"i_lat":-6.296963,"line":6,"distance":1994,"station_id":"SDM","transit":false,"i_long":106.712277,"time":4,"is_transit":false,"station_name":"Sudimara"},{"i_long":106.675475,"distance":4566,"transit":false,"i_lat":-6.314823,"is_transit":false,"station_name":"Rawa Buntu","time":6,"station_id":"RU","line":6},{"line":6,"i_lat":-6.319871,"station_id":"SRP","station_name":"Serpong","time":4,"transit":false,"is_transit":false,"distance":2413,"i_long":106.66566},{"is_transit":false,"station_name":"Cisauk","line":3,"station_id":"CSK","distance":1784,"transit":false,"i_lat":-6.32484,"i_long":106.640411,"time":4},{"is_transit":false,"time":4,"line":3,"distance":2519,"transit":false,"station_id":"CC","station_name":"Cicayur","i_lat":-6.329547,"i_long":106.617853},{"i_lat":-6.3441410000000005,"station_name":"Parung Panjang","i_long":106.568863,"line":6,"time":8,"station_id":"PRP","is_transit":false,"distance":5968,"transit":false},{"line":3,"time":9,"transit":false,"station_name":"Cilejit","i_long":106.508482,"distance":7025,"station_id":"CJT","is_transit":false,"i_lat":-6.354349},{"transit":false,"station_name":"Daru","i_long":106.491338,"line":0,"i_lat":-6.338021,"time":6,"distance":2675,"station_id":"DAR","is_transit":false},{"i_long":106.460812,"i_lat":-6.327251,"transit":false,"station_name":"Tenjo","is_transit":false,"station_id":"TEJ","time":5,"distance":3902,"line":6},{"station_id":"TGS","is_transit":false,"i_lat":-6.328533,"station_name":"Tigaraksa","i_long":106.425991,"time":5,"distance":2974,"line":6,"transit":false}],[{"i_lat":-6.215568,"line":1,"i_long":106.922662,"station_name":"Buaran","station_id":"BUA","transit":false,"distance":0,"is_transit":false,"time":0},{"station_name":"Klender","i_long":106.899548,"i_lat":-6.2135,"time":2,"is_transit":false,"transit":false,"distance":3100,"line":1,"station_id":"KLD"},{"time":3,"station_name":"Jatinegara","i_long":106.86807400000001,"distance":3395,"station_id":"JNG","transit":false,"i_lat":-6.215091,"is_transit":false,"line":1},{"distance":1377,"transit":false,"station_id":"MTR","station_name":"Matraman","i_lat":-6.212485,"line":1,"time":2,"is_transit":false,"i_long":106.858896},{"station_id":"MRI","distance":1275,"transit":true,"station_name":"Manggarai","i_lat":-6.209883,"i_long":106.84912,"line":2,"is_transit":true,"time":2},{"i_lat":-6.198556,"is_transit":false,"line":2,"distance":1590,"transit":false,"station_name":"Cikini","station_id":"CKI","i_long":106.840169,"time":4},{"station_name":"Gondangdia","station_id":"GDD","transit":false,"time":3,"is_transit":false,"i_lat":-6.186295,"i_long":106.832183,"line":2,"distance":1750},{"i_lat":-6.166716,"i_long":106.828284,"line":2,"station_id":"JUA","is_transit":false,"distance":2015,"time":4,"station_name":"Juanda","transit":false},{"line":2,"station_id":"SW","i_lat":-6.160725,"station_name":"Sawah Besar","distance":1149,"time":2,"transit":false,"is_transit":false,"i_long":106.827103},{"is_transit":false,"station_id":"MGB","i_long":106.82482,"station_name":"Manggabesar","i_lat":-6.149769,"line":2,"transit":false,"distance":906,"time":2},{"transit":false,"time":2,"distance":1080,"station_id":"JAY","station_name":"Jayakarta","is_transit":false,"i_lat":-6.141205,"i_long":106.820901,"line":2},{"i_long":106.812439,"distance":1264,"transit":true,"station_name":"Jakarta Kota","line":2,"is_transit":true,"time":4,"i_lat":-6.137569,"station_id":"JAKK"},{"station_id":"KPB","i_lat":-6.132549,"station_name":"Kampung Bandan","transit":true,"i_long":106.826365,"line":4,"is_transit":true,"time":3,"distance":1364},{"i_lat":-6.144674,"time":9,"transit":false,"line":1,"i_long":106.79867,"distance":4102,"station_id":"AK","is_transit":false,"station_name":"Angke"},{"is_transit":false,"transit":false,"time":4,"station_id":"DU","distance":1230,"station_name":"Duri","i_long":106.800832,"i_lat":-6.155215,"line":1},{"time":8,"i_long":106.811091,"is_transit":true,"distance":3632,"station_id":"THB","station_name":"Tanah Abang","i_lat":-6.185545,"line":1,"transit":true},{"line":6,"i_long":106.79689,"is_transit":false,"station_name":"Palmerah","i_lat":-6.207404,"station_id":"PLM","transit":false,"time":6,"distance":3191},{"line":6,"station_id":"KBY","i_lat":-6.237242,"station_name":"Kebayoran","time":7,"distance":3737,"is_transit":false,"transit":false,"i_long":106.780334},{"i_lat":-6.276362,"distance":6218,"is_transit":false,"time":8,"station_id":"PDJ","transit":false,"station_name":"Pondokranji","i_long":106.74273,"line":6},{"transit":false,"time":3,"station_id":"JMU","i_lat":-6.288927,"station_name":"Jurangmangu","i_long":106.728916,"line":6,"distance":2179,"is_transit":false},{"time":4,"is_transit":false,"station_id":"SDM","transit":false,"distance":1994,"station_name":"Sudimara","i_lat":-6.296963,"line":6,"i_long":106.712277},{"i_long":106.675475,"line":6,"i_lat":-6.314823,"is_transit":false,"time":6,"distance":4566,"station_id":"RU","station_name":"Rawa Buntu","transit":false},{"station_id":"SRP","is_transit":false,"station_name":"Serpong","i_lat":-6.319871,"i_long":106.66566,"line":6,"distance":2413,"time":4,"transit":false},{"distance":1784,"station_id":"CSK","i_long":106.640411,"transit":false,"time":4,"station_name":"Cisauk","is_transit":false,"line":3,"i_lat":-6.32484},{"distance":2519,"is_transit":false,"transit":false,"i_long":106.617853,"time":4,"i_lat":-6.329547,"station_name":"Cicayur","line":3,"station_id":"CC"},{"station_id":"PRP","station_name":"Parung Panjang","i_lat":-6.3441410000000005,"i_long":106.568863,"is_transit":false,"time":8,"distance":5968,"transit":false,"line":6},{"distance":7025,"time":9,"transit":false,"line":3,"i_long":106.508482,"i_lat":-6.354349,"station_name":"Cilejit","is_transit":false,"station_id":"CJT"},{"distance":2675,"is_transit":false,"transit":false,"time":6,"station_name":"Daru","line":0,"station_id":"DAR","i_long":106.491338,"i_lat":-6.338021},{"transit":false,"line":6,"station_id":"TEJ","i_lat":-6.327251,"distance":3902,"station_name":"Tenjo","i_long":106.460812,"time":5,"is_transit":false},{"i_long":106.425991,"distance":2974,"station_name":"Tigaraksa","station_id":"TGS","line":6,"is_transit":false,"time":5,"transit":false,"i_lat":-6.328533}],[{"i_long":106.922662,"station_id":"BUA","time":0,"distance":0,"line":1,"is_transit":false,"station_name":"Buaran","i_lat":-6.215568,"transit":false},{"i_lat":-6.2135,"time":2,"station_id":"KLD","is_transit":false,"distance":3100,"i_long":106.899548,"transit":false,"line":1,"station_name":"Klender"},{"i_long":106.86807400000001,"time":3,"i_lat":-6.215091,"line":1,"is_transit":true,"distance":3395,"station_name":"Jatinegara","station_id":"JNG","transit":true},{"station_id":"POK","line":11,"transit":false,"station_name":"Pondok Jati","i_long":106.861737,"i_lat":-6.209188,"time":2,"is_transit":false,"distance":1236},{"time":2,"i_lat":-6.193792,"is_transit":false,"distance":1829,"line":11,"transit":false,"i_long":106.855437,"station_id":"KMT","station_name":"Kramat"},{"i_long":106.850107,"station_id":"GST","is_transit":false,"station_name":"Gang Sentiong","i_lat":-6.185975,"line":11,"distance":973,"time":1,"transit":false},{"is_transit":false,"station_id":"PSE","distance":1567,"station_name":"Pasar Senen","i_long":106.84368,"i_lat":-6.174784,"line":11,"transit":false,"time":8},{"line":11,"is_transit":false,"station_id":"KMO","station_name":"Kemayoran","transit":false,"time":4,"i_lat":-6.161728,"i_long":106.839204,"distance":1436},{"station_name":"Rajawali","station_id":"RJW","time":5,"i_long":106.836569,"distance":1901,"i_lat":-6.14505,"is_transit":false,"transit":false,"line":11},{"transit":true,"station_name":"Kampung Bandan","i_lat":-6.132549,"line":4,"time":3,"station_id":"KPB","i_long":106.826365,"is_transit":true,"distance":1444},{"is_transit":true,"time":3,"distance":1364,"transit":true,"station_id":"JAKK","station_name":"Jakarta Kota","i_lat":-6.137569,"i_long":106.812439,"line":2},{"station_name":"Jayakarta","i_lat":-6.141205,"line":2,"time":4,"distance":1264,"transit":false,"is_transit":false,"station_id":"JAY","i_long":106.820901},{"time":2,"line":2,"is_transit":false,"distance":1080,"transit":false,"i_lat":-6.149769,"i_long":106.82482,"station_id":"MGB","station_name":"Manggabesar"},{"line":2,"i_lat":-6.160725,"transit":false,"is_transit":false,"time":2,"distance":906,"station_id":"SW","station_name":"Sawah Besar","i_long":106.827103},{"i_lat":-6.166716,"is_transit":false,"time":2,"distance":1149,"transit":false,"station_id":"JUA","i_long":106.828284,"line":2,"station_name":"Juanda"},{"transit":false,"station_id":"GDD","line":2,"i_long":106.832183,"i_lat":-6.186295,"station_name":"Gondangdia","distance":2015,"time":4,"is_transit":false},{"i_lat":-6.198556,"station_name":"Cikini","time":3,"line":2,"distance":1750,"station_id":"CKI","is_transit":false,"transit":false,"i_long":106.840169},{"i_long":106.84912,"line":2,"is_transit":true,"time":4,"transit":true,"station_name":"Manggarai","distance":1590,"station_id":"MRI","i_lat":-6.209883},{"distance":3186,"transit":false,"station_id":"SUD","time":4,"is_transit":false,"station_name":"Sudirman","i_lat":-6.202263,"i_long":106.822649,"line":1},{"is_transit":false,"station_name":"Sudirman Baru","i_lat":-6.201433,"distance":280,"time":1,"transit":false,"station_id":"SUDB","i_long":106.819881,"line":1},{"is_transit":false,"distance":471,"transit":false,"station_id":"KAT","line":1,"i_lat":-6.20132,"time":1,"station_name":"Karet","i_long":106.816351},{"station_id":"THB","i_lat":-6.185545,"line":1,"is_transit":true,"time":5,"i_long":106.811091,"transit":true,"distance":2029,"station_name":"Tanah Abang"},{"is_transit":false,"distance":3191,"station_id":"PLM","time":6,"station_name":"Palmerah","i_long":106.79689,"line":6,"transit":false,"i_lat":-6.207404},{"transit":false,"distance":3737,"station_id":"KBY","line":6,"i_lat":-6.237242,"station_name":"Kebayoran","is_transit":false,"time":7,"i_long":106.780334},{"station_id":"PDJ","i_long":106.74273,"line":6,"i_lat":-6.276362,"is_transit":false,"time":8,"distance":6218,"transit":false,"station_name":"Pondokranji"},{"time":3,"distance":2179,"transit":false,"station_id":"JMU","station_name":"Jurangmangu","i_lat":-6.288927,"i_long":106.728916,"is_transit":false,"line":6},{"station_id":"SDM","is_transit":false,"line":6,"station_name":"Sudimara","i_lat":-6.296963,"distance":1994,"transit":false,"i_long":106.712277,"time":4},{"line":6,"i_lat":-6.314823,"distance":4566,"is_transit":false,"time":6,"transit":false,"station_name":"Rawa Buntu","i_long":106.675475,"station_id":"RU"},{"station_id":"SRP","line":6,"i_lat":-6.319871,"is_transit":false,"time":4,"distance":2413,"transit":false,"i_long":106.66566,"station_name":"Serpong"},{"i_long":106.640411,"station_name":"Cisauk","i_lat":-6.32484,"is_transit":false,"line":3,"distance":1784,"time":4,"transit":false,"station_id":"CSK"},{"distance":2519,"transit":false,"is_transit":false,"i_lat":-6.329547,"station_id":"CC","station_name":"Cicayur","line":3,"i_long":106.617853,"time":4},{"i_long":106.568863,"distance":5968,"is_transit":false,"station_name":"Parung Panjang","line":6,"time":8,"transit":false,"i_lat":-6.3441410000000005,"station_id":"PRP"},{"line":3,"i_lat":-6.354349,"station_name":"Cilejit","i_long":106.508482,"time":9,"is_transit":false,"transit":false,"station_id":"CJT","distance":7025},{"line":0,"i_long":106.491338,"transit":false,"time":6,"is_transit":false,"distance":2675,"station_id":"DAR","station_name":"Daru","i_lat":-6.338021},{"time":5,"distance":3902,"station_name":"Tenjo","station_id":"TEJ","i_lat":-6.327251,"i_long":106.460812,"is_transit":false,"line":6,"transit":false},{"station_id":"TGS","i_long":106.425991,"distance":2974,"i_lat":-6.328533,"time":5,"transit":false,"line":6,"is_transit":false,"station_name":"Tigaraksa"}]]}