{"data":[[{"line":0,"transit":false,"i_lat":-6.215568,"station_name":"Buaran","distance":0,"time":0,"is_transit":false,"i_long":106.922662,"station_id":"BUA"},{"line":1,"station_id":"KLD","is_transit":false,"i_long":106.899548,"transit":false,"time":2,"distance":3100,"station_name":"Klender","i_lat":-6.2135},{"line":0,"station_name":"Jatinegara","station_id":"JNG","i_lat":-6.215091,"i_long":106.86807400000001,"is_transit":true,"time":3,"distance":3395,"transit":false},{"i_long":106.858896,"line":1,"is_transit":false,"i_lat":-6.212485,"distance":1377,"time":2,"station_name":"Matraman","station_id":"MTR","transit":false},{"distance":1275,"station_name":"Manggarai","transit":true,"i_long":106.84912,"is_transit":true,"time":2,"station_id":"MRI","i_lat":-6.209883,"line":0},{"station_id":"TEB","transit":false,"i_lat":-6.226659,"line":2,"time":4,"i_long":106.857948,"is_transit":false,"station_name":"Tebet","distance":2610},{"time":2,"transit":false,"line":0,"i_long":106.856607,"station_name":"Cawang","station_id":"CW","distance":1230,"i_lat":-6.242512,"is_transit":false},{"distance":1546,"i_long":106.85449,"transit":false,"i_lat":-6.255332,"station_id":"DRN","is_transit":false,"line":0,"time":3,"station_name":"Duren Kalibata"}],[{"time":0,"station_id":"BUA","transit":false,"is_transit":false,"distance":0,"i_long":106.922662,"station_name":"Buaran","i_lat":-6.215568,"line":0},{"i_long":106.899548,"station_name":"Klender","is_transit":false,"station_id":"KLD","line":1,"distance":3100,"time":2,"transit":false,"i_lat":-6.2135},{"station_id":"JNG","i_long":106.86807400000001,"time":3,"distance":3395,"transit":true,"line":0,"is_transit":true,"i_lat":-6.215091,"station_name":"Jatinegara"},{"time":2,"is_transit":false,"distance":1236,"station_id":"POK","transit":false,"station_name":"Pondok Jati","i_lat":-6.209188,"i_long":106.861737,"line":11},{"station_name":"Kramat","transit":false,"i_long":106.855437,"line":11,"i_lat":-6.193792,"is_transit":false,"time":2,"station_id":"KMT","distance":1829},{"distance":973,"is_transit":false,"line":11,"station_name":"Gang Sentiong","transit":false,"station_id":"GST","i_lat":-6.185975,"time":1,"i_long":106.850107},{"time":8,"distance":1567,"station_id":"PSE","line":11,"is_transit":false,"i_lat":-6.174784,"station_name":"Pasar Senen","transit":false,"i_long":106.84368},{"i_long":106.839204,"station_name":"Kemayoran","distance":1436,"transit":false,"is_transit":false,"time":4,"line":11,"i_lat":-6.161728,"station_id":"KMO"},{"is_transit":false,"station_id":"RJW","line":11,"station_name":"Rajawali","time":5,"transit":false,"i_long":106.836569,"distance":1901,"i_lat":-6.14505},{"distance":1444,"time":3,"station_id":"KPB","i_long":106.826365,"is_transit":true,"i_lat":-6.132549,"line":0,"station_name":"Kampung Bandan","transit":true},{"is_transit":false,"transit":false,"station_id":"AK","time":9,"station_name":"Angke","distance":4102,"i_lat":-6.144674,"i_long":106.79867,"line":0},{"transit":true,"station_id":"DU","is_transit":true,"i_lat":-6.155215,"distance":1230,"time":4,"station_name":"Duri","i_long":106.800832,"line":1},{"distance":3632,"is_transit":true,"time":8,"i_lat":-6.185545,"line":1,"transit":false,"station_id":"THB","station_name":"Tanah Abang","i_long":106.811091},{"station_name":"Karet","transit":false,"i_lat":-6.20132,"time":5,"is_transit":false,"line":1,"distance":2029,"i_long":106.816351,"station_id":"KAT"},{"station_id":"SUDB","line":1,"station_name":"Sudirman Baru","distance":471,"is_transit":false,"transit":false,"time":1,"i_lat":-6.201433,"i_long":106.819881},{"i_lat":-6.202263,"distance":280,"is_transit":false,"station_id":"SUD","time":1,"transit":false,"station_name":"Sudirman","i_long":106.822649,"line":1},{"distance":3186,"station_id":"MRI","time":4,"station_name":"Manggarai","is_transit":true,"i_long":106.84912,"line":0,"i_lat":-6.209883,"transit":true},{"station_id":"TEB","time":4,"transit":false,"i_long":106.857948,"distance":2610,"is_transit":false,"station_name":"Tebet","line":2,"i_lat":-6.226659},{"station_id":"CW","i_long":106.856607,"distance":1230,"station_name":"Cawang","i_lat":-6.242512,"is_transit":false,"transit":false,"line":0,"time":2},{"i_lat":-6.255332,"i_long":106.85449,"distance":1546,"line":0,"transit":false,"is_transit":false,"station_name":"Duren Kalibata","station_id":"DRN","time":3}],[{"is_transit":false,"station_id":"BUA","transit":false,"line":0,"i_lat":-6.215568,"i_long":106.922662,"distance":0,"time":0,"station_name":"Buaran"},{"time":2,"i_lat":-6.2135,"station_id":"KLD","station_name":"Klender","i_long":106.899548,"line":1,"is_transit":false,"distance":3100,"transit":false},{"station_name":"Jatinegara","i_long":106.86807400000001,"distance":3395,"transit":true,"line":0,"is_transit":true,"station_id":"JNG","i_lat":-6.215091,"time":3},{"station_name":"Pondok Jati","is_transit":false,"line":11,"transit":false,"station_id":"POK","time":2,"distance":1236,"i_long":106.861737,"i_lat":-6.209188},{"time":2,"distance":1829,"transit":false,"station_name":"Kramat","station_id":"KMT","line":11,"is_transit":false,"i_lat":-6.193792,"i_long":106.855437},{"time":1,"is_transit":false,"station_name":"Gang Sentiong","distance":973,"transit":false,"i_lat":-6.185975,"i_long":106.850107,"station_id":"GST","line":11},{"distance":1567,"station_id":"PSE","transit":false,"time":8,"station_name":"Pasar Senen","line":11,"is_transit":false,"i_long":106.84368,"i_lat":-6.174784},{"station_id":"KMO","line":11,"time":4,"station_name":"Kemayoran","i_lat":-6.161728,"is_transit":false,"distance":1436,"transit":false,"i_long":106.839204},{"i_lat":-6.14505,"distance":1901,"line":11,"is_transit":false,"station_name":"Rajawali","transit":false,"station_id":"RJW","time":5,"i_long":106.836569},{"distance":1444,"station_id":"KPB","line":0,"station_name":"Kampung Bandan","time":3,"i_lat":-6.132549,"i_long":106.826365,"transit":true,"is_transit":true},{"distance":1364,"station_name":"Jakarta Kota","is_transit":true,"transit":true,"i_lat":-6.137569,"i_long":106.812439,"line":0,"time":3,"station_id":"JAKK"},{"time":4,"i_long":106.820901,"station_id":"JAY","line":7,"distance":1264,"station_name":"Jayakarta","transit":false,"i_lat":-6.141205,"is_transit":false},{"time":2,"station_name":"Manggabesar","transit":false,"distance":1080,"i_lat":-6.149769,"i_long":106.82482,"station_id":"MGB","is_transit":false,"line":2},{"time":2,"station_name":"Sawah Besar","i_long":106.827103,"i_lat":-6.160725,"transit":false,"station_id":"SW","is_transit":false,"distance":906,"line":2},{"i_lat":-6.166716,"line":2,"transit":false,"time":2,"station_id":"JUA","station_name":"Juanda","i_long":106.828284,"is_transit":false,"distance":1149},{"station_id":"GDD","station_name":"Gondangdia","time":4,"transit":false,"line":2,"i_long":106.832183,"distance":2015,"i_lat":-6.186295,"is_transit":false},{"i_lat":-6.198556,"is_transit":false,"station_id":"CKI","distance":1750,"station_name":"Cikini","transit":false,"i_long":106.840169,"line":0,"time":3},{"transit":true,"station_id":"MRI","station_name":"Manggarai","time":4,"i_lat":-6.209883,"i_long":106.84912,"is_transit":true,"distance":1590,"line":0},{"distance":2610,"i_lat":-6.226659,"station_name":"Tebet","line":2,"is_transit":false,"station_id":"TEB","time":4,"transit":false,"i_long":106.857948},{"transit":false,"distance":1230,"line":0,"station_name":"Cawang","is_transit":false,"time":2,"i_long":106.856607,"station_id":"CW","i_lat":-6.242512},{"i_long":106.85449,"transit":false,"station_id":"DRN","distance":1546,"line":0,"is_transit":false,"time":3,"i_lat":-6.255332,"station_name":"Duren Kalibata"}]]}