{"data":[[{"station_id":"BUA","time":0,"distance":0,"line":1,"i_lat":-6.215568,"i_long":106.922662,"station_name":"Buaran","is_transit":false,"transit":false},{"transit":false,"station_name":"Klender","i_lat":-6.2135,"line":1,"time":2,"distance":3100,"i_long":106.899548,"is_transit":false,"station_id":"KLD"},{"time":3,"is_transit":false,"transit":false,"i_lat":-6.215091,"line":1,"distance":3395,"i_long":106.86807400000001,"station_id":"JNG","station_name":"Jatinegara"},{"station_id":"MTR","station_name":"Matraman","time":2,"line":1,"transit":false,"is_transit":false,"distance":1377,"i_lat":-6.212485,"i_long":106.858896},{"i_long":106.84912,"station_name":"Manggarai","is_transit":true,"line":2,"time":2,"distance":1275,"i_lat":-6.209883,"transit":true,"station_id":"MRI"},{"station_id":"CKI","time":4,"transit":false,"i_lat":-6.198556,"i_long":106.840169,"station_name":"Cikini","is_transit":false,"distance":1590,"line":2},{"i_long":106.832183,"distance":1750,"time":3,"transit":false,"line":2,"station_name":"Gondangdia","is_transit":false,"station_id":"GDD","i_lat":-6.186295}],[{"is_transit":false,"distance":0,"i_long":106.922662,"station_id":"BUA","transit":false,"station_name":"Buaran","line":1,"time":0,"i_lat":-6.215568},{"i_lat":-6.2135,"line":1,"time":2,"distance":3100,"station_name":"Klender","i_long":106.899548,"transit":false,"station_id":"KLD","is_transit":false},{"transit":true,"time":3,"is_transit":true,"distance":3395,"station_name":"Jatinegara","station_id":"JNG","i_lat":-6.215091,"line":1,"i_long":106.86807400000001},{"transit":false,"station_name":"Pondok Jati","i_lat":-6.209188,"time":2,"distance":1236,"station_id":"POK","line":11,"i_long":106.861737,"is_transit":false},{"station_name":"Kramat","i_lat":-6.193792,"distance":1829,"i_long":106.855437,"time":2,"transit":false,"is_transit":false,"station_id":"KMT","line":11},{"time":1,"distance":973,"station_name":"Gang Sentiong","station_id":"GST","transit":false,"line":11,"i_lat":-6.185975,"i_long":106.850107,"is_transit":false},{"station_name":"Pasar Senen","line":11,"is_transit":false,"distance":1567,"i_long":106.84368,"i_lat":-6.174784,"transit":false,"time":8,"station_id":"PSE"},{"i_long":106.839204,"transit":false,"distance":1436,"is_transit":false,"station_id":"KMO","station_name":"Kemayoran","line":11,"i_lat":-6.161728,"time":4},{"transit":false,"distance":1901,"time":5,"i_lat":-6.14505,"is_transit":false,"i_long":106.836569,"line":11,"station_id":"RJW","station_name":"Rajawali"},{"station_id":"KPB","time":3,"i_long":106.826365,"i_lat":-6.132549,"station_name":"Kampung Bandan","distance":1444,"transit":true,"is_transit":true,"line":4},{"i_long":106.812439,"time":3,"is_transit":true,"station_name":"Jakarta Kota","station_id":"JAKK","i_lat":-6.137569,"line":2,"distance":1364,"transit":true},{"time":4,"station_name":"Jayakarta","i_lat":-6.141205,"line":2,"transit":false,"is_transit":false,"station_id":"JAY","distance":1264,"i_long":106.820901},{"i_long":106.82482,"station_id":"MGB","station_name":"Manggabesar","distance":1080,"is_transit":false,"transit":false,"i_lat":-6.149769,"line":2,"time":2},{"distance":906,"is_transit":false,"transit":false,"station_name":"Sawah Besar","i_long":106.827103,"time":2,"station_id":"SW","i_lat":-6.160725,"line":2},{"transit":false,"i_long":106.828284,"distance":1149,"station_id":"JUA","station_name":"Juanda","is_transit":false,"time":2,"i_lat":-6.166716,"line":2},{"i_lat":-6.186295,"time":4,"transit":false,"station_name":"Gondangdia","station_id":"GDD","line":2,"distance":2015,"is_transit":false,"i_long":106.832183}],[{"distance":0,"i_lat":-6.215568,"transit":false,"station_name":"Buaran","i_long":106.922662,"time":0,"station_id":"BUA","line":1,"is_transit":false},{"station_name":"Klender","line":1,"transit":false,"station_id":"KLD","i_lat":-6.2135,"is_transit":false,"i_long":106.899548,"distance":3100,"time":2},{"distance":3395,"time":3,"i_long":106.86807400000001,"station_name":"Jatinegara","is_transit":false,"transit":false,"station_id":"JNG","i_lat":-6.215091,"line":1},{"station_name":"Matraman","is_transit":false,"line":1,"i_long":106.858896,"transit":false,"distance":1377,"i_lat":-6.212485,"station_id":"MTR","time":2},{"station_name":"Manggarai","is_transit":false,"transit":false,"line":2,"distance":1275,"time":2,"i_lat":-6.209883,"i_long":106.84912,"station_id":"MRI"},{"i_long":106.822649,"distance":3186,"station_id":"SUD","i_lat":-6.202263,"time":4,"is_transit":false,"line":1,"station_name":"Sudirman","transit":false},{"transit":false,"station_id":"SUDB","i_long":106.819881,"station_name":"Sudirman Baru","distance":280,"time":1,"is_transit":false,"line":1,"i_lat":-6.201433},{"transit":false,"i_lat":-6.20132,"i_long":106.816351,"station_name":"Karet","line":1,"distance":471,"station_id":"KAT","is_transit":false,"time":1},{"transit":false,"station_id":"THB","is_transit":false,"i_long":106.811091,"distance":2029,"station_name":"Tanah Abang","line":1,"i_lat":-6.185545,"time":5},{"i_long":106.800832,"line":1,"time":8,"distance":3632,"transit":false,"station_name":"Duri","station_id":"DU","is_transit":false,"i_lat":-6.155215},{"i_long":106.79867,"is_transit":false,"distance":1230,"station_name":"Angke","line":1,"time":4,"i_lat":-6.144674,"transit":false,"station_id":"AK"},{"distance":4102,"time":9,"station_id":"KPB","is_transit":true,"i_lat":-6.132549,"i_long":106.826365,"transit":true,"line":4,"station_name":"Kampung Bandan"},{"line":2,"station_name":"Jakarta Kota","i_long":106.812439,"station_id":"JAKK","distance":1364,"is_transit":true,"time":3,"i_lat":-6.137569,"transit":true},{"i_long":106.820901,"transit":false,"line":2,"station_id":"JAY","time":4,"distance":1264,"station_name":"Jayakarta","is_transit":false,"i_lat":-6.141205},{"i_long":106.82482,"line":2,"station_id":"MGB","station_name":"Manggabesar","i_lat":-6.149769,"time":2,"transit":false,"distance":1080,"is_transit":false},{"i_long":106.827103,"distance":906,"station_id":"SW","line":2,"time":2,"i_lat":-6.160725,"is_transit":false,"station_name":"Sawah Besar","transit":false},{"distance":1149,"station_id":"JUA","i_long":106.828284,"transit":false,"i_lat":-6.166716,"is_transit":false,"time":2,"station_name":"Juanda","line":2},{"line":2,"distance":2015,"is_transit":false,"transit":false,"time":4,"station_name":"Gondangdia","station_id":"GDD","i_lat":-6.186295,"i_long":106.832183}],[{"is_transit":false,"time":0,"i_long":106.922662,"transit":false,"station_id":"BUA","distance":0,"line":1,"station_name":"Buaran","i_lat":-6.215568},{"is_transit":false,"station_name":"Klender","station_id":"KLD","i_long":106.899548,"time":2,"transit":false,"distance":3100,"line":1,"i_lat":-6.2135},{"i_lat":-6.215091,"is_transit":true,"transit":true,"time":3,"distance":3395,"station_id":"JNG","line":1,"i_long":106.86807400000001,"station_name":"Jatinegara"},{"station_name":"Pondok Jati","time":2,"station_id":"POK","line":11,"is_transit":false,"i_lat":-6.209188,"distance":1236,"transit":false,"i_long":106.861737},{"time":2,"station_id":"KMT","line":11,"transit":false,"station_name":"Kramat","distance":1829,"i_long":106.855437,"i_lat":-6.193792,"is_transit":false},{"time":1,"i_lat":-6.185975,"distance":973,"line":11,"transit":false,"station_name":"Gang Sentiong","station_id":"GST","i_long":106.850107,"is_transit":false},{"is_transit":false,"transit":false,"i_lat":-6.174784,"time":8,"line":11,"station_id":"PSE","distance":1567,"i_long":106.84368,"station_name":"Pasar Senen"},{"is_transit":false,"time":4,"i_long":106.839204,"station_name":"Kemayoran","line":11,"i_lat":-6.161728,"distance":1436,"station_id":"KMO","transit":false},{"line":11,"is_transit":false,"i_lat":-6.14505,"station_id":"RJW","time":5,"station_name":"Rajawali","transit":false,"distance":1901,"i_long":106.836569},{"station_id":"KPB","time":3,"i_long":106.826365,"distance":1444,"line":4,"i_lat":-6.132549,"transit":true,"station_name":"Kampung Bandan","is_transit":true},{"station_id":"AK","is_transit":false,"transit":false,"i_long":106.79867,"station_name":"Angke","i_lat":-6.144674,"time":9,"distance":4102,"line":1},{"i_lat":-6.155215,"time":4,"station_name":"Duri","station_id":"DU","transit":false,"is_transit":false,"distance":1230,"i_long":106.800832,"line":1},{"line":1,"transit":false,"is_transit":false,"time":8,"station_name":"Tanah Abang","i_lat":-6.185545,"station_id":"THB","i_long":106.811091,"distance":3632},{"i_lat":-6.20132,"line":1,"time":5,"station_name":"Karet","transit":false,"i_long":106.816351,"distance":2029,"is_transit":false,"station_id":"KAT"},{"station_name":"Sudirman Baru","i_long":106.819881,"transit":false,"station_id":"SUDB","distance":471,"i_lat":-6.201433,"is_transit":false,"line":1,"time":1},{"station_id":"SUD","time":1,"transit":false,"distance":280,"i_long":106.822649,"is_transit":false,"line":1,"station_name":"Sudirman","i_lat":-6.202263},{"line":2,"is_transit":true,"station_name":"Manggarai","station_id":"MRI","distance":3186,"i_lat":-6.209883,"time":4,"transit":true,"i_long":106.84912},{"is_transit":false,"transit":false,"station_name":"Cikini","i_lat":-6.198556,"i_long":106.840169,"line":2,"station_id":"CKI","time":4,"distance":1590},{"i_long":106.832183,"transit":false,"station_id":"GDD","i_lat":-6.186295,"is_transit":false,"line":2,"distance":1750,"time":3,"station_name":"Gondangdia"}]]}