{"data":[[{"station_name":"Buaran","i_lat":-6.215568,"i_long":106.922662,"is_transit":false,"time":0,"line":1,"transit":false,"station_id":"BUA","distance":0},{"line":1,"i_lat":-6.2135,"transit":false,"i_long":106.899548,"is_transit":false,"station_id":"KLD","time":2,"station_name":"Klender","distance":3100},{"line":1,"station_name":"Jatinegara","is_transit":false,"transit":false,"station_id":"JNG","i_lat":-6.215091,"time":3,"distance":3395,"i_long":106.86807400000001},{"i_long":106.858896,"is_transit":false,"time":2,"line":1,"station_id":"MTR","transit":false,"i_lat":-6.212485,"station_name":"Matraman","distance":1377},{"i_long":106.84912,"line":2,"i_lat":-6.209883,"time":2,"transit":true,"station_name":"Manggarai","is_transit":true,"distance":1275,"station_id":"MRI"},{"station_name":"Tebet","time":4,"distance":2610,"i_long":106.857948,"transit":false,"i_lat":-6.226659,"line":2,"is_transit":false,"station_id":"TEB"},{"is_transit":false,"distance":1230,"time":2,"line":2,"station_name":"Cawang","station_id":"CW","i_long":106.856607,"transit":false,"i_lat":-6.242512},{"is_transit":false,"station_id":"DRN","transit":false,"i_lat":-6.255332,"line":2,"distance":1546,"time":3,"station_name":"Duren Kalibata","i_long":106.85449},{"time":2,"transit":false,"i_lat":-6.263214,"distance":824,"is_transit":false,"station_id":"PSMB","line":2,"station_name":"Pasar Minggu Baru","i_long":106.851577},{"station_name":"Pasar Minggu","is_transit":false,"i_long":106.843999,"line":2,"distance":2380,"i_lat":-6.2842400000000005,"station_id":"PSM","time":2,"transit":false},{"station_name":"Tanjung Barat","is_transit":false,"distance":2820,"station_id":"TNT","transit":false,"time":4,"i_long":106.838896,"line":2,"i_lat":-6.3080680000000005},{"is_transit":false,"station_id":"LNA","i_long":106.832616,"time":3,"station_name":"Lenteng Agung","i_lat":-6.330363,"line":2,"transit":false,"distance":2671},{"is_transit":false,"station_name":"Univ. Pancasila","i_long":106.834175,"line":2,"time":2,"distance":1029,"i_lat":-6.339291,"station_id":"UP","transit":false},{"i_long":106.831474,"station_name":"Univ. Indonesia","transit":false,"line":2,"i_lat":-6.360749,"is_transit":false,"station_id":"UI","distance":2264,"time":3},{"time":2,"is_transit":false,"line":2,"station_name":"Pondok Cina","i_lat":-6.369073,"transit":false,"distance":1109,"i_long":106.831114,"station_id":"POC"},{"transit":false,"is_transit":false,"i_long":106.819451,"time":4,"distance":2727,"station_name":"Depokbaru","i_lat":-6.391065,"line":2,"station_id":"DPB"},{"i_lat":-6.405256,"station_name":"Depok","distance":1584,"line":2,"station_id":"DP","is_transit":false,"i_long":106.816926,"transit":false,"time":3}],[{"distance":0,"station_name":"Buaran","time":0,"station_id":"BUA","i_long":106.922662,"line":1,"is_transit":false,"transit":false,"i_lat":-6.215568},{"station_id":"KLD","time":2,"i_long":106.899548,"is_transit":false,"line":1,"i_lat":-6.2135,"distance":3100,"transit":false,"station_name":"Klender"},{"time":3,"distance":3395,"line":1,"i_lat":-6.215091,"i_long":106.86807400000001,"transit":true,"is_transit":true,"station_name":"Jatinegara","station_id":"JNG"},{"station_id":"POK","transit":false,"time":2,"distance":1236,"i_lat":-6.209188,"i_long":106.861737,"line":11,"station_name":"Pondok Jati","is_transit":false},{"time":2,"i_long":106.855437,"station_name":"Kramat","distance":1829,"i_lat":-6.193792,"line":11,"station_id":"KMT","is_transit":false,"transit":false},{"i_lat":-6.185975,"station_id":"GST","i_long":106.850107,"line":11,"is_transit":false,"transit":false,"station_name":"Gang Sentiong","time":1,"distance":973},{"i_lat":-6.174784,"line":11,"station_id":"PSE","is_transit":false,"time":8,"distance":1567,"transit":false,"station_name":"Pasar Senen","i_long":106.84368},{"time":4,"transit":false,"line":11,"station_name":"Kemayoran","i_lat":-6.161728,"i_long":106.839204,"is_transit":false,"distance":1436,"station_id":"KMO"},{"time":5,"i_long":106.836569,"station_id":"RJW","is_transit":false,"line":11,"distance":1901,"transit":false,"i_lat":-6.14505,"station_name":"Rajawali"},{"station_id":"KPB","time":3,"i_lat":-6.132549,"transit":true,"distance":1444,"i_long":106.826365,"line":4,"is_transit":true,"station_name":"Kampung Bandan"},{"i_lat":-6.144674,"station_name":"Angke","time":9,"distance":4102,"i_long":106.79867,"transit":false,"line":1,"station_id":"AK","is_transit":false},{"is_transit":false,"station_name":"Duri","transit":false,"station_id":"DU","time":4,"distance":1230,"i_long":106.800832,"line":1,"i_lat":-6.155215},{"transit":false,"station_id":"THB","station_name":"Tanah Abang","distance":3632,"line":1,"i_lat":-6.185545,"time":8,"i_long":106.811091,"is_transit":false},{"line":1,"distance":2029,"station_name":"Karet","time":5,"i_long":106.816351,"is_transit":false,"station_id":"KAT","transit":false,"i_lat":-6.20132},{"i_long":106.819881,"line":1,"station_name":"Sudirman Baru","i_lat":-6.201433,"transit":false,"is_transit":false,"time":1,"station_id":"SUDB","distance":471},{"line":1,"station_id":"SUD","is_transit":false,"time":1,"i_lat":-6.202263,"transit":false,"i_long":106.822649,"station_name":"Sudirman","distance":280},{"station_name":"Manggarai","station_id":"MRI","is_transit":true,"time":4,"i_lat":-6.209883,"i_long":106.84912,"line":2,"transit":true,"distance":3186},{"is_transit":false,"line":2,"time":4,"distance":2610,"station_id":"TEB","station_name":"Tebet","i_long":106.857948,"i_lat":-6.226659,"transit":false},{"time":2,"is_transit":false,"station_name":"Cawang","distance":1230,"i_long":106.856607,"i_lat":-6.242512,"line":2,"transit":false,"station_id":"CW"},{"distance":1546,"i_lat":-6.255332,"transit":false,"is_transit":false,"i_long":106.85449,"station_name":"Duren Kalibata","line":2,"station_id":"DRN","time":3},{"is_transit":false,"station_id":"PSMB","transit":false,"time":2,"distance":824,"i_lat":-6.263214,"line":2,"station_name":"Pasar Minggu Baru","i_long":106.851577},{"distance":2380,"station_name":"Pasar Minggu","i_lat":-6.2842400000000005,"time":2,"i_long":106.843999,"is_transit":false,"transit":false,"line":2,"station_id":"PSM"},{"line":2,"transit":false,"i_lat":-6.3080680000000005,"distance":2820,"is_transit":false,"i_long":106.838896,"station_name":"Tanjung Barat","station_id":"TNT","time":4},{"station_id":"LNA","distance":2671,"i_lat":-6.330363,"time":3,"line":2,"i_long":106.832616,"station_name":"Lenteng Agung","is_transit":false,"transit":false},{"transit":false,"distance":1029,"line":2,"station_name":"Univ. Pancasila","station_id":"UP","is_transit":false,"time":2,"i_lat":-6.339291,"i_long":106.834175},{"transit":false,"station_id":"UI","distance":2264,"i_long":106.831474,"line":2,"is_transit":false,"time":3,"station_name":"Univ. Indonesia","i_lat":-6.360749},{"line":2,"i_lat":-6.369073,"transit":false,"station_name":"Pondok Cina","station_id":"POC","time":2,"i_long":106.831114,"is_transit":false,"distance":1109},{"station_id":"DPB","transit":false,"distance":2727,"i_long":106.819451,"is_transit":false,"time":4,"station_name":"Depokbaru","i_lat":-6.391065,"line":2},{"line":2,"i_long":106.816926,"i_lat":-6.405256,"transit":false,"is_transit":false,"station_name":"Depok","station_id":"DP","time":3,"distance":1584}],[{"line":1,"station_name":"Buaran","distance":0,"is_transit":false,"time":0,"transit":false,"i_lat":-6.215568,"station_id":"BUA","i_long":106.922662},{"station_id":"KLD","distance":3100,"station_name":"Klender","is_transit":false,"time":2,"i_lat":-6.2135,"i_long":106.899548,"line":1,"transit":false},{"i_long":106.86807400000001,"distance":3395,"station_name":"Jatinegara","time":3,"is_transit":true,"station_id":"JNG","transit":true,"i_lat":-6.215091,"line":1},{"i_long":106.861737,"time":2,"line":11,"i_lat":-6.209188,"is_transit":false,"station_name":"Pondok Jati","distance":1236,"station_id":"POK","transit":false},{"station_id":"KMT","is_transit":false,"distance":1829,"station_name":"Kramat","i_lat":-6.193792,"line":11,"transit":false,"time":2,"i_long":106.855437},{"is_transit":false,"station_name":"Gang Sentiong","transit":false,"distance":973,"i_long":106.850107,"station_id":"GST","time":1,"i_lat":-6.185975,"line":11},{"is_transit":false,"time":8,"station_name":"Pasar Senen","station_id":"PSE","transit":false,"distance":1567,"i_lat":-6.174784,"i_long":106.84368,"line":11},{"transit":false,"is_transit":false,"line":11,"i_long":106.839204,"time":4,"distance":1436,"station_name":"Kemayoran","station_id":"KMO","i_lat":-6.161728},{"station_id":"RJW","line":11,"transit":false,"i_long":106.836569,"is_transit":false,"i_lat":-6.14505,"time":5,"station_name":"Rajawali","distance":1901},{"i_long":106.826365,"line":4,"distance":1444,"time":3,"is_transit":true,"station_name":"Kampung Bandan","i_lat":-6.132549,"transit":true,"station_id":"KPB"},{"distance":1364,"time":3,"i_lat":-6.137569,"is_transit":true,"i_long":106.812439,"station_id":"JAKK","station_name":"Jakarta Kota","transit":true,"line":2},{"i_lat":-6.141205,"station_name":"Jayakarta","station_id":"JAY","time":4,"i_long":106.820901,"transit":false,"is_transit":false,"distance":1264,"line":2},{"station_id":"MGB","time":2,"i_lat":-6.149769,"line":2,"distance":1080,"transit":false,"is_transit":false,"i_long":106.82482,"station_name":"Manggabesar"},{"transit":false,"station_id":"SW","is_transit":false,"time":2,"i_lat":-6.160725,"i_long":106.827103,"distance":906,"line":2,"station_name":"Sawah Besar"},{"is_transit":false,"time":2,"i_long":106.828284,"transit":false,"station_name":"Juanda","line":2,"distance":1149,"station_id":"JUA","i_lat":-6.166716},{"time":4,"station_name":"Gondangdia","i_lat":-6.186295,"station_id":"GDD","i_long":106.832183,"line":2,"is_transit":false,"distance":2015,"transit":false},{"station_id":"CKI","distance":1750,"i_lat":-6.198556,"i_long":106.840169,"station_name":"Cikini","transit":false,"is_transit":false,"line":2,"time":3},{"line":2,"i_lat":-6.209883,"station_id":"MRI","station_name":"Manggarai","time":4,"distance":1590,"i_long":106.84912,"transit":false,"is_transit":false},{"i_lat":-6.226659,"transit":false,"line":2,"is_transit":false,"station_name":"Tebet","i_long":106.857948,"station_id":"TEB","time":4,"distance":2610},{"i_lat":-6.242512,"distance":1230,"i_long":106.856607,"time":2,"station_id":"CW","is_transit":false,"line":2,"station_name":"Cawang","transit":false},{"transit":false,"line":2,"station_name":"Duren Kalibata","distance":1546,"time":3,"is_transit":false,"i_lat":-6.255332,"i_long":106.85449,"station_id":"DRN"},{"station_id":"PSMB","i_long":106.851577,"line":2,"time":2,"transit":false,"is_transit":false,"station_name":"Pasar Minggu Baru","distance":824,"i_lat":-6.263214},{"i_long":106.843999,"i_lat":-6.2842400000000005,"is_transit":false,"station_id":"PSM","transit":false,"line":2,"distance":2380,"station_name":"Pasar Minggu","time":2},{"line":2,"station_name":"Tanjung Barat","i_lat":-6.3080680000000005,"time":4,"i_long":106.838896,"station_id":"TNT","transit":false,"is_transit":false,"distance":2820},{"i_long":106.832616,"is_transit":false,"line":2,"station_id":"LNA","transit":false,"time":3,"distance":2671,"i_lat":-6.330363,"station_name":"Lenteng Agung"},{"station_name":"Univ. Pancasila","is_transit":false,"distance":1029,"i_long":106.834175,"station_id":"UP","time":2,"i_lat":-6.339291,"line":2,"transit":false},{"station_name":"Univ. Indonesia","distance":2264,"transit":false,"time":3,"line":2,"station_id":"UI","is_transit":false,"i_long":106.831474,"i_lat":-6.360749},{"distance":1109,"station_name":"Pondok Cina","station_id":"POC","is_transit":false,"line":2,"i_lat":-6.369073,"i_long":106.831114,"time":2,"transit":false},{"i_lat":-6.391065,"transit":false,"i_long":106.819451,"time":4,"station_id":"DPB","distance":2727,"station_name":"Depokbaru","is_transit":false,"line":2},{"is_transit":false,"i_lat":-6.405256,"transit":false,"line":2,"station_id":"DP","station_name":"Depok","time":3,"distance":1584,"i_long":106.816926}]]}