{"data":[[{"station_id":"BUA","time":0,"transit":false,"is_transit":false,"station_name":"Buaran","i_lat":-6.215568,"i_long":106.922662,"distance":0,"line":1},{"i_long":106.899548,"is_transit":false,"station_id":"KLD","transit":false,"i_lat":-6.2135,"distance":3100,"time":2,"line":1,"station_name":"Klender"},{"i_lat":-6.215091,"i_long":106.86807400000001,"is_transit":false,"station_id":"JNG","transit":false,"line":1,"station_name":"Jatinegara","distance":3395,"time":3},{"station_id":"MTR","line":1,"time":2,"is_transit":false,"transit":false,"distance":1377,"station_name":"Matraman","i_long":106.858896,"i_lat":-6.212485},{"transit":false,"i_lat":-6.209883,"time":2,"is_transit":false,"distance":1275,"station_id":"MRI","station_name":"Manggarai","i_long":106.84912,"line":2},{"i_lat":-6.202263,"station_id":"SUD","time":4,"is_transit":false,"station_name":"Sudirman","line":1,"transit":false,"i_long":106.822649,"distance":3186},{"time":1,"line":1,"distance":280,"i_long":106.819881,"is_transit":false,"station_id":"SUDB","transit":false,"station_name":"Sudirman Baru","i_lat":-6.201433},{"is_transit":false,"line":1,"time":1,"transit":false,"station_name":"Karet","station_id":"KAT","distance":471,"i_long":106.816351,"i_lat":-6.20132},{"station_name":"Tanah Abang","distance":2029,"transit":false,"i_lat":-6.185545,"time":5,"i_long":106.811091,"line":1,"station_id":"THB","is_transit":false},{"is_transit":true,"station_name":"Duri","line":1,"transit":true,"i_long":106.800832,"time":8,"i_lat":-6.155215,"distance":3632,"station_id":"DU"},{"station_name":"Grogol","distance":1700,"is_transit":false,"transit":false,"line":5,"time":3,"station_id":"GGL","i_lat":-6.162021,"i_long":106.788277},{"station_name":"Pesing","i_lat":-6.161433,"time":2,"transit":false,"is_transit":false,"distance":2036,"station_id":"PSG","i_long":106.771379,"line":5}],[{"time":0,"distance":0,"station_id":"BUA","is_transit":false,"station_name":"Buaran","transit":false,"i_lat":-6.215568,"i_long":106.922662,"line":1},{"time":2,"i_long":106.899548,"is_transit":false,"i_lat":-6.2135,"distance":3100,"station_id":"KLD","line":1,"station_name":"Klender","transit":false},{"station_name":"Jatinegara","distance":3395,"line":1,"station_id":"JNG","is_transit":true,"time":3,"i_lat":-6.215091,"transit":true,"i_long":106.86807400000001},{"i_lat":-6.209188,"i_long":106.861737,"station_id":"POK","time":2,"transit":false,"station_name":"Pondok Jati","is_transit":false,"distance":1236,"line":11},{"transit":false,"i_lat":-6.193792,"i_long":106.855437,"station_id":"KMT","station_name":"Kramat","line":11,"distance":1829,"is_transit":false,"time":2},{"is_transit":false,"i_long":106.850107,"transit":false,"i_lat":-6.185975,"distance":973,"station_id":"GST","line":11,"station_name":"Gang Sentiong","time":1},{"station_id":"PSE","is_transit":false,"i_long":106.84368,"distance":1567,"i_lat":-6.174784,"time":8,"station_name":"Pasar Senen","line":11,"transit":false},{"i_long":106.839204,"station_id":"KMO","station_name":"Kemayoran","line":11,"time":4,"distance":1436,"is_transit":false,"transit":false,"i_lat":-6.161728},{"transit":false,"station_id":"RJW","i_lat":-6.14505,"line":11,"time":5,"distance":1901,"is_transit":false,"i_long":106.836569,"station_name":"Rajawali"},{"station_id":"KPB","distance":1444,"is_transit":true,"i_long":106.826365,"station_name":"Kampung Bandan","i_lat":-6.132549,"line":4,"time":3,"transit":true},{"transit":false,"time":9,"i_long":106.79867,"i_lat":-6.144674,"distance":4102,"station_id":"AK","station_name":"Angke","is_transit":false,"line":1},{"i_long":106.800832,"transit":true,"station_name":"Duri","distance":1230,"i_lat":-6.155215,"station_id":"DU","is_transit":true,"time":4,"line":1},{"station_id":"GGL","is_transit":false,"i_long":106.788277,"transit":false,"line":5,"time":3,"distance":1700,"i_lat":-6.162021,"station_name":"Grogol"},{"station_name":"Pesing","i_lat":-6.161433,"station_id":"PSG","distance":2036,"line":5,"is_transit":false,"i_long":106.771379,"transit":false,"time":2}],[{"transit":false,"i_long":106.922662,"station_name":"Buaran","station_id":"BUA","is_transit":false,"i_lat":-6.215568,"line":1,"distance":0,"time":0},{"i_long":106.899548,"i_lat":-6.2135,"line":1,"is_transit":false,"transit":false,"time":2,"station_id":"KLD","station_name":"Klender","distance":3100},{"is_transit":false,"distance":3395,"i_lat":-6.215091,"transit":false,"time":3,"i_long":106.86807400000001,"station_name":"Jatinegara","line":1,"station_id":"JNG"},{"i_long":106.858896,"i_lat":-6.212485,"station_name":"Matraman","transit":false,"is_transit":false,"station_id":"MTR","line":1,"time":2,"distance":1377},{"i_lat":-6.209883,"i_long":106.84912,"is_transit":true,"station_id":"MRI","transit":true,"line":2,"time":2,"distance":1275,"station_name":"Manggarai"},{"i_lat":-6.198556,"line":2,"is_transit":false,"i_long":106.840169,"transit":false,"distance":1590,"station_name":"Cikini","time":4,"station_id":"CKI"},{"station_id":"GDD","is_transit":false,"transit":false,"time":3,"station_name":"Gondangdia","distance":1750,"i_lat":-6.186295,"i_long":106.832183,"line":2},{"station_name":"Juanda","is_transit":false,"i_lat":-6.166716,"distance":2015,"i_long":106.828284,"time":4,"transit":false,"station_id":"JUA","line":2},{"line":2,"distance":1149,"station_id":"SW","time":2,"station_name":"Sawah Besar","is_transit":false,"transit":false,"i_long":106.827103,"i_lat":-6.160725},{"i_lat":-6.149769,"station_id":"MGB","station_name":"Manggabesar","transit":false,"i_long":106.82482,"time":2,"distance":906,"is_transit":false,"line":2},{"transit":false,"i_lat":-6.141205,"i_long":106.820901,"is_transit":false,"distance":1080,"time":2,"station_id":"JAY","station_name":"Jayakarta","line":2},{"station_id":"JAKK","i_lat":-6.137569,"time":4,"is_transit":true,"i_long":106.812439,"transit":true,"line":2,"distance":1264,"station_name":"Jakarta Kota"},{"station_id":"KPB","distance":1364,"line":4,"transit":true,"station_name":"Kampung Bandan","is_transit":true,"time":3,"i_lat":-6.132549,"i_long":106.826365},{"distance":4102,"line":1,"station_name":"Angke","transit":false,"time":9,"is_transit":false,"station_id":"AK","i_lat":-6.144674,"i_long":106.79867},{"station_id":"DU","i_long":106.800832,"transit":true,"i_lat":-6.155215,"line":1,"time":4,"distance":1230,"station_name":"Duri","is_transit":true},{"transit":false,"is_transit":false,"i_long":106.788277,"time":3,"station_name":"Grogol","line":5,"station_id":"GGL","distance":1700,"i_lat":-6.162021},{"station_id":"PSG","time":2,"transit":false,"i_lat":-6.161433,"i_long":106.771379,"line":5,"station_name":"Pesing","is_transit":false,"distance":2036}],[{"is_transit":false,"i_long":106.922662,"line":1,"transit":false,"distance":0,"station_id":"BUA","time":0,"station_name":"Buaran","i_lat":-6.215568},{"i_lat":-6.2135,"station_name":"Klender","station_id":"KLD","transit":false,"line":1,"is_transit":false,"distance":3100,"i_long":106.899548,"time":2},{"transit":true,"i_long":106.86807400000001,"line":1,"i_lat":-6.215091,"is_transit":true,"time":3,"distance":3395,"station_id":"JNG","station_name":"Jatinegara"},{"time":2,"station_name":"Pondok Jati","line":11,"i_lat":-6.209188,"i_long":106.861737,"transit":false,"station_id":"POK","distance":1236,"is_transit":false},{"transit":false,"i_long":106.855437,"distance":1829,"line":11,"station_id":"KMT","i_lat":-6.193792,"is_transit":false,"station_name":"Kramat","time":2},{"i_long":106.850107,"time":1,"i_lat":-6.185975,"line":11,"station_name":"Gang Sentiong","distance":973,"is_transit":false,"transit":false,"station_id":"GST"},{"station_name":"Pasar Senen","is_transit":false,"i_lat":-6.174784,"transit":false,"i_long":106.84368,"time":8,"distance":1567,"line":11,"station_id":"PSE"},{"is_transit":false,"time":4,"transit":false,"i_lat":-6.161728,"distance":1436,"line":11,"station_id":"KMO","station_name":"Kemayoran","i_long":106.839204},{"station_id":"RJW","is_transit":false,"transit":false,"time":5,"i_long":106.836569,"distance":1901,"station_name":"Rajawali","line":11,"i_lat":-6.14505},{"line":4,"i_long":106.826365,"time":3,"is_transit":true,"transit":true,"distance":1444,"station_id":"KPB","station_name":"Kampung Bandan","i_lat":-6.132549},{"line":2,"time":3,"station_id":"JAKK","distance":1364,"i_long":106.812439,"is_transit":true,"station_name":"Jakarta Kota","transit":true,"i_lat":-6.137569},{"is_transit":false,"line":2,"transit":false,"distance":1264,"station_name":"Jayakarta","station_id":"JAY","time":4,"i_lat":-6.141205,"i_long":106.820901},{"time":2,"distance":1080,"i_long":106.82482,"transit":false,"station_name":"Manggabesar","is_transit":false,"i_lat":-6.149769,"line":2,"station_id":"MGB"},{"distance":906,"i_long":106.827103,"station_name":"Sawah Besar","line":2,"time":2,"is_transit":false,"i_lat":-6.160725,"station_id":"SW","transit":false},{"transit":false,"i_long":106.828284,"is_transit":false,"station_id":"JUA","time":2,"line":2,"distance":1149,"station_name":"Juanda","i_lat":-6.166716},{"station_id":"GDD","transit":false,"station_name":"Gondangdia","time":4,"i_lat":-6.186295,"is_transit":false,"line":2,"i_long":106.832183,"distance":2015},{"is_transit":false,"i_long":106.840169,"station_name":"Cikini","line":2,"transit":false,"time":3,"i_lat":-6.198556,"station_id":"CKI","distance":1750},{"station_id":"MRI","station_name":"Manggarai","transit":true,"distance":1590,"is_transit":true,"i_lat":-6.209883,"line":2,"time":4,"i_long":106.84912},{"station_name":"Sudirman","time":4,"i_long":106.822649,"i_lat":-6.202263,"station_id":"SUD","transit":false,"is_transit":false,"distance":3186,"line":1},{"station_id":"SUDB","transit":false,"distance":280,"i_lat":-6.201433,"time":1,"i_long":106.819881,"is_transit":false,"line":1,"station_name":"Sudirman Baru"},{"station_id":"KAT","transit":false,"time":1,"is_transit":false,"i_lat":-6.20132,"line":1,"distance":471,"station_name":"Karet","i_long":106.816351},{"time":5,"distance":2029,"i_lat":-6.185545,"station_id":"THB","station_name":"Tanah Abang","is_transit":false,"i_long":106.811091,"line":1,"transit":false},{"distance":3632,"line":1,"station_id":"DU","time":8,"station_name":"Duri","i_lat":-6.155215,"i_long":106.800832,"is_transit":true,"transit":true},{"line":5,"i_long":106.788277,"transit":false,"station_id":"GGL","i_lat":-6.162021,"station_name":"Grogol","is_transit":false,"time":3,"distance":1700},{"transit":false,"time":2,"i_long":106.771379,"distance":2036,"line":5,"station_id":"PSG","i_lat":-6.161433,"station_name":"Pesing","is_transit":false}]]}