{"data":[[{"station_id":"BUA","time":0,"is_transit":false,"transit":false,"station_name":"Buaran","i_lat":-6.215568,"line":1,"distance":0,"i_long":106.922662},{"time":2,"station_id":"KLD","distance":3100,"transit":false,"i_long":106.899548,"line":1,"is_transit":false,"station_name":"Klender","i_lat":-6.2135},{"is_transit":false,"i_long":106.86807400000001,"line":1,"i_lat":-6.215091,"station_id":"JNG","distance":3395,"time":3,"station_name":"Jatinegara","transit":false},{"transit":false,"i_lat":-6.212485,"station_id":"MTR","line":1,"time":2,"is_transit":false,"i_long":106.858896,"distance":1377,"station_name":"Matraman"},{"i_lat":-6.209883,"is_transit":true,"line":2,"station_name":"Manggarai","i_long":106.84912,"distance":1275,"transit":true,"station_id":"MRI","time":2},{"transit":false,"is_transit":false,"station_id":"TEB","time":4,"station_name":"Tebet","line":2,"distance":2610,"i_lat":-6.226659,"i_long":106.857948},{"station_id":"CW","i_lat":-6.242512,"station_name":"Cawang","line":2,"distance":1230,"i_long":106.856607,"transit":false,"time":2,"is_transit":false},{"transit":false,"i_long":106.85449,"distance":1546,"station_id":"DRN","is_transit":false,"time":3,"line":2,"station_name":"Duren Kalibata","i_lat":-6.255332},{"station_name":"Pasar Minggu Baru","time":2,"is_transit":false,"i_lat":-6.263214,"i_long":106.851577,"transit":false,"station_id":"PSMB","line":2,"distance":824},{"distance":2380,"i_lat":-6.2842400000000005,"transit":false,"i_long":106.843999,"line":2,"station_id":"PSM","time":2,"station_name":"Pasar Minggu","is_transit":false},{"time":4,"i_long":106.838896,"transit":false,"distance":2820,"i_lat":-6.3080680000000005,"station_id":"TNT","line":2,"station_name":"Tanjung Barat","is_transit":false},{"i_long":106.832616,"i_lat":-6.330363,"distance":2671,"transit":false,"line":2,"time":3,"station_id":"LNA","is_transit":false,"station_name":"Lenteng Agung"},{"i_lat":-6.339291,"line":2,"is_transit":false,"station_id":"UP","station_name":"Univ. Pancasila","distance":1029,"i_long":106.834175,"time":2,"transit":false},{"time":3,"distance":2264,"is_transit":false,"station_name":"Univ. Indonesia","i_long":106.831474,"line":2,"station_id":"UI","transit":false,"i_lat":-6.360749},{"station_id":"POC","is_transit":false,"time":2,"transit":false,"i_lat":-6.369073,"i_long":106.831114,"distance":1109,"station_name":"Pondok Cina","line":2},{"i_long":106.819451,"i_lat":-6.391065,"time":4,"station_name":"Depokbaru","line":2,"station_id":"DPB","is_transit":false,"distance":2727,"transit":false},{"line":2,"station_id":"DP","is_transit":false,"station_name":"Depok","transit":false,"distance":1584,"i_lat":-6.405256,"time":3,"i_long":106.816926}],[{"i_long":106.922662,"time":0,"station_name":"Buaran","is_transit":false,"station_id":"BUA","distance":0,"transit":false,"i_lat":-6.215568,"line":1},{"station_id":"KLD","station_name":"Klender","line":1,"i_long":106.899548,"distance":3100,"transit":false,"is_transit":false,"i_lat":-6.2135,"time":2},{"time":3,"i_long":106.86807400000001,"distance":3395,"i_lat":-6.215091,"is_transit":true,"line":1,"station_name":"Jatinegara","station_id":"JNG","transit":true},{"distance":1236,"transit":false,"line":11,"station_name":"Pondok Jati","station_id":"POK","time":2,"i_lat":-6.209188,"i_long":106.861737,"is_transit":false},{"station_id":"KMT","is_transit":false,"distance":1829,"i_long":106.855437,"transit":false,"station_name":"Kramat","i_lat":-6.193792,"time":2,"line":11},{"station_id":"GST","distance":973,"station_name":"Gang Sentiong","transit":false,"i_lat":-6.185975,"line":11,"is_transit":false,"i_long":106.850107,"time":1},{"is_transit":false,"distance":1567,"transit":false,"i_lat":-6.174784,"station_name":"Pasar Senen","i_long":106.84368,"station_id":"PSE","line":11,"time":8},{"distance":1436,"line":11,"time":4,"station_id":"KMO","is_transit":false,"station_name":"Kemayoran","transit":false,"i_lat":-6.161728,"i_long":106.839204},{"is_transit":false,"station_id":"RJW","station_name":"Rajawali","i_lat":-6.14505,"time":5,"transit":false,"i_long":106.836569,"line":11,"distance":1901},{"is_transit":true,"station_name":"Kampung Bandan","transit":true,"i_lat":-6.132549,"i_long":106.826365,"distance":1444,"line":4,"station_id":"KPB","time":3},{"transit":false,"distance":4102,"i_lat":-6.144674,"time":9,"station_name":"Angke","station_id":"AK","i_long":106.79867,"line":1,"is_transit":false},{"time":4,"is_transit":false,"distance":1230,"transit":false,"station_name":"Duri","i_lat":-6.155215,"line":1,"station_id":"DU","i_long":106.800832},{"transit":false,"i_long":106.811091,"time":8,"station_id":"THB","station_name":"Tanah Abang","i_lat":-6.185545,"distance":3632,"line":1,"is_transit":false},{"distance":2029,"station_id":"KAT","is_transit":false,"line":1,"station_name":"Karet","i_lat":-6.20132,"i_long":106.816351,"time":5,"transit":false},{"transit":false,"i_lat":-6.201433,"time":1,"distance":471,"line":1,"station_id":"SUDB","i_long":106.819881,"is_transit":false,"station_name":"Sudirman Baru"},{"i_lat":-6.202263,"station_id":"SUD","i_long":106.822649,"station_name":"Sudirman","transit":false,"distance":280,"is_transit":false,"line":1,"time":1},{"is_transit":true,"line":2,"distance":3186,"i_long":106.84912,"i_lat":-6.209883,"time":4,"station_id":"MRI","transit":true,"station_name":"Manggarai"},{"transit":false,"line":2,"is_transit":false,"distance":2610,"station_id":"TEB","station_name":"Tebet","time":4,"i_lat":-6.226659,"i_long":106.857948},{"is_transit":false,"distance":1230,"i_long":106.856607,"time":2,"station_id":"CW","station_name":"Cawang","transit":false,"line":2,"i_lat":-6.242512},{"is_transit":false,"station_name":"Duren Kalibata","transit":false,"time":3,"station_id":"DRN","line":2,"i_long":106.85449,"distance":1546,"i_lat":-6.255332},{"station_name":"Pasar Minggu Baru","distance":824,"time":2,"i_long":106.851577,"line":2,"station_id":"PSMB","i_lat":-6.263214,"is_transit":false,"transit":false},{"is_transit":false,"transit":false,"i_lat":-6.2842400000000005,"distance":2380,"station_id":"PSM","line":2,"station_name":"Pasar Minggu","time":2,"i_long":106.843999},{"line":2,"station_id":"TNT","transit":false,"station_name":"Tanjung Barat","is_transit":false,"distance":2820,"i_lat":-6.3080680000000005,"time":4,"i_long":106.838896},{"time":3,"is_transit":false,"station_name":"Lenteng Agung","i_lat":-6.330363,"distance":2671,"transit":false,"line":2,"station_id":"LNA","i_long":106.832616},{"distance":1029,"station_name":"Univ. Pancasila","station_id":"UP","transit":false,"i_long":106.834175,"time":2,"i_lat":-6.339291,"is_transit":false,"line":2},{"station_id":"UI","i_long":106.831474,"transit":false,"time":3,"station_name":"Univ. Indonesia","distance":2264,"is_transit":false,"line":2,"i_lat":-6.360749},{"distance":1109,"time":2,"station_id":"POC","line":2,"i_long":106.831114,"transit":false,"is_transit":false,"station_name":"Pondok Cina","i_lat":-6.369073},{"time":4,"i_long":106.819451,"distance":2727,"transit":false,"is_transit":false,"i_lat":-6.391065,"station_name":"Depokbaru","line":2,"station_id":"DPB"},{"station_name":"Depok","distance":1584,"line":2,"time":3,"is_transit":false,"station_id":"DP","transit":false,"i_long":106.816926,"i_lat":-6.405256}],[{"distance":0,"line":1,"time":0,"i_long":106.922662,"station_name":"Buaran","transit":false,"i_lat":-6.215568,"is_transit":false,"station_id":"BUA"},{"is_transit":false,"station_name":"Klender","line":1,"time":2,"distance":3100,"i_lat":-6.2135,"i_long":106.899548,"station_id":"KLD","transit":false},{"station_id":"JNG","is_transit":true,"i_long":106.86807400000001,"line":1,"time":3,"distance":3395,"station_name":"Jatinegara","transit":true,"i_lat":-6.215091},{"transit":false,"station_id":"POK","station_name":"Pondok Jati","line":11,"i_long":106.861737,"is_transit":false,"time":2,"distance":1236,"i_lat":-6.209188},{"i_lat":-6.193792,"station_id":"KMT","is_transit":false,"time":2,"i_long":106.855437,"distance":1829,"station_name":"Kramat","transit":false,"line":11},{"distance":973,"station_name":"Gang Sentiong","is_transit":false,"station_id":"GST","time":1,"i_lat":-6.185975,"line":11,"transit":false,"i_long":106.850107},{"station_id":"PSE","station_name":"Pasar Senen","is_transit":false,"time":8,"line":11,"i_lat":-6.174784,"distance":1567,"transit":false,"i_long":106.84368},{"time":4,"transit":false,"line":11,"station_id":"KMO","distance":1436,"i_long":106.839204,"i_lat":-6.161728,"is_transit":false,"station_name":"Kemayoran"},{"time":5,"is_transit":false,"i_long":106.836569,"line":11,"transit":false,"distance":1901,"station_name":"Rajawali","i_lat":-6.14505,"station_id":"RJW"},{"line":4,"distance":1444,"i_lat":-6.132549,"station_id":"KPB","time":3,"i_long":106.826365,"is_transit":true,"transit":true,"station_name":"Kampung Bandan"},{"station_id":"JAKK","time":3,"distance":1364,"i_lat":-6.137569,"line":2,"is_transit":true,"station_name":"Jakarta Kota","i_long":106.812439,"transit":true},{"station_name":"Jayakarta","i_long":106.820901,"i_lat":-6.141205,"line":2,"is_transit":false,"transit":false,"time":4,"station_id":"JAY","distance":1264},{"distance":1080,"station_name":"Manggabesar","i_long":106.82482,"transit":false,"i_lat":-6.149769,"line":2,"is_transit":false,"time":2,"station_id":"MGB"},{"line":2,"distance":906,"transit":false,"i_long":106.827103,"time":2,"is_transit":false,"station_name":"Sawah Besar","station_id":"SW","i_lat":-6.160725},{"line":2,"distance":1149,"i_lat":-6.166716,"is_transit":false,"station_name":"Juanda","i_long":106.828284,"station_id":"JUA","time":2,"transit":false},{"distance":2015,"transit":false,"i_long":106.832183,"is_transit":false,"line":2,"time":4,"i_lat":-6.186295,"station_name":"Gondangdia","station_id":"GDD"},{"line":2,"is_transit":false,"i_long":106.840169,"time":3,"station_id":"CKI","transit":false,"distance":1750,"station_name":"Cikini","i_lat":-6.198556},{"station_name":"Manggarai","line":2,"time":4,"i_long":106.84912,"transit":false,"station_id":"MRI","is_transit":false,"distance":1590,"i_lat":-6.209883},{"station_name":"Tebet","station_id":"TEB","distance":2610,"is_transit":false,"i_lat":-6.226659,"line":2,"i_long":106.857948,"transit":false,"time":4},{"station_name":"Cawang","i_lat":-6.242512,"is_transit":false,"time":2,"line":2,"transit":false,"station_id":"CW","distance":1230,"i_long":106.856607},{"time":3,"is_transit":false,"i_lat":-6.255332,"distance":1546,"i_long":106.85449,"line":2,"station_name":"Duren Kalibata","station_id":"DRN","transit":false},{"is_transit":false,"station_name":"Pasar Minggu Baru","i_lat":-6.263214,"transit":false,"distance":824,"i_long":106.851577,"line":2,"station_id":"PSMB","time":2},{"i_long":106.843999,"distance":2380,"is_transit":false,"line":2,"transit":false,"i_lat":-6.2842400000000005,"time":2,"station_name":"Pasar Minggu","station_id":"PSM"},{"transit":false,"line":2,"i_long":106.838896,"distance":2820,"i_lat":-6.3080680000000005,"station_name":"Tanjung Barat","station_id":"TNT","is_transit":false,"time":4},{"transit":false,"distance":2671,"i_lat":-6.330363,"time":3,"station_id":"LNA","is_transit":false,"station_name":"Lenteng Agung","i_long":106.832616,"line":2},{"line":2,"is_transit":false,"station_name":"Univ. Pancasila","transit":false,"distance":1029,"i_long":106.834175,"station_id":"UP","time":2,"i_lat":-6.339291},{"i_lat":-6.360749,"time":3,"distance":2264,"line":2,"station_name":"Univ. Indonesia","transit":false,"i_long":106.831474,"station_id":"UI","is_transit":false},{"i_long":106.831114,"station_id":"POC","time":2,"transit":false,"is_transit":false,"station_name":"Pondok Cina","i_lat":-6.369073,"distance":1109,"line":2},{"i_long":106.819451,"station_id":"DPB","is_transit":false,"station_name":"Depokbaru","line":2,"transit":false,"i_lat":-6.391065,"distance":2727,"time":4},{"transit":false,"station_id":"DP","is_transit":false,"distance":1584,"i_lat":-6.405256,"station_name":"Depok","i_long":106.816926,"line":2,"time":3}]]}