{"data":[[{"station_name":"Buaran","station_id":"BUA","transit":false,"time":0,"distance":0,"is_transit":false,"i_long":106.922662,"i_lat":-6.215568,"line":1},{"distance":3100,"transit":false,"i_long":106.899548,"i_lat":-6.2135,"station_id":"KLD","time":2,"station_name":"Klender","is_transit":false,"line":1},{"distance":3395,"station_id":"JNG","time":3,"is_transit":true,"i_lat":-6.215091,"station_name":"Jatinegara","i_long":106.86807400000001,"transit":true,"line":1},{"time":2,"i_lat":-6.209188,"distance":1236,"is_transit":false,"line":11,"i_long":106.861737,"station_id":"POK","transit":false,"station_name":"Pondok Jati"},{"i_long":106.855437,"transit":false,"station_id":"KMT","station_name":"Kramat","i_lat":-6.193792,"time":2,"line":11,"distance":1829,"is_transit":false},{"i_lat":-6.185975,"is_transit":false,"i_long":106.850107,"transit":false,"time":1,"station_id":"GST","line":11,"distance":973,"station_name":"Gang Sentiong"}],[{"i_long":106.922662,"line":1,"station_name":"Buaran","time":0,"i_lat":-6.215568,"transit":false,"distance":0,"is_transit":false,"station_id":"BUA"},{"i_long":106.899548,"line":1,"distance":3100,"station_name":"Klender","i_lat":-6.2135,"time":2,"transit":false,"is_transit":false,"station_id":"KLD"},{"line":1,"time":3,"station_id":"JNG","station_name":"Jatinegara","is_transit":false,"transit":false,"distance":3395,"i_lat":-6.215091,"i_long":106.86807400000001},{"time":2,"station_name":"Matraman","is_transit":false,"i_lat":-6.212485,"station_id":"MTR","distance":1377,"transit":false,"i_long":106.858896,"line":1},{"is_transit":false,"distance":1275,"i_long":106.84912,"line":2,"transit":false,"station_id":"MRI","time":2,"station_name":"Manggarai","i_lat":-6.209883},{"transit":false,"i_long":106.822649,"line":1,"distance":3186,"i_lat":-6.202263,"is_transit":false,"station_id":"SUD","time":4,"station_name":"Sudirman"},{"station_id":"SUDB","time":1,"transit":false,"station_name":"Sudirman Baru","is_transit":false,"i_lat":-6.201433,"line":1,"i_long":106.819881,"distance":280},{"distance":471,"time":1,"line":1,"is_transit":false,"station_name":"Karet","i_lat":-6.20132,"i_long":106.816351,"transit":false,"station_id":"KAT"},{"station_name":"Tanah Abang","i_long":106.811091,"line":1,"is_transit":false,"transit":false,"distance":2029,"station_id":"THB","time":5,"i_lat":-6.185545},{"is_transit":false,"transit":false,"line":1,"time":8,"station_id":"DU","distance":3632,"i_lat":-6.155215,"i_long":106.800832,"station_name":"Duri"},{"transit":false,"i_lat":-6.144674,"station_id":"AK","distance":1230,"line":1,"time":4,"is_transit":false,"station_name":"Angke","i_long":106.79867},{"is_transit":true,"station_id":"KPB","distance":4102,"i_long":106.826365,"time":9,"transit":true,"line":4,"station_name":"Kampung Bandan","i_lat":-6.132549},{"line":11,"time":3,"station_name":"Rajawali","station_id":"RJW","i_long":106.836569,"transit":false,"distance":1444,"is_transit":false,"i_lat":-6.14505},{"station_id":"KMO","is_transit":false,"distance":1901,"transit":false,"time":5,"i_lat":-6.161728,"station_name":"Kemayoran","line":11,"i_long":106.839204},{"station_name":"Pasar Senen","station_id":"PSE","time":4,"is_transit":false,"line":11,"distance":1436,"i_lat":-6.174784,"transit":false,"i_long":106.84368},{"is_transit":false,"station_name":"Gang Sentiong","line":11,"distance":1567,"time":8,"transit":false,"i_long":106.850107,"i_lat":-6.185975,"station_id":"GST"}],[{"i_lat":-6.215568,"station_id":"BUA","line":1,"station_name":"Buaran","distance":0,"is_transit":false,"transit":false,"i_long":106.922662,"time":0},{"distance":3100,"i_lat":-6.2135,"i_long":106.899548,"station_name":"Klender","transit":false,"station_id":"KLD","time":2,"is_transit":false,"line":1},{"line":1,"time":3,"i_long":106.86807400000001,"station_name":"Jatinegara","station_id":"JNG","distance":3395,"is_transit":false,"i_lat":-6.215091,"transit":false},{"transit":false,"station_id":"MTR","distance":1377,"time":2,"is_transit":false,"line":1,"station_name":"Matraman","i_lat":-6.212485,"i_long":106.858896},{"i_lat":-6.209883,"line":2,"station_name":"Manggarai","time":2,"i_long":106.84912,"station_id":"MRI","distance":1275,"transit":true,"is_transit":true},{"time":4,"station_name":"Cikini","i_lat":-6.198556,"distance":1590,"station_id":"CKI","is_transit":false,"i_long":106.840169,"line":2,"transit":false},{"transit":false,"i_long":106.832183,"distance":1750,"time":3,"i_lat":-6.186295,"station_name":"Gondangdia","is_transit":false,"station_id":"GDD","line":2},{"is_transit":false,"transit":false,"line":2,"time":4,"station_name":"Juanda","i_long":106.828284,"station_id":"JUA","i_lat":-6.166716,"distance":2015},{"distance":1149,"i_long":106.827103,"transit":false,"station_id":"SW","time":2,"i_lat":-6.160725,"station_name":"Sawah Besar","line":2,"is_transit":false},{"i_long":106.82482,"line":2,"distance":906,"time":2,"is_transit":false,"station_name":"Manggabesar","transit":false,"i_lat":-6.149769,"station_id":"MGB"},{"is_transit":false,"station_name":"Jayakarta","i_long":106.820901,"distance":1080,"line":2,"transit":false,"time":2,"station_id":"JAY","i_lat":-6.141205},{"is_transit":true,"distance":1264,"transit":true,"station_id":"JAKK","i_long":106.812439,"station_name":"Jakarta Kota","i_lat":-6.137569,"line":2,"time":4},{"i_lat":-6.132549,"line":4,"transit":true,"is_transit":true,"i_long":106.826365,"station_id":"KPB","time":3,"station_name":"Kampung Bandan","distance":1364},{"transit":false,"line":11,"i_long":106.836569,"i_lat":-6.14505,"is_transit":false,"station_id":"RJW","distance":1444,"time":3,"station_name":"Rajawali"},{"station_id":"KMO","i_lat":-6.161728,"i_long":106.839204,"time":5,"distance":1901,"transit":false,"station_name":"Kemayoran","line":11,"is_transit":false},{"transit":false,"station_id":"PSE","time":4,"distance":1436,"i_lat":-6.174784,"i_long":106.84368,"station_name":"Pasar Senen","is_transit":false,"line":11},{"station_id":"GST","is_transit":false,"time":8,"transit":false,"station_name":"Gang Sentiong","line":11,"distance":1567,"i_lat":-6.185975,"i_long":106.850107}]]}