{"data":[[{"station_name":"Buaran","station_id":"BUA","is_transit":false,"transit":false,"distance":0,"time":0,"i_lat":-6.215568,"i_long":106.922662,"line":1},{"time":2,"distance":3100,"station_name":"Klender","is_transit":false,"line":1,"i_long":106.899548,"transit":false,"station_id":"KLD","i_lat":-6.2135},{"station_id":"JNG","station_name":"Jatinegara","is_transit":false,"distance":3395,"line":1,"time":3,"transit":false,"i_lat":-6.215091,"i_long":106.86807400000001},{"i_lat":-6.212485,"transit":false,"station_name":"Matraman","is_transit":false,"distance":1377,"time":2,"line":1,"i_long":106.858896,"station_id":"MTR"},{"line":2,"transit":true,"i_lat":-6.209883,"station_id":"MRI","station_name":"Manggarai","time":2,"i_long":106.84912,"distance":1275,"is_transit":true},{"transit":false,"station_id":"TEB","i_lat":-6.226659,"i_long":106.857948,"distance":2610,"is_transit":false,"line":2,"station_name":"Tebet","time":4},{"i_long":106.856607,"station_id":"CW","is_transit":false,"i_lat":-6.242512,"time":2,"line":2,"station_name":"Cawang","transit":false,"distance":1230},{"distance":1546,"station_name":"Duren Kalibata","station_id":"DRN","i_long":106.85449,"line":2,"is_transit":false,"transit":false,"time":3,"i_lat":-6.255332}],[{"station_name":"Buaran","time":0,"i_lat":-6.215568,"station_id":"BUA","distance":0,"transit":false,"is_transit":false,"line":1,"i_long":106.922662},{"distance":3100,"is_transit":false,"station_name":"Klender","line":1,"time":2,"transit":false,"station_id":"KLD","i_lat":-6.2135,"i_long":106.899548},{"line":1,"time":3,"i_lat":-6.215091,"station_id":"JNG","distance":3395,"station_name":"Jatinegara","i_long":106.86807400000001,"transit":true,"is_transit":true},{"distance":1236,"i_lat":-6.209188,"i_long":106.861737,"is_transit":false,"line":11,"time":2,"station_id":"POK","transit":false,"station_name":"Pondok Jati"},{"transit":false,"distance":1829,"time":2,"is_transit":false,"i_long":106.855437,"station_name":"Kramat","i_lat":-6.193792,"station_id":"KMT","line":11},{"time":1,"line":11,"distance":973,"station_name":"Gang Sentiong","i_long":106.850107,"station_id":"GST","transit":false,"i_lat":-6.185975,"is_transit":false},{"is_transit":false,"transit":false,"time":8,"station_name":"Pasar Senen","distance":1567,"i_lat":-6.174784,"line":11,"station_id":"PSE","i_long":106.84368},{"transit":false,"line":11,"time":4,"i_lat":-6.161728,"distance":1436,"station_name":"Kemayoran","station_id":"KMO","i_long":106.839204,"is_transit":false},{"i_long":106.836569,"is_transit":false,"time":5,"transit":false,"station_id":"RJW","distance":1901,"station_name":"Rajawali","i_lat":-6.14505,"line":11},{"is_transit":true,"i_lat":-6.132549,"transit":true,"i_long":106.826365,"distance":1444,"station_name":"Kampung Bandan","line":4,"station_id":"KPB","time":3},{"station_name":"Angke","is_transit":false,"distance":4102,"i_lat":-6.144674,"station_id":"AK","time":9,"transit":false,"i_long":106.79867,"line":1},{"transit":false,"distance":1230,"station_id":"DU","i_lat":-6.155215,"station_name":"Duri","is_transit":false,"i_long":106.800832,"time":4,"line":1},{"i_lat":-6.185545,"line":1,"i_long":106.811091,"station_id":"THB","is_transit":false,"transit":false,"time":8,"distance":3632,"station_name":"Tanah Abang"},{"distance":2029,"is_transit":false,"time":5,"i_long":106.816351,"station_name":"Karet","i_lat":-6.20132,"transit":false,"line":1,"station_id":"KAT"},{"i_long":106.819881,"station_id":"SUDB","transit":false,"i_lat":-6.201433,"time":1,"line":1,"is_transit":false,"distance":471,"station_name":"Sudirman Baru"},{"line":1,"transit":false,"is_transit":false,"station_id":"SUD","time":1,"distance":280,"station_name":"Sudirman","i_long":106.822649,"i_lat":-6.202263},{"station_id":"MRI","distance":3186,"line":2,"time":4,"transit":true,"station_name":"Manggarai","is_transit":true,"i_long":106.84912,"i_lat":-6.209883},{"transit":false,"line":2,"i_lat":-6.226659,"distance":2610,"is_transit":false,"i_long":106.857948,"station_name":"Tebet","station_id":"TEB","time":4},{"station_id":"CW","transit":false,"station_name":"Cawang","i_lat":-6.242512,"line":2,"i_long":106.856607,"time":2,"is_transit":false,"distance":1230},{"station_id":"DRN","line":2,"transit":false,"is_transit":false,"distance":1546,"station_name":"Duren Kalibata","i_lat":-6.255332,"i_long":106.85449,"time":3}],[{"station_id":"BUA","transit":false,"distance":0,"i_long":106.922662,"is_transit":false,"time":0,"i_lat":-6.215568,"station_name":"Buaran","line":1},{"i_long":106.899548,"is_transit":false,"distance":3100,"i_lat":-6.2135,"time":2,"station_name":"Klender","transit":false,"station_id":"KLD","line":1},{"time":3,"is_transit":true,"distance":3395,"i_lat":-6.215091,"line":1,"station_name":"Jatinegara","transit":true,"i_long":106.86807400000001,"station_id":"JNG"},{"i_long":106.861737,"is_transit":false,"distance":1236,"time":2,"transit":false,"i_lat":-6.209188,"line":11,"station_name":"Pondok Jati","station_id":"POK"},{"time":2,"i_lat":-6.193792,"line":11,"station_id":"KMT","transit":false,"i_long":106.855437,"is_transit":false,"distance":1829,"station_name":"Kramat"},{"station_name":"Gang Sentiong","station_id":"GST","line":11,"time":1,"transit":false,"i_lat":-6.185975,"distance":973,"i_long":106.850107,"is_transit":false},{"time":8,"is_transit":false,"station_id":"PSE","i_lat":-6.174784,"station_name":"Pasar Senen","distance":1567,"line":11,"transit":false,"i_long":106.84368},{"line":11,"is_transit":false,"station_id":"KMO","station_name":"Kemayoran","time":4,"i_lat":-6.161728,"i_long":106.839204,"transit":false,"distance":1436},{"is_transit":false,"i_long":106.836569,"line":11,"station_id":"RJW","distance":1901,"station_name":"Rajawali","time":5,"transit":false,"i_lat":-6.14505},{"distance":1444,"i_lat":-6.132549,"is_transit":true,"time":3,"i_long":106.826365,"line":4,"station_id":"KPB","transit":true,"station_name":"Kampung Bandan"},{"i_long":106.812439,"time":3,"distance":1364,"line":2,"is_transit":true,"i_lat":-6.137569,"transit":true,"station_id":"JAKK","station_name":"Jakarta Kota"},{"station_id":"JAY","distance":1264,"time":4,"transit":false,"i_lat":-6.141205,"line":2,"i_long":106.820901,"station_name":"Jayakarta","is_transit":false},{"transit":false,"distance":1080,"station_id":"MGB","i_long":106.82482,"i_lat":-6.149769,"is_transit":false,"station_name":"Manggabesar","line":2,"time":2},{"i_lat":-6.160725,"distance":906,"station_name":"Sawah Besar","time":2,"line":2,"is_transit":false,"station_id":"SW","transit":false,"i_long":106.827103},{"is_transit":false,"station_name":"Juanda","line":2,"i_lat":-6.166716,"time":2,"transit":false,"station_id":"JUA","distance":1149,"i_long":106.828284},{"station_id":"GDD","is_transit":false,"i_lat":-6.186295,"station_name":"Gondangdia","time":4,"distance":2015,"i_long":106.832183,"transit":false,"line":2},{"transit":false,"station_name":"Cikini","time":3,"distance":1750,"i_lat":-6.198556,"station_id":"CKI","is_transit":false,"i_long":106.840169,"line":2},{"transit":false,"i_long":106.84912,"is_transit":false,"time":4,"station_name":"Manggarai","i_lat":-6.209883,"station_id":"MRI","distance":1590,"line":2},{"station_id":"TEB","i_long":106.857948,"time":4,"transit":false,"station_name":"Tebet","is_transit":false,"i_lat":-6.226659,"distance":2610,"line":2},{"distance":1230,"i_long":106.856607,"is_transit":false,"time":2,"station_name":"Cawang","line":2,"i_lat":-6.242512,"transit":false,"station_id":"CW"},{"time":3,"i_long":106.85449,"station_name":"Duren Kalibata","transit":false,"line":2,"is_transit":false,"station_id":"DRN","distance":1546,"i_lat":-6.255332}]]}