{"data":[[{"i_long":106.922662,"is_transit":false,"station_id":"BUA","transit":false,"time":0,"i_lat":-6.215568,"station_name":"Buaran","line":1,"distance":0},{"station_id":"KLD","transit":false,"station_name":"Klender","distance":3100,"i_long":106.899548,"is_transit":false,"line":1,"time":2,"i_lat":-6.2135},{"station_name":"Jatinegara","i_long":106.86807400000001,"time":3,"i_lat":-6.215091,"line":1,"distance":3395,"transit":false,"station_id":"JNG","is_transit":false},{"is_transit":false,"station_id":"MTR","line":1,"i_long":106.858896,"time":2,"distance":1377,"transit":false,"station_name":"Matraman","i_lat":-6.212485},{"distance":1275,"is_transit":true,"i_lat":-6.209883,"i_long":106.84912,"station_name":"Manggarai","station_id":"MRI","line":2,"time":2,"transit":true},{"transit":false,"station_name":"Cikini","station_id":"CKI","is_transit":false,"time":4,"distance":1590,"i_long":106.840169,"i_lat":-6.198556,"line":2},{"station_name":"Gondangdia","station_id":"GDD","time":3,"i_long":106.832183,"distance":1750,"is_transit":false,"line":2,"i_lat":-6.186295,"transit":false},{"i_lat":-6.166716,"transit":false,"station_name":"Juanda","station_id":"JUA","distance":2015,"line":2,"i_long":106.828284,"time":4,"is_transit":false},{"distance":1149,"i_long":106.827103,"line":2,"station_name":"Sawah Besar","time":2,"transit":false,"is_transit":false,"i_lat":-6.160725,"station_id":"SW"},{"transit":false,"i_long":106.82482,"is_transit":false,"station_name":"Manggabesar","station_id":"MGB","distance":906,"i_lat":-6.149769,"line":2,"time":2},{"station_name":"Jayakarta","line":2,"time":2,"distance":1080,"i_lat":-6.141205,"station_id":"JAY","is_transit":false,"i_long":106.820901,"transit":false}],[{"distance":0,"station_name":"Buaran","time":0,"transit":false,"i_long":106.922662,"line":1,"i_lat":-6.215568,"station_id":"BUA","is_transit":false},{"distance":3100,"i_lat":-6.2135,"i_long":106.899548,"station_id":"KLD","is_transit":false,"line":1,"time":2,"station_name":"Klender","transit":false},{"time":3,"transit":true,"station_name":"Jatinegara","i_lat":-6.215091,"i_long":106.86807400000001,"station_id":"JNG","line":1,"is_transit":true,"distance":3395},{"i_lat":-6.209188,"station_name":"Pondok Jati","i_long":106.861737,"line":11,"distance":1236,"transit":false,"is_transit":false,"time":2,"station_id":"POK"},{"time":2,"line":11,"transit":false,"is_transit":false,"i_long":106.855437,"distance":1829,"station_id":"KMT","i_lat":-6.193792,"station_name":"Kramat"},{"line":11,"time":1,"i_long":106.850107,"station_id":"GST","station_name":"Gang Sentiong","distance":973,"transit":false,"is_transit":false,"i_lat":-6.185975},{"time":8,"transit":false,"is_transit":false,"i_long":106.84368,"line":11,"i_lat":-6.174784,"station_id":"PSE","station_name":"Pasar Senen","distance":1567},{"transit":false,"distance":1436,"i_long":106.839204,"station_name":"Kemayoran","time":4,"station_id":"KMO","i_lat":-6.161728,"line":11,"is_transit":false},{"line":11,"station_name":"Rajawali","time":5,"is_transit":false,"i_long":106.836569,"i_lat":-6.14505,"distance":1901,"transit":false,"station_id":"RJW"},{"transit":true,"station_name":"Kampung Bandan","station_id":"KPB","time":3,"i_long":106.826365,"distance":1444,"line":4,"is_transit":true,"i_lat":-6.132549},{"time":3,"transit":true,"is_transit":true,"i_long":106.812439,"station_name":"Jakarta Kota","station_id":"JAKK","i_lat":-6.137569,"line":2,"distance":1364},{"transit":false,"i_lat":-6.141205,"line":2,"station_id":"JAY","station_name":"Jayakarta","is_transit":false,"i_long":106.820901,"distance":1264,"time":4}],[{"transit":false,"is_transit":false,"i_lat":-6.215568,"time":0,"station_id":"BUA","distance":0,"i_long":106.922662,"line":1,"station_name":"Buaran"},{"line":1,"time":2,"transit":false,"i_lat":-6.2135,"i_long":106.899548,"is_transit":false,"station_id":"KLD","station_name":"Klender","distance":3100},{"station_id":"JNG","station_name":"Jatinegara","i_lat":-6.215091,"transit":false,"time":3,"i_long":106.86807400000001,"distance":3395,"line":1,"is_transit":false},{"i_long":106.858896,"station_name":"Matraman","distance":1377,"line":1,"transit":false,"i_lat":-6.212485,"station_id":"MTR","time":2,"is_transit":false},{"i_long":106.84912,"station_id":"MRI","transit":false,"distance":1275,"is_transit":false,"i_lat":-6.209883,"line":2,"station_name":"Manggarai","time":2},{"i_lat":-6.202263,"line":1,"time":4,"i_long":106.822649,"transit":false,"station_name":"Sudirman","station_id":"SUD","is_transit":false,"distance":3186},{"is_transit":false,"time":1,"line":1,"i_lat":-6.201433,"distance":280,"station_name":"Sudirman Baru","i_long":106.819881,"transit":false,"station_id":"SUDB"},{"station_id":"KAT","station_name":"Karet","time":1,"line":1,"transit":false,"i_lat":-6.20132,"distance":471,"i_long":106.816351,"is_transit":false},{"time":5,"i_long":106.811091,"transit":false,"station_id":"THB","line":1,"i_lat":-6.185545,"station_name":"Tanah Abang","is_transit":false,"distance":2029},{"time":8,"station_id":"DU","is_transit":false,"distance":3632,"line":1,"i_lat":-6.155215,"i_long":106.800832,"station_name":"Duri","transit":false},{"line":1,"time":4,"station_name":"Angke","is_transit":false,"i_lat":-6.144674,"transit":false,"i_long":106.79867,"distance":1230,"station_id":"AK"},{"station_id":"KPB","i_lat":-6.132549,"is_transit":true,"transit":true,"distance":4102,"line":4,"i_long":106.826365,"time":9,"station_name":"Kampung Bandan"},{"i_long":106.812439,"time":3,"distance":1364,"line":2,"transit":true,"station_name":"Jakarta Kota","station_id":"JAKK","is_transit":true,"i_lat":-6.137569},{"station_id":"JAY","i_lat":-6.141205,"distance":1264,"i_long":106.820901,"time":4,"is_transit":false,"line":2,"transit":false,"station_name":"Jayakarta"}],[{"station_id":"BUA","station_name":"Buaran","i_long":106.922662,"distance":0,"i_lat":-6.215568,"transit":false,"line":1,"time":0,"is_transit":false},{"i_lat":-6.2135,"distance":3100,"station_name":"Klender","i_long":106.899548,"line":1,"is_transit":false,"transit":false,"station_id":"KLD","time":2},{"distance":3395,"i_lat":-6.215091,"station_name":"Jatinegara","line":1,"station_id":"JNG","i_long":106.86807400000001,"is_transit":true,"time":3,"transit":true},{"station_id":"POK","i_lat":-6.209188,"station_name":"Pondok Jati","time":2,"line":11,"is_transit":false,"distance":1236,"i_long":106.861737,"transit":false},{"transit":false,"station_id":"KMT","is_transit":false,"i_lat":-6.193792,"line":11,"i_long":106.855437,"time":2,"distance":1829,"station_name":"Kramat"},{"distance":973,"station_id":"GST","i_long":106.850107,"line":11,"transit":false,"i_lat":-6.185975,"station_name":"Gang Sentiong","time":1,"is_transit":false},{"station_name":"Pasar Senen","i_lat":-6.174784,"distance":1567,"transit":false,"i_long":106.84368,"station_id":"PSE","time":8,"is_transit":false,"line":11},{"i_lat":-6.161728,"is_transit":false,"station_id":"KMO","distance":1436,"time":4,"station_name":"Kemayoran","line":11,"i_long":106.839204,"transit":false},{"station_id":"RJW","is_transit":false,"distance":1901,"station_name":"Rajawali","time":5,"i_lat":-6.14505,"transit":false,"line":11,"i_long":106.836569},{"transit":true,"station_name":"Kampung Bandan","i_lat":-6.132549,"station_id":"KPB","time":3,"i_long":106.826365,"is_transit":true,"distance":1444,"line":4},{"transit":false,"time":9,"i_lat":-6.144674,"line":1,"station_id":"AK","station_name":"Angke","i_long":106.79867,"is_transit":false,"distance":4102},{"transit":false,"distance":1230,"station_id":"DU","time":4,"line":1,"i_lat":-6.155215,"is_transit":false,"station_name":"Duri","i_long":106.800832},{"station_name":"Tanah Abang","i_long":106.811091,"line":1,"distance":3632,"transit":false,"is_transit":false,"i_lat":-6.185545,"station_id":"THB","time":8},{"transit":false,"i_lat":-6.20132,"time":5,"station_name":"Karet","distance":2029,"is_transit":false,"i_long":106.816351,"line":1,"station_id":"KAT"},{"is_transit":false,"time":1,"i_long":106.819881,"transit":false,"line":1,"distance":471,"i_lat":-6.201433,"station_id":"SUDB","station_name":"Sudirman Baru"},{"station_id":"SUD","time":1,"station_name":"Sudirman","i_lat":-6.202263,"i_long":106.822649,"is_transit":false,"distance":280,"transit":false,"line":1},{"i_long":106.84912,"line":2,"station_name":"Manggarai","transit":true,"is_transit":true,"station_id":"MRI","i_lat":-6.209883,"time":4,"distance":3186},{"i_lat":-6.198556,"transit":false,"station_id":"CKI","is_transit":false,"i_long":106.840169,"station_name":"Cikini","line":2,"distance":1590,"time":4},{"station_name":"Gondangdia","distance":1750,"is_transit":false,"station_id":"GDD","i_lat":-6.186295,"transit":false,"time":3,"line":2,"i_long":106.832183},{"i_long":106.828284,"time":4,"line":2,"is_transit":false,"transit":false,"distance":2015,"i_lat":-6.166716,"station_id":"JUA","station_name":"Juanda"},{"i_long":106.827103,"transit":false,"station_id":"SW","is_transit":false,"time":2,"distance":1149,"i_lat":-6.160725,"line":2,"station_name":"Sawah Besar"},{"i_lat":-6.149769,"transit":false,"is_transit":false,"i_long":106.82482,"station_name":"Manggabesar","line":2,"time":2,"station_id":"MGB","distance":906},{"i_lat":-6.141205,"station_name":"Jayakarta","station_id":"JAY","is_transit":false,"distance":1080,"transit":false,"time":2,"i_long":106.820901,"line":2}]]}