{"data":[[{"distance":0,"station_id":"BUA","time":0,"line":0,"transit":false,"is_transit":false,"station_name":"Buaran","i_long":106.922662,"i_lat":-6.215568},{"station_id":"KLD","is_transit":false,"time":2,"line":1,"i_long":106.899548,"transit":false,"distance":3100,"station_name":"Klender","i_lat":-6.2135},{"is_transit":true,"time":3,"line":0,"station_id":"JNG","transit":false,"distance":3395,"i_lat":-6.215091,"station_name":"Jatinegara","i_long":106.86807400000001},{"transit":false,"i_lat":-6.212485,"time":2,"station_id":"MTR","station_name":"Matraman","line":1,"i_long":106.858896,"distance":1377,"is_transit":false},{"time":2,"i_lat":-6.209883,"distance":1275,"station_id":"MRI","is_transit":true,"i_long":106.84912,"transit":true,"line":0,"station_name":"Manggarai"},{"time":4,"i_long":106.857948,"i_lat":-6.226659,"station_id":"TEB","distance":2610,"is_transit":false,"station_name":"Tebet","transit":false,"line":2},{"line":0,"distance":1230,"i_long":106.856607,"is_transit":false,"time":2,"transit":false,"station_name":"Cawang","station_id":"CW","i_lat":-6.242512},{"i_lat":-6.255332,"station_name":"Duren Kalibata","is_transit":false,"transit":false,"line":0,"station_id":"DRN","time":3,"i_long":106.85449,"distance":1546},{"time":2,"line":2,"distance":824,"i_lat":-6.263214,"station_name":"Pasar Minggu Baru","transit":false,"station_id":"PSMB","is_transit":false,"i_long":106.851577},{"station_name":"Pasar Minggu","station_id":"PSM","time":2,"distance":2380,"i_lat":-6.2842400000000005,"i_long":106.843999,"is_transit":false,"line":2,"transit":false},{"time":4,"station_name":"Tanjung Barat","station_id":"TNT","i_lat":-6.3080680000000005,"is_transit":false,"line":2,"distance":2820,"i_long":106.838896,"transit":false}],[{"distance":0,"transit":false,"line":0,"station_id":"BUA","i_long":106.922662,"i_lat":-6.215568,"station_name":"Buaran","time":0,"is_transit":false},{"station_name":"Klender","is_transit":false,"station_id":"KLD","transit":false,"distance":3100,"i_long":106.899548,"line":1,"time":2,"i_lat":-6.2135},{"station_id":"JNG","time":3,"i_lat":-6.215091,"line":0,"i_long":106.86807400000001,"station_name":"Jatinegara","transit":true,"distance":3395,"is_transit":true},{"line":11,"is_transit":false,"station_id":"POK","station_name":"Pondok Jati","i_lat":-6.209188,"distance":1236,"i_long":106.861737,"transit":false,"time":2},{"station_name":"Kramat","time":2,"i_lat":-6.193792,"i_long":106.855437,"transit":false,"is_transit":false,"distance":1829,"station_id":"KMT","line":11},{"i_lat":-6.185975,"i_long":106.850107,"distance":973,"is_transit":false,"station_id":"GST","station_name":"Gang Sentiong","time":1,"transit":false,"line":11},{"line":11,"transit":false,"i_long":106.84368,"i_lat":-6.174784,"station_id":"PSE","time":8,"is_transit":false,"station_name":"Pasar Senen","distance":1567},{"line":11,"i_lat":-6.161728,"station_id":"KMO","distance":1436,"i_long":106.839204,"station_name":"Kemayoran","is_transit":false,"transit":false,"time":4},{"is_transit":false,"time":5,"i_lat":-6.14505,"transit":false,"line":11,"station_name":"Rajawali","distance":1901,"i_long":106.836569,"station_id":"RJW"},{"transit":true,"is_transit":true,"line":0,"distance":1444,"i_lat":-6.132549,"i_long":106.826365,"station_name":"Kampung Bandan","station_id":"KPB","time":3},{"station_name":"Angke","is_transit":false,"i_lat":-6.144674,"line":0,"distance":4102,"station_id":"AK","time":9,"transit":false,"i_long":106.79867},{"time":4,"transit":true,"i_long":106.800832,"station_name":"Duri","distance":1230,"station_id":"DU","line":1,"i_lat":-6.155215,"is_transit":true},{"station_id":"THB","is_transit":true,"time":8,"line":1,"transit":false,"i_lat":-6.185545,"i_long":106.811091,"station_name":"Tanah Abang","distance":3632},{"i_long":106.816351,"time":5,"station_id":"KAT","i_lat":-6.20132,"distance":2029,"is_transit":false,"station_name":"Karet","transit":false,"line":1},{"line":1,"distance":471,"station_id":"SUDB","i_long":106.819881,"time":1,"transit":false,"is_transit":false,"station_name":"Sudirman Baru","i_lat":-6.201433},{"is_transit":false,"transit":false,"i_long":106.822649,"station_name":"Sudirman","station_id":"SUD","time":1,"distance":280,"i_lat":-6.202263,"line":1},{"i_long":106.84912,"is_transit":true,"transit":true,"time":4,"i_lat":-6.209883,"station_name":"Manggarai","station_id":"MRI","line":0,"distance":3186},{"line":2,"i_long":106.857948,"time":4,"i_lat":-6.226659,"station_id":"TEB","station_name":"Tebet","is_transit":false,"distance":2610,"transit":false},{"station_name":"Cawang","is_transit":false,"i_long":106.856607,"time":2,"i_lat":-6.242512,"distance":1230,"line":0,"transit":false,"station_id":"CW"},{"i_long":106.85449,"time":3,"transit":false,"station_id":"DRN","i_lat":-6.255332,"station_name":"Duren Kalibata","is_transit":false,"distance":1546,"line":0},{"distance":824,"station_id":"PSMB","time":2,"transit":false,"is_transit":false,"i_lat":-6.263214,"i_long":106.851577,"station_name":"Pasar Minggu Baru","line":2},{"line":2,"station_name":"Pasar Minggu","distance":2380,"i_lat":-6.2842400000000005,"i_long":106.843999,"is_transit":false,"station_id":"PSM","time":2,"transit":false},{"is_transit":false,"time":4,"station_id":"TNT","station_name":"Tanjung Barat","transit":false,"i_lat":-6.3080680000000005,"distance":2820,"i_long":106.838896,"line":2}],[{"station_id":"BUA","is_transit":false,"time":0,"distance":0,"line":0,"transit":false,"i_lat":-6.215568,"i_long":106.922662,"station_name":"Buaran"},{"station_id":"KLD","station_name":"Klender","i_long":106.899548,"line":1,"i_lat":-6.2135,"distance":3100,"is_transit":false,"transit":false,"time":2},{"is_transit":true,"time":3,"station_name":"Jatinegara","i_long":106.86807400000001,"line":0,"transit":true,"i_lat":-6.215091,"station_id":"JNG","distance":3395},{"line":11,"transit":false,"station_name":"Pondok Jati","i_long":106.861737,"distance":1236,"is_transit":false,"time":2,"station_id":"POK","i_lat":-6.209188},{"station_id":"KMT","station_name":"Kramat","time":2,"i_lat":-6.193792,"i_long":106.855437,"line":11,"is_transit":false,"distance":1829,"transit":false},{"station_id":"GST","station_name":"Gang Sentiong","is_transit":false,"transit":false,"i_lat":-6.185975,"i_long":106.850107,"distance":973,"time":1,"line":11},{"i_long":106.84368,"line":11,"station_name":"Pasar Senen","distance":1567,"is_transit":false,"station_id":"PSE","time":8,"i_lat":-6.174784,"transit":false},{"time":4,"station_name":"Kemayoran","distance":1436,"transit":false,"station_id":"KMO","i_lat":-6.161728,"i_long":106.839204,"line":11,"is_transit":false},{"station_id":"RJW","distance":1901,"i_lat":-6.14505,"station_name":"Rajawali","is_transit":false,"i_long":106.836569,"time":5,"transit":false,"line":11},{"distance":1444,"i_long":106.826365,"line":0,"is_transit":true,"i_lat":-6.132549,"time":3,"transit":true,"station_id":"KPB","station_name":"Kampung Bandan"},{"line":0,"transit":true,"station_name":"Jakarta Kota","time":3,"station_id":"JAKK","i_lat":-6.137569,"i_long":106.812439,"is_transit":true,"distance":1364},{"is_transit":false,"station_name":"Jayakarta","line":7,"i_long":106.820901,"station_id":"JAY","time":4,"transit":false,"distance":1264,"i_lat":-6.141205},{"i_lat":-6.149769,"time":2,"station_id":"MGB","i_long":106.82482,"line":2,"station_name":"Manggabesar","is_transit":false,"distance":1080,"transit":false},{"transit":false,"station_name":"Sawah Besar","distance":906,"i_long":106.827103,"line":2,"is_transit":false,"i_lat":-6.160725,"station_id":"SW","time":2},{"station_id":"JUA","is_transit":false,"distance":1149,"i_long":106.828284,"line":2,"i_lat":-6.166716,"time":2,"transit":false,"station_name":"Juanda"},{"time":4,"distance":2015,"station_name":"Gondangdia","i_long":106.832183,"station_id":"GDD","line":2,"transit":false,"i_lat":-6.186295,"is_transit":false},{"station_id":"CKI","i_lat":-6.198556,"i_long":106.840169,"station_name":"Cikini","distance":1750,"transit":false,"line":0,"is_transit":false,"time":3},{"distance":1590,"is_transit":true,"transit":true,"station_id":"MRI","i_lat":-6.209883,"time":4,"i_long":106.84912,"station_name":"Manggarai","line":0},{"station_name":"Tebet","i_long":106.857948,"time":4,"i_lat":-6.226659,"station_id":"TEB","distance":2610,"transit":false,"line":2,"is_transit":false},{"is_transit":false,"time":2,"station_id":"CW","station_name":"Cawang","transit":false,"i_lat":-6.242512,"i_long":106.856607,"distance":1230,"line":0},{"distance":1546,"line":0,"is_transit":false,"i_long":106.85449,"station_name":"Duren Kalibata","transit":false,"i_lat":-6.255332,"station_id":"DRN","time":3},{"i_long":106.851577,"i_lat":-6.263214,"is_transit":false,"station_id":"PSMB","time":2,"distance":824,"transit":false,"line":2,"station_name":"Pasar Minggu Baru"},{"is_transit":false,"time":2,"distance":2380,"i_lat":-6.2842400000000005,"station_name":"Pasar Minggu","transit":false,"i_long":106.843999,"line":2,"station_id":"PSM"},{"time":4,"distance":2820,"i_long":106.838896,"station_id":"TNT","line":2,"transit":false,"i_lat":-6.3080680000000005,"station_name":"Tanjung Barat","is_transit":false}]]}