{"data":[[{"station_name":"Buaran","is_transit":false,"transit":false,"station_id":"BUA","line":0,"i_long":106.922662,"i_lat":-6.215568,"distance":0,"time":0},{"station_name":"Klender","line":1,"time":2,"is_transit":false,"distance":3100,"station_id":"KLD","i_long":106.899548,"transit":false,"i_lat":-6.2135},{"station_name":"Jatinegara","transit":false,"distance":3395,"i_lat":-6.215091,"i_long":106.86807400000001,"line":0,"is_transit":true,"station_id":"JNG","time":3},{"time":2,"transit":false,"station_name":"Matraman","line":1,"is_transit":false,"station_id":"MTR","distance":1377,"i_lat":-6.212485,"i_long":106.858896},{"i_lat":-6.209883,"is_transit":true,"time":2,"line":0,"distance":1275,"station_name":"Manggarai","station_id":"MRI","transit":true,"i_long":106.84912},{"station_name":"Tebet","time":4,"station_id":"TEB","distance":2610,"is_transit":false,"line":2,"i_lat":-6.226659,"transit":false,"i_long":106.857948},{"transit":false,"i_lat":-6.242512,"station_name":"Cawang","station_id":"CW","distance":1230,"is_transit":false,"time":2,"i_long":106.856607,"line":0},{"is_transit":false,"line":0,"time":3,"distance":1546,"station_id":"DRN","station_name":"Duren Kalibata","transit":false,"i_lat":-6.255332,"i_long":106.85449},{"station_id":"PSMB","station_name":"Pasar Minggu Baru","i_long":106.851577,"line":2,"is_transit":false,"distance":824,"time":2,"transit":false,"i_lat":-6.263214},{"is_transit":false,"distance":2380,"station_name":"Pasar Minggu","i_lat":-6.2842400000000005,"station_id":"PSM","transit":false,"i_long":106.843999,"line":2,"time":2},{"station_name":"Tanjung Barat","transit":false,"distance":2820,"is_transit":false,"station_id":"TNT","i_lat":-6.3080680000000005,"i_long":106.838896,"time":4,"line":2},{"station_name":"Lenteng Agung","time":3,"i_lat":-6.330363,"is_transit":false,"station_id":"LNA","i_long":106.832616,"distance":2671,"transit":false,"line":2},{"station_id":"UP","station_name":"Univ. Pancasila","is_transit":false,"time":2,"i_long":106.834175,"i_lat":-6.339291,"distance":1029,"transit":false,"line":2},{"time":3,"station_name":"Univ. Indonesia","distance":2264,"i_lat":-6.360749,"i_long":106.831474,"line":2,"transit":false,"is_transit":false,"station_id":"UI"},{"is_transit":false,"line":2,"station_id":"POC","transit":false,"i_long":106.831114,"time":2,"station_name":"Pondok Cina","i_lat":-6.369073,"distance":1109},{"station_id":"DPB","i_long":106.819451,"is_transit":false,"distance":2727,"time":4,"i_lat":-6.391065,"line":0,"station_name":"Depokbaru","transit":false},{"station_name":"Depok","line":0,"transit":false,"is_transit":false,"i_long":106.816926,"i_lat":-6.405256,"station_id":"DP","time":3,"distance":1584}],[{"line":0,"distance":0,"transit":false,"time":0,"is_transit":false,"station_id":"BUA","station_name":"Buaran","i_lat":-6.215568,"i_long":106.922662},{"station_id":"KLD","is_transit":false,"time":2,"i_lat":-6.2135,"transit":false,"station_name":"Klender","distance":3100,"line":1,"i_long":106.899548},{"is_transit":true,"time":3,"station_id":"JNG","distance":3395,"i_lat":-6.215091,"station_name":"Jatinegara","transit":true,"i_long":106.86807400000001,"line":0},{"is_transit":false,"station_id":"POK","station_name":"Pondok Jati","transit":false,"time":2,"i_lat":-6.209188,"line":11,"distance":1236,"i_long":106.861737},{"is_transit":false,"transit":false,"station_id":"KMT","i_long":106.855437,"line":11,"time":2,"station_name":"Kramat","distance":1829,"i_lat":-6.193792},{"station_id":"GST","time":1,"distance":973,"transit":false,"i_lat":-6.185975,"i_long":106.850107,"line":11,"is_transit":false,"station_name":"Gang Sentiong"},{"transit":false,"is_transit":false,"distance":1567,"i_lat":-6.174784,"time":8,"i_long":106.84368,"station_name":"Pasar Senen","station_id":"PSE","line":11},{"station_id":"KMO","i_lat":-6.161728,"is_transit":false,"distance":1436,"transit":false,"line":11,"station_name":"Kemayoran","i_long":106.839204,"time":4},{"is_transit":false,"i_long":106.836569,"station_id":"RJW","time":5,"station_name":"Rajawali","line":11,"transit":false,"distance":1901,"i_lat":-6.14505},{"transit":true,"station_name":"Kampung Bandan","time":3,"is_transit":true,"i_lat":-6.132549,"station_id":"KPB","distance":1444,"line":0,"i_long":106.826365},{"i_long":106.79867,"station_name":"Angke","line":0,"transit":false,"station_id":"AK","distance":4102,"is_transit":false,"i_lat":-6.144674,"time":9},{"transit":true,"station_id":"DU","is_transit":true,"i_long":106.800832,"station_name":"Duri","line":1,"i_lat":-6.155215,"time":4,"distance":1230},{"is_transit":true,"station_name":"Tanah Abang","line":1,"transit":false,"distance":3632,"time":8,"station_id":"THB","i_lat":-6.185545,"i_long":106.811091},{"i_long":106.816351,"line":1,"station_id":"KAT","station_name":"Karet","transit":false,"time":5,"distance":2029,"is_transit":false,"i_lat":-6.20132},{"i_lat":-6.201433,"i_long":106.819881,"distance":471,"is_transit":false,"station_id":"SUDB","station_name":"Sudirman Baru","line":1,"transit":false,"time":1},{"station_name":"Sudirman","i_lat":-6.202263,"is_transit":false,"station_id":"SUD","line":1,"transit":false,"distance":280,"time":1,"i_long":106.822649},{"transit":true,"is_transit":true,"distance":3186,"line":0,"i_long":106.84912,"time":4,"station_name":"Manggarai","station_id":"MRI","i_lat":-6.209883},{"line":2,"distance":2610,"time":4,"transit":false,"station_name":"Tebet","i_long":106.857948,"is_transit":false,"station_id":"TEB","i_lat":-6.226659},{"station_name":"Cawang","i_long":106.856607,"station_id":"CW","transit":false,"line":0,"is_transit":false,"i_lat":-6.242512,"distance":1230,"time":2},{"distance":1546,"transit":false,"time":3,"i_long":106.85449,"line":0,"station_id":"DRN","station_name":"Duren Kalibata","is_transit":false,"i_lat":-6.255332},{"transit":false,"i_lat":-6.263214,"distance":824,"i_long":106.851577,"line":2,"station_name":"Pasar Minggu Baru","time":2,"is_transit":false,"station_id":"PSMB"},{"station_id":"PSM","i_long":106.843999,"time":2,"line":2,"station_name":"Pasar Minggu","i_lat":-6.2842400000000005,"is_transit":false,"transit":false,"distance":2380},{"i_lat":-6.3080680000000005,"transit":false,"distance":2820,"station_name":"Tanjung Barat","line":2,"time":4,"i_long":106.838896,"station_id":"TNT","is_transit":false},{"distance":2671,"time":3,"i_lat":-6.330363,"station_name":"Lenteng Agung","transit":false,"i_long":106.832616,"station_id":"LNA","is_transit":false,"line":2},{"distance":1029,"transit":false,"station_id":"UP","time":2,"station_name":"Univ. Pancasila","is_transit":false,"i_lat":-6.339291,"line":2,"i_long":106.834175},{"station_id":"UI","i_lat":-6.360749,"line":2,"distance":2264,"transit":false,"time":3,"i_long":106.831474,"station_name":"Univ. Indonesia","is_transit":false},{"station_id":"POC","is_transit":false,"time":2,"line":2,"i_lat":-6.369073,"distance":1109,"transit":false,"station_name":"Pondok Cina","i_long":106.831114},{"is_transit":false,"time":4,"i_long":106.819451,"i_lat":-6.391065,"line":0,"transit":false,"distance":2727,"station_id":"DPB","station_name":"Depokbaru"},{"i_long":106.816926,"station_id":"DP","distance":1584,"station_name":"Depok","transit":false,"is_transit":false,"line":0,"i_lat":-6.405256,"time":3}],[{"station_id":"BUA","station_name":"Buaran","is_transit":false,"i_lat":-6.215568,"i_long":106.922662,"time":0,"line":0,"distance":0,"transit":false},{"i_lat":-6.2135,"transit":false,"i_long":106.899548,"distance":3100,"line":1,"station_name":"Klender","is_transit":false,"station_id":"KLD","time":2},{"i_lat":-6.215091,"station_id":"JNG","time":3,"station_name":"Jatinegara","transit":true,"line":0,"i_long":106.86807400000001,"distance":3395,"is_transit":true},{"i_long":106.861737,"station_id":"POK","transit":false,"time":2,"distance":1236,"station_name":"Pondok Jati","line":11,"is_transit":false,"i_lat":-6.209188},{"line":11,"station_id":"KMT","i_long":106.855437,"distance":1829,"is_transit":false,"station_name":"Kramat","time":2,"transit":false,"i_lat":-6.193792},{"distance":973,"station_id":"GST","is_transit":false,"transit":false,"i_lat":-6.185975,"station_name":"Gang Sentiong","i_long":106.850107,"line":11,"time":1},{"is_transit":false,"station_name":"Pasar Senen","i_long":106.84368,"time":8,"i_lat":-6.174784,"station_id":"PSE","distance":1567,"transit":false,"line":11},{"station_id":"KMO","is_transit":false,"station_name":"Kemayoran","distance":1436,"i_long":106.839204,"i_lat":-6.161728,"transit":false,"line":11,"time":4},{"i_lat":-6.14505,"station_id":"RJW","line":11,"distance":1901,"transit":false,"station_name":"Rajawali","is_transit":false,"i_long":106.836569,"time":5},{"line":0,"i_long":106.826365,"is_transit":true,"i_lat":-6.132549,"station_id":"KPB","distance":1444,"transit":true,"time":3,"station_name":"Kampung Bandan"},{"transit":true,"line":0,"time":3,"is_transit":true,"i_lat":-6.137569,"station_id":"JAKK","i_long":106.812439,"station_name":"Jakarta Kota","distance":1364},{"is_transit":false,"station_name":"Jayakarta","distance":1264,"i_long":106.820901,"transit":false,"line":7,"station_id":"JAY","i_lat":-6.141205,"time":4},{"transit":false,"i_long":106.82482,"distance":1080,"line":2,"time":2,"is_transit":false,"i_lat":-6.149769,"station_id":"MGB","station_name":"Manggabesar"},{"line":2,"i_lat":-6.160725,"transit":false,"i_long":106.827103,"station_name":"Sawah Besar","is_transit":false,"distance":906,"station_id":"SW","time":2},{"is_transit":false,"station_id":"JUA","transit":false,"i_long":106.828284,"distance":1149,"line":2,"i_lat":-6.166716,"station_name":"Juanda","time":2},{"i_lat":-6.186295,"i_long":106.832183,"station_name":"Gondangdia","time":4,"station_id":"GDD","distance":2015,"is_transit":false,"line":2,"transit":false},{"is_transit":false,"i_long":106.840169,"distance":1750,"line":0,"station_id":"CKI","station_name":"Cikini","transit":false,"i_lat":-6.198556,"time":3},{"is_transit":true,"station_name":"Manggarai","transit":true,"station_id":"MRI","i_lat":-6.209883,"line":0,"distance":1590,"time":4,"i_long":106.84912},{"i_long":106.857948,"time":4,"station_id":"TEB","station_name":"Tebet","transit":false,"is_transit":false,"i_lat":-6.226659,"line":2,"distance":2610},{"i_long":106.856607,"station_id":"CW","time":2,"station_name":"Cawang","i_lat":-6.242512,"line":0,"distance":1230,"transit":false,"is_transit":false},{"distance":1546,"i_lat":-6.255332,"i_long":106.85449,"station_name":"Duren Kalibata","line":0,"time":3,"station_id":"DRN","transit":false,"is_transit":false},{"time":2,"station_id":"PSMB","station_name":"Pasar Minggu Baru","is_transit":false,"transit":false,"line":2,"distance":824,"i_lat":-6.263214,"i_long":106.851577},{"station_id":"PSM","distance":2380,"i_lat":-6.2842400000000005,"i_long":106.843999,"is_transit":false,"time":2,"line":2,"station_name":"Pasar Minggu","transit":false},{"i_long":106.838896,"transit":false,"is_transit":false,"station_id":"TNT","time":4,"line":2,"distance":2820,"i_lat":-6.3080680000000005,"station_name":"Tanjung Barat"},{"i_lat":-6.330363,"i_long":106.832616,"distance":2671,"line":2,"transit":false,"time":3,"station_id":"LNA","is_transit":false,"station_name":"Lenteng Agung"},{"station_name":"Univ. Pancasila","time":2,"distance":1029,"is_transit":false,"station_id":"UP","i_lat":-6.339291,"transit":false,"line":2,"i_long":106.834175},{"line":2,"station_id":"UI","station_name":"Univ. Indonesia","time":3,"transit":false,"is_transit":false,"i_long":106.831474,"i_lat":-6.360749,"distance":2264},{"distance":1109,"transit":false,"i_lat":-6.369073,"time":2,"station_id":"POC","line":2,"is_transit":false,"i_long":106.831114,"station_name":"Pondok Cina"},{"time":4,"transit":false,"is_transit":false,"i_long":106.819451,"distance":2727,"station_id":"DPB","i_lat":-6.391065,"station_name":"Depokbaru","line":0},{"time":3,"transit":false,"i_lat":-6.405256,"station_id":"DP","is_transit":false,"line":0,"distance":1584,"i_long":106.816926,"station_name":"Depok"}]]}