{"data":[[{"is_transit":false,"line":0,"transit":false,"station_name":"Buaran","i_long":106.922662,"i_lat":-6.215568,"time":0,"station_id":"BUA","distance":0},{"transit":false,"is_transit":false,"station_id":"KLD","i_lat":-6.2135,"line":1,"time":2,"distance":3100,"i_long":106.899548,"station_name":"Klender"},{"station_name":"Jatinegara","station_id":"JNG","time":3,"transit":true,"distance":3395,"i_lat":-6.215091,"i_long":106.86807400000001,"is_transit":true,"line":0},{"station_name":"Pondok Jati","line":11,"time":2,"is_transit":false,"distance":1236,"transit":false,"station_id":"POK","i_lat":-6.209188,"i_long":106.861737},{"distance":1829,"station_name":"Kramat","i_long":106.855437,"transit":false,"line":11,"station_id":"KMT","time":2,"i_lat":-6.193792,"is_transit":false},{"station_name":"Gang Sentiong","time":1,"distance":973,"i_lat":-6.185975,"transit":false,"i_long":106.850107,"station_id":"GST","line":11,"is_transit":false},{"distance":1567,"station_name":"Pasar Senen","time":8,"line":11,"transit":false,"i_lat":-6.174784,"station_id":"PSE","i_long":106.84368,"is_transit":false},{"i_long":106.839204,"station_id":"KMO","time":4,"i_lat":-6.161728,"line":11,"is_transit":false,"station_name":"Kemayoran","transit":false,"distance":1436},{"station_id":"RJW","i_long":106.836569,"station_name":"Rajawali","is_transit":false,"distance":1901,"i_lat":-6.14505,"transit":false,"time":5,"line":11},{"i_long":106.826365,"i_lat":-6.132549,"station_name":"Kampung Bandan","time":3,"line":0,"is_transit":true,"transit":true,"distance":1444,"station_id":"KPB"},{"station_name":"Jakarta Kota","is_transit":true,"station_id":"JAKK","i_long":106.812439,"transit":false,"time":3,"i_lat":-6.137569,"distance":1364,"line":0}],[{"station_name":"Buaran","i_long":106.922662,"i_lat":-6.215568,"distance":0,"station_id":"BUA","transit":false,"is_transit":false,"line":0,"time":0},{"i_long":106.899548,"station_name":"Klender","is_transit":false,"time":2,"distance":3100,"i_lat":-6.2135,"station_id":"KLD","transit":false,"line":1},{"transit":false,"i_long":106.86807400000001,"is_transit":true,"distance":3395,"time":3,"line":0,"station_id":"JNG","station_name":"Jatinegara","i_lat":-6.215091},{"i_lat":-6.212485,"transit":false,"is_transit":false,"i_long":106.858896,"station_id":"MTR","line":1,"time":2,"distance":1377,"station_name":"Matraman"},{"is_transit":true,"i_long":106.84912,"station_id":"MRI","i_lat":-6.209883,"time":2,"station_name":"Manggarai","transit":true,"distance":1275,"line":0},{"transit":false,"i_lat":-6.198556,"station_name":"Cikini","distance":1590,"line":0,"is_transit":false,"station_id":"CKI","i_long":106.840169,"time":4},{"time":3,"station_name":"Gondangdia","is_transit":false,"station_id":"GDD","line":2,"i_lat":-6.186295,"distance":1750,"transit":false,"i_long":106.832183},{"station_name":"Juanda","i_lat":-6.166716,"transit":false,"time":4,"station_id":"JUA","i_long":106.828284,"line":2,"is_transit":false,"distance":2015},{"distance":1149,"station_name":"Sawah Besar","is_transit":false,"i_long":106.827103,"station_id":"SW","line":2,"i_lat":-6.160725,"transit":false,"time":2},{"station_name":"Manggabesar","transit":false,"i_long":106.82482,"i_lat":-6.149769,"distance":906,"time":2,"is_transit":false,"line":2,"station_id":"MGB"},{"time":2,"i_lat":-6.141205,"is_transit":false,"station_id":"JAY","station_name":"Jayakarta","line":7,"i_long":106.820901,"distance":1080,"transit":false},{"transit":false,"i_lat":-6.137569,"station_name":"Jakarta Kota","time":4,"distance":1264,"is_transit":true,"station_id":"JAKK","i_long":106.812439,"line":0}],[{"transit":false,"line":0,"station_name":"Buaran","time":0,"station_id":"BUA","is_transit":false,"distance":0,"i_lat":-6.215568,"i_long":106.922662},{"station_name":"Klender","is_transit":false,"time":2,"i_lat":-6.2135,"i_long":106.899548,"line":1,"transit":false,"distance":3100,"station_id":"KLD"},{"i_long":106.86807400000001,"time":3,"line":0,"station_name":"Jatinegara","transit":false,"station_id":"JNG","is_transit":true,"distance":3395,"i_lat":-6.215091},{"station_id":"MTR","is_transit":false,"station_name":"Matraman","i_long":106.858896,"line":1,"transit":false,"time":2,"distance":1377,"i_lat":-6.212485},{"i_long":106.84912,"station_id":"MRI","station_name":"Manggarai","time":2,"is_transit":true,"distance":1275,"i_lat":-6.209883,"line":0,"transit":false},{"transit":false,"line":1,"station_name":"Sudirman","is_transit":false,"station_id":"SUD","distance":3186,"time":4,"i_lat":-6.202263,"i_long":106.822649},{"i_long":106.819881,"distance":280,"is_transit":false,"line":1,"station_name":"Sudirman Baru","i_lat":-6.201433,"time":1,"station_id":"SUDB","transit":false},{"is_transit":false,"distance":471,"station_id":"KAT","i_long":106.816351,"line":1,"time":1,"station_name":"Karet","i_lat":-6.20132,"transit":false},{"station_name":"Tanah Abang","i_long":106.811091,"distance":2029,"i_lat":-6.185545,"transit":false,"line":1,"time":5,"station_id":"THB","is_transit":true},{"line":1,"station_id":"DU","station_name":"Duri","is_transit":true,"transit":true,"time":8,"i_lat":-6.155215,"i_long":106.800832,"distance":3632},{"i_lat":-6.144674,"distance":1230,"i_long":106.79867,"transit":false,"is_transit":false,"station_id":"AK","line":0,"station_name":"Angke","time":4},{"i_lat":-6.132549,"station_name":"Kampung Bandan","transit":false,"distance":4102,"station_id":"KPB","i_long":106.826365,"line":0,"time":9,"is_transit":true},{"station_id":"JAKK","transit":false,"time":3,"i_lat":-6.137569,"is_transit":true,"distance":1364,"line":0,"station_name":"Jakarta Kota","i_long":106.812439}],[{"station_name":"Buaran","i_long":106.922662,"line":0,"is_transit":false,"distance":0,"station_id":"BUA","transit":false,"time":0,"i_lat":-6.215568},{"transit":false,"station_id":"KLD","line":1,"station_name":"Klender","i_long":106.899548,"i_lat":-6.2135,"is_transit":false,"distance":3100,"time":2},{"i_lat":-6.215091,"i_long":106.86807400000001,"is_transit":true,"transit":true,"distance":3395,"station_id":"JNG","line":0,"station_name":"Jatinegara","time":3},{"line":11,"i_long":106.861737,"station_id":"POK","station_name":"Pondok Jati","is_transit":false,"i_lat":-6.209188,"distance":1236,"time":2,"transit":false},{"i_long":106.855437,"station_name":"Kramat","transit":false,"distance":1829,"line":11,"time":2,"station_id":"KMT","is_transit":false,"i_lat":-6.193792},{"distance":973,"station_name":"Gang Sentiong","is_transit":false,"station_id":"GST","i_lat":-6.185975,"i_long":106.850107,"transit":false,"line":11,"time":1},{"distance":1567,"is_transit":false,"time":8,"transit":false,"station_id":"PSE","i_long":106.84368,"i_lat":-6.174784,"line":11,"station_name":"Pasar Senen"},{"i_long":106.839204,"time":4,"transit":false,"i_lat":-6.161728,"station_id":"KMO","station_name":"Kemayoran","is_transit":false,"line":11,"distance":1436},{"time":5,"is_transit":false,"i_long":106.836569,"station_name":"Rajawali","transit":false,"distance":1901,"i_lat":-6.14505,"line":11,"station_id":"RJW"},{"time":3,"station_name":"Kampung Bandan","distance":1444,"line":0,"is_transit":true,"i_lat":-6.132549,"transit":true,"station_id":"KPB","i_long":106.826365},{"i_long":106.79867,"line":0,"is_transit":false,"station_name":"Angke","i_lat":-6.144674,"distance":4102,"transit":false,"time":9,"station_id":"AK"},{"time":4,"line":1,"station_id":"DU","is_transit":true,"transit":true,"distance":1230,"i_lat":-6.155215,"i_long":106.800832,"station_name":"Duri"},{"time":8,"line":1,"i_lat":-6.185545,"station_id":"THB","station_name":"Tanah Abang","is_transit":true,"transit":false,"distance":3632,"i_long":106.811091},{"station_id":"KAT","line":1,"i_long":106.816351,"i_lat":-6.20132,"distance":2029,"station_name":"Karet","transit":false,"is_transit":false,"time":5},{"is_transit":false,"station_name":"Sudirman Baru","time":1,"station_id":"SUDB","line":1,"i_long":106.819881,"transit":false,"i_lat":-6.201433,"distance":471},{"i_long":106.822649,"transit":false,"time":1,"i_lat":-6.202263,"station_id":"SUD","is_transit":false,"distance":280,"line":1,"station_name":"Sudirman"},{"line":0,"station_name":"Manggarai","distance":3186,"i_lat":-6.209883,"station_id":"MRI","is_transit":true,"i_long":106.84912,"time":4,"transit":true},{"station_name":"Cikini","i_lat":-6.198556,"i_long":106.840169,"station_id":"CKI","distance":1590,"transit":false,"is_transit":false,"time":4,"line":0},{"line":2,"i_lat":-6.186295,"station_name":"Gondangdia","time":3,"distance":1750,"i_long":106.832183,"station_id":"GDD","is_transit":false,"transit":false},{"time":4,"line":2,"station_id":"JUA","distance":2015,"station_name":"Juanda","transit":false,"is_transit":false,"i_lat":-6.166716,"i_long":106.828284},{"i_lat":-6.160725,"is_transit":false,"line":2,"station_name":"Sawah Besar","transit":false,"station_id":"SW","time":2,"distance":1149,"i_long":106.827103},{"is_transit":false,"station_id":"MGB","line":2,"distance":906,"time":2,"i_long":106.82482,"transit":false,"i_lat":-6.149769,"station_name":"Manggabesar"},{"i_lat":-6.141205,"line":7,"station_id":"JAY","distance":1080,"i_long":106.820901,"is_transit":false,"time":2,"station_name":"Jayakarta","transit":false},{"line":0,"station_id":"JAKK","time":4,"is_transit":true,"i_lat":-6.137569,"i_long":106.812439,"transit":false,"station_name":"Jakarta Kota","distance":1264}]]}