{"data":[[{"i_long":106.922662,"transit":false,"is_transit":false,"station_id":"BUA","time":0,"distance":0,"i_lat":-6.215568,"line":1,"station_name":"Buaran"},{"distance":3100,"i_lat":-6.2135,"is_transit":false,"time":2,"i_long":106.899548,"transit":false,"station_name":"Klender","station_id":"KLD","line":1},{"station_id":"JNG","transit":false,"station_name":"Jatinegara","is_transit":false,"i_lat":-6.215091,"line":1,"i_long":106.86807400000001,"time":3,"distance":3395},{"time":2,"distance":1377,"line":1,"station_name":"Matraman","i_lat":-6.212485,"transit":false,"i_long":106.858896,"is_transit":false,"station_id":"MTR"},{"is_transit":false,"station_id":"MRI","i_long":106.84912,"transit":false,"distance":1275,"time":2,"i_lat":-6.209883,"line":2,"station_name":"Manggarai"},{"is_transit":false,"time":4,"i_lat":-6.202263,"station_id":"SUD","line":1,"station_name":"Sudirman","i_long":106.822649,"transit":false,"distance":3186},{"is_transit":false,"time":1,"i_long":106.819881,"i_lat":-6.201433,"station_name":"Sudirman Baru","station_id":"SUDB","distance":280,"line":1,"transit":false},{"station_name":"Karet","is_transit":false,"time":1,"distance":471,"line":1,"transit":false,"station_id":"KAT","i_lat":-6.20132,"i_long":106.816351},{"station_name":"Tanah Abang","is_transit":false,"station_id":"THB","time":5,"distance":2029,"i_long":106.811091,"line":1,"i_lat":-6.185545,"transit":false},{"station_name":"Duri","i_lat":-6.155215,"i_long":106.800832,"is_transit":true,"transit":true,"station_id":"DU","line":1,"time":8,"distance":3632},{"is_transit":false,"station_name":"Grogol","transit":false,"distance":1700,"i_long":106.788277,"line":5,"time":3,"i_lat":-6.162021,"station_id":"GGL"}],[{"distance":0,"station_name":"Buaran","is_transit":false,"time":0,"i_lat":-6.215568,"line":1,"station_id":"BUA","transit":false,"i_long":106.922662},{"station_id":"KLD","distance":3100,"station_name":"Klender","i_lat":-6.2135,"i_long":106.899548,"time":2,"line":1,"is_transit":false,"transit":false},{"station_name":"Jatinegara","time":3,"transit":true,"distance":3395,"i_long":106.86807400000001,"station_id":"JNG","i_lat":-6.215091,"line":1,"is_transit":true},{"distance":1236,"i_long":106.861737,"station_id":"POK","i_lat":-6.209188,"line":11,"station_name":"Pondok Jati","is_transit":false,"time":2,"transit":false},{"station_name":"Kramat","transit":false,"line":11,"station_id":"KMT","time":2,"i_lat":-6.193792,"distance":1829,"i_long":106.855437,"is_transit":false},{"i_lat":-6.185975,"i_long":106.850107,"is_transit":false,"distance":973,"transit":false,"line":11,"station_id":"GST","station_name":"Gang Sentiong","time":1},{"transit":false,"station_id":"PSE","line":11,"distance":1567,"i_long":106.84368,"station_name":"Pasar Senen","time":8,"i_lat":-6.174784,"is_transit":false},{"station_name":"Kemayoran","i_lat":-6.161728,"station_id":"KMO","transit":false,"time":4,"line":11,"is_transit":false,"i_long":106.839204,"distance":1436},{"station_name":"Rajawali","transit":false,"i_lat":-6.14505,"i_long":106.836569,"time":5,"station_id":"RJW","line":11,"distance":1901,"is_transit":false},{"is_transit":true,"station_name":"Kampung Bandan","line":4,"time":3,"i_lat":-6.132549,"station_id":"KPB","i_long":106.826365,"transit":true,"distance":1444},{"distance":4102,"i_long":106.79867,"line":1,"station_name":"Angke","transit":false,"i_lat":-6.144674,"station_id":"AK","time":9,"is_transit":false},{"transit":true,"is_transit":true,"i_long":106.800832,"time":4,"distance":1230,"i_lat":-6.155215,"station_name":"Duri","line":1,"station_id":"DU"},{"station_id":"GGL","i_long":106.788277,"station_name":"Grogol","line":5,"is_transit":false,"transit":false,"time":3,"i_lat":-6.162021,"distance":1700}],[{"station_name":"Buaran","station_id":"BUA","time":0,"i_lat":-6.215568,"line":1,"transit":false,"distance":0,"i_long":106.922662,"is_transit":false},{"i_lat":-6.2135,"is_transit":false,"distance":3100,"station_id":"KLD","time":2,"station_name":"Klender","transit":false,"i_long":106.899548,"line":1},{"distance":3395,"i_long":106.86807400000001,"line":1,"is_transit":false,"station_id":"JNG","i_lat":-6.215091,"time":3,"transit":false,"station_name":"Jatinegara"},{"distance":1377,"i_lat":-6.212485,"i_long":106.858896,"transit":false,"station_name":"Matraman","station_id":"MTR","line":1,"is_transit":false,"time":2},{"i_long":106.84912,"distance":1275,"transit":true,"line":2,"is_transit":true,"station_id":"MRI","i_lat":-6.209883,"time":2,"station_name":"Manggarai"},{"is_transit":false,"distance":1590,"transit":false,"line":2,"time":4,"i_lat":-6.198556,"station_id":"CKI","station_name":"Cikini","i_long":106.840169},{"distance":1750,"station_name":"Gondangdia","time":3,"i_lat":-6.186295,"is_transit":false,"station_id":"GDD","i_long":106.832183,"transit":false,"line":2},{"i_lat":-6.166716,"is_transit":false,"transit":false,"line":2,"distance":2015,"time":4,"station_name":"Juanda","i_long":106.828284,"station_id":"JUA"},{"time":2,"i_lat":-6.160725,"line":2,"distance":1149,"station_id":"SW","i_long":106.827103,"station_name":"Sawah Besar","is_transit":false,"transit":false},{"is_transit":false,"line":2,"station_id":"MGB","time":2,"station_name":"Manggabesar","distance":906,"i_long":106.82482,"transit":false,"i_lat":-6.149769},{"transit":false,"station_name":"Jayakarta","is_transit":false,"station_id":"JAY","i_lat":-6.141205,"i_long":106.820901,"time":2,"distance":1080,"line":2},{"transit":true,"i_lat":-6.137569,"i_long":106.812439,"is_transit":true,"station_id":"JAKK","distance":1264,"time":4,"line":2,"station_name":"Jakarta Kota"},{"transit":true,"station_name":"Kampung Bandan","line":4,"is_transit":true,"i_long":106.826365,"i_lat":-6.132549,"time":3,"distance":1364,"station_id":"KPB"},{"i_long":106.79867,"transit":false,"time":9,"i_lat":-6.144674,"distance":4102,"is_transit":false,"line":1,"station_id":"AK","station_name":"Angke"},{"i_lat":-6.155215,"i_long":106.800832,"is_transit":true,"station_id":"DU","line":1,"transit":true,"distance":1230,"station_name":"Duri","time":4},{"station_name":"Grogol","i_long":106.788277,"line":5,"transit":false,"is_transit":false,"distance":1700,"i_lat":-6.162021,"time":3,"station_id":"GGL"}],[{"i_lat":-6.215568,"is_transit":false,"transit":false,"line":1,"distance":0,"time":0,"station_id":"BUA","i_long":106.922662,"station_name":"Buaran"},{"transit":false,"station_id":"KLD","is_transit":false,"i_lat":-6.2135,"line":1,"time":2,"i_long":106.899548,"distance":3100,"station_name":"Klender"},{"i_lat":-6.215091,"i_long":106.86807400000001,"distance":3395,"line":1,"is_transit":true,"time":3,"station_id":"JNG","transit":true,"station_name":"Jatinegara"},{"i_long":106.861737,"is_transit":false,"station_name":"Pondok Jati","station_id":"POK","time":2,"distance":1236,"i_lat":-6.209188,"line":11,"transit":false},{"station_name":"Kramat","line":11,"time":2,"distance":1829,"i_long":106.855437,"is_transit":false,"transit":false,"station_id":"KMT","i_lat":-6.193792},{"time":1,"line":11,"distance":973,"i_long":106.850107,"station_id":"GST","is_transit":false,"station_name":"Gang Sentiong","i_lat":-6.185975,"transit":false},{"distance":1567,"station_id":"PSE","time":8,"i_long":106.84368,"i_lat":-6.174784,"station_name":"Pasar Senen","transit":false,"is_transit":false,"line":11},{"time":4,"station_id":"KMO","station_name":"Kemayoran","is_transit":false,"distance":1436,"line":11,"transit":false,"i_long":106.839204,"i_lat":-6.161728},{"is_transit":false,"transit":false,"station_id":"RJW","line":11,"time":5,"distance":1901,"i_lat":-6.14505,"i_long":106.836569,"station_name":"Rajawali"},{"distance":1444,"station_name":"Kampung Bandan","time":3,"i_lat":-6.132549,"line":4,"transit":true,"is_transit":true,"station_id":"KPB","i_long":106.826365},{"station_id":"JAKK","i_long":106.812439,"time":3,"line":2,"transit":true,"is_transit":true,"i_lat":-6.137569,"station_name":"Jakarta Kota","distance":1364},{"transit":false,"station_id":"JAY","i_lat":-6.141205,"i_long":106.820901,"is_transit":false,"time":4,"station_name":"Jayakarta","line":2,"distance":1264},{"station_id":"MGB","transit":false,"distance":1080,"station_name":"Manggabesar","line":2,"time":2,"is_transit":false,"i_lat":-6.149769,"i_long":106.82482},{"i_long":106.827103,"station_id":"SW","transit":false,"is_transit":false,"station_name":"Sawah Besar","distance":906,"line":2,"time":2,"i_lat":-6.160725},{"distance":1149,"i_lat":-6.166716,"transit":false,"time":2,"station_id":"JUA","i_long":106.828284,"line":2,"is_transit":false,"station_name":"Juanda"},{"transit":false,"line":2,"time":4,"station_id":"GDD","i_long":106.832183,"is_transit":false,"station_name":"Gondangdia","i_lat":-6.186295,"distance":2015},{"time":3,"line":2,"station_id":"CKI","transit":false,"is_transit":false,"station_name":"Cikini","i_lat":-6.198556,"i_long":106.840169,"distance":1750},{"line":2,"time":4,"station_name":"Manggarai","is_transit":true,"transit":true,"distance":1590,"i_lat":-6.209883,"i_long":106.84912,"station_id":"MRI"},{"i_long":106.822649,"i_lat":-6.202263,"line":1,"transit":false,"station_id":"SUD","distance":3186,"is_transit":false,"station_name":"Sudirman","time":4},{"distance":280,"transit":false,"station_name":"Sudirman Baru","station_id":"SUDB","i_lat":-6.201433,"is_transit":false,"time":1,"line":1,"i_long":106.819881},{"time":1,"is_transit":false,"transit":false,"station_id":"KAT","station_name":"Karet","i_lat":-6.20132,"line":1,"i_long":106.816351,"distance":471},{"transit":false,"time":5,"i_long":106.811091,"line":1,"station_id":"THB","distance":2029,"i_lat":-6.185545,"is_transit":false,"station_name":"Tanah Abang"},{"is_transit":true,"distance":3632,"i_long":106.800832,"i_lat":-6.155215,"line":1,"station_id":"DU","station_name":"Duri","transit":true,"time":8},{"transit":false,"station_name":"Grogol","i_long":106.788277,"time":3,"station_id":"GGL","is_transit":false,"distance":1700,"line":5,"i_lat":-6.162021}]]}