{"data":[[{"is_transit":false,"time":0,"distance":0,"transit":false,"i_long":106.922662,"station_id":"BUA","station_name":"Buaran","line":1,"i_lat":-6.215568},{"i_lat":-6.2135,"transit":false,"station_name":"Klender","line":1,"i_long":106.899548,"distance":3100,"is_transit":false,"station_id":"KLD","time":2},{"is_transit":false,"station_id":"JNG","i_long":106.86807400000001,"i_lat":-6.215091,"distance":3395,"transit":false,"time":3,"line":1,"station_name":"Jatinegara"},{"i_lat":-6.212485,"line":1,"i_long":106.858896,"time":2,"station_id":"MTR","is_transit":false,"station_name":"Matraman","distance":1377,"transit":false},{"transit":true,"i_lat":-6.209883,"distance":1275,"station_name":"Manggarai","line":2,"is_transit":true,"station_id":"MRI","i_long":106.84912,"time":2},{"station_name":"Cikini","transit":false,"is_transit":false,"line":2,"distance":1590,"i_lat":-6.198556,"time":4,"station_id":"CKI","i_long":106.840169}],[{"line":1,"station_name":"Buaran","time":0,"station_id":"BUA","distance":0,"i_long":106.922662,"transit":false,"is_transit":false,"i_lat":-6.215568},{"time":2,"distance":3100,"i_long":106.899548,"station_name":"Klender","transit":false,"line":1,"i_lat":-6.2135,"is_transit":false,"station_id":"KLD"},{"distance":3395,"i_long":106.86807400000001,"time":3,"is_transit":true,"station_id":"JNG","transit":true,"line":1,"station_name":"Jatinegara","i_lat":-6.215091},{"time":2,"line":11,"i_long":106.861737,"transit":false,"i_lat":-6.209188,"station_name":"Pondok Jati","station_id":"POK","is_transit":false,"distance":1236},{"is_transit":false,"i_long":106.855437,"transit":false,"i_lat":-6.193792,"line":11,"station_name":"Kramat","station_id":"KMT","time":2,"distance":1829},{"i_lat":-6.185975,"transit":false,"station_name":"Gang Sentiong","distance":973,"i_long":106.850107,"line":11,"is_transit":false,"station_id":"GST","time":1},{"line":11,"station_name":"Pasar Senen","time":8,"i_long":106.84368,"transit":false,"station_id":"PSE","distance":1567,"i_lat":-6.174784,"is_transit":false},{"i_lat":-6.161728,"line":11,"is_transit":false,"time":4,"transit":false,"distance":1436,"i_long":106.839204,"station_id":"KMO","station_name":"Kemayoran"},{"i_lat":-6.14505,"line":11,"is_transit":false,"i_long":106.836569,"station_name":"Rajawali","distance":1901,"time":5,"transit":false,"station_id":"RJW"},{"time":3,"transit":true,"is_transit":true,"line":4,"station_id":"KPB","i_long":106.826365,"distance":1444,"i_lat":-6.132549,"station_name":"Kampung Bandan"},{"transit":true,"time":3,"station_id":"JAKK","distance":1364,"i_lat":-6.137569,"i_long":106.812439,"is_transit":true,"line":2,"station_name":"Jakarta Kota"},{"station_name":"Jayakarta","transit":false,"time":4,"station_id":"JAY","i_lat":-6.141205,"i_long":106.820901,"line":2,"is_transit":false,"distance":1264},{"station_name":"Manggabesar","station_id":"MGB","line":2,"time":2,"distance":1080,"transit":false,"i_lat":-6.149769,"i_long":106.82482,"is_transit":false},{"is_transit":false,"transit":false,"i_lat":-6.160725,"station_id":"SW","i_long":106.827103,"distance":906,"time":2,"line":2,"station_name":"Sawah Besar"},{"station_id":"JUA","i_lat":-6.166716,"transit":false,"is_transit":false,"time":2,"distance":1149,"i_long":106.828284,"line":2,"station_name":"Juanda"},{"station_id":"GDD","distance":2015,"transit":false,"i_lat":-6.186295,"time":4,"is_transit":false,"i_long":106.832183,"line":2,"station_name":"Gondangdia"},{"time":3,"station_id":"CKI","station_name":"Cikini","transit":false,"i_long":106.840169,"i_lat":-6.198556,"distance":1750,"is_transit":false,"line":2}],[{"station_id":"BUA","time":0,"is_transit":false,"i_lat":-6.215568,"i_long":106.922662,"station_name":"Buaran","distance":0,"transit":false,"line":1},{"station_id":"KLD","station_name":"Klender","i_lat":-6.2135,"is_transit":false,"i_long":106.899548,"time":2,"line":1,"distance":3100,"transit":false},{"time":3,"i_long":106.86807400000001,"station_name":"Jatinegara","distance":3395,"is_transit":true,"station_id":"JNG","line":1,"transit":true,"i_lat":-6.215091},{"transit":false,"line":11,"is_transit":false,"distance":1236,"i_lat":-6.209188,"station_name":"Pondok Jati","station_id":"POK","i_long":106.861737,"time":2},{"station_name":"Kramat","i_lat":-6.193792,"is_transit":false,"time":2,"distance":1829,"station_id":"KMT","transit":false,"i_long":106.855437,"line":11},{"station_id":"GST","station_name":"Gang Sentiong","transit":false,"is_transit":false,"i_lat":-6.185975,"i_long":106.850107,"line":11,"distance":973,"time":1},{"line":11,"distance":1567,"station_name":"Pasar Senen","transit":false,"is_transit":false,"i_lat":-6.174784,"i_long":106.84368,"time":8,"station_id":"PSE"},{"is_transit":false,"time":4,"distance":1436,"transit":false,"station_name":"Kemayoran","i_lat":-6.161728,"station_id":"KMO","i_long":106.839204,"line":11},{"is_transit":false,"line":11,"i_lat":-6.14505,"distance":1901,"i_long":106.836569,"time":5,"station_id":"RJW","station_name":"Rajawali","transit":false},{"i_long":106.826365,"line":4,"transit":true,"time":3,"i_lat":-6.132549,"station_name":"Kampung Bandan","is_transit":true,"station_id":"KPB","distance":1444},{"distance":4102,"i_long":106.79867,"line":1,"transit":false,"is_transit":false,"station_name":"Angke","station_id":"AK","time":9,"i_lat":-6.144674},{"i_lat":-6.155215,"distance":1230,"is_transit":false,"time":4,"station_id":"DU","line":1,"transit":false,"station_name":"Duri","i_long":106.800832},{"station_id":"THB","distance":3632,"i_long":106.811091,"is_transit":false,"station_name":"Tanah Abang","time":8,"transit":false,"i_lat":-6.185545,"line":1},{"i_lat":-6.20132,"i_long":106.816351,"station_name":"Karet","transit":false,"is_transit":false,"line":1,"station_id":"KAT","time":5,"distance":2029},{"station_id":"SUDB","i_long":106.819881,"station_name":"Sudirman Baru","time":1,"is_transit":false,"distance":471,"i_lat":-6.201433,"transit":false,"line":1},{"station_name":"Sudirman","distance":280,"station_id":"SUD","transit":false,"i_lat":-6.202263,"time":1,"i_long":106.822649,"line":1,"is_transit":false},{"i_long":106.84912,"distance":3186,"station_id":"MRI","is_transit":true,"station_name":"Manggarai","transit":true,"line":2,"time":4,"i_lat":-6.209883},{"station_id":"CKI","distance":1590,"transit":false,"i_lat":-6.198556,"is_transit":false,"line":2,"time":4,"i_long":106.840169,"station_name":"Cikini"}],[{"line":1,"distance":0,"station_id":"BUA","i_long":106.922662,"i_lat":-6.215568,"is_transit":false,"station_name":"Buaran","time":0,"transit":false},{"line":1,"station_name":"Klender","i_lat":-6.2135,"i_long":106.899548,"is_transit":false,"transit":false,"station_id":"KLD","time":2,"distance":3100},{"station_id":"JNG","i_long":106.86807400000001,"line":1,"time":3,"transit":false,"i_lat":-6.215091,"is_transit":false,"station_name":"Jatinegara","distance":3395},{"station_name":"Matraman","distance":1377,"transit":false,"is_transit":false,"station_id":"MTR","line":1,"time":2,"i_long":106.858896,"i_lat":-6.212485},{"distance":1275,"station_name":"Manggarai","is_transit":false,"station_id":"MRI","time":2,"transit":false,"i_lat":-6.209883,"line":2,"i_long":106.84912},{"is_transit":false,"i_lat":-6.202263,"i_long":106.822649,"transit":false,"time":4,"distance":3186,"station_name":"Sudirman","station_id":"SUD","line":1},{"is_transit":false,"distance":280,"station_id":"SUDB","station_name":"Sudirman Baru","i_lat":-6.201433,"time":1,"transit":false,"i_long":106.819881,"line":1},{"station_name":"Karet","is_transit":false,"transit":false,"i_long":106.816351,"distance":471,"i_lat":-6.20132,"station_id":"KAT","line":1,"time":1},{"i_long":106.811091,"line":1,"station_name":"Tanah Abang","i_lat":-6.185545,"is_transit":false,"transit":false,"time":5,"station_id":"THB","distance":2029},{"is_transit":false,"i_lat":-6.155215,"station_name":"Duri","distance":3632,"i_long":106.800832,"line":1,"station_id":"DU","time":8,"transit":false},{"line":1,"is_transit":false,"station_id":"AK","i_lat":-6.144674,"station_name":"Angke","time":4,"distance":1230,"transit":false,"i_long":106.79867},{"is_transit":true,"line":4,"time":9,"i_lat":-6.132549,"i_long":106.826365,"station_name":"Kampung Bandan","transit":true,"distance":4102,"station_id":"KPB"},{"distance":1364,"i_lat":-6.137569,"transit":true,"line":2,"station_name":"Jakarta Kota","i_long":106.812439,"is_transit":true,"time":3,"station_id":"JAKK"},{"is_transit":false,"distance":1264,"transit":false,"line":2,"station_name":"Jayakarta","time":4,"station_id":"JAY","i_lat":-6.141205,"i_long":106.820901},{"time":2,"i_long":106.82482,"transit":false,"station_id":"MGB","line":2,"distance":1080,"station_name":"Manggabesar","i_lat":-6.149769,"is_transit":false},{"i_long":106.827103,"time":2,"transit":false,"station_id":"SW","is_transit":false,"i_lat":-6.160725,"line":2,"distance":906,"station_name":"Sawah Besar"},{"transit":false,"line":2,"station_id":"JUA","is_transit":false,"station_name":"Juanda","i_lat":-6.166716,"distance":1149,"time":2,"i_long":106.828284},{"station_id":"GDD","station_name":"Gondangdia","transit":false,"time":4,"i_long":106.832183,"is_transit":false,"i_lat":-6.186295,"distance":2015,"line":2},{"is_transit":false,"transit":false,"i_long":106.840169,"time":3,"i_lat":-6.198556,"station_id":"CKI","station_name":"Cikini","distance":1750,"line":2}]]}