{"data":[[{"station_name":"Buaran","distance":0,"time":0,"i_long":106.922662,"line":0,"transit":false,"i_lat":-6.215568,"station_id":"BUA","is_transit":false},{"time":2,"station_id":"KLD","station_name":"Klender","distance":3100,"i_lat":-6.2135,"i_long":106.899548,"is_transit":false,"line":1,"transit":false},{"i_long":106.86807400000001,"time":3,"is_transit":true,"i_lat":-6.215091,"station_name":"Jatinegara","distance":3395,"transit":false,"line":0,"station_id":"JNG"},{"transit":false,"is_transit":false,"i_long":106.858896,"line":1,"station_id":"MTR","distance":1377,"station_name":"Matraman","time":2,"i_lat":-6.212485},{"station_id":"MRI","line":0,"transit":true,"time":2,"station_name":"Manggarai","i_lat":-6.209883,"i_long":106.84912,"is_transit":true,"distance":1275},{"transit":false,"station_id":"TEB","is_transit":false,"time":4,"line":2,"distance":2610,"station_name":"Tebet","i_lat":-6.226659,"i_long":106.857948},{"transit":false,"station_id":"CW","time":2,"distance":1230,"i_long":106.856607,"line":0,"i_lat":-6.242512,"station_name":"Cawang","is_transit":false},{"line":0,"distance":1546,"station_name":"Duren Kalibata","transit":false,"i_long":106.85449,"is_transit":false,"station_id":"DRN","time":3,"i_lat":-6.255332},{"station_name":"Pasar Minggu Baru","transit":false,"i_long":106.851577,"is_transit":false,"distance":824,"time":2,"station_id":"PSMB","i_lat":-6.263214,"line":2}],[{"time":0,"i_lat":-6.215568,"distance":0,"transit":false,"station_id":"BUA","i_long":106.922662,"line":0,"station_name":"Buaran","is_transit":false},{"is_transit":false,"i_long":106.899548,"station_id":"KLD","line":1,"distance":3100,"i_lat":-6.2135,"station_name":"Klender","time":2,"transit":false},{"i_lat":-6.215091,"i_long":106.86807400000001,"station_name":"Jatinegara","time":3,"transit":true,"distance":3395,"station_id":"JNG","is_transit":true,"line":0},{"station_name":"Pondok Jati","distance":1236,"is_transit":false,"line":11,"transit":false,"i_lat":-6.209188,"station_id":"POK","i_long":106.861737,"time":2},{"transit":false,"station_id":"KMT","i_lat":-6.193792,"i_long":106.855437,"line":11,"distance":1829,"station_name":"Kramat","time":2,"is_transit":false},{"transit":false,"i_long":106.850107,"station_id":"GST","line":11,"is_transit":false,"distance":973,"station_name":"Gang Sentiong","time":1,"i_lat":-6.185975},{"line":11,"time":8,"transit":false,"is_transit":false,"distance":1567,"station_name":"Pasar Senen","i_long":106.84368,"station_id":"PSE","i_lat":-6.174784},{"station_id":"KMO","time":4,"distance":1436,"i_lat":-6.161728,"i_long":106.839204,"line":11,"is_transit":false,"station_name":"Kemayoran","transit":false},{"station_id":"RJW","i_lat":-6.14505,"time":5,"i_long":106.836569,"station_name":"Rajawali","transit":false,"distance":1901,"is_transit":false,"line":11},{"time":3,"i_long":106.826365,"station_name":"Kampung Bandan","is_transit":true,"line":0,"transit":true,"i_lat":-6.132549,"distance":1444,"station_id":"KPB"},{"i_long":106.79867,"station_id":"AK","time":9,"transit":false,"i_lat":-6.144674,"is_transit":false,"distance":4102,"line":0,"station_name":"Angke"},{"is_transit":true,"transit":true,"station_id":"DU","time":4,"i_long":106.800832,"line":1,"distance":1230,"i_lat":-6.155215,"station_name":"Duri"},{"station_id":"THB","station_name":"Tanah Abang","distance":3632,"i_lat":-6.185545,"is_transit":true,"transit":false,"time":8,"line":1,"i_long":106.811091},{"transit":false,"distance":2029,"is_transit":false,"station_id":"KAT","line":1,"i_lat":-6.20132,"i_long":106.816351,"station_name":"Karet","time":5},{"transit":false,"line":1,"time":1,"is_transit":false,"i_long":106.819881,"station_id":"SUDB","station_name":"Sudirman Baru","distance":471,"i_lat":-6.201433},{"is_transit":false,"distance":280,"transit":false,"station_id":"SUD","station_name":"Sudirman","i_long":106.822649,"line":1,"time":1,"i_lat":-6.202263},{"time":4,"distance":3186,"transit":true,"i_lat":-6.209883,"line":0,"station_name":"Manggarai","station_id":"MRI","is_transit":true,"i_long":106.84912},{"line":2,"station_name":"Tebet","transit":false,"is_transit":false,"distance":2610,"station_id":"TEB","time":4,"i_lat":-6.226659,"i_long":106.857948},{"time":2,"transit":false,"distance":1230,"line":0,"i_long":106.856607,"i_lat":-6.242512,"station_id":"CW","station_name":"Cawang","is_transit":false},{"distance":1546,"line":0,"transit":false,"station_name":"Duren Kalibata","is_transit":false,"time":3,"i_lat":-6.255332,"i_long":106.85449,"station_id":"DRN"},{"i_lat":-6.263214,"time":2,"station_id":"PSMB","distance":824,"transit":false,"station_name":"Pasar Minggu Baru","line":2,"is_transit":false,"i_long":106.851577}],[{"transit":false,"line":0,"i_lat":-6.215568,"i_long":106.922662,"distance":0,"station_name":"Buaran","station_id":"BUA","is_transit":false,"time":0},{"is_transit":false,"distance":3100,"transit":false,"station_name":"Klender","time":2,"i_lat":-6.2135,"i_long":106.899548,"line":1,"station_id":"KLD"},{"i_lat":-6.215091,"station_id":"JNG","transit":true,"line":0,"is_transit":true,"time":3,"distance":3395,"station_name":"Jatinegara","i_long":106.86807400000001},{"distance":1236,"station_name":"Pondok Jati","i_lat":-6.209188,"i_long":106.861737,"transit":false,"station_id":"POK","time":2,"is_transit":false,"line":11},{"distance":1829,"transit":false,"i_long":106.855437,"line":11,"time":2,"station_id":"KMT","station_name":"Kramat","i_lat":-6.193792,"is_transit":false},{"transit":false,"station_id":"GST","is_transit":false,"time":1,"distance":973,"station_name":"Gang Sentiong","i_lat":-6.185975,"i_long":106.850107,"line":11},{"station_id":"PSE","i_lat":-6.174784,"is_transit":false,"station_name":"Pasar Senen","distance":1567,"i_long":106.84368,"transit":false,"time":8,"line":11},{"distance":1436,"transit":false,"i_lat":-6.161728,"station_name":"Kemayoran","time":4,"i_long":106.839204,"is_transit":false,"line":11,"station_id":"KMO"},{"transit":false,"station_name":"Rajawali","i_long":106.836569,"distance":1901,"station_id":"RJW","i_lat":-6.14505,"is_transit":false,"line":11,"time":5},{"line":0,"station_id":"KPB","i_lat":-6.132549,"i_long":106.826365,"time":3,"distance":1444,"station_name":"Kampung Bandan","is_transit":true,"transit":true},{"is_transit":true,"station_id":"JAKK","station_name":"Jakarta Kota","i_long":106.812439,"distance":1364,"time":3,"line":0,"transit":true,"i_lat":-6.137569},{"station_id":"JAY","transit":false,"i_lat":-6.141205,"line":7,"distance":1264,"station_name":"Jayakarta","is_transit":false,"i_long":106.820901,"time":4},{"distance":1080,"i_lat":-6.149769,"station_name":"Manggabesar","station_id":"MGB","is_transit":false,"time":2,"transit":false,"i_long":106.82482,"line":2},{"station_id":"SW","distance":906,"i_lat":-6.160725,"i_long":106.827103,"is_transit":false,"transit":false,"time":2,"line":2,"station_name":"Sawah Besar"},{"station_id":"JUA","time":2,"i_lat":-6.166716,"line":2,"station_name":"Juanda","distance":1149,"is_transit":false,"transit":false,"i_long":106.828284},{"station_id":"GDD","time":4,"distance":2015,"is_transit":false,"i_lat":-6.186295,"i_long":106.832183,"station_name":"Gondangdia","line":2,"transit":false},{"station_name":"Cikini","i_long":106.840169,"time":3,"distance":1750,"line":0,"transit":false,"is_transit":false,"station_id":"CKI","i_lat":-6.198556},{"station_id":"MRI","is_transit":true,"time":4,"i_long":106.84912,"distance":1590,"transit":true,"line":0,"i_lat":-6.209883,"station_name":"Manggarai"},{"i_long":106.857948,"distance":2610,"station_id":"TEB","i_lat":-6.226659,"is_transit":false,"transit":false,"station_name":"Tebet","line":2,"time":4},{"station_name":"Cawang","transit":false,"time":2,"is_transit":false,"distance":1230,"station_id":"CW","i_lat":-6.242512,"line":0,"i_long":106.856607},{"transit":false,"distance":1546,"time":3,"station_id":"DRN","station_name":"Duren Kalibata","i_lat":-6.255332,"i_long":106.85449,"line":0,"is_transit":false},{"station_id":"PSMB","i_lat":-6.263214,"is_transit":false,"time":2,"distance":824,"i_long":106.851577,"line":2,"station_name":"Pasar Minggu Baru","transit":false}]]}