{"data":[[{"time":0,"is_transit":false,"distance":0,"station_name":"Buaran","station_id":"BUA","transit":false,"i_long":106.922662,"i_lat":-6.215568,"line":1},{"transit":false,"i_long":106.899548,"line":1,"time":2,"i_lat":-6.2135,"distance":3100,"is_transit":false,"station_id":"KLD","station_name":"Klender"},{"i_lat":-6.215091,"distance":3395,"transit":false,"station_name":"Jatinegara","time":3,"i_long":106.86807400000001,"station_id":"JNG","line":1,"is_transit":false},{"i_lat":-6.212485,"time":2,"distance":1377,"transit":false,"station_name":"Matraman","i_long":106.858896,"line":1,"is_transit":false,"station_id":"MTR"},{"time":2,"transit":true,"is_transit":true,"i_lat":-6.209883,"i_long":106.84912,"station_id":"MRI","line":2,"station_name":"Manggarai","distance":1275},{"i_lat":-6.226659,"station_name":"Tebet","time":4,"is_transit":false,"station_id":"TEB","i_long":106.857948,"line":2,"transit":false,"distance":2610},{"line":2,"time":2,"i_long":106.856607,"distance":1230,"station_name":"Cawang","transit":false,"is_transit":false,"station_id":"CW","i_lat":-6.242512}],[{"station_id":"BUA","line":1,"is_transit":false,"transit":false,"distance":0,"station_name":"Buaran","time":0,"i_long":106.922662,"i_lat":-6.215568},{"i_lat":-6.2135,"station_id":"KLD","line":1,"distance":3100,"is_transit":false,"time":2,"transit":false,"i_long":106.899548,"station_name":"Klender"},{"transit":true,"station_id":"JNG","line":1,"is_transit":true,"station_name":"Jatinegara","i_lat":-6.215091,"distance":3395,"i_long":106.86807400000001,"time":3},{"distance":1236,"station_name":"Pondok Jati","transit":false,"i_lat":-6.209188,"time":2,"i_long":106.861737,"line":11,"is_transit":false,"station_id":"POK"},{"station_id":"KMT","time":2,"i_lat":-6.193792,"is_transit":false,"distance":1829,"transit":false,"line":11,"i_long":106.855437,"station_name":"Kramat"},{"station_name":"Gang Sentiong","transit":false,"distance":973,"line":11,"i_long":106.850107,"station_id":"GST","time":1,"is_transit":false,"i_lat":-6.185975},{"i_lat":-6.174784,"distance":1567,"station_name":"Pasar Senen","line":11,"time":8,"station_id":"PSE","i_long":106.84368,"is_transit":false,"transit":false},{"station_id":"KMO","time":4,"distance":1436,"i_lat":-6.161728,"transit":false,"line":11,"station_name":"Kemayoran","i_long":106.839204,"is_transit":false},{"station_id":"RJW","i_long":106.836569,"time":5,"distance":1901,"line":11,"transit":false,"is_transit":false,"station_name":"Rajawali","i_lat":-6.14505},{"i_lat":-6.132549,"is_transit":true,"line":4,"station_id":"KPB","distance":1444,"transit":true,"station_name":"Kampung Bandan","time":3,"i_long":106.826365},{"transit":false,"i_long":106.79867,"i_lat":-6.144674,"is_transit":false,"station_name":"Angke","distance":4102,"time":9,"station_id":"AK","line":1},{"is_transit":false,"station_id":"DU","station_name":"Duri","distance":1230,"line":1,"time":4,"i_lat":-6.155215,"transit":false,"i_long":106.800832},{"station_name":"Tanah Abang","time":8,"transit":false,"i_lat":-6.185545,"station_id":"THB","distance":3632,"i_long":106.811091,"line":1,"is_transit":false},{"i_lat":-6.20132,"transit":false,"i_long":106.816351,"line":1,"is_transit":false,"station_name":"Karet","station_id":"KAT","time":5,"distance":2029},{"station_name":"Sudirman Baru","i_lat":-6.201433,"station_id":"SUDB","distance":471,"is_transit":false,"transit":false,"line":1,"i_long":106.819881,"time":1},{"i_long":106.822649,"is_transit":false,"i_lat":-6.202263,"station_name":"Sudirman","time":1,"distance":280,"line":1,"station_id":"SUD","transit":false},{"line":2,"is_transit":true,"station_name":"Manggarai","distance":3186,"time":4,"transit":true,"station_id":"MRI","i_long":106.84912,"i_lat":-6.209883},{"line":2,"i_long":106.857948,"distance":2610,"time":4,"i_lat":-6.226659,"is_transit":false,"station_id":"TEB","station_name":"Tebet","transit":false},{"time":2,"station_id":"CW","transit":false,"is_transit":false,"station_name":"Cawang","line":2,"distance":1230,"i_lat":-6.242512,"i_long":106.856607}],[{"i_lat":-6.215568,"is_transit":false,"station_name":"Buaran","distance":0,"station_id":"BUA","line":1,"i_long":106.922662,"time":0,"transit":false},{"distance":3100,"station_name":"Klender","station_id":"KLD","time":2,"is_transit":false,"transit":false,"i_lat":-6.2135,"line":1,"i_long":106.899548},{"time":3,"distance":3395,"i_lat":-6.215091,"i_long":106.86807400000001,"is_transit":true,"station_name":"Jatinegara","station_id":"JNG","line":1,"transit":true},{"i_lat":-6.209188,"line":11,"is_transit":false,"transit":false,"time":2,"station_name":"Pondok Jati","station_id":"POK","distance":1236,"i_long":106.861737},{"time":2,"i_lat":-6.193792,"station_id":"KMT","transit":false,"is_transit":false,"i_long":106.855437,"line":11,"station_name":"Kramat","distance":1829},{"line":11,"transit":false,"i_lat":-6.185975,"time":1,"station_name":"Gang Sentiong","i_long":106.850107,"distance":973,"station_id":"GST","is_transit":false},{"distance":1567,"i_long":106.84368,"is_transit":false,"transit":false,"time":8,"station_id":"PSE","line":11,"i_lat":-6.174784,"station_name":"Pasar Senen"},{"time":4,"station_name":"Kemayoran","line":11,"station_id":"KMO","transit":false,"i_lat":-6.161728,"is_transit":false,"distance":1436,"i_long":106.839204},{"distance":1901,"transit":false,"i_lat":-6.14505,"i_long":106.836569,"line":11,"time":5,"is_transit":false,"station_name":"Rajawali","station_id":"RJW"},{"is_transit":true,"line":4,"station_id":"KPB","i_long":106.826365,"distance":1444,"transit":true,"time":3,"station_name":"Kampung Bandan","i_lat":-6.132549},{"station_id":"JAKK","i_long":106.812439,"station_name":"Jakarta Kota","time":3,"distance":1364,"is_transit":true,"i_lat":-6.137569,"line":2,"transit":true},{"transit":false,"i_lat":-6.141205,"is_transit":false,"line":2,"station_id":"JAY","station_name":"Jayakarta","distance":1264,"i_long":106.820901,"time":4},{"i_long":106.82482,"time":2,"station_id":"MGB","i_lat":-6.149769,"line":2,"is_transit":false,"transit":false,"distance":1080,"station_name":"Manggabesar"},{"time":2,"i_lat":-6.160725,"line":2,"distance":906,"i_long":106.827103,"is_transit":false,"station_name":"Sawah Besar","station_id":"SW","transit":false},{"time":2,"distance":1149,"transit":false,"i_long":106.828284,"station_id":"JUA","i_lat":-6.166716,"is_transit":false,"line":2,"station_name":"Juanda"},{"transit":false,"station_name":"Gondangdia","is_transit":false,"line":2,"time":4,"station_id":"GDD","i_lat":-6.186295,"distance":2015,"i_long":106.832183},{"time":3,"station_id":"CKI","distance":1750,"is_transit":false,"i_lat":-6.198556,"i_long":106.840169,"station_name":"Cikini","transit":false,"line":2},{"station_id":"MRI","transit":false,"i_lat":-6.209883,"i_long":106.84912,"line":2,"station_name":"Manggarai","is_transit":false,"time":4,"distance":1590},{"station_name":"Tebet","transit":false,"i_long":106.857948,"line":2,"distance":2610,"is_transit":false,"time":4,"station_id":"TEB","i_lat":-6.226659},{"i_long":106.856607,"line":2,"transit":false,"station_name":"Cawang","station_id":"CW","distance":1230,"is_transit":false,"time":2,"i_lat":-6.242512}]]}