{"data":[[{"line":1,"i_lat":-6.215568,"station_name":"Buaran","station_id":"BUA","distance":0,"time":0,"is_transit":false,"i_long":106.922662,"transit":false},{"is_transit":false,"line":1,"i_lat":-6.217455,"time":1,"distance":1305,"station_id":"KLDB","transit":false,"i_long":106.939679,"station_name":"Klenderbaru"},{"station_name":"Cakung","is_transit":false,"i_long":106.951283,"i_lat":-6.219053,"station_id":"CUK","line":1,"transit":false,"time":8,"distance":1385},{"i_lat":-6.224515,"transit":false,"time":3,"i_long":106.977657,"station_id":"KRI","line":1,"station_name":"Kranji","is_transit":false,"distance":3097},{"i_lat":-6.236616,"is_transit":false,"time":4,"station_name":"Bekasi","distance":2520,"i_long":106.997013,"line":1,"transit":false,"station_id":"BKS"},{"station_name":"Bekasi Timur","transit":false,"distance":2368,"time":2,"i_lat":-6.248029,"station_id":"BKST","i_long":107.016735,"line":1,"is_transit":false},{"station_name":"Tambun","is_transit":false,"distance":4460,"i_lat":-6.258864,"i_long":107.055722,"time":7,"line":1,"transit":false,"station_id":"TB"}]]}