{"data":[[{"transit":false,"i_long":106.922662,"time":0,"is_transit":false,"line":1,"distance":0,"station_name":"Buaran","i_lat":-6.215568,"station_id":"BUA"},{"is_transit":false,"transit":false,"time":2,"i_lat":-6.2135,"distance":3100,"station_name":"Klender","line":1,"i_long":106.899548,"station_id":"KLD"},{"distance":3395,"line":1,"i_lat":-6.215091,"time":3,"station_name":"Jatinegara","transit":false,"i_long":106.86807400000001,"station_id":"JNG","is_transit":false},{"station_id":"MTR","distance":1377,"station_name":"Matraman","transit":false,"time":2,"is_transit":false,"i_long":106.858896,"i_lat":-6.212485,"line":1},{"i_lat":-6.209883,"i_long":106.84912,"line":2,"station_id":"MRI","time":2,"is_transit":true,"station_name":"Manggarai","distance":1275,"transit":true},{"distance":2610,"i_long":106.857948,"line":2,"transit":false,"station_name":"Tebet","is_transit":false,"time":4,"i_lat":-6.226659,"station_id":"TEB"},{"time":2,"station_id":"CW","station_name":"Cawang","i_long":106.856607,"line":2,"is_transit":false,"transit":false,"i_lat":-6.242512,"distance":1230}],[{"distance":0,"i_long":106.922662,"line":1,"transit":false,"time":0,"station_id":"BUA","station_name":"Buaran","is_transit":false,"i_lat":-6.215568},{"transit":false,"is_transit":false,"station_name":"Klender","station_id":"KLD","distance":3100,"time":2,"i_lat":-6.2135,"i_long":106.899548,"line":1},{"transit":true,"time":3,"distance":3395,"station_id":"JNG","line":1,"i_long":106.86807400000001,"is_transit":true,"station_name":"Jatinegara","i_lat":-6.215091},{"is_transit":false,"time":2,"station_name":"Pondok Jati","station_id":"POK","transit":false,"i_long":106.861737,"line":11,"i_lat":-6.209188,"distance":1236},{"line":11,"i_lat":-6.193792,"station_name":"Kramat","transit":false,"distance":1829,"is_transit":false,"i_long":106.855437,"station_id":"KMT","time":2},{"line":11,"i_lat":-6.185975,"distance":973,"transit":false,"time":1,"station_id":"GST","station_name":"Gang Sentiong","is_transit":false,"i_long":106.850107},{"transit":false,"distance":1567,"line":11,"station_name":"Pasar Senen","is_transit":false,"i_long":106.84368,"i_lat":-6.174784,"station_id":"PSE","time":8},{"i_long":106.839204,"station_name":"Kemayoran","i_lat":-6.161728,"transit":false,"is_transit":false,"station_id":"KMO","time":4,"line":11,"distance":1436},{"distance":1901,"time":5,"station_id":"RJW","i_lat":-6.14505,"line":11,"is_transit":false,"transit":false,"i_long":106.836569,"station_name":"Rajawali"},{"transit":true,"line":4,"station_id":"KPB","i_lat":-6.132549,"i_long":106.826365,"distance":1444,"station_name":"Kampung Bandan","is_transit":true,"time":3},{"transit":false,"time":9,"is_transit":false,"station_id":"AK","line":1,"distance":4102,"i_long":106.79867,"i_lat":-6.144674,"station_name":"Angke"},{"station_id":"DU","i_long":106.800832,"i_lat":-6.155215,"line":1,"station_name":"Duri","transit":false,"time":4,"is_transit":false,"distance":1230},{"station_id":"THB","i_long":106.811091,"time":8,"transit":false,"line":1,"station_name":"Tanah Abang","is_transit":false,"distance":3632,"i_lat":-6.185545},{"i_lat":-6.20132,"transit":false,"station_name":"Karet","i_long":106.816351,"time":5,"line":1,"station_id":"KAT","is_transit":false,"distance":2029},{"distance":471,"time":1,"station_id":"SUDB","is_transit":false,"station_name":"Sudirman Baru","i_long":106.819881,"transit":false,"line":1,"i_lat":-6.201433},{"line":1,"time":1,"i_lat":-6.202263,"distance":280,"is_transit":false,"i_long":106.822649,"station_name":"Sudirman","station_id":"SUD","transit":false},{"i_lat":-6.209883,"line":2,"station_name":"Manggarai","i_long":106.84912,"is_transit":true,"transit":true,"distance":3186,"station_id":"MRI","time":4},{"time":4,"i_lat":-6.226659,"i_long":106.857948,"station_name":"Tebet","station_id":"TEB","transit":false,"is_transit":false,"distance":2610,"line":2},{"is_transit":false,"i_long":106.856607,"time":2,"line":2,"station_id":"CW","distance":1230,"i_lat":-6.242512,"transit":false,"station_name":"Cawang"}],[{"line":1,"time":0,"is_transit":false,"i_lat":-6.215568,"i_long":106.922662,"transit":false,"station_name":"Buaran","station_id":"BUA","distance":0},{"i_long":106.899548,"time":2,"line":1,"distance":3100,"i_lat":-6.2135,"transit":false,"station_id":"KLD","is_transit":false,"station_name":"Klender"},{"time":3,"i_lat":-6.215091,"transit":true,"i_long":106.86807400000001,"station_id":"JNG","is_transit":true,"line":1,"station_name":"Jatinegara","distance":3395},{"is_transit":false,"distance":1236,"transit":false,"station_name":"Pondok Jati","i_lat":-6.209188,"i_long":106.861737,"line":11,"time":2,"station_id":"POK"},{"is_transit":false,"station_id":"KMT","transit":false,"i_lat":-6.193792,"station_name":"Kramat","time":2,"distance":1829,"i_long":106.855437,"line":11},{"station_name":"Gang Sentiong","transit":false,"station_id":"GST","is_transit":false,"distance":973,"i_lat":-6.185975,"line":11,"time":1,"i_long":106.850107},{"is_transit":false,"i_lat":-6.174784,"time":8,"i_long":106.84368,"line":11,"transit":false,"station_name":"Pasar Senen","distance":1567,"station_id":"PSE"},{"transit":false,"i_lat":-6.161728,"line":11,"station_id":"KMO","station_name":"Kemayoran","distance":1436,"i_long":106.839204,"time":4,"is_transit":false},{"i_long":106.836569,"line":11,"station_id":"RJW","time":5,"i_lat":-6.14505,"is_transit":false,"station_name":"Rajawali","distance":1901,"transit":false},{"is_transit":true,"distance":1444,"transit":true,"line":4,"time":3,"station_id":"KPB","station_name":"Kampung Bandan","i_lat":-6.132549,"i_long":106.826365},{"line":2,"station_name":"Jakarta Kota","station_id":"JAKK","distance":1364,"time":3,"transit":true,"i_long":106.812439,"i_lat":-6.137569,"is_transit":true},{"is_transit":false,"station_name":"Jayakarta","transit":false,"distance":1264,"i_long":106.820901,"time":4,"station_id":"JAY","line":2,"i_lat":-6.141205},{"station_id":"MGB","station_name":"Manggabesar","transit":false,"i_lat":-6.149769,"i_long":106.82482,"line":2,"is_transit":false,"distance":1080,"time":2},{"station_name":"Sawah Besar","station_id":"SW","i_long":106.827103,"distance":906,"transit":false,"line":2,"time":2,"is_transit":false,"i_lat":-6.160725},{"station_id":"JUA","distance":1149,"line":2,"time":2,"station_name":"Juanda","is_transit":false,"i_lat":-6.166716,"i_long":106.828284,"transit":false},{"i_lat":-6.186295,"i_long":106.832183,"station_name":"Gondangdia","time":4,"line":2,"station_id":"GDD","transit":false,"is_transit":false,"distance":2015},{"time":3,"transit":false,"i_lat":-6.198556,"station_id":"CKI","is_transit":false,"i_long":106.840169,"line":2,"distance":1750,"station_name":"Cikini"},{"station_id":"MRI","i_long":106.84912,"line":2,"transit":false,"time":4,"i_lat":-6.209883,"station_name":"Manggarai","is_transit":false,"distance":1590},{"is_transit":false,"station_id":"TEB","distance":2610,"time":4,"i_long":106.857948,"station_name":"Tebet","i_lat":-6.226659,"line":2,"transit":false},{"is_transit":false,"line":2,"time":2,"i_lat":-6.242512,"i_long":106.856607,"station_id":"CW","transit":false,"station_name":"Cawang","distance":1230}]]}