{"data":[[{"i_lat":-6.215568,"station_name":"Buaran","i_long":106.922662,"is_transit":false,"transit":false,"station_id":"BUA","distance":0,"line":1,"time":0},{"is_transit":false,"transit":false,"i_long":106.899548,"i_lat":-6.2135,"station_name":"Klender","line":1,"distance":3100,"time":2,"station_id":"KLD"},{"station_name":"Jatinegara","station_id":"JNG","time":3,"is_transit":false,"distance":3395,"transit":false,"line":1,"i_lat":-6.215091,"i_long":106.86807400000001},{"i_lat":-6.212485,"time":2,"is_transit":false,"transit":false,"line":1,"station_name":"Matraman","station_id":"MTR","distance":1377,"i_long":106.858896},{"station_name":"Manggarai","time":2,"i_lat":-6.209883,"is_transit":false,"transit":false,"station_id":"MRI","line":2,"distance":1275,"i_long":106.84912},{"line":1,"station_id":"SUD","is_transit":false,"i_long":106.822649,"distance":3186,"station_name":"Sudirman","time":4,"i_lat":-6.202263,"transit":false},{"i_lat":-6.201433,"time":1,"distance":280,"station_name":"Sudirman Baru","station_id":"SUDB","is_transit":false,"i_long":106.819881,"transit":false,"line":1},{"station_name":"Karet","transit":false,"line":1,"i_long":106.816351,"is_transit":false,"station_id":"KAT","distance":471,"i_lat":-6.20132,"time":1},{"i_lat":-6.185545,"station_id":"THB","distance":2029,"i_long":106.811091,"transit":false,"station_name":"Tanah Abang","line":1,"is_transit":false,"time":5},{"line":1,"transit":true,"station_id":"DU","i_lat":-6.155215,"station_name":"Duri","time":8,"distance":3632,"is_transit":true,"i_long":106.800832},{"station_id":"GGL","is_transit":false,"line":5,"transit":false,"station_name":"Grogol","i_lat":-6.162021,"time":3,"i_long":106.788277,"distance":1700}],[{"station_id":"BUA","i_lat":-6.215568,"line":1,"time":0,"i_long":106.922662,"station_name":"Buaran","transit":false,"is_transit":false,"distance":0},{"station_name":"Klender","station_id":"KLD","is_transit":false,"i_lat":-6.2135,"i_long":106.899548,"line":1,"distance":3100,"time":2,"transit":false},{"is_transit":true,"i_long":106.86807400000001,"station_name":"Jatinegara","time":3,"distance":3395,"line":1,"transit":true,"station_id":"JNG","i_lat":-6.215091},{"station_id":"POK","i_lat":-6.209188,"line":11,"i_long":106.861737,"station_name":"Pondok Jati","distance":1236,"transit":false,"time":2,"is_transit":false},{"station_name":"Kramat","i_long":106.855437,"is_transit":false,"distance":1829,"transit":false,"station_id":"KMT","i_lat":-6.193792,"line":11,"time":2},{"i_long":106.850107,"line":11,"time":1,"i_lat":-6.185975,"is_transit":false,"station_name":"Gang Sentiong","station_id":"GST","distance":973,"transit":false},{"station_name":"Pasar Senen","i_long":106.84368,"time":8,"i_lat":-6.174784,"distance":1567,"is_transit":false,"line":11,"transit":false,"station_id":"PSE"},{"station_name":"Kemayoran","time":4,"distance":1436,"line":11,"i_long":106.839204,"transit":false,"i_lat":-6.161728,"station_id":"KMO","is_transit":false},{"line":11,"is_transit":false,"transit":false,"i_long":106.836569,"time":5,"i_lat":-6.14505,"station_name":"Rajawali","station_id":"RJW","distance":1901},{"is_transit":true,"distance":1444,"time":3,"station_id":"KPB","i_long":106.826365,"transit":true,"station_name":"Kampung Bandan","i_lat":-6.132549,"line":4},{"i_lat":-6.144674,"is_transit":false,"i_long":106.79867,"time":9,"station_name":"Angke","distance":4102,"transit":false,"station_id":"AK","line":1},{"station_name":"Duri","time":4,"line":1,"transit":true,"i_lat":-6.155215,"is_transit":true,"i_long":106.800832,"station_id":"DU","distance":1230},{"station_name":"Grogol","time":3,"transit":false,"is_transit":false,"i_lat":-6.162021,"line":5,"station_id":"GGL","i_long":106.788277,"distance":1700}],[{"i_lat":-6.215568,"line":1,"transit":false,"time":0,"station_name":"Buaran","i_long":106.922662,"station_id":"BUA","distance":0,"is_transit":false},{"time":2,"station_name":"Klender","station_id":"KLD","i_lat":-6.2135,"transit":false,"i_long":106.899548,"distance":3100,"is_transit":false,"line":1},{"is_transit":false,"i_long":106.86807400000001,"distance":3395,"line":1,"i_lat":-6.215091,"time":3,"transit":false,"station_name":"Jatinegara","station_id":"JNG"},{"station_name":"Matraman","is_transit":false,"i_long":106.858896,"i_lat":-6.212485,"time":2,"transit":false,"station_id":"MTR","distance":1377,"line":1},{"line":2,"i_long":106.84912,"is_transit":true,"time":2,"distance":1275,"transit":true,"station_name":"Manggarai","station_id":"MRI","i_lat":-6.209883},{"transit":false,"time":4,"station_id":"CKI","station_name":"Cikini","i_lat":-6.198556,"line":2,"is_transit":false,"distance":1590,"i_long":106.840169},{"distance":1750,"station_id":"GDD","time":3,"station_name":"Gondangdia","is_transit":false,"i_long":106.832183,"i_lat":-6.186295,"line":2,"transit":false},{"time":4,"i_lat":-6.166716,"transit":false,"distance":2015,"is_transit":false,"i_long":106.828284,"line":2,"station_name":"Juanda","station_id":"JUA"},{"i_lat":-6.160725,"transit":false,"station_name":"Sawah Besar","distance":1149,"is_transit":false,"station_id":"SW","line":2,"i_long":106.827103,"time":2},{"station_id":"MGB","distance":906,"i_long":106.82482,"i_lat":-6.149769,"is_transit":false,"station_name":"Manggabesar","line":2,"time":2,"transit":false},{"station_id":"JAY","line":2,"i_lat":-6.141205,"time":2,"station_name":"Jayakarta","transit":false,"i_long":106.820901,"distance":1080,"is_transit":false},{"station_name":"Jakarta Kota","is_transit":true,"station_id":"JAKK","transit":true,"line":2,"distance":1264,"i_lat":-6.137569,"time":4,"i_long":106.812439},{"is_transit":true,"transit":true,"time":3,"distance":1364,"i_lat":-6.132549,"i_long":106.826365,"station_name":"Kampung Bandan","station_id":"KPB","line":4},{"transit":false,"station_name":"Angke","distance":4102,"i_lat":-6.144674,"line":1,"is_transit":false,"time":9,"i_long":106.79867,"station_id":"AK"},{"distance":1230,"i_long":106.800832,"line":1,"is_transit":true,"time":4,"station_name":"Duri","transit":true,"station_id":"DU","i_lat":-6.155215},{"station_name":"Grogol","is_transit":false,"i_long":106.788277,"line":5,"i_lat":-6.162021,"distance":1700,"transit":false,"time":3,"station_id":"GGL"}],[{"is_transit":false,"distance":0,"station_id":"BUA","station_name":"Buaran","time":0,"i_lat":-6.215568,"i_long":106.922662,"transit":false,"line":1},{"i_long":106.899548,"transit":false,"i_lat":-6.2135,"line":1,"station_name":"Klender","station_id":"KLD","is_transit":false,"time":2,"distance":3100},{"transit":true,"i_long":106.86807400000001,"station_id":"JNG","station_name":"Jatinegara","distance":3395,"time":3,"is_transit":true,"i_lat":-6.215091,"line":1},{"i_long":106.861737,"station_name":"Pondok Jati","distance":1236,"station_id":"POK","line":11,"transit":false,"is_transit":false,"time":2,"i_lat":-6.209188},{"station_name":"Kramat","is_transit":false,"line":11,"transit":false,"station_id":"KMT","time":2,"distance":1829,"i_lat":-6.193792,"i_long":106.855437},{"is_transit":false,"station_id":"GST","transit":false,"line":11,"time":1,"i_lat":-6.185975,"station_name":"Gang Sentiong","distance":973,"i_long":106.850107},{"line":11,"is_transit":false,"station_id":"PSE","time":8,"station_name":"Pasar Senen","i_long":106.84368,"i_lat":-6.174784,"transit":false,"distance":1567},{"time":4,"station_id":"KMO","i_lat":-6.161728,"i_long":106.839204,"line":11,"distance":1436,"transit":false,"station_name":"Kemayoran","is_transit":false},{"is_transit":false,"time":5,"station_name":"Rajawali","transit":false,"i_long":106.836569,"station_id":"RJW","i_lat":-6.14505,"line":11,"distance":1901},{"transit":true,"line":4,"station_name":"Kampung Bandan","i_lat":-6.132549,"i_long":106.826365,"distance":1444,"station_id":"KPB","is_transit":true,"time":3},{"transit":true,"is_transit":true,"station_name":"Jakarta Kota","i_lat":-6.137569,"line":2,"i_long":106.812439,"station_id":"JAKK","time":3,"distance":1364},{"i_lat":-6.141205,"distance":1264,"time":4,"station_name":"Jayakarta","line":2,"is_transit":false,"i_long":106.820901,"transit":false,"station_id":"JAY"},{"station_name":"Manggabesar","i_long":106.82482,"i_lat":-6.149769,"time":2,"transit":false,"station_id":"MGB","distance":1080,"line":2,"is_transit":false},{"transit":false,"is_transit":false,"line":2,"station_id":"SW","station_name":"Sawah Besar","time":2,"distance":906,"i_long":106.827103,"i_lat":-6.160725},{"transit":false,"time":2,"line":2,"is_transit":false,"distance":1149,"station_name":"Juanda","i_lat":-6.166716,"i_long":106.828284,"station_id":"JUA"},{"time":4,"distance":2015,"line":2,"is_transit":false,"station_id":"GDD","transit":false,"i_lat":-6.186295,"station_name":"Gondangdia","i_long":106.832183},{"line":2,"transit":false,"time":3,"station_id":"CKI","station_name":"Cikini","is_transit":false,"i_lat":-6.198556,"i_long":106.840169,"distance":1750},{"transit":true,"station_id":"MRI","distance":1590,"is_transit":true,"line":2,"time":4,"i_lat":-6.209883,"station_name":"Manggarai","i_long":106.84912},{"transit":false,"station_name":"Sudirman","is_transit":false,"time":4,"station_id":"SUD","distance":3186,"i_lat":-6.202263,"i_long":106.822649,"line":1},{"i_long":106.819881,"time":1,"line":1,"station_name":"Sudirman Baru","transit":false,"is_transit":false,"distance":280,"station_id":"SUDB","i_lat":-6.201433},{"is_transit":false,"transit":false,"station_id":"KAT","distance":471,"time":1,"i_lat":-6.20132,"station_name":"Karet","i_long":106.816351,"line":1},{"station_id":"THB","line":1,"time":5,"transit":false,"station_name":"Tanah Abang","is_transit":false,"distance":2029,"i_long":106.811091,"i_lat":-6.185545},{"distance":3632,"i_long":106.800832,"i_lat":-6.155215,"time":8,"station_name":"Duri","line":1,"transit":true,"is_transit":true,"station_id":"DU"},{"i_long":106.788277,"is_transit":false,"i_lat":-6.162021,"distance":1700,"time":3,"line":5,"station_id":"GGL","station_name":"Grogol","transit":false}]]}