{"data":[[{"i_lat":-6.215568,"transit":false,"i_long":106.922662,"line":1,"distance":0,"time":0,"station_name":"Buaran","station_id":"BUA","is_transit":false},{"transit":false,"i_long":106.899548,"distance":3100,"i_lat":-6.2135,"is_transit":false,"station_name":"Klender","station_id":"KLD","time":2,"line":1},{"is_transit":false,"line":1,"station_id":"JNG","station_name":"Jatinegara","time":3,"transit":false,"i_lat":-6.215091,"distance":3395,"i_long":106.86807400000001},{"distance":1377,"is_transit":false,"i_long":106.858896,"i_lat":-6.212485,"line":1,"transit":false,"station_name":"Matraman","station_id":"MTR","time":2},{"transit":true,"time":2,"station_name":"Manggarai","is_transit":true,"i_long":106.84912,"i_lat":-6.209883,"station_id":"MRI","distance":1275,"line":2},{"station_id":"TEB","transit":false,"time":4,"i_long":106.857948,"distance":2610,"i_lat":-6.226659,"line":2,"station_name":"Tebet","is_transit":false},{"i_lat":-6.242512,"is_transit":false,"i_long":106.856607,"line":2,"station_name":"Cawang","station_id":"CW","transit":false,"time":2,"distance":1230},{"i_lat":-6.255332,"station_name":"Duren Kalibata","station_id":"DRN","is_transit":false,"line":2,"i_long":106.85449,"transit":false,"distance":1546,"time":3},{"transit":false,"is_transit":false,"station_id":"PSMB","distance":824,"i_long":106.851577,"station_name":"Pasar Minggu Baru","i_lat":-6.263214,"line":2,"time":2}],[{"transit":false,"distance":0,"station_id":"BUA","time":0,"station_name":"Buaran","is_transit":false,"i_lat":-6.215568,"i_long":106.922662,"line":1},{"i_long":106.899548,"line":1,"station_name":"Klender","i_lat":-6.2135,"transit":false,"station_id":"KLD","time":2,"is_transit":false,"distance":3100},{"transit":true,"is_transit":true,"station_name":"Jatinegara","time":3,"i_long":106.86807400000001,"i_lat":-6.215091,"station_id":"JNG","line":1,"distance":3395},{"i_long":106.861737,"i_lat":-6.209188,"time":2,"transit":false,"distance":1236,"station_name":"Pondok Jati","station_id":"POK","is_transit":false,"line":11},{"station_id":"KMT","is_transit":false,"station_name":"Kramat","line":11,"distance":1829,"i_lat":-6.193792,"transit":false,"i_long":106.855437,"time":2},{"station_id":"GST","is_transit":false,"station_name":"Gang Sentiong","i_lat":-6.185975,"line":11,"time":1,"i_long":106.850107,"transit":false,"distance":973},{"distance":1567,"line":11,"time":8,"transit":false,"i_lat":-6.174784,"i_long":106.84368,"is_transit":false,"station_name":"Pasar Senen","station_id":"PSE"},{"transit":false,"station_name":"Kemayoran","time":4,"distance":1436,"station_id":"KMO","is_transit":false,"i_lat":-6.161728,"i_long":106.839204,"line":11},{"is_transit":false,"station_name":"Rajawali","transit":false,"distance":1901,"i_lat":-6.14505,"i_long":106.836569,"line":11,"station_id":"RJW","time":5},{"station_id":"KPB","station_name":"Kampung Bandan","is_transit":true,"i_long":106.826365,"time":3,"i_lat":-6.132549,"line":4,"transit":true,"distance":1444},{"i_lat":-6.144674,"transit":false,"station_id":"AK","station_name":"Angke","time":9,"distance":4102,"i_long":106.79867,"is_transit":false,"line":1},{"station_name":"Duri","station_id":"DU","distance":1230,"i_lat":-6.155215,"time":4,"is_transit":false,"i_long":106.800832,"line":1,"transit":false},{"is_transit":false,"station_id":"THB","i_long":106.811091,"transit":false,"time":8,"distance":3632,"station_name":"Tanah Abang","line":1,"i_lat":-6.185545},{"station_id":"KAT","time":5,"station_name":"Karet","i_lat":-6.20132,"i_long":106.816351,"line":1,"transit":false,"distance":2029,"is_transit":false},{"distance":471,"station_name":"Sudirman Baru","time":1,"transit":false,"station_id":"SUDB","is_transit":false,"line":1,"i_long":106.819881,"i_lat":-6.201433},{"line":1,"is_transit":false,"transit":false,"i_lat":-6.202263,"time":1,"station_name":"Sudirman","station_id":"SUD","i_long":106.822649,"distance":280},{"line":2,"station_name":"Manggarai","station_id":"MRI","i_long":106.84912,"time":4,"is_transit":true,"i_lat":-6.209883,"transit":true,"distance":3186},{"transit":false,"station_id":"TEB","station_name":"Tebet","i_long":106.857948,"line":2,"is_transit":false,"distance":2610,"time":4,"i_lat":-6.226659},{"distance":1230,"is_transit":false,"transit":false,"line":2,"i_lat":-6.242512,"station_id":"CW","i_long":106.856607,"time":2,"station_name":"Cawang"},{"distance":1546,"i_long":106.85449,"time":3,"line":2,"station_id":"DRN","station_name":"Duren Kalibata","is_transit":false,"transit":false,"i_lat":-6.255332},{"line":2,"station_name":"Pasar Minggu Baru","i_long":106.851577,"time":2,"is_transit":false,"i_lat":-6.263214,"transit":false,"station_id":"PSMB","distance":824}],[{"station_id":"BUA","time":0,"distance":0,"is_transit":false,"i_lat":-6.215568,"transit":false,"line":1,"station_name":"Buaran","i_long":106.922662},{"station_name":"Klender","station_id":"KLD","is_transit":false,"line":1,"distance":3100,"i_lat":-6.2135,"transit":false,"time":2,"i_long":106.899548},{"is_transit":true,"distance":3395,"i_lat":-6.215091,"line":1,"i_long":106.86807400000001,"station_id":"JNG","time":3,"transit":true,"station_name":"Jatinegara"},{"i_lat":-6.209188,"is_transit":false,"time":2,"i_long":106.861737,"transit":false,"station_name":"Pondok Jati","station_id":"POK","line":11,"distance":1236},{"transit":false,"station_id":"KMT","i_long":106.855437,"i_lat":-6.193792,"distance":1829,"station_name":"Kramat","is_transit":false,"line":11,"time":2},{"i_long":106.850107,"time":1,"is_transit":false,"line":11,"transit":false,"station_id":"GST","i_lat":-6.185975,"distance":973,"station_name":"Gang Sentiong"},{"is_transit":false,"distance":1567,"transit":false,"time":8,"station_name":"Pasar Senen","i_long":106.84368,"i_lat":-6.174784,"line":11,"station_id":"PSE"},{"station_id":"KMO","i_lat":-6.161728,"is_transit":false,"time":4,"distance":1436,"i_long":106.839204,"line":11,"transit":false,"station_name":"Kemayoran"},{"i_lat":-6.14505,"i_long":106.836569,"station_id":"RJW","station_name":"Rajawali","is_transit":false,"distance":1901,"time":5,"transit":false,"line":11},{"is_transit":true,"transit":true,"i_long":106.826365,"line":4,"station_id":"KPB","station_name":"Kampung Bandan","i_lat":-6.132549,"time":3,"distance":1444},{"station_id":"JAKK","line":2,"time":3,"is_transit":true,"distance":1364,"i_lat":-6.137569,"transit":true,"station_name":"Jakarta Kota","i_long":106.812439},{"i_long":106.820901,"station_id":"JAY","transit":false,"line":2,"station_name":"Jayakarta","distance":1264,"is_transit":false,"i_lat":-6.141205,"time":4},{"station_id":"MGB","i_lat":-6.149769,"station_name":"Manggabesar","i_long":106.82482,"transit":false,"time":2,"distance":1080,"line":2,"is_transit":false},{"is_transit":false,"station_name":"Sawah Besar","time":2,"distance":906,"transit":false,"i_long":106.827103,"line":2,"station_id":"SW","i_lat":-6.160725},{"i_long":106.828284,"time":2,"distance":1149,"station_id":"JUA","is_transit":false,"transit":false,"i_lat":-6.166716,"line":2,"station_name":"Juanda"},{"line":2,"station_id":"GDD","time":4,"distance":2015,"is_transit":false,"transit":false,"station_name":"Gondangdia","i_lat":-6.186295,"i_long":106.832183},{"station_id":"CKI","station_name":"Cikini","is_transit":false,"time":3,"distance":1750,"i_long":106.840169,"line":2,"transit":false,"i_lat":-6.198556},{"station_name":"Manggarai","distance":1590,"station_id":"MRI","time":4,"i_lat":-6.209883,"line":2,"i_long":106.84912,"transit":false,"is_transit":false},{"time":4,"distance":2610,"station_name":"Tebet","i_long":106.857948,"i_lat":-6.226659,"line":2,"transit":false,"station_id":"TEB","is_transit":false},{"station_name":"Cawang","is_transit":false,"time":2,"distance":1230,"line":2,"station_id":"CW","i_lat":-6.242512,"transit":false,"i_long":106.856607},{"line":2,"is_transit":false,"transit":false,"station_name":"Duren Kalibata","time":3,"i_lat":-6.255332,"distance":1546,"station_id":"DRN","i_long":106.85449},{"transit":false,"is_transit":false,"station_id":"PSMB","time":2,"i_lat":-6.263214,"i_long":106.851577,"station_name":"Pasar Minggu Baru","line":2,"distance":824}]]}