{"data":[[{"distance":0,"time":0,"transit":false,"i_lat":-6.215568,"line":1,"station_id":"BUA","station_name":"Buaran","is_transit":false,"i_long":106.922662},{"i_long":106.899548,"time":2,"transit":false,"is_transit":false,"station_id":"KLD","line":1,"i_lat":-6.2135,"distance":3100,"station_name":"Klender"},{"line":1,"station_name":"Jatinegara","is_transit":false,"i_long":106.86807400000001,"distance":3395,"time":3,"i_lat":-6.215091,"station_id":"JNG","transit":false},{"station_name":"Matraman","time":2,"i_long":106.858896,"i_lat":-6.212485,"distance":1377,"station_id":"MTR","is_transit":false,"transit":false,"line":1},{"transit":true,"i_lat":-6.209883,"i_long":106.84912,"station_id":"MRI","time":2,"station_name":"Manggarai","is_transit":true,"distance":1275,"line":2},{"station_name":"Tebet","station_id":"TEB","transit":false,"line":2,"i_lat":-6.226659,"i_long":106.857948,"time":4,"distance":2610,"is_transit":false},{"i_long":106.856607,"distance":1230,"is_transit":false,"transit":false,"i_lat":-6.242512,"line":2,"station_id":"CW","time":2,"station_name":"Cawang"},{"distance":1546,"station_name":"Duren Kalibata","line":2,"i_long":106.85449,"time":3,"station_id":"DRN","is_transit":false,"i_lat":-6.255332,"transit":false},{"station_id":"PSMB","distance":824,"i_long":106.851577,"line":2,"time":2,"is_transit":false,"i_lat":-6.263214,"transit":false,"station_name":"Pasar Minggu Baru"}],[{"station_name":"Buaran","distance":0,"station_id":"BUA","i_lat":-6.215568,"i_long":106.922662,"line":1,"time":0,"is_transit":false,"transit":false},{"is_transit":false,"distance":3100,"i_lat":-6.2135,"time":2,"transit":false,"line":1,"i_long":106.899548,"station_name":"Klender","station_id":"KLD"},{"line":1,"station_id":"JNG","i_lat":-6.215091,"i_long":106.86807400000001,"transit":true,"station_name":"Jatinegara","time":3,"is_transit":true,"distance":3395},{"time":2,"transit":false,"distance":1236,"is_transit":false,"station_id":"POK","station_name":"Pondok Jati","i_lat":-6.209188,"line":11,"i_long":106.861737},{"station_name":"Kramat","distance":1829,"is_transit":false,"i_lat":-6.193792,"time":2,"line":11,"station_id":"KMT","i_long":106.855437,"transit":false},{"station_name":"Gang Sentiong","line":11,"distance":973,"transit":false,"i_long":106.850107,"station_id":"GST","i_lat":-6.185975,"is_transit":false,"time":1},{"time":8,"i_long":106.84368,"transit":false,"i_lat":-6.174784,"distance":1567,"line":11,"is_transit":false,"station_id":"PSE","station_name":"Pasar Senen"},{"station_id":"KMO","transit":false,"i_lat":-6.161728,"i_long":106.839204,"line":11,"station_name":"Kemayoran","is_transit":false,"time":4,"distance":1436},{"transit":false,"station_name":"Rajawali","i_long":106.836569,"line":11,"distance":1901,"is_transit":false,"time":5,"station_id":"RJW","i_lat":-6.14505},{"i_long":106.826365,"line":4,"transit":true,"station_id":"KPB","distance":1444,"station_name":"Kampung Bandan","time":3,"is_transit":true,"i_lat":-6.132549},{"time":9,"i_lat":-6.144674,"i_long":106.79867,"line":1,"distance":4102,"station_name":"Angke","station_id":"AK","transit":false,"is_transit":false},{"i_long":106.800832,"station_id":"DU","i_lat":-6.155215,"distance":1230,"station_name":"Duri","line":1,"is_transit":false,"transit":false,"time":4},{"time":8,"i_lat":-6.185545,"line":1,"distance":3632,"station_id":"THB","station_name":"Tanah Abang","i_long":106.811091,"is_transit":false,"transit":false},{"i_lat":-6.20132,"station_id":"KAT","is_transit":false,"transit":false,"time":5,"line":1,"distance":2029,"station_name":"Karet","i_long":106.816351},{"i_lat":-6.201433,"station_id":"SUDB","distance":471,"line":1,"station_name":"Sudirman Baru","is_transit":false,"transit":false,"i_long":106.819881,"time":1},{"transit":false,"station_id":"SUD","i_long":106.822649,"line":1,"is_transit":false,"station_name":"Sudirman","time":1,"i_lat":-6.202263,"distance":280},{"is_transit":true,"distance":3186,"station_name":"Manggarai","i_long":106.84912,"time":4,"line":2,"i_lat":-6.209883,"station_id":"MRI","transit":true},{"i_lat":-6.226659,"distance":2610,"station_name":"Tebet","line":2,"station_id":"TEB","i_long":106.857948,"time":4,"transit":false,"is_transit":false},{"i_lat":-6.242512,"station_name":"Cawang","is_transit":false,"transit":false,"i_long":106.856607,"line":2,"time":2,"station_id":"CW","distance":1230},{"i_long":106.85449,"transit":false,"station_name":"Duren Kalibata","distance":1546,"i_lat":-6.255332,"time":3,"station_id":"DRN","is_transit":false,"line":2},{"transit":false,"time":2,"is_transit":false,"i_long":106.851577,"line":2,"i_lat":-6.263214,"station_name":"Pasar Minggu Baru","station_id":"PSMB","distance":824}],[{"station_id":"BUA","station_name":"Buaran","line":1,"time":0,"distance":0,"transit":false,"i_lat":-6.215568,"is_transit":false,"i_long":106.922662},{"station_id":"KLD","distance":3100,"station_name":"Klender","is_transit":false,"i_long":106.899548,"time":2,"transit":false,"i_lat":-6.2135,"line":1},{"station_id":"JNG","distance":3395,"transit":true,"line":1,"is_transit":true,"time":3,"station_name":"Jatinegara","i_lat":-6.215091,"i_long":106.86807400000001},{"station_name":"Pondok Jati","station_id":"POK","transit":false,"i_long":106.861737,"time":2,"line":11,"distance":1236,"i_lat":-6.209188,"is_transit":false},{"time":2,"station_name":"Kramat","i_long":106.855437,"is_transit":false,"transit":false,"line":11,"station_id":"KMT","i_lat":-6.193792,"distance":1829},{"time":1,"station_name":"Gang Sentiong","is_transit":false,"line":11,"i_lat":-6.185975,"distance":973,"transit":false,"station_id":"GST","i_long":106.850107},{"transit":false,"is_transit":false,"station_name":"Pasar Senen","i_long":106.84368,"time":8,"distance":1567,"line":11,"i_lat":-6.174784,"station_id":"PSE"},{"distance":1436,"line":11,"station_id":"KMO","transit":false,"is_transit":false,"station_name":"Kemayoran","i_lat":-6.161728,"i_long":106.839204,"time":4},{"is_transit":false,"distance":1901,"station_id":"RJW","transit":false,"line":11,"i_long":106.836569,"station_name":"Rajawali","time":5,"i_lat":-6.14505},{"station_id":"KPB","is_transit":true,"distance":1444,"station_name":"Kampung Bandan","i_lat":-6.132549,"i_long":106.826365,"transit":true,"line":4,"time":3},{"time":3,"transit":true,"station_id":"JAKK","line":2,"is_transit":true,"station_name":"Jakarta Kota","i_long":106.812439,"i_lat":-6.137569,"distance":1364},{"i_long":106.820901,"distance":1264,"station_name":"Jayakarta","line":2,"station_id":"JAY","transit":false,"i_lat":-6.141205,"time":4,"is_transit":false},{"time":2,"i_long":106.82482,"line":2,"is_transit":false,"distance":1080,"station_id":"MGB","i_lat":-6.149769,"transit":false,"station_name":"Manggabesar"},{"is_transit":false,"station_name":"Sawah Besar","i_lat":-6.160725,"time":2,"station_id":"SW","transit":false,"i_long":106.827103,"distance":906,"line":2},{"i_lat":-6.166716,"time":2,"i_long":106.828284,"is_transit":false,"distance":1149,"line":2,"station_id":"JUA","transit":false,"station_name":"Juanda"},{"station_name":"Gondangdia","line":2,"station_id":"GDD","is_transit":false,"distance":2015,"transit":false,"time":4,"i_lat":-6.186295,"i_long":106.832183},{"i_long":106.840169,"is_transit":false,"line":2,"station_id":"CKI","time":3,"distance":1750,"transit":false,"station_name":"Cikini","i_lat":-6.198556},{"transit":false,"station_id":"MRI","i_lat":-6.209883,"time":4,"distance":1590,"i_long":106.84912,"line":2,"is_transit":false,"station_name":"Manggarai"},{"time":4,"station_id":"TEB","distance":2610,"transit":false,"i_lat":-6.226659,"station_name":"Tebet","line":2,"is_transit":false,"i_long":106.857948},{"station_name":"Cawang","i_long":106.856607,"transit":false,"line":2,"distance":1230,"station_id":"CW","is_transit":false,"i_lat":-6.242512,"time":2},{"station_id":"DRN","distance":1546,"is_transit":false,"station_name":"Duren Kalibata","transit":false,"i_lat":-6.255332,"i_long":106.85449,"line":2,"time":3},{"line":2,"station_id":"PSMB","transit":false,"station_name":"Pasar Minggu Baru","i_lat":-6.263214,"i_long":106.851577,"time":2,"distance":824,"is_transit":false}]]}