{"data":[[{"line":1,"distance":0,"station_id":"BUA","transit":false,"is_transit":false,"station_name":"Buaran","i_long":106.922662,"time":0,"i_lat":-6.215568},{"is_transit":false,"station_id":"KLD","distance":3100,"transit":false,"time":2,"station_name":"Klender","i_long":106.899548,"i_lat":-6.2135,"line":1},{"station_name":"Jatinegara","i_lat":-6.215091,"is_transit":false,"time":3,"i_long":106.86807400000001,"line":1,"station_id":"JNG","distance":3395,"transit":false},{"i_lat":-6.212485,"station_id":"MTR","time":2,"i_long":106.858896,"station_name":"Matraman","transit":false,"line":1,"distance":1377,"is_transit":false},{"station_name":"Manggarai","station_id":"MRI","transit":true,"i_lat":-6.209883,"time":2,"distance":1275,"is_transit":true,"line":2,"i_long":106.84912},{"i_lat":-6.198556,"line":2,"time":4,"distance":1590,"transit":false,"is_transit":false,"i_long":106.840169,"station_name":"Cikini","station_id":"CKI"},{"distance":1750,"station_id":"GDD","transit":false,"time":3,"is_transit":false,"i_long":106.832183,"line":2,"i_lat":-6.186295,"station_name":"Gondangdia"},{"distance":2015,"i_long":106.828284,"i_lat":-6.166716,"is_transit":false,"station_name":"Juanda","station_id":"JUA","line":2,"transit":false,"time":4},{"i_lat":-6.160725,"transit":false,"is_transit":false,"i_long":106.827103,"distance":1149,"station_name":"Sawah Besar","station_id":"SW","time":2,"line":2},{"station_id":"MGB","is_transit":false,"i_long":106.82482,"line":2,"station_name":"Manggabesar","i_lat":-6.149769,"transit":false,"time":2,"distance":906},{"transit":false,"station_id":"JAY","station_name":"Jayakarta","is_transit":false,"line":2,"distance":1080,"i_lat":-6.141205,"time":2,"i_long":106.820901}],[{"is_transit":false,"i_long":106.922662,"line":1,"distance":0,"transit":false,"station_id":"BUA","i_lat":-6.215568,"station_name":"Buaran","time":0},{"distance":3100,"i_lat":-6.2135,"line":1,"is_transit":false,"station_id":"KLD","station_name":"Klender","time":2,"i_long":106.899548,"transit":false},{"transit":true,"is_transit":true,"station_id":"JNG","line":1,"station_name":"Jatinegara","time":3,"distance":3395,"i_lat":-6.215091,"i_long":106.86807400000001},{"distance":1236,"time":2,"station_name":"Pondok Jati","station_id":"POK","transit":false,"is_transit":false,"i_lat":-6.209188,"line":11,"i_long":106.861737},{"i_lat":-6.193792,"transit":false,"distance":1829,"time":2,"is_transit":false,"i_long":106.855437,"station_id":"KMT","line":11,"station_name":"Kramat"},{"station_id":"GST","is_transit":false,"transit":false,"distance":973,"station_name":"Gang Sentiong","i_long":106.850107,"i_lat":-6.185975,"time":1,"line":11},{"i_lat":-6.174784,"line":11,"distance":1567,"i_long":106.84368,"station_name":"Pasar Senen","station_id":"PSE","transit":false,"time":8,"is_transit":false},{"is_transit":false,"i_lat":-6.161728,"time":4,"transit":false,"station_name":"Kemayoran","i_long":106.839204,"station_id":"KMO","line":11,"distance":1436},{"line":11,"i_long":106.836569,"distance":1901,"station_name":"Rajawali","transit":false,"is_transit":false,"station_id":"RJW","time":5,"i_lat":-6.14505},{"is_transit":true,"station_id":"KPB","i_long":106.826365,"line":4,"time":3,"i_lat":-6.132549,"distance":1444,"station_name":"Kampung Bandan","transit":true},{"time":3,"is_transit":true,"transit":true,"i_long":106.812439,"line":2,"distance":1364,"station_name":"Jakarta Kota","i_lat":-6.137569,"station_id":"JAKK"},{"station_id":"JAY","transit":false,"i_long":106.820901,"line":2,"i_lat":-6.141205,"station_name":"Jayakarta","distance":1264,"time":4,"is_transit":false}],[{"transit":false,"distance":0,"station_id":"BUA","line":1,"is_transit":false,"i_lat":-6.215568,"time":0,"i_long":106.922662,"station_name":"Buaran"},{"i_lat":-6.2135,"station_id":"KLD","time":2,"is_transit":false,"distance":3100,"line":1,"transit":false,"i_long":106.899548,"station_name":"Klender"},{"transit":false,"line":1,"is_transit":false,"station_id":"JNG","time":3,"i_lat":-6.215091,"distance":3395,"station_name":"Jatinegara","i_long":106.86807400000001},{"transit":false,"time":2,"line":1,"station_name":"Matraman","is_transit":false,"distance":1377,"i_lat":-6.212485,"station_id":"MTR","i_long":106.858896},{"station_name":"Manggarai","time":2,"station_id":"MRI","i_long":106.84912,"i_lat":-6.209883,"distance":1275,"transit":false,"is_transit":false,"line":2},{"station_id":"SUD","i_long":106.822649,"line":1,"time":4,"is_transit":false,"distance":3186,"transit":false,"i_lat":-6.202263,"station_name":"Sudirman"},{"line":1,"is_transit":false,"station_name":"Sudirman Baru","station_id":"SUDB","time":1,"i_long":106.819881,"distance":280,"i_lat":-6.201433,"transit":false},{"transit":false,"line":1,"station_id":"KAT","i_lat":-6.20132,"time":1,"i_long":106.816351,"is_transit":false,"distance":471,"station_name":"Karet"},{"distance":2029,"is_transit":false,"i_long":106.811091,"station_name":"Tanah Abang","line":1,"i_lat":-6.185545,"transit":false,"time":5,"station_id":"THB"},{"transit":false,"line":1,"distance":3632,"i_long":106.800832,"is_transit":false,"time":8,"station_name":"Duri","i_lat":-6.155215,"station_id":"DU"},{"distance":1230,"transit":false,"i_long":106.79867,"time":4,"is_transit":false,"station_id":"AK","station_name":"Angke","i_lat":-6.144674,"line":1},{"time":9,"station_name":"Kampung Bandan","is_transit":true,"transit":true,"distance":4102,"station_id":"KPB","i_lat":-6.132549,"i_long":106.826365,"line":4},{"line":2,"transit":true,"station_name":"Jakarta Kota","is_transit":true,"distance":1364,"station_id":"JAKK","i_long":106.812439,"i_lat":-6.137569,"time":3},{"i_lat":-6.141205,"transit":false,"station_name":"Jayakarta","distance":1264,"time":4,"is_transit":false,"i_long":106.820901,"station_id":"JAY","line":2}],[{"i_long":106.922662,"distance":0,"is_transit":false,"transit":false,"station_id":"BUA","station_name":"Buaran","time":0,"i_lat":-6.215568,"line":1},{"distance":3100,"is_transit":false,"station_name":"Klender","time":2,"station_id":"KLD","i_lat":-6.2135,"transit":false,"i_long":106.899548,"line":1},{"station_name":"Jatinegara","is_transit":true,"distance":3395,"station_id":"JNG","time":3,"i_lat":-6.215091,"i_long":106.86807400000001,"transit":true,"line":1},{"is_transit":false,"i_long":106.861737,"line":11,"station_name":"Pondok Jati","i_lat":-6.209188,"transit":false,"time":2,"station_id":"POK","distance":1236},{"transit":false,"time":2,"station_id":"KMT","i_lat":-6.193792,"distance":1829,"is_transit":false,"i_long":106.855437,"line":11,"station_name":"Kramat"},{"line":11,"time":1,"station_name":"Gang Sentiong","is_transit":false,"distance":973,"i_long":106.850107,"transit":false,"i_lat":-6.185975,"station_id":"GST"},{"station_name":"Pasar Senen","station_id":"PSE","is_transit":false,"line":11,"transit":false,"i_long":106.84368,"distance":1567,"time":8,"i_lat":-6.174784},{"is_transit":false,"i_lat":-6.161728,"transit":false,"line":11,"i_long":106.839204,"time":4,"distance":1436,"station_name":"Kemayoran","station_id":"KMO"},{"distance":1901,"time":5,"transit":false,"i_long":106.836569,"i_lat":-6.14505,"station_id":"RJW","line":11,"station_name":"Rajawali","is_transit":false},{"station_id":"KPB","time":3,"line":4,"transit":true,"distance":1444,"is_transit":true,"i_lat":-6.132549,"station_name":"Kampung Bandan","i_long":106.826365},{"station_id":"AK","transit":false,"station_name":"Angke","is_transit":false,"i_long":106.79867,"distance":4102,"time":9,"line":1,"i_lat":-6.144674},{"i_lat":-6.155215,"station_name":"Duri","transit":false,"time":4,"is_transit":false,"i_long":106.800832,"line":1,"distance":1230,"station_id":"DU"},{"transit":false,"distance":3632,"time":8,"line":1,"i_long":106.811091,"station_name":"Tanah Abang","station_id":"THB","i_lat":-6.185545,"is_transit":false},{"i_lat":-6.20132,"transit":false,"station_name":"Karet","is_transit":false,"station_id":"KAT","i_long":106.816351,"distance":2029,"line":1,"time":5},{"distance":471,"line":1,"i_lat":-6.201433,"station_id":"SUDB","i_long":106.819881,"time":1,"station_name":"Sudirman Baru","transit":false,"is_transit":false},{"station_name":"Sudirman","is_transit":false,"i_lat":-6.202263,"i_long":106.822649,"line":1,"station_id":"SUD","transit":false,"time":1,"distance":280},{"line":2,"transit":true,"distance":3186,"station_name":"Manggarai","is_transit":true,"i_lat":-6.209883,"station_id":"MRI","time":4,"i_long":106.84912},{"i_long":106.840169,"station_id":"CKI","time":4,"line":2,"is_transit":false,"distance":1590,"transit":false,"station_name":"Cikini","i_lat":-6.198556},{"is_transit":false,"i_long":106.832183,"distance":1750,"line":2,"transit":false,"station_id":"GDD","station_name":"Gondangdia","i_lat":-6.186295,"time":3},{"distance":2015,"station_id":"JUA","i_long":106.828284,"line":2,"i_lat":-6.166716,"transit":false,"time":4,"is_transit":false,"station_name":"Juanda"},{"time":2,"station_name":"Sawah Besar","transit":false,"distance":1149,"station_id":"SW","i_long":106.827103,"line":2,"is_transit":false,"i_lat":-6.160725},{"i_long":106.82482,"time":2,"distance":906,"transit":false,"i_lat":-6.149769,"station_id":"MGB","station_name":"Manggabesar","is_transit":false,"line":2},{"is_transit":false,"i_long":106.820901,"i_lat":-6.141205,"time":2,"line":2,"distance":1080,"station_id":"JAY","transit":false,"station_name":"Jayakarta"}]]}