{"data":[[{"i_lat":-6.215568,"i_long":106.922662,"line":1,"is_transit":false,"transit":false,"time":0,"distance":0,"station_id":"BUA","station_name":"Buaran"},{"station_name":"Klender","is_transit":false,"station_id":"KLD","transit":false,"time":2,"distance":3100,"i_lat":-6.2135,"line":1,"i_long":106.899548},{"is_transit":true,"line":1,"transit":true,"i_lat":-6.215091,"station_id":"JNG","time":3,"distance":3395,"station_name":"Jatinegara","i_long":106.86807400000001},{"station_name":"Pondok Jati","time":2,"is_transit":false,"distance":1236,"station_id":"POK","transit":false,"i_long":106.861737,"i_lat":-6.209188,"line":11},{"transit":false,"is_transit":false,"station_id":"KMT","i_long":106.855437,"i_lat":-6.193792,"line":11,"time":2,"station_name":"Kramat","distance":1829},{"transit":false,"i_long":106.850107,"station_id":"GST","station_name":"Gang Sentiong","distance":973,"time":1,"i_lat":-6.185975,"line":11,"is_transit":false},{"i_long":106.84368,"is_transit":false,"time":8,"line":11,"distance":1567,"station_name":"Pasar Senen","station_id":"PSE","i_lat":-6.174784,"transit":false},{"line":11,"i_long":106.839204,"station_id":"KMO","station_name":"Kemayoran","transit":false,"is_transit":false,"time":4,"i_lat":-6.161728,"distance":1436},{"time":5,"station_name":"Rajawali","i_long":106.836569,"distance":1901,"is_transit":false,"i_lat":-6.14505,"station_id":"RJW","line":11,"transit":false},{"distance":1444,"is_transit":true,"transit":true,"station_name":"Kampung Bandan","i_lat":-6.132549,"i_long":106.826365,"time":3,"station_id":"KPB","line":4},{"transit":false,"line":2,"i_long":106.812439,"time":3,"i_lat":-6.137569,"distance":1364,"station_id":"JAKK","station_name":"Jakarta Kota","is_transit":false}],[{"line":1,"is_transit":false,"i_lat":-6.215568,"transit":false,"time":0,"station_id":"BUA","station_name":"Buaran","distance":0,"i_long":106.922662},{"line":1,"station_name":"Klender","is_transit":false,"transit":false,"distance":3100,"i_long":106.899548,"time":2,"station_id":"KLD","i_lat":-6.2135},{"transit":false,"is_transit":false,"i_long":106.86807400000001,"i_lat":-6.215091,"line":1,"time":3,"station_name":"Jatinegara","distance":3395,"station_id":"JNG"},{"i_long":106.858896,"line":1,"station_name":"Matraman","station_id":"MTR","time":2,"is_transit":false,"i_lat":-6.212485,"transit":false,"distance":1377},{"station_name":"Manggarai","i_long":106.84912,"station_id":"MRI","line":2,"time":2,"transit":true,"i_lat":-6.209883,"distance":1275,"is_transit":true},{"line":2,"i_long":106.840169,"station_name":"Cikini","station_id":"CKI","time":4,"i_lat":-6.198556,"is_transit":false,"distance":1590,"transit":false},{"distance":1750,"transit":false,"i_long":106.832183,"i_lat":-6.186295,"station_id":"GDD","line":2,"time":3,"station_name":"Gondangdia","is_transit":false},{"distance":2015,"transit":false,"line":2,"station_name":"Juanda","is_transit":false,"station_id":"JUA","i_long":106.828284,"time":4,"i_lat":-6.166716},{"time":2,"station_name":"Sawah Besar","distance":1149,"transit":false,"i_lat":-6.160725,"is_transit":false,"line":2,"station_id":"SW","i_long":106.827103},{"time":2,"station_id":"MGB","i_long":106.82482,"transit":false,"line":2,"i_lat":-6.149769,"distance":906,"is_transit":false,"station_name":"Manggabesar"},{"i_long":106.820901,"station_name":"Jayakarta","line":2,"station_id":"JAY","distance":1080,"transit":false,"i_lat":-6.141205,"time":2,"is_transit":false},{"station_name":"Jakarta Kota","i_lat":-6.137569,"station_id":"JAKK","distance":1264,"transit":false,"time":4,"is_transit":false,"line":2,"i_long":106.812439}],[{"station_id":"BUA","station_name":"Buaran","line":1,"time":0,"transit":false,"i_lat":-6.215568,"is_transit":false,"distance":0,"i_long":106.922662},{"i_long":106.899548,"station_id":"KLD","transit":false,"distance":3100,"is_transit":false,"i_lat":-6.2135,"station_name":"Klender","line":1,"time":2},{"distance":3395,"transit":false,"i_long":106.86807400000001,"station_id":"JNG","time":3,"is_transit":false,"station_name":"Jatinegara","i_lat":-6.215091,"line":1},{"station_id":"MTR","i_long":106.858896,"time":2,"distance":1377,"is_transit":false,"i_lat":-6.212485,"line":1,"station_name":"Matraman","transit":false},{"transit":false,"station_id":"MRI","station_name":"Manggarai","is_transit":false,"line":2,"distance":1275,"i_long":106.84912,"i_lat":-6.209883,"time":2},{"time":4,"is_transit":false,"transit":false,"i_long":106.822649,"line":1,"distance":3186,"station_id":"SUD","station_name":"Sudirman","i_lat":-6.202263},{"station_name":"Sudirman Baru","transit":false,"line":1,"i_lat":-6.201433,"i_long":106.819881,"is_transit":false,"time":1,"distance":280,"station_id":"SUDB"},{"is_transit":false,"distance":471,"station_id":"KAT","station_name":"Karet","time":1,"transit":false,"i_long":106.816351,"line":1,"i_lat":-6.20132},{"transit":false,"is_transit":false,"time":5,"i_long":106.811091,"station_id":"THB","station_name":"Tanah Abang","i_lat":-6.185545,"distance":2029,"line":1},{"time":8,"station_id":"DU","is_transit":false,"i_long":106.800832,"i_lat":-6.155215,"line":1,"station_name":"Duri","transit":false,"distance":3632},{"time":4,"station_name":"Angke","transit":false,"i_lat":-6.144674,"i_long":106.79867,"is_transit":false,"distance":1230,"station_id":"AK","line":1},{"is_transit":true,"i_lat":-6.132549,"line":4,"i_long":106.826365,"time":9,"distance":4102,"station_id":"KPB","station_name":"Kampung Bandan","transit":true},{"station_id":"JAKK","transit":false,"distance":1364,"time":3,"station_name":"Jakarta Kota","line":2,"is_transit":false,"i_lat":-6.137569,"i_long":106.812439}],[{"station_id":"BUA","station_name":"Buaran","is_transit":false,"distance":0,"i_lat":-6.215568,"transit":false,"i_long":106.922662,"line":1,"time":0},{"i_lat":-6.2135,"distance":3100,"transit":false,"line":1,"is_transit":false,"i_long":106.899548,"time":2,"station_id":"KLD","station_name":"Klender"},{"time":3,"is_transit":true,"distance":3395,"i_lat":-6.215091,"line":1,"i_long":106.86807400000001,"station_id":"JNG","station_name":"Jatinegara","transit":true},{"time":2,"station_id":"POK","station_name":"Pondok Jati","i_lat":-6.209188,"line":11,"i_long":106.861737,"transit":false,"distance":1236,"is_transit":false},{"line":11,"is_transit":false,"station_id":"KMT","time":2,"distance":1829,"station_name":"Kramat","transit":false,"i_lat":-6.193792,"i_long":106.855437},{"line":11,"transit":false,"is_transit":false,"i_lat":-6.185975,"time":1,"station_id":"GST","distance":973,"station_name":"Gang Sentiong","i_long":106.850107},{"station_id":"PSE","is_transit":false,"line":11,"i_lat":-6.174784,"time":8,"distance":1567,"station_name":"Pasar Senen","i_long":106.84368,"transit":false},{"time":4,"line":11,"station_id":"KMO","is_transit":false,"station_name":"Kemayoran","i_lat":-6.161728,"distance":1436,"transit":false,"i_long":106.839204},{"line":11,"is_transit":false,"time":5,"station_id":"RJW","i_long":106.836569,"station_name":"Rajawali","i_lat":-6.14505,"transit":false,"distance":1901},{"time":3,"i_lat":-6.132549,"station_name":"Kampung Bandan","is_transit":true,"distance":1444,"station_id":"KPB","transit":true,"i_long":106.826365,"line":4},{"i_long":106.79867,"distance":4102,"line":1,"station_id":"AK","is_transit":false,"transit":false,"time":9,"i_lat":-6.144674,"station_name":"Angke"},{"i_long":106.800832,"line":1,"time":4,"distance":1230,"transit":false,"station_name":"Duri","i_lat":-6.155215,"station_id":"DU","is_transit":false},{"time":8,"station_id":"THB","is_transit":false,"station_name":"Tanah Abang","transit":false,"i_lat":-6.185545,"i_long":106.811091,"line":1,"distance":3632},{"i_lat":-6.20132,"station_id":"KAT","is_transit":false,"distance":2029,"line":1,"transit":false,"time":5,"i_long":106.816351,"station_name":"Karet"},{"station_id":"SUDB","is_transit":false,"time":1,"distance":471,"station_name":"Sudirman Baru","transit":false,"line":1,"i_long":106.819881,"i_lat":-6.201433},{"is_transit":false,"i_long":106.822649,"line":1,"i_lat":-6.202263,"time":1,"station_id":"SUD","station_name":"Sudirman","distance":280,"transit":false},{"distance":3186,"transit":true,"i_long":106.84912,"is_transit":true,"station_name":"Manggarai","line":2,"i_lat":-6.209883,"time":4,"station_id":"MRI"},{"time":4,"station_name":"Cikini","i_long":106.840169,"line":2,"transit":false,"is_transit":false,"station_id":"CKI","distance":1590,"i_lat":-6.198556},{"distance":1750,"i_lat":-6.186295,"time":3,"transit":false,"line":2,"i_long":106.832183,"station_name":"Gondangdia","station_id":"GDD","is_transit":false},{"station_id":"JUA","time":4,"transit":false,"station_name":"Juanda","distance":2015,"is_transit":false,"i_long":106.828284,"i_lat":-6.166716,"line":2},{"i_lat":-6.160725,"station_name":"Sawah Besar","is_transit":false,"i_long":106.827103,"time":2,"transit":false,"distance":1149,"station_id":"SW","line":2},{"station_id":"MGB","i_lat":-6.149769,"i_long":106.82482,"is_transit":false,"line":2,"station_name":"Manggabesar","time":2,"distance":906,"transit":false},{"is_transit":false,"i_lat":-6.141205,"time":2,"i_long":106.820901,"line":2,"transit":false,"distance":1080,"station_id":"JAY","station_name":"Jayakarta"},{"i_lat":-6.137569,"i_long":106.812439,"distance":1264,"line":2,"station_name":"Jakarta Kota","time":4,"transit":false,"is_transit":false,"station_id":"JAKK"}]]}