{"data":[[{"i_long":106.922662,"i_lat":-6.215568,"time":0,"station_name":"Buaran","transit":false,"station_id":"BUA","distance":0,"is_transit":false,"line":1},{"line":1,"transit":false,"distance":3100,"i_lat":-6.2135,"time":2,"station_id":"KLD","i_long":106.899548,"station_name":"Klender","is_transit":false},{"station_name":"Jatinegara","i_long":106.86807400000001,"i_lat":-6.215091,"is_transit":false,"time":3,"station_id":"JNG","line":1,"transit":false,"distance":3395},{"station_id":"MTR","is_transit":false,"i_lat":-6.212485,"time":2,"station_name":"Matraman","transit":false,"i_long":106.858896,"line":1,"distance":1377},{"station_id":"MRI","is_transit":false,"distance":1275,"i_lat":-6.209883,"line":2,"i_long":106.84912,"time":2,"station_name":"Manggarai","transit":false},{"is_transit":false,"distance":3186,"transit":false,"station_name":"Sudirman","station_id":"SUD","i_long":106.822649,"line":1,"time":4,"i_lat":-6.202263},{"is_transit":false,"time":1,"station_name":"Sudirman Baru","station_id":"SUDB","line":1,"i_lat":-6.201433,"transit":false,"i_long":106.819881,"distance":280},{"is_transit":false,"i_long":106.816351,"transit":false,"station_id":"KAT","time":1,"i_lat":-6.20132,"line":1,"distance":471,"station_name":"Karet"},{"i_lat":-6.185545,"transit":false,"station_id":"THB","is_transit":false,"line":1,"station_name":"Tanah Abang","distance":2029,"time":5,"i_long":106.811091},{"station_name":"Duri","is_transit":true,"distance":3632,"transit":true,"time":8,"station_id":"DU","i_long":106.800832,"i_lat":-6.155215,"line":1},{"i_lat":-6.162021,"line":5,"distance":1700,"is_transit":false,"station_name":"Grogol","transit":false,"station_id":"GGL","time":3,"i_long":106.788277},{"transit":false,"distance":2036,"line":5,"station_name":"Pesing","is_transit":false,"i_lat":-6.161433,"i_long":106.771379,"station_id":"PSG","time":2}],[{"line":1,"station_id":"BUA","station_name":"Buaran","i_long":106.922662,"distance":0,"is_transit":false,"transit":false,"time":0,"i_lat":-6.215568},{"transit":false,"i_lat":-6.2135,"is_transit":false,"station_name":"Klender","distance":3100,"i_long":106.899548,"line":1,"station_id":"KLD","time":2},{"is_transit":true,"transit":true,"distance":3395,"i_long":106.86807400000001,"station_name":"Jatinegara","i_lat":-6.215091,"time":3,"line":1,"station_id":"JNG"},{"distance":1236,"transit":false,"station_id":"POK","time":2,"line":11,"station_name":"Pondok Jati","is_transit":false,"i_lat":-6.209188,"i_long":106.861737},{"transit":false,"station_name":"Kramat","line":11,"time":2,"station_id":"KMT","i_long":106.855437,"is_transit":false,"distance":1829,"i_lat":-6.193792},{"transit":false,"station_id":"GST","is_transit":false,"i_lat":-6.185975,"i_long":106.850107,"station_name":"Gang Sentiong","line":11,"distance":973,"time":1},{"station_name":"Pasar Senen","i_long":106.84368,"i_lat":-6.174784,"is_transit":false,"distance":1567,"line":11,"station_id":"PSE","transit":false,"time":8},{"distance":1436,"i_lat":-6.161728,"station_name":"Kemayoran","transit":false,"line":11,"is_transit":false,"time":4,"i_long":106.839204,"station_id":"KMO"},{"station_name":"Rajawali","line":11,"transit":false,"time":5,"i_lat":-6.14505,"i_long":106.836569,"is_transit":false,"distance":1901,"station_id":"RJW"},{"i_long":106.826365,"station_name":"Kampung Bandan","line":4,"station_id":"KPB","i_lat":-6.132549,"transit":true,"time":3,"distance":1444,"is_transit":true},{"line":1,"distance":4102,"time":9,"i_lat":-6.144674,"i_long":106.79867,"transit":false,"station_id":"AK","station_name":"Angke","is_transit":false},{"i_long":106.800832,"line":1,"station_id":"DU","is_transit":true,"station_name":"Duri","transit":true,"time":4,"distance":1230,"i_lat":-6.155215},{"line":5,"station_id":"GGL","time":3,"i_long":106.788277,"is_transit":false,"transit":false,"distance":1700,"i_lat":-6.162021,"station_name":"Grogol"},{"is_transit":false,"line":5,"distance":2036,"station_id":"PSG","transit":false,"time":2,"i_lat":-6.161433,"i_long":106.771379,"station_name":"Pesing"}],[{"line":1,"station_name":"Buaran","distance":0,"i_lat":-6.215568,"i_long":106.922662,"is_transit":false,"transit":false,"station_id":"BUA","time":0},{"line":1,"station_name":"Klender","distance":3100,"i_lat":-6.2135,"time":2,"station_id":"KLD","i_long":106.899548,"transit":false,"is_transit":false},{"distance":3395,"i_lat":-6.215091,"line":1,"transit":false,"is_transit":false,"i_long":106.86807400000001,"time":3,"station_id":"JNG","station_name":"Jatinegara"},{"transit":false,"station_name":"Matraman","time":2,"line":1,"distance":1377,"is_transit":false,"i_long":106.858896,"station_id":"MTR","i_lat":-6.212485},{"transit":true,"is_transit":true,"i_lat":-6.209883,"distance":1275,"i_long":106.84912,"line":2,"station_name":"Manggarai","station_id":"MRI","time":2},{"line":2,"i_lat":-6.198556,"transit":false,"i_long":106.840169,"station_name":"Cikini","time":4,"distance":1590,"station_id":"CKI","is_transit":false},{"line":2,"station_name":"Gondangdia","distance":1750,"i_lat":-6.186295,"i_long":106.832183,"station_id":"GDD","is_transit":false,"time":3,"transit":false},{"i_lat":-6.166716,"station_name":"Juanda","i_long":106.828284,"transit":false,"is_transit":false,"time":4,"station_id":"JUA","distance":2015,"line":2},{"station_id":"SW","time":2,"distance":1149,"is_transit":false,"i_long":106.827103,"line":2,"i_lat":-6.160725,"station_name":"Sawah Besar","transit":false},{"is_transit":false,"transit":false,"station_id":"MGB","time":2,"distance":906,"line":2,"station_name":"Manggabesar","i_lat":-6.149769,"i_long":106.82482},{"is_transit":false,"distance":1080,"i_lat":-6.141205,"station_name":"Jayakarta","station_id":"JAY","i_long":106.820901,"line":2,"transit":false,"time":2},{"distance":1264,"transit":true,"is_transit":true,"i_lat":-6.137569,"line":2,"station_name":"Jakarta Kota","station_id":"JAKK","time":4,"i_long":106.812439},{"station_name":"Kampung Bandan","i_lat":-6.132549,"distance":1364,"i_long":106.826365,"line":4,"transit":true,"station_id":"KPB","is_transit":true,"time":3},{"is_transit":false,"i_lat":-6.144674,"i_long":106.79867,"station_name":"Angke","line":1,"time":9,"transit":false,"distance":4102,"station_id":"AK"},{"line":1,"station_id":"DU","time":4,"i_long":106.800832,"is_transit":true,"transit":true,"i_lat":-6.155215,"station_name":"Duri","distance":1230},{"time":3,"i_long":106.788277,"is_transit":false,"transit":false,"station_name":"Grogol","distance":1700,"line":5,"station_id":"GGL","i_lat":-6.162021},{"station_name":"Pesing","i_lat":-6.161433,"is_transit":false,"distance":2036,"station_id":"PSG","line":5,"transit":false,"time":2,"i_long":106.771379}],[{"station_id":"BUA","distance":0,"i_lat":-6.215568,"i_long":106.922662,"transit":false,"is_transit":false,"time":0,"line":1,"station_name":"Buaran"},{"distance":3100,"station_name":"Klender","station_id":"KLD","i_lat":-6.2135,"is_transit":false,"line":1,"i_long":106.899548,"time":2,"transit":false},{"line":1,"transit":true,"station_id":"JNG","i_long":106.86807400000001,"time":3,"station_name":"Jatinegara","is_transit":true,"i_lat":-6.215091,"distance":3395},{"is_transit":false,"station_name":"Pondok Jati","transit":false,"i_lat":-6.209188,"i_long":106.861737,"distance":1236,"station_id":"POK","line":11,"time":2},{"transit":false,"station_name":"Kramat","station_id":"KMT","is_transit":false,"i_lat":-6.193792,"distance":1829,"i_long":106.855437,"time":2,"line":11},{"time":1,"line":11,"is_transit":false,"station_id":"GST","transit":false,"i_long":106.850107,"station_name":"Gang Sentiong","distance":973,"i_lat":-6.185975},{"line":11,"transit":false,"time":8,"i_lat":-6.174784,"station_id":"PSE","is_transit":false,"i_long":106.84368,"station_name":"Pasar Senen","distance":1567},{"transit":false,"is_transit":false,"line":11,"time":4,"station_id":"KMO","i_lat":-6.161728,"i_long":106.839204,"station_name":"Kemayoran","distance":1436},{"distance":1901,"i_long":106.836569,"i_lat":-6.14505,"line":11,"is_transit":false,"station_name":"Rajawali","station_id":"RJW","time":5,"transit":false},{"i_long":106.826365,"i_lat":-6.132549,"line":4,"is_transit":true,"transit":true,"station_id":"KPB","time":3,"distance":1444,"station_name":"Kampung Bandan"},{"transit":true,"station_id":"JAKK","distance":1364,"i_long":106.812439,"line":2,"station_name":"Jakarta Kota","time":3,"is_transit":true,"i_lat":-6.137569},{"station_name":"Jayakarta","time":4,"station_id":"JAY","is_transit":false,"distance":1264,"i_lat":-6.141205,"i_long":106.820901,"transit":false,"line":2},{"i_lat":-6.149769,"station_id":"MGB","i_long":106.82482,"is_transit":false,"station_name":"Manggabesar","time":2,"distance":1080,"line":2,"transit":false},{"i_lat":-6.160725,"station_name":"Sawah Besar","line":2,"time":2,"station_id":"SW","is_transit":false,"distance":906,"i_long":106.827103,"transit":false},{"transit":false,"line":2,"station_id":"JUA","station_name":"Juanda","is_transit":false,"time":2,"distance":1149,"i_lat":-6.166716,"i_long":106.828284},{"i_long":106.832183,"i_lat":-6.186295,"station_name":"Gondangdia","station_id":"GDD","transit":false,"time":4,"line":2,"is_transit":false,"distance":2015},{"is_transit":false,"i_lat":-6.198556,"i_long":106.840169,"line":2,"station_id":"CKI","time":3,"station_name":"Cikini","transit":false,"distance":1750},{"station_id":"MRI","is_transit":true,"line":2,"distance":1590,"time":4,"i_lat":-6.209883,"transit":true,"station_name":"Manggarai","i_long":106.84912},{"i_lat":-6.202263,"transit":false,"time":4,"station_name":"Sudirman","distance":3186,"station_id":"SUD","is_transit":false,"i_long":106.822649,"line":1},{"is_transit":false,"i_lat":-6.201433,"time":1,"distance":280,"station_name":"Sudirman Baru","transit":false,"station_id":"SUDB","i_long":106.819881,"line":1},{"time":1,"line":1,"station_name":"Karet","is_transit":false,"i_long":106.816351,"transit":false,"station_id":"KAT","i_lat":-6.20132,"distance":471},{"time":5,"i_long":106.811091,"station_id":"THB","transit":false,"i_lat":-6.185545,"line":1,"station_name":"Tanah Abang","distance":2029,"is_transit":false},{"station_name":"Duri","i_lat":-6.155215,"distance":3632,"i_long":106.800832,"station_id":"DU","time":8,"line":1,"transit":true,"is_transit":true},{"line":5,"time":3,"station_id":"GGL","i_long":106.788277,"i_lat":-6.162021,"transit":false,"is_transit":false,"distance":1700,"station_name":"Grogol"},{"station_id":"PSG","time":2,"i_lat":-6.161433,"transit":false,"i_long":106.771379,"is_transit":false,"distance":2036,"station_name":"Pesing","line":5}]]}