{"data":[[{"distance":0,"station_name":"Buaran","line":1,"i_long":106.922662,"i_lat":-6.215568,"is_transit":false,"transit":false,"station_id":"BUA","time":0},{"is_transit":false,"distance":3100,"station_name":"Klender","line":1,"time":2,"i_lat":-6.2135,"station_id":"KLD","transit":false,"i_long":106.899548},{"line":1,"station_id":"JNG","distance":3395,"i_lat":-6.215091,"transit":false,"i_long":106.86807400000001,"station_name":"Jatinegara","time":3,"is_transit":false},{"i_lat":-6.212485,"i_long":106.858896,"line":1,"distance":1377,"transit":false,"is_transit":false,"time":2,"station_id":"MTR","station_name":"Matraman"},{"distance":1275,"is_transit":false,"i_lat":-6.209883,"station_id":"MRI","line":2,"i_long":106.84912,"time":2,"station_name":"Manggarai","transit":false},{"station_id":"SUD","station_name":"Sudirman","is_transit":false,"transit":false,"i_lat":-6.202263,"i_long":106.822649,"line":1,"distance":3186,"time":4},{"station_name":"Sudirman Baru","station_id":"SUDB","is_transit":false,"i_long":106.819881,"time":1,"distance":280,"transit":false,"i_lat":-6.201433,"line":1},{"i_long":106.816351,"i_lat":-6.20132,"is_transit":false,"time":1,"station_id":"KAT","distance":471,"transit":false,"line":1,"station_name":"Karet"},{"time":5,"line":1,"station_name":"Tanah Abang","distance":2029,"is_transit":false,"transit":false,"i_lat":-6.185545,"i_long":106.811091,"station_id":"THB"},{"station_name":"Duri","is_transit":true,"time":8,"i_lat":-6.155215,"i_long":106.800832,"station_id":"DU","distance":3632,"transit":true,"line":1},{"i_long":106.788277,"i_lat":-6.162021,"time":3,"station_name":"Grogol","line":5,"is_transit":false,"distance":1700,"station_id":"GGL","transit":false},{"transit":false,"distance":2036,"station_name":"Pesing","is_transit":false,"i_lat":-6.161433,"line":5,"time":2,"station_id":"PSG","i_long":106.771379},{"line":5,"time":2,"station_id":"TKO","transit":false,"distance":1614,"i_lat":-6.1587309999999995,"is_transit":false,"station_name":"Taman Kota","i_long":106.756522},{"is_transit":false,"i_lat":-6.159876,"transit":false,"i_long":106.737035,"time":2,"line":5,"station_name":"Bojongindah","distance":2334,"station_id":"BOI"},{"i_long":106.723064,"time":4,"distance":1152,"station_name":"Rawa Buaya","transit":false,"i_lat":-6.162758,"is_transit":false,"line":5,"station_id":"RW"}],[{"distance":0,"i_lat":-6.215568,"station_id":"BUA","i_long":106.922662,"transit":false,"is_transit":false,"line":1,"station_name":"Buaran","time":0},{"is_transit":false,"line":1,"time":2,"station_name":"Klender","i_long":106.899548,"station_id":"KLD","distance":3100,"i_lat":-6.2135,"transit":false},{"i_lat":-6.215091,"time":3,"is_transit":true,"distance":3395,"station_id":"JNG","line":1,"i_long":106.86807400000001,"transit":true,"station_name":"Jatinegara"},{"transit":false,"line":11,"i_lat":-6.209188,"time":2,"station_id":"POK","distance":1236,"is_transit":false,"i_long":106.861737,"station_name":"Pondok Jati"},{"i_long":106.855437,"line":11,"distance":1829,"time":2,"station_id":"KMT","transit":false,"i_lat":-6.193792,"station_name":"Kramat","is_transit":false},{"time":1,"i_lat":-6.185975,"station_id":"GST","i_long":106.850107,"distance":973,"station_name":"Gang Sentiong","is_transit":false,"transit":false,"line":11},{"i_long":106.84368,"line":11,"station_id":"PSE","time":8,"i_lat":-6.174784,"distance":1567,"station_name":"Pasar Senen","is_transit":false,"transit":false},{"line":11,"station_id":"KMO","transit":false,"i_long":106.839204,"time":4,"distance":1436,"station_name":"Kemayoran","is_transit":false,"i_lat":-6.161728},{"distance":1901,"is_transit":false,"time":5,"station_id":"RJW","i_lat":-6.14505,"line":11,"transit":false,"i_long":106.836569,"station_name":"Rajawali"},{"is_transit":true,"transit":true,"time":3,"i_long":106.826365,"station_id":"KPB","station_name":"Kampung Bandan","line":4,"i_lat":-6.132549,"distance":1444},{"is_transit":false,"station_id":"AK","station_name":"Angke","distance":4102,"transit":false,"i_long":106.79867,"line":1,"i_lat":-6.144674,"time":9},{"station_name":"Duri","is_transit":true,"line":1,"time":4,"i_lat":-6.155215,"station_id":"DU","transit":true,"distance":1230,"i_long":106.800832},{"is_transit":false,"station_name":"Grogol","distance":1700,"time":3,"station_id":"GGL","i_lat":-6.162021,"transit":false,"i_long":106.788277,"line":5},{"time":2,"i_lat":-6.161433,"station_id":"PSG","i_long":106.771379,"station_name":"Pesing","is_transit":false,"distance":2036,"line":5,"transit":false},{"distance":1614,"i_long":106.756522,"is_transit":false,"station_name":"Taman Kota","line":5,"station_id":"TKO","transit":false,"i_lat":-6.1587309999999995,"time":2},{"i_lat":-6.159876,"line":5,"distance":2334,"station_id":"BOI","is_transit":false,"transit":false,"i_long":106.737035,"time":2,"station_name":"Bojongindah"},{"station_name":"Rawa Buaya","i_lat":-6.162758,"station_id":"RW","transit":false,"is_transit":false,"i_long":106.723064,"distance":1152,"line":5,"time":4}],[{"station_id":"BUA","is_transit":false,"i_long":106.922662,"time":0,"station_name":"Buaran","i_lat":-6.215568,"transit":false,"distance":0,"line":1},{"time":2,"i_long":106.899548,"station_id":"KLD","i_lat":-6.2135,"distance":3100,"is_transit":false,"transit":false,"station_name":"Klender","line":1},{"time":3,"distance":3395,"transit":false,"station_id":"JNG","is_transit":false,"i_long":106.86807400000001,"station_name":"Jatinegara","line":1,"i_lat":-6.215091},{"line":1,"time":2,"station_name":"Matraman","i_lat":-6.212485,"i_long":106.858896,"transit":false,"station_id":"MTR","is_transit":false,"distance":1377},{"station_name":"Manggarai","distance":1275,"i_lat":-6.209883,"i_long":106.84912,"time":2,"line":2,"is_transit":true,"station_id":"MRI","transit":true},{"line":2,"transit":false,"i_lat":-6.198556,"station_name":"Cikini","is_transit":false,"time":4,"distance":1590,"i_long":106.840169,"station_id":"CKI"},{"i_lat":-6.186295,"station_id":"GDD","i_long":106.832183,"line":2,"transit":false,"is_transit":false,"station_name":"Gondangdia","time":3,"distance":1750},{"line":2,"time":4,"distance":2015,"i_lat":-6.166716,"transit":false,"station_name":"Juanda","is_transit":false,"i_long":106.828284,"station_id":"JUA"},{"line":2,"station_name":"Sawah Besar","i_lat":-6.160725,"is_transit":false,"distance":1149,"i_long":106.827103,"time":2,"transit":false,"station_id":"SW"},{"time":2,"i_long":106.82482,"i_lat":-6.149769,"distance":906,"is_transit":false,"transit":false,"line":2,"station_id":"MGB","station_name":"Manggabesar"},{"distance":1080,"station_id":"JAY","transit":false,"station_name":"Jayakarta","time":2,"i_long":106.820901,"line":2,"is_transit":false,"i_lat":-6.141205},{"transit":true,"line":2,"i_long":106.812439,"time":4,"i_lat":-6.137569,"station_name":"Jakarta Kota","is_transit":true,"station_id":"JAKK","distance":1264},{"station_id":"KPB","is_transit":true,"time":3,"line":4,"transit":true,"distance":1364,"station_name":"Kampung Bandan","i_lat":-6.132549,"i_long":106.826365},{"distance":4102,"is_transit":false,"time":9,"station_id":"AK","transit":false,"line":1,"i_long":106.79867,"station_name":"Angke","i_lat":-6.144674},{"transit":true,"distance":1230,"is_transit":true,"time":4,"i_long":106.800832,"line":1,"i_lat":-6.155215,"station_name":"Duri","station_id":"DU"},{"i_long":106.788277,"line":5,"transit":false,"i_lat":-6.162021,"is_transit":false,"time":3,"station_name":"Grogol","station_id":"GGL","distance":1700},{"transit":false,"station_name":"Pesing","distance":2036,"i_long":106.771379,"time":2,"is_transit":false,"i_lat":-6.161433,"line":5,"station_id":"PSG"},{"i_long":106.756522,"station_name":"Taman Kota","distance":1614,"is_transit":false,"line":5,"transit":false,"time":2,"station_id":"TKO","i_lat":-6.1587309999999995},{"station_id":"BOI","i_lat":-6.159876,"station_name":"Bojongindah","is_transit":false,"time":2,"distance":2334,"line":5,"i_long":106.737035,"transit":false},{"i_long":106.723064,"is_transit":false,"transit":false,"distance":1152,"line":5,"time":4,"i_lat":-6.162758,"station_id":"RW","station_name":"Rawa Buaya"}],[{"transit":false,"i_lat":-6.215568,"i_long":106.922662,"line":1,"station_id":"BUA","is_transit":false,"time":0,"distance":0,"station_name":"Buaran"},{"is_transit":false,"station_name":"Klender","transit":false,"line":1,"i_long":106.899548,"station_id":"KLD","distance":3100,"i_lat":-6.2135,"time":2},{"transit":true,"station_name":"Jatinegara","distance":3395,"i_lat":-6.215091,"station_id":"JNG","i_long":106.86807400000001,"line":1,"time":3,"is_transit":true},{"is_transit":false,"transit":false,"i_long":106.861737,"line":11,"station_id":"POK","time":2,"distance":1236,"station_name":"Pondok Jati","i_lat":-6.209188},{"distance":1829,"is_transit":false,"i_lat":-6.193792,"time":2,"transit":false,"i_long":106.855437,"station_name":"Kramat","station_id":"KMT","line":11},{"transit":false,"station_id":"GST","i_lat":-6.185975,"i_long":106.850107,"station_name":"Gang Sentiong","distance":973,"line":11,"time":1,"is_transit":false},{"i_lat":-6.174784,"transit":false,"i_long":106.84368,"line":11,"station_id":"PSE","station_name":"Pasar Senen","is_transit":false,"time":8,"distance":1567},{"distance":1436,"i_lat":-6.161728,"time":4,"line":11,"station_id":"KMO","i_long":106.839204,"is_transit":false,"transit":false,"station_name":"Kemayoran"},{"distance":1901,"is_transit":false,"i_lat":-6.14505,"i_long":106.836569,"station_id":"RJW","time":5,"line":11,"station_name":"Rajawali","transit":false},{"is_transit":true,"i_long":106.826365,"station_id":"KPB","time":3,"station_name":"Kampung Bandan","transit":true,"i_lat":-6.132549,"line":4,"distance":1444},{"time":3,"distance":1364,"station_id":"JAKK","i_lat":-6.137569,"i_long":106.812439,"line":2,"transit":true,"is_transit":true,"station_name":"Jakarta Kota"},{"transit":false,"distance":1264,"station_name":"Jayakarta","i_long":106.820901,"station_id":"JAY","i_lat":-6.141205,"is_transit":false,"line":2,"time":4},{"line":2,"is_transit":false,"station_id":"MGB","transit":false,"station_name":"Manggabesar","time":2,"distance":1080,"i_lat":-6.149769,"i_long":106.82482},{"station_id":"SW","station_name":"Sawah Besar","is_transit":false,"distance":906,"i_lat":-6.160725,"i_long":106.827103,"transit":false,"time":2,"line":2},{"time":2,"distance":1149,"station_name":"Juanda","i_long":106.828284,"i_lat":-6.166716,"line":2,"transit":false,"station_id":"JUA","is_transit":false},{"station_id":"GDD","station_name":"Gondangdia","time":4,"i_lat":-6.186295,"i_long":106.832183,"line":2,"transit":false,"is_transit":false,"distance":2015},{"line":2,"station_name":"Cikini","i_long":106.840169,"transit":false,"station_id":"CKI","is_transit":false,"distance":1750,"i_lat":-6.198556,"time":3},{"station_name":"Manggarai","distance":1590,"transit":true,"i_long":106.84912,"line":2,"is_transit":true,"time":4,"station_id":"MRI","i_lat":-6.209883},{"station_id":"SUD","i_long":106.822649,"time":4,"station_name":"Sudirman","transit":false,"distance":3186,"i_lat":-6.202263,"line":1,"is_transit":false},{"time":1,"distance":280,"transit":false,"line":1,"is_transit":false,"i_lat":-6.201433,"station_id":"SUDB","station_name":"Sudirman Baru","i_long":106.819881},{"station_name":"Karet","is_transit":false,"distance":471,"i_lat":-6.20132,"i_long":106.816351,"station_id":"KAT","line":1,"transit":false,"time":1},{"station_name":"Tanah Abang","distance":2029,"i_lat":-6.185545,"i_long":106.811091,"line":1,"time":5,"station_id":"THB","is_transit":false,"transit":false},{"is_transit":true,"station_name":"Duri","line":1,"station_id":"DU","time":8,"transit":true,"distance":3632,"i_lat":-6.155215,"i_long":106.800832},{"distance":1700,"station_id":"GGL","is_transit":false,"station_name":"Grogol","i_long":106.788277,"line":5,"transit":false,"time":3,"i_lat":-6.162021},{"distance":2036,"transit":false,"station_id":"PSG","time":2,"i_long":106.771379,"line":5,"station_name":"Pesing","i_lat":-6.161433,"is_transit":false},{"i_lat":-6.1587309999999995,"time":2,"is_transit":false,"i_long":106.756522,"line":5,"station_name":"Taman Kota","distance":1614,"transit":false,"station_id":"TKO"},{"station_name":"Bojongindah","i_lat":-6.159876,"station_id":"BOI","line":5,"distance":2334,"transit":false,"i_long":106.737035,"time":2,"is_transit":false},{"line":5,"distance":1152,"station_id":"RW","time":4,"is_transit":false,"i_lat":-6.162758,"station_name":"Rawa Buaya","transit":false,"i_long":106.723064}]]}