{"data":[[{"time":0,"i_lat":-6.215568,"is_transit":false,"i_long":106.922662,"station_id":"BUA","station_name":"Buaran","distance":0,"transit":false,"line":0},{"station_name":"Klenderbaru","line":1,"i_long":106.939679,"is_transit":false,"i_lat":-6.217455,"transit":false,"station_id":"KLDB","distance":1305,"time":1},{"i_long":106.951283,"time":8,"i_lat":-6.219053,"line":0,"is_transit":false,"station_name":"Cakung","distance":1385,"station_id":"CUK","transit":false},{"station_id":"KRI","distance":3097,"time":3,"station_name":"Kranji","i_long":106.977657,"is_transit":false,"i_lat":-6.224515,"transit":false,"line":1},{"station_name":"Bekasi","station_id":"BKS","is_transit":false,"time":4,"transit":false,"distance":2520,"i_long":106.997013,"i_lat":-6.236616,"line":0},{"time":2,"line":0,"is_transit":false,"station_name":"Bekasi Timur","i_lat":-6.248029,"station_id":"BKST","i_long":107.016735,"distance":2368,"transit":false},{"i_long":107.055722,"station_id":"TB","time":7,"line":1,"station_name":"Tambun","is_transit":false,"distance":4460,"transit":false,"i_lat":-6.258864}]]}