{"data":[[{"transit":false,"time":0,"i_long":106.922662,"line":1,"i_lat":-6.215568,"station_name":"Buaran","distance":0,"is_transit":false,"station_id":"BUA"},{"station_name":"Klender","i_lat":-6.2135,"transit":false,"line":1,"distance":3100,"time":2,"i_long":106.899548,"is_transit":false,"station_id":"KLD"},{"station_name":"Jatinegara","i_lat":-6.215091,"line":1,"station_id":"JNG","transit":false,"time":3,"distance":3395,"i_long":106.86807400000001,"is_transit":false},{"station_id":"MTR","station_name":"Matraman","line":1,"time":2,"i_long":106.858896,"transit":false,"distance":1377,"is_transit":false,"i_lat":-6.212485},{"station_id":"MRI","i_long":106.84912,"is_transit":true,"i_lat":-6.209883,"transit":true,"station_name":"Manggarai","distance":1275,"time":2,"line":2},{"i_long":106.840169,"line":2,"is_transit":false,"transit":false,"station_id":"CKI","time":4,"station_name":"Cikini","distance":1590,"i_lat":-6.198556}],[{"transit":false,"is_transit":false,"line":1,"station_name":"Buaran","time":0,"distance":0,"i_lat":-6.215568,"i_long":106.922662,"station_id":"BUA"},{"i_lat":-6.2135,"station_id":"KLD","line":1,"i_long":106.899548,"time":2,"station_name":"Klender","is_transit":false,"distance":3100,"transit":false},{"i_long":106.86807400000001,"transit":true,"is_transit":true,"station_id":"JNG","station_name":"Jatinegara","distance":3395,"time":3,"line":1,"i_lat":-6.215091},{"is_transit":false,"line":11,"i_long":106.861737,"time":2,"station_id":"POK","transit":false,"distance":1236,"station_name":"Pondok Jati","i_lat":-6.209188},{"transit":false,"time":2,"distance":1829,"station_name":"Kramat","line":11,"i_lat":-6.193792,"station_id":"KMT","is_transit":false,"i_long":106.855437},{"station_name":"Gang Sentiong","line":11,"transit":false,"station_id":"GST","is_transit":false,"i_long":106.850107,"time":1,"i_lat":-6.185975,"distance":973},{"transit":false,"distance":1567,"time":8,"is_transit":false,"i_lat":-6.174784,"station_id":"PSE","i_long":106.84368,"line":11,"station_name":"Pasar Senen"},{"i_lat":-6.161728,"i_long":106.839204,"distance":1436,"line":11,"station_name":"Kemayoran","station_id":"KMO","time":4,"is_transit":false,"transit":false},{"station_name":"Rajawali","time":5,"transit":false,"is_transit":false,"line":11,"station_id":"RJW","distance":1901,"i_long":106.836569,"i_lat":-6.14505},{"station_id":"KPB","transit":true,"time":3,"i_long":106.826365,"line":4,"distance":1444,"station_name":"Kampung Bandan","is_transit":true,"i_lat":-6.132549},{"distance":1364,"i_long":106.812439,"transit":true,"station_id":"JAKK","time":3,"station_name":"Jakarta Kota","is_transit":true,"i_lat":-6.137569,"line":2},{"distance":1264,"line":2,"station_name":"Jayakarta","transit":false,"i_long":106.820901,"i_lat":-6.141205,"station_id":"JAY","is_transit":false,"time":4},{"transit":false,"station_id":"MGB","i_lat":-6.149769,"time":2,"station_name":"Manggabesar","i_long":106.82482,"distance":1080,"is_transit":false,"line":2},{"i_long":106.827103,"station_id":"SW","is_transit":false,"i_lat":-6.160725,"station_name":"Sawah Besar","distance":906,"line":2,"time":2,"transit":false},{"line":2,"is_transit":false,"station_name":"Juanda","time":2,"station_id":"JUA","transit":false,"i_long":106.828284,"i_lat":-6.166716,"distance":1149},{"line":2,"i_lat":-6.186295,"station_id":"GDD","is_transit":false,"time":4,"station_name":"Gondangdia","distance":2015,"i_long":106.832183,"transit":false},{"is_transit":false,"distance":1750,"time":3,"station_name":"Cikini","i_lat":-6.198556,"i_long":106.840169,"line":2,"transit":false,"station_id":"CKI"}],[{"transit":false,"i_long":106.922662,"time":0,"distance":0,"i_lat":-6.215568,"is_transit":false,"station_id":"BUA","line":1,"station_name":"Buaran"},{"transit":false,"distance":3100,"i_lat":-6.2135,"station_name":"Klender","i_long":106.899548,"time":2,"line":1,"station_id":"KLD","is_transit":false},{"time":3,"i_lat":-6.215091,"is_transit":true,"line":1,"i_long":106.86807400000001,"distance":3395,"transit":true,"station_name":"Jatinegara","station_id":"JNG"},{"station_id":"POK","station_name":"Pondok Jati","time":2,"i_lat":-6.209188,"is_transit":false,"i_long":106.861737,"transit":false,"line":11,"distance":1236},{"time":2,"distance":1829,"is_transit":false,"i_long":106.855437,"line":11,"station_name":"Kramat","station_id":"KMT","i_lat":-6.193792,"transit":false},{"is_transit":false,"time":1,"line":11,"distance":973,"station_name":"Gang Sentiong","transit":false,"station_id":"GST","i_lat":-6.185975,"i_long":106.850107},{"station_name":"Pasar Senen","distance":1567,"transit":false,"station_id":"PSE","time":8,"i_long":106.84368,"line":11,"i_lat":-6.174784,"is_transit":false},{"i_long":106.839204,"line":11,"time":4,"transit":false,"distance":1436,"is_transit":false,"station_id":"KMO","i_lat":-6.161728,"station_name":"Kemayoran"},{"station_id":"RJW","distance":1901,"station_name":"Rajawali","time":5,"i_lat":-6.14505,"line":11,"transit":false,"is_transit":false,"i_long":106.836569},{"distance":1444,"i_lat":-6.132549,"transit":true,"station_id":"KPB","station_name":"Kampung Bandan","is_transit":true,"i_long":106.826365,"time":3,"line":4},{"station_id":"AK","time":9,"line":1,"i_lat":-6.144674,"transit":false,"is_transit":false,"distance":4102,"station_name":"Angke","i_long":106.79867},{"station_name":"Duri","i_lat":-6.155215,"time":4,"transit":false,"is_transit":false,"i_long":106.800832,"station_id":"DU","distance":1230,"line":1},{"station_name":"Tanah Abang","i_long":106.811091,"i_lat":-6.185545,"transit":false,"time":8,"distance":3632,"line":1,"is_transit":false,"station_id":"THB"},{"station_name":"Karet","line":1,"is_transit":false,"transit":false,"station_id":"KAT","i_lat":-6.20132,"distance":2029,"i_long":106.816351,"time":5},{"station_id":"SUDB","i_lat":-6.201433,"time":1,"distance":471,"line":1,"station_name":"Sudirman Baru","i_long":106.819881,"is_transit":false,"transit":false},{"station_id":"SUD","line":1,"time":1,"distance":280,"i_lat":-6.202263,"station_name":"Sudirman","transit":false,"i_long":106.822649,"is_transit":false},{"line":2,"distance":3186,"station_name":"Manggarai","time":4,"transit":true,"station_id":"MRI","i_lat":-6.209883,"is_transit":true,"i_long":106.84912},{"station_name":"Cikini","distance":1590,"station_id":"CKI","transit":false,"line":2,"time":4,"i_lat":-6.198556,"i_long":106.840169,"is_transit":false}],[{"time":0,"transit":false,"station_id":"BUA","distance":0,"is_transit":false,"i_long":106.922662,"station_name":"Buaran","line":1,"i_lat":-6.215568},{"is_transit":false,"station_name":"Klender","line":1,"station_id":"KLD","time":2,"distance":3100,"i_long":106.899548,"transit":false,"i_lat":-6.2135},{"is_transit":false,"line":1,"station_id":"JNG","station_name":"Jatinegara","distance":3395,"i_lat":-6.215091,"i_long":106.86807400000001,"transit":false,"time":3},{"i_long":106.858896,"line":1,"station_id":"MTR","i_lat":-6.212485,"station_name":"Matraman","is_transit":false,"transit":false,"distance":1377,"time":2},{"station_name":"Manggarai","distance":1275,"transit":false,"time":2,"i_long":106.84912,"station_id":"MRI","i_lat":-6.209883,"line":2,"is_transit":false},{"station_name":"Sudirman","transit":false,"is_transit":false,"time":4,"distance":3186,"i_lat":-6.202263,"i_long":106.822649,"line":1,"station_id":"SUD"},{"station_id":"SUDB","distance":280,"line":1,"i_lat":-6.201433,"time":1,"transit":false,"i_long":106.819881,"station_name":"Sudirman Baru","is_transit":false},{"station_id":"KAT","time":1,"station_name":"Karet","distance":471,"transit":false,"is_transit":false,"i_lat":-6.20132,"i_long":106.816351,"line":1},{"station_id":"THB","is_transit":false,"distance":2029,"time":5,"transit":false,"station_name":"Tanah Abang","line":1,"i_lat":-6.185545,"i_long":106.811091},{"station_id":"DU","i_lat":-6.155215,"time":8,"distance":3632,"transit":false,"is_transit":false,"i_long":106.800832,"line":1,"station_name":"Duri"},{"time":4,"station_name":"Angke","i_long":106.79867,"distance":1230,"i_lat":-6.144674,"transit":false,"is_transit":false,"line":1,"station_id":"AK"},{"station_name":"Kampung Bandan","station_id":"KPB","line":4,"i_long":106.826365,"time":9,"distance":4102,"i_lat":-6.132549,"is_transit":true,"transit":true},{"station_id":"JAKK","is_transit":true,"time":3,"i_lat":-6.137569,"distance":1364,"transit":true,"station_name":"Jakarta Kota","i_long":106.812439,"line":2},{"time":4,"i_lat":-6.141205,"transit":false,"is_transit":false,"distance":1264,"line":2,"station_name":"Jayakarta","station_id":"JAY","i_long":106.820901},{"i_long":106.82482,"line":2,"distance":1080,"time":2,"i_lat":-6.149769,"is_transit":false,"station_name":"Manggabesar","transit":false,"station_id":"MGB"},{"station_id":"SW","distance":906,"station_name":"Sawah Besar","time":2,"i_lat":-6.160725,"i_long":106.827103,"transit":false,"line":2,"is_transit":false},{"i_lat":-6.166716,"i_long":106.828284,"is_transit":false,"line":2,"station_id":"JUA","distance":1149,"station_name":"Juanda","transit":false,"time":2},{"distance":2015,"i_long":106.832183,"station_id":"GDD","time":4,"i_lat":-6.186295,"station_name":"Gondangdia","line":2,"is_transit":false,"transit":false},{"transit":false,"is_transit":false,"station_id":"CKI","distance":1750,"i_long":106.840169,"i_lat":-6.198556,"line":2,"station_name":"Cikini","time":3}]]}