{"data":[[{"station_id":"BUA","i_lat":-6.215568,"distance":0,"transit":false,"i_long":106.922662,"line":1,"is_transit":false,"station_name":"Buaran","time":0},{"i_long":106.939679,"distance":1305,"is_transit":false,"station_id":"KLDB","line":1,"i_lat":-6.217455,"time":1,"station_name":"Klenderbaru","transit":false},{"station_name":"Cakung","time":8,"i_long":106.951283,"is_transit":false,"station_id":"CUK","transit":false,"distance":1385,"line":1,"i_lat":-6.219053},{"transit":false,"station_name":"Kranji","time":3,"i_lat":-6.224515,"station_id":"KRI","line":1,"distance":3097,"is_transit":false,"i_long":106.977657},{"is_transit":false,"i_lat":-6.236616,"line":1,"station_id":"BKS","station_name":"Bekasi","i_long":106.997013,"transit":false,"time":4,"distance":2520},{"time":2,"i_lat":-6.248029,"station_name":"Bekasi Timur","transit":false,"station_id":"BKST","line":1,"is_transit":false,"i_long":107.016735,"distance":2368},{"i_long":107.055722,"is_transit":false,"station_name":"Tambun","transit":false,"time":7,"i_lat":-6.258864,"station_id":"TB","distance":4460,"line":1}]]}