{"data":[[{"station_id":"BUA","station_name":"Buaran","distance":0,"transit":false,"i_long":106.922662,"time":0,"is_transit":false,"line":1,"i_lat":-6.215568},{"station_id":"KLD","is_transit":false,"distance":3100,"i_lat":-6.2135,"i_long":106.899548,"transit":false,"time":2,"line":1,"station_name":"Klender"},{"station_name":"Jatinegara","is_transit":false,"i_lat":-6.215091,"line":1,"time":3,"station_id":"JNG","distance":3395,"i_long":106.86807400000001,"transit":false},{"transit":false,"distance":1377,"i_long":106.858896,"line":1,"station_id":"MTR","is_transit":false,"i_lat":-6.212485,"station_name":"Matraman","time":2},{"time":2,"i_lat":-6.209883,"line":2,"transit":false,"station_id":"MRI","is_transit":false,"i_long":106.84912,"station_name":"Manggarai","distance":1275},{"i_long":106.822649,"line":1,"station_id":"SUD","is_transit":false,"distance":3186,"station_name":"Sudirman","time":4,"i_lat":-6.202263,"transit":false},{"is_transit":false,"transit":false,"time":1,"i_long":106.819881,"station_name":"Sudirman Baru","station_id":"SUDB","i_lat":-6.201433,"distance":280,"line":1},{"i_long":106.816351,"transit":false,"station_id":"KAT","is_transit":false,"i_lat":-6.20132,"time":1,"distance":471,"station_name":"Karet","line":1},{"station_name":"Tanah Abang","i_lat":-6.185545,"time":5,"transit":false,"distance":2029,"line":1,"is_transit":false,"i_long":106.811091,"station_id":"THB"},{"station_id":"DU","time":8,"is_transit":false,"line":1,"i_lat":-6.155215,"i_long":106.800832,"distance":3632,"transit":false,"station_name":"Duri"}],[{"transit":false,"station_name":"Buaran","i_lat":-6.215568,"station_id":"BUA","distance":0,"time":0,"i_long":106.922662,"line":1,"is_transit":false},{"is_transit":false,"i_lat":-6.2135,"i_long":106.899548,"station_name":"Klender","transit":false,"station_id":"KLD","line":1,"time":2,"distance":3100},{"is_transit":true,"transit":true,"station_name":"Jatinegara","i_lat":-6.215091,"i_long":106.86807400000001,"line":1,"station_id":"JNG","time":3,"distance":3395},{"i_long":106.861737,"time":2,"line":11,"station_id":"POK","distance":1236,"is_transit":false,"transit":false,"i_lat":-6.209188,"station_name":"Pondok Jati"},{"is_transit":false,"line":11,"station_id":"KMT","i_lat":-6.193792,"distance":1829,"i_long":106.855437,"time":2,"station_name":"Kramat","transit":false},{"i_lat":-6.185975,"time":1,"station_name":"Gang Sentiong","transit":false,"is_transit":false,"line":11,"distance":973,"i_long":106.850107,"station_id":"GST"},{"transit":false,"station_name":"Pasar Senen","is_transit":false,"distance":1567,"station_id":"PSE","line":11,"i_lat":-6.174784,"time":8,"i_long":106.84368},{"line":11,"is_transit":false,"station_name":"Kemayoran","time":4,"transit":false,"station_id":"KMO","i_lat":-6.161728,"distance":1436,"i_long":106.839204},{"station_name":"Rajawali","transit":false,"is_transit":false,"distance":1901,"i_lat":-6.14505,"line":11,"time":5,"station_id":"RJW","i_long":106.836569},{"i_lat":-6.132549,"is_transit":true,"time":3,"line":4,"station_name":"Kampung Bandan","distance":1444,"transit":true,"i_long":106.826365,"station_id":"KPB"},{"time":9,"is_transit":false,"distance":4102,"station_id":"AK","station_name":"Angke","i_lat":-6.144674,"transit":false,"i_long":106.79867,"line":1},{"distance":1230,"station_id":"DU","i_lat":-6.155215,"transit":false,"station_name":"Duri","is_transit":false,"time":4,"i_long":106.800832,"line":1}],[{"station_name":"Buaran","i_long":106.922662,"time":0,"line":1,"station_id":"BUA","is_transit":false,"distance":0,"transit":false,"i_lat":-6.215568},{"station_id":"KLD","i_long":106.899548,"line":1,"transit":false,"i_lat":-6.2135,"is_transit":false,"station_name":"Klender","time":2,"distance":3100},{"station_name":"Jatinegara","station_id":"JNG","distance":3395,"i_lat":-6.215091,"transit":false,"i_long":106.86807400000001,"line":1,"time":3,"is_transit":false},{"i_long":106.858896,"station_id":"MTR","is_transit":false,"i_lat":-6.212485,"time":2,"line":1,"distance":1377,"station_name":"Matraman","transit":false},{"i_long":106.84912,"line":2,"station_id":"MRI","is_transit":true,"transit":true,"station_name":"Manggarai","time":2,"distance":1275,"i_lat":-6.209883},{"station_id":"CKI","distance":1590,"transit":false,"time":4,"is_transit":false,"i_lat":-6.198556,"line":2,"station_name":"Cikini","i_long":106.840169},{"i_long":106.832183,"is_transit":false,"station_id":"GDD","i_lat":-6.186295,"line":2,"time":3,"transit":false,"station_name":"Gondangdia","distance":1750},{"station_name":"Juanda","i_lat":-6.166716,"station_id":"JUA","transit":false,"is_transit":false,"line":2,"distance":2015,"time":4,"i_long":106.828284},{"is_transit":false,"station_id":"SW","time":2,"distance":1149,"i_lat":-6.160725,"station_name":"Sawah Besar","transit":false,"i_long":106.827103,"line":2},{"time":2,"distance":906,"i_long":106.82482,"transit":false,"station_id":"MGB","is_transit":false,"line":2,"station_name":"Manggabesar","i_lat":-6.149769},{"station_id":"JAY","line":2,"i_long":106.820901,"time":2,"distance":1080,"i_lat":-6.141205,"transit":false,"station_name":"Jayakarta","is_transit":false},{"line":2,"station_id":"JAKK","i_long":106.812439,"i_lat":-6.137569,"station_name":"Jakarta Kota","transit":true,"time":4,"is_transit":true,"distance":1264},{"distance":1364,"transit":true,"station_id":"KPB","is_transit":true,"time":3,"station_name":"Kampung Bandan","i_lat":-6.132549,"i_long":106.826365,"line":4},{"i_long":106.79867,"transit":false,"i_lat":-6.144674,"line":1,"distance":4102,"is_transit":false,"time":9,"station_name":"Angke","station_id":"AK"},{"line":1,"station_name":"Duri","i_lat":-6.155215,"transit":false,"station_id":"DU","is_transit":false,"time":4,"distance":1230,"i_long":106.800832}],[{"time":0,"i_long":106.922662,"station_name":"Buaran","is_transit":false,"line":1,"distance":0,"i_lat":-6.215568,"transit":false,"station_id":"BUA"},{"i_lat":-6.2135,"transit":false,"station_id":"KLD","line":1,"is_transit":false,"distance":3100,"time":2,"i_long":106.899548,"station_name":"Klender"},{"transit":true,"station_name":"Jatinegara","is_transit":true,"distance":3395,"station_id":"JNG","i_long":106.86807400000001,"time":3,"i_lat":-6.215091,"line":1},{"station_id":"POK","station_name":"Pondok Jati","i_long":106.861737,"i_lat":-6.209188,"distance":1236,"line":11,"transit":false,"time":2,"is_transit":false},{"station_id":"KMT","time":2,"distance":1829,"i_lat":-6.193792,"transit":false,"i_long":106.855437,"line":11,"station_name":"Kramat","is_transit":false},{"distance":973,"transit":false,"station_name":"Gang Sentiong","i_lat":-6.185975,"is_transit":false,"i_long":106.850107,"time":1,"line":11,"station_id":"GST"},{"is_transit":false,"line":11,"i_long":106.84368,"transit":false,"time":8,"i_lat":-6.174784,"station_id":"PSE","distance":1567,"station_name":"Pasar Senen"},{"line":11,"time":4,"is_transit":false,"i_lat":-6.161728,"station_id":"KMO","transit":false,"station_name":"Kemayoran","i_long":106.839204,"distance":1436},{"transit":false,"i_lat":-6.14505,"i_long":106.836569,"station_id":"RJW","station_name":"Rajawali","is_transit":false,"line":11,"distance":1901,"time":5},{"station_id":"KPB","transit":true,"station_name":"Kampung Bandan","time":3,"i_lat":-6.132549,"distance":1444,"i_long":106.826365,"is_transit":true,"line":4},{"i_long":106.812439,"station_id":"JAKK","line":2,"time":3,"i_lat":-6.137569,"transit":true,"is_transit":true,"distance":1364,"station_name":"Jakarta Kota"},{"i_long":106.820901,"station_name":"Jayakarta","is_transit":false,"line":2,"i_lat":-6.141205,"station_id":"JAY","transit":false,"time":4,"distance":1264},{"station_name":"Manggabesar","distance":1080,"line":2,"station_id":"MGB","time":2,"is_transit":false,"i_long":106.82482,"transit":false,"i_lat":-6.149769},{"transit":false,"time":2,"i_long":106.827103,"is_transit":false,"i_lat":-6.160725,"line":2,"station_name":"Sawah Besar","distance":906,"station_id":"SW"},{"i_long":106.828284,"is_transit":false,"distance":1149,"line":2,"transit":false,"station_name":"Juanda","station_id":"JUA","time":2,"i_lat":-6.166716},{"transit":false,"station_id":"GDD","i_long":106.832183,"station_name":"Gondangdia","i_lat":-6.186295,"is_transit":false,"time":4,"distance":2015,"line":2},{"time":3,"i_lat":-6.198556,"i_long":106.840169,"transit":false,"line":2,"station_name":"Cikini","distance":1750,"station_id":"CKI","is_transit":false},{"time":4,"station_name":"Manggarai","line":2,"station_id":"MRI","i_long":106.84912,"distance":1590,"i_lat":-6.209883,"transit":true,"is_transit":true},{"transit":false,"i_long":106.822649,"distance":3186,"time":4,"station_name":"Sudirman","station_id":"SUD","is_transit":false,"i_lat":-6.202263,"line":1},{"transit":false,"station_id":"SUDB","distance":280,"station_name":"Sudirman Baru","line":1,"i_long":106.819881,"i_lat":-6.201433,"time":1,"is_transit":false},{"transit":false,"i_long":106.816351,"time":1,"is_transit":false,"line":1,"i_lat":-6.20132,"station_id":"KAT","station_name":"Karet","distance":471},{"is_transit":false,"station_name":"Tanah Abang","distance":2029,"station_id":"THB","i_lat":-6.185545,"time":5,"line":1,"transit":false,"i_long":106.811091},{"is_transit":false,"station_name":"Duri","time":8,"station_id":"DU","i_lat":-6.155215,"line":1,"i_long":106.800832,"distance":3632,"transit":false}]]}