{"data":[[{"is_transit":false,"time":0,"station_id":"BUA","i_lat":-6.215568,"line":1,"distance":0,"i_long":106.922662,"transit":false,"station_name":"Buaran"},{"i_lat":-6.2135,"line":1,"transit":false,"station_name":"Klender","is_transit":false,"station_id":"KLD","distance":3100,"time":2,"i_long":106.899548},{"station_id":"JNG","transit":false,"is_transit":false,"station_name":"Jatinegara","i_long":106.86807400000001,"time":3,"i_lat":-6.215091,"line":1,"distance":3395},{"time":2,"transit":false,"i_lat":-6.212485,"i_long":106.858896,"line":1,"is_transit":false,"station_name":"Matraman","station_id":"MTR","distance":1377},{"time":2,"i_lat":-6.209883,"i_long":106.84912,"is_transit":false,"line":2,"station_name":"Manggarai","distance":1275,"station_id":"MRI","transit":false},{"line":1,"station_id":"SUD","i_long":106.822649,"distance":3186,"transit":false,"station_name":"Sudirman","is_transit":false,"time":4,"i_lat":-6.202263},{"station_id":"SUDB","station_name":"Sudirman Baru","i_long":106.819881,"time":1,"distance":280,"i_lat":-6.201433,"line":1,"transit":false,"is_transit":false},{"transit":false,"is_transit":false,"i_long":106.816351,"station_name":"Karet","time":1,"distance":471,"station_id":"KAT","i_lat":-6.20132,"line":1},{"i_long":106.811091,"station_name":"Tanah Abang","transit":true,"is_transit":true,"line":1,"station_id":"THB","distance":2029,"time":5,"i_lat":-6.185545},{"time":6,"distance":3191,"transit":false,"i_long":106.79689,"line":6,"i_lat":-6.207404,"station_id":"PLM","station_name":"Palmerah","is_transit":false},{"transit":false,"station_name":"Kebayoran","line":6,"station_id":"KBY","is_transit":false,"time":7,"i_lat":-6.237242,"distance":3737,"i_long":106.780334},{"i_long":106.74273,"i_lat":-6.276362,"station_id":"PDJ","time":8,"transit":false,"station_name":"Pondokranji","line":6,"is_transit":false,"distance":6218},{"time":3,"distance":2179,"station_name":"Jurangmangu","transit":false,"i_lat":-6.288927,"line":6,"station_id":"JMU","i_long":106.728916,"is_transit":false},{"is_transit":false,"i_lat":-6.296963,"transit":false,"station_name":"Sudimara","distance":1994,"station_id":"SDM","time":4,"line":6,"i_long":106.712277},{"station_name":"Rawa Buntu","station_id":"RU","distance":4566,"i_lat":-6.314823,"is_transit":false,"transit":false,"line":6,"i_long":106.675475,"time":6},{"time":4,"is_transit":false,"station_id":"SRP","line":6,"transit":false,"station_name":"Serpong","distance":2413,"i_lat":-6.319871,"i_long":106.66566},{"transit":false,"is_transit":false,"time":4,"station_id":"CSK","i_long":106.640411,"line":3,"station_name":"Cisauk","i_lat":-6.32484,"distance":1784},{"line":3,"transit":false,"i_long":106.617853,"distance":2519,"is_transit":false,"time":4,"i_lat":-6.329547,"station_name":"Cicayur","station_id":"CC"},{"i_long":106.568863,"is_transit":false,"station_id":"PRP","transit":false,"time":8,"i_lat":-6.3441410000000005,"station_name":"Parung Panjang","line":6,"distance":5968},{"station_id":"CJT","transit":false,"station_name":"Cilejit","distance":7025,"i_long":106.508482,"is_transit":false,"line":3,"time":9,"i_lat":-6.354349},{"station_name":"Daru","i_long":106.491338,"time":6,"i_lat":-6.338021,"line":0,"distance":2675,"transit":false,"station_id":"DAR","is_transit":false},{"is_transit":false,"station_id":"TEJ","line":6,"i_long":106.460812,"time":5,"distance":3902,"transit":false,"station_name":"Tenjo","i_lat":-6.327251},{"distance":2974,"is_transit":false,"i_lat":-6.328533,"i_long":106.425991,"station_name":"Tigaraksa","station_id":"TGS","line":6,"time":5,"transit":false},{"transit":false,"station_name":"Cikoya","station_id":"CKY","is_transit":false,"time":3,"distance":2651,"i_long":106.411216,"i_lat":-6.33561,"line":3}],[{"station_name":"Buaran","station_id":"BUA","time":0,"i_long":106.922662,"distance":0,"is_transit":false,"line":1,"i_lat":-6.215568,"transit":false},{"i_lat":-6.2135,"transit":false,"station_name":"Klender","station_id":"KLD","distance":3100,"line":1,"i_long":106.899548,"time":2,"is_transit":false},{"distance":3395,"i_long":106.86807400000001,"line":1,"station_name":"Jatinegara","time":3,"transit":true,"is_transit":true,"i_lat":-6.215091,"station_id":"JNG"},{"transit":false,"i_long":106.861737,"is_transit":false,"station_name":"Pondok Jati","station_id":"POK","distance":1236,"i_lat":-6.209188,"line":11,"time":2},{"station_name":"Kramat","line":11,"time":2,"distance":1829,"i_lat":-6.193792,"station_id":"KMT","is_transit":false,"i_long":106.855437,"transit":false},{"distance":973,"station_name":"Gang Sentiong","time":1,"transit":false,"i_long":106.850107,"line":11,"i_lat":-6.185975,"station_id":"GST","is_transit":false},{"distance":1567,"i_lat":-6.174784,"i_long":106.84368,"station_id":"PSE","is_transit":false,"line":11,"time":8,"station_name":"Pasar Senen","transit":false},{"time":4,"transit":false,"station_name":"Kemayoran","i_lat":-6.161728,"i_long":106.839204,"station_id":"KMO","line":11,"is_transit":false,"distance":1436},{"i_lat":-6.14505,"station_name":"Rajawali","i_long":106.836569,"line":11,"distance":1901,"transit":false,"is_transit":false,"time":5,"station_id":"RJW"},{"time":3,"line":4,"transit":true,"is_transit":true,"i_long":106.826365,"distance":1444,"station_id":"KPB","i_lat":-6.132549,"station_name":"Kampung Bandan"},{"line":1,"time":9,"i_long":106.79867,"station_id":"AK","station_name":"Angke","distance":4102,"transit":false,"is_transit":false,"i_lat":-6.144674},{"time":4,"transit":false,"is_transit":false,"i_long":106.800832,"line":1,"i_lat":-6.155215,"station_id":"DU","station_name":"Duri","distance":1230},{"transit":true,"distance":3632,"i_long":106.811091,"station_name":"Tanah Abang","time":8,"station_id":"THB","i_lat":-6.185545,"line":1,"is_transit":true},{"line":6,"station_name":"Palmerah","time":6,"is_transit":false,"i_long":106.79689,"i_lat":-6.207404,"distance":3191,"transit":false,"station_id":"PLM"},{"transit":false,"station_name":"Kebayoran","station_id":"KBY","time":7,"i_long":106.780334,"distance":3737,"line":6,"is_transit":false,"i_lat":-6.237242},{"time":8,"transit":false,"is_transit":false,"i_long":106.74273,"station_name":"Pondokranji","station_id":"PDJ","i_lat":-6.276362,"line":6,"distance":6218},{"transit":false,"i_lat":-6.288927,"line":6,"station_id":"JMU","station_name":"Jurangmangu","is_transit":false,"i_long":106.728916,"distance":2179,"time":3},{"station_name":"Sudimara","station_id":"SDM","distance":1994,"i_long":106.712277,"line":6,"transit":false,"is_transit":false,"time":4,"i_lat":-6.296963},{"is_transit":false,"i_lat":-6.314823,"time":6,"transit":false,"line":6,"distance":4566,"i_long":106.675475,"station_id":"RU","station_name":"Rawa Buntu"},{"is_transit":false,"transit":false,"station_id":"SRP","i_lat":-6.319871,"i_long":106.66566,"distance":2413,"line":6,"time":4,"station_name":"Serpong"},{"is_transit":false,"line":3,"distance":1784,"station_id":"CSK","time":4,"station_name":"Cisauk","i_lat":-6.32484,"i_long":106.640411,"transit":false},{"station_name":"Cicayur","station_id":"CC","time":4,"transit":false,"i_long":106.617853,"is_transit":false,"distance":2519,"line":3,"i_lat":-6.329547},{"is_transit":false,"line":6,"i_long":106.568863,"i_lat":-6.3441410000000005,"transit":false,"station_id":"PRP","time":8,"distance":5968,"station_name":"Parung Panjang"},{"is_transit":false,"station_name":"Cilejit","distance":7025,"i_long":106.508482,"time":9,"station_id":"CJT","i_lat":-6.354349,"transit":false,"line":3},{"time":6,"i_lat":-6.338021,"i_long":106.491338,"line":0,"station_id":"DAR","transit":false,"station_name":"Daru","is_transit":false,"distance":2675},{"time":5,"i_lat":-6.327251,"is_transit":false,"i_long":106.460812,"line":6,"station_name":"Tenjo","transit":false,"distance":3902,"station_id":"TEJ"},{"is_transit":false,"station_id":"TGS","transit":false,"station_name":"Tigaraksa","distance":2974,"i_lat":-6.328533,"i_long":106.425991,"line":6,"time":5},{"station_id":"CKY","station_name":"Cikoya","i_long":106.411216,"i_lat":-6.33561,"line":3,"distance":2651,"is_transit":false,"time":3,"transit":false}],[{"transit":false,"station_name":"Buaran","station_id":"BUA","is_transit":false,"time":0,"distance":0,"i_lat":-6.215568,"i_long":106.922662,"line":1},{"line":1,"station_id":"KLD","is_transit":false,"time":2,"distance":3100,"station_name":"Klender","i_lat":-6.2135,"i_long":106.899548,"transit":false},{"is_transit":false,"line":1,"station_id":"JNG","distance":3395,"i_lat":-6.215091,"time":3,"i_long":106.86807400000001,"station_name":"Jatinegara","transit":false},{"i_long":106.858896,"distance":1377,"station_name":"Matraman","transit":false,"is_transit":false,"time":2,"station_id":"MTR","i_lat":-6.212485,"line":1},{"line":2,"station_id":"MRI","time":2,"is_transit":true,"distance":1275,"transit":true,"i_lat":-6.209883,"i_long":106.84912,"station_name":"Manggarai"},{"i_lat":-6.198556,"station_name":"Cikini","i_long":106.840169,"time":4,"distance":1590,"transit":false,"station_id":"CKI","is_transit":false,"line":2},{"transit":false,"i_long":106.832183,"line":2,"station_name":"Gondangdia","distance":1750,"time":3,"station_id":"GDD","i_lat":-6.186295,"is_transit":false},{"transit":false,"i_lat":-6.166716,"line":2,"station_id":"JUA","i_long":106.828284,"station_name":"Juanda","is_transit":false,"time":4,"distance":2015},{"transit":false,"distance":1149,"station_id":"SW","i_lat":-6.160725,"time":2,"i_long":106.827103,"is_transit":false,"station_name":"Sawah Besar","line":2},{"time":2,"is_transit":false,"i_long":106.82482,"transit":false,"distance":906,"i_lat":-6.149769,"line":2,"station_id":"MGB","station_name":"Manggabesar"},{"time":2,"station_id":"JAY","i_lat":-6.141205,"line":2,"is_transit":false,"station_name":"Jayakarta","i_long":106.820901,"distance":1080,"transit":false},{"station_name":"Jakarta Kota","station_id":"JAKK","time":4,"i_lat":-6.137569,"line":2,"transit":true,"distance":1264,"i_long":106.812439,"is_transit":true},{"i_long":106.826365,"line":4,"transit":true,"station_id":"KPB","station_name":"Kampung Bandan","time":3,"is_transit":true,"distance":1364,"i_lat":-6.132549},{"time":9,"is_transit":false,"station_id":"AK","line":1,"transit":false,"station_name":"Angke","i_long":106.79867,"i_lat":-6.144674,"distance":4102},{"distance":1230,"i_lat":-6.155215,"i_long":106.800832,"line":1,"station_id":"DU","transit":false,"station_name":"Duri","time":4,"is_transit":false},{"station_id":"THB","is_transit":true,"line":1,"time":8,"distance":3632,"i_long":106.811091,"transit":true,"i_lat":-6.185545,"station_name":"Tanah Abang"},{"transit":false,"station_id":"PLM","time":6,"i_lat":-6.207404,"i_long":106.79689,"is_transit":false,"distance":3191,"line":6,"station_name":"Palmerah"},{"distance":3737,"station_id":"KBY","transit":false,"is_transit":false,"time":7,"line":6,"i_long":106.780334,"i_lat":-6.237242,"station_name":"Kebayoran"},{"distance":6218,"station_name":"Pondokranji","time":8,"transit":false,"i_lat":-6.276362,"i_long":106.74273,"station_id":"PDJ","line":6,"is_transit":false},{"i_lat":-6.288927,"station_name":"Jurangmangu","i_long":106.728916,"time":3,"transit":false,"is_transit":false,"station_id":"JMU","distance":2179,"line":6},{"line":6,"i_long":106.712277,"is_transit":false,"distance":1994,"transit":false,"station_name":"Sudimara","time":4,"station_id":"SDM","i_lat":-6.296963},{"station_id":"RU","station_name":"Rawa Buntu","time":6,"transit":false,"distance":4566,"i_lat":-6.314823,"line":6,"i_long":106.675475,"is_transit":false},{"transit":false,"station_id":"SRP","line":6,"time":4,"distance":2413,"is_transit":false,"station_name":"Serpong","i_lat":-6.319871,"i_long":106.66566},{"i_lat":-6.32484,"line":3,"station_name":"Cisauk","transit":false,"i_long":106.640411,"station_id":"CSK","is_transit":false,"time":4,"distance":1784},{"transit":false,"station_id":"CC","i_lat":-6.329547,"i_long":106.617853,"is_transit":false,"time":4,"line":3,"distance":2519,"station_name":"Cicayur"},{"transit":false,"time":8,"i_lat":-6.3441410000000005,"line":6,"i_long":106.568863,"station_name":"Parung Panjang","distance":5968,"station_id":"PRP","is_transit":false},{"station_name":"Cilejit","distance":7025,"i_lat":-6.354349,"i_long":106.508482,"is_transit":false,"transit":false,"line":3,"station_id":"CJT","time":9},{"station_id":"DAR","transit":false,"is_transit":false,"time":6,"i_long":106.491338,"station_name":"Daru","distance":2675,"line":0,"i_lat":-6.338021},{"i_lat":-6.327251,"transit":false,"i_long":106.460812,"station_id":"TEJ","line":6,"station_name":"Tenjo","is_transit":false,"distance":3902,"time":5},{"distance":2974,"line":6,"i_lat":-6.328533,"station_id":"TGS","transit":false,"i_long":106.425991,"station_name":"Tigaraksa","is_transit":false,"time":5},{"transit":false,"station_id":"CKY","distance":2651,"i_lat":-6.33561,"time":3,"is_transit":false,"line":3,"i_long":106.411216,"station_name":"Cikoya"}],[{"i_long":106.922662,"line":1,"station_id":"BUA","distance":0,"station_name":"Buaran","time":0,"i_lat":-6.215568,"transit":false,"is_transit":false},{"station_id":"KLD","i_long":106.899548,"transit":false,"station_name":"Klender","is_transit":false,"time":2,"line":1,"i_lat":-6.2135,"distance":3100},{"i_long":106.86807400000001,"station_name":"Jatinegara","transit":true,"time":3,"distance":3395,"station_id":"JNG","is_transit":true,"i_lat":-6.215091,"line":1},{"distance":1236,"i_long":106.861737,"transit":false,"line":11,"i_lat":-6.209188,"station_name":"Pondok Jati","station_id":"POK","is_transit":false,"time":2},{"i_lat":-6.193792,"line":11,"transit":false,"distance":1829,"i_long":106.855437,"station_id":"KMT","is_transit":false,"station_name":"Kramat","time":2},{"is_transit":false,"transit":false,"i_lat":-6.185975,"station_name":"Gang Sentiong","distance":973,"station_id":"GST","time":1,"i_long":106.850107,"line":11},{"i_long":106.84368,"station_name":"Pasar Senen","is_transit":false,"station_id":"PSE","distance":1567,"time":8,"i_lat":-6.174784,"transit":false,"line":11},{"i_lat":-6.161728,"transit":false,"is_transit":false,"station_id":"KMO","i_long":106.839204,"distance":1436,"station_name":"Kemayoran","time":4,"line":11},{"time":5,"distance":1901,"line":11,"transit":false,"station_name":"Rajawali","is_transit":false,"i_long":106.836569,"station_id":"RJW","i_lat":-6.14505},{"station_id":"KPB","is_transit":true,"i_long":106.826365,"distance":1444,"station_name":"Kampung Bandan","time":3,"transit":true,"i_lat":-6.132549,"line":4},{"line":2,"transit":true,"station_id":"JAKK","i_long":106.812439,"station_name":"Jakarta Kota","i_lat":-6.137569,"distance":1364,"is_transit":true,"time":3},{"i_lat":-6.141205,"line":2,"station_id":"JAY","i_long":106.820901,"is_transit":false,"distance":1264,"transit":false,"station_name":"Jayakarta","time":4},{"station_id":"MGB","is_transit":false,"i_lat":-6.149769,"line":2,"station_name":"Manggabesar","i_long":106.82482,"time":2,"distance":1080,"transit":false},{"i_long":106.827103,"station_id":"SW","transit":false,"line":2,"station_name":"Sawah Besar","i_lat":-6.160725,"is_transit":false,"time":2,"distance":906},{"is_transit":false,"distance":1149,"station_name":"Juanda","i_long":106.828284,"station_id":"JUA","time":2,"i_lat":-6.166716,"line":2,"transit":false},{"i_long":106.832183,"i_lat":-6.186295,"distance":2015,"station_id":"GDD","time":4,"transit":false,"line":2,"is_transit":false,"station_name":"Gondangdia"},{"station_name":"Cikini","i_lat":-6.198556,"station_id":"CKI","transit":false,"is_transit":false,"i_long":106.840169,"time":3,"distance":1750,"line":2},{"station_name":"Manggarai","transit":true,"i_long":106.84912,"distance":1590,"is_transit":true,"time":4,"station_id":"MRI","i_lat":-6.209883,"line":2},{"transit":false,"distance":3186,"line":1,"i_lat":-6.202263,"i_long":106.822649,"station_name":"Sudirman","station_id":"SUD","is_transit":false,"time":4},{"i_long":106.819881,"line":1,"is_transit":false,"distance":280,"transit":false,"i_lat":-6.201433,"time":1,"station_id":"SUDB","station_name":"Sudirman Baru"},{"i_lat":-6.20132,"station_id":"KAT","is_transit":false,"line":1,"station_name":"Karet","time":1,"distance":471,"i_long":106.816351,"transit":false},{"station_name":"Tanah Abang","time":5,"distance":2029,"station_id":"THB","i_long":106.811091,"is_transit":true,"transit":true,"i_lat":-6.185545,"line":1},{"transit":false,"station_name":"Palmerah","line":6,"i_long":106.79689,"distance":3191,"i_lat":-6.207404,"is_transit":false,"station_id":"PLM","time":6},{"i_long":106.780334,"transit":false,"line":6,"station_name":"Kebayoran","station_id":"KBY","is_transit":false,"i_lat":-6.237242,"time":7,"distance":3737},{"station_name":"Pondokranji","i_long":106.74273,"time":8,"station_id":"PDJ","is_transit":false,"distance":6218,"i_lat":-6.276362,"transit":false,"line":6},{"time":3,"i_long":106.728916,"distance":2179,"station_id":"JMU","i_lat":-6.288927,"is_transit":false,"line":6,"transit":false,"station_name":"Jurangmangu"},{"distance":1994,"i_lat":-6.296963,"station_id":"SDM","i_long":106.712277,"time":4,"line":6,"transit":false,"is_transit":false,"station_name":"Sudimara"},{"i_lat":-6.314823,"station_id":"RU","time":6,"transit":false,"distance":4566,"line":6,"station_name":"Rawa Buntu","i_long":106.675475,"is_transit":false},{"station_id":"SRP","line":6,"station_name":"Serpong","transit":false,"time":4,"distance":2413,"i_long":106.66566,"is_transit":false,"i_lat":-6.319871},{"time":4,"distance":1784,"i_lat":-6.32484,"station_name":"Cisauk","line":3,"transit":false,"i_long":106.640411,"is_transit":false,"station_id":"CSK"},{"line":3,"transit":false,"time":4,"station_name":"Cicayur","distance":2519,"is_transit":false,"i_long":106.617853,"i_lat":-6.329547,"station_id":"CC"},{"is_transit":false,"i_long":106.568863,"distance":5968,"station_id":"PRP","line":6,"station_name":"Parung Panjang","time":8,"transit":false,"i_lat":-6.3441410000000005},{"is_transit":false,"station_id":"CJT","transit":false,"i_lat":-6.354349,"distance":7025,"station_name":"Cilejit","i_long":106.508482,"line":3,"time":9},{"time":6,"station_id":"DAR","i_long":106.491338,"transit":false,"station_name":"Daru","line":0,"is_transit":false,"distance":2675,"i_lat":-6.338021},{"distance":3902,"line":6,"is_transit":false,"station_name":"Tenjo","transit":false,"time":5,"station_id":"TEJ","i_long":106.460812,"i_lat":-6.327251},{"i_lat":-6.328533,"transit":false,"time":5,"distance":2974,"station_id":"TGS","i_long":106.425991,"is_transit":false,"line":6,"station_name":"Tigaraksa"},{"transit":false,"time":3,"i_lat":-6.33561,"distance":2651,"station_id":"CKY","line":3,"is_transit":false,"station_name":"Cikoya","i_long":106.411216}]]}