{"data":[[{"i_lat":-6.215568,"i_long":106.922662,"line":0,"transit":false,"is_transit":false,"distance":0,"station_id":"BUA","station_name":"Buaran","time":0},{"time":2,"station_name":"Klender","i_long":106.899548,"transit":false,"i_lat":-6.2135,"line":1,"station_id":"KLD","distance":3100,"is_transit":false},{"station_id":"JNG","station_name":"Jatinegara","is_transit":true,"distance":3395,"transit":false,"time":3,"line":0,"i_lat":-6.215091,"i_long":106.86807400000001},{"station_name":"Matraman","i_lat":-6.212485,"distance":1377,"station_id":"MTR","transit":false,"i_long":106.858896,"line":1,"time":2,"is_transit":false},{"distance":1275,"station_name":"Manggarai","station_id":"MRI","i_long":106.84912,"is_transit":true,"transit":false,"i_lat":-6.209883,"time":2,"line":0},{"time":4,"line":1,"is_transit":false,"distance":3186,"i_long":106.822649,"i_lat":-6.202263,"station_id":"SUD","transit":false,"station_name":"Sudirman"},{"transit":false,"station_name":"Sudirman Baru","distance":280,"is_transit":false,"station_id":"SUDB","i_lat":-6.201433,"line":1,"i_long":106.819881,"time":1},{"i_long":106.816351,"transit":false,"time":1,"i_lat":-6.20132,"line":1,"distance":471,"station_id":"KAT","is_transit":false,"station_name":"Karet"},{"distance":2029,"line":1,"station_id":"THB","i_long":106.811091,"station_name":"Tanah Abang","transit":true,"i_lat":-6.185545,"time":5,"is_transit":true},{"line":6,"i_long":106.79689,"is_transit":false,"time":6,"i_lat":-6.207404,"station_name":"Palmerah","distance":3191,"station_id":"PLM","transit":false},{"distance":3737,"is_transit":false,"station_name":"Kebayoran","transit":false,"i_lat":-6.237242,"line":6,"station_id":"KBY","time":7,"i_long":106.780334},{"time":8,"transit":false,"i_long":106.74273,"line":6,"is_transit":false,"station_name":"Pondokranji","i_lat":-6.276362,"station_id":"PDJ","distance":6218},{"station_id":"JMU","station_name":"Jurangmangu","is_transit":false,"i_long":106.728916,"time":3,"i_lat":-6.288927,"distance":2179,"line":6,"transit":false},{"station_name":"Sudimara","distance":1994,"transit":false,"line":6,"i_lat":-6.296963,"i_long":106.712277,"is_transit":false,"station_id":"SDM","time":4},{"time":6,"distance":4566,"line":6,"transit":false,"station_id":"RU","station_name":"Rawa Buntu","is_transit":false,"i_long":106.675475,"i_lat":-6.314823},{"line":6,"transit":false,"i_lat":-6.319871,"distance":2413,"is_transit":false,"station_id":"SRP","i_long":106.66566,"station_name":"Serpong","time":4},{"i_long":106.640411,"transit":false,"i_lat":-6.32484,"time":4,"station_id":"CSK","is_transit":false,"distance":1784,"station_name":"Cisauk","line":0},{"distance":2519,"i_long":106.617853,"line":0,"station_name":"Cicayur","i_lat":-6.329547,"station_id":"CC","time":4,"transit":false,"is_transit":false},{"is_transit":false,"time":8,"i_lat":-6.3441410000000005,"transit":false,"i_long":106.568863,"distance":5968,"line":6,"station_name":"Parung Panjang","station_id":"PRP"},{"i_long":106.508482,"line":0,"time":9,"transit":false,"distance":7025,"station_id":"CJT","is_transit":false,"station_name":"Cilejit","i_lat":-6.354349},{"distance":2675,"station_name":"Daru","i_long":106.491338,"time":6,"i_lat":-6.338021,"line":0,"transit":false,"station_id":"DAR","is_transit":false},{"time":5,"line":6,"transit":false,"station_id":"TEJ","distance":3902,"i_lat":-6.327251,"i_long":106.460812,"station_name":"Tenjo","is_transit":false},{"distance":2974,"station_name":"Tigaraksa","transit":false,"time":5,"line":6,"station_id":"TGS","i_long":106.425991,"is_transit":false,"i_lat":-6.328533},{"i_lat":-6.33561,"distance":2651,"is_transit":false,"i_long":106.411216,"transit":false,"line":0,"station_id":"CKY","time":3,"station_name":"Cikoya"}],[{"time":0,"distance":0,"i_lat":-6.215568,"transit":false,"station_name":"Buaran","is_transit":false,"i_long":106.922662,"station_id":"BUA","line":0},{"time":2,"station_id":"KLD","is_transit":false,"station_name":"Klender","line":1,"distance":3100,"transit":false,"i_lat":-6.2135,"i_long":106.899548},{"is_transit":true,"transit":true,"station_id":"JNG","time":3,"i_lat":-6.215091,"i_long":106.86807400000001,"line":0,"distance":3395,"station_name":"Jatinegara"},{"station_name":"Pondok Jati","is_transit":false,"time":2,"distance":1236,"i_lat":-6.209188,"station_id":"POK","i_long":106.861737,"transit":false,"line":11},{"i_long":106.855437,"station_name":"Kramat","line":11,"station_id":"KMT","time":2,"transit":false,"is_transit":false,"distance":1829,"i_lat":-6.193792},{"i_long":106.850107,"station_id":"GST","is_transit":false,"line":11,"distance":973,"station_name":"Gang Sentiong","time":1,"transit":false,"i_lat":-6.185975},{"i_lat":-6.174784,"distance":1567,"line":11,"time":8,"station_name":"Pasar Senen","is_transit":false,"i_long":106.84368,"transit":false,"station_id":"PSE"},{"i_lat":-6.161728,"is_transit":false,"station_id":"KMO","station_name":"Kemayoran","transit":false,"line":11,"time":4,"distance":1436,"i_long":106.839204},{"station_name":"Rajawali","distance":1901,"station_id":"RJW","i_long":106.836569,"is_transit":false,"line":11,"transit":false,"time":5,"i_lat":-6.14505},{"distance":1444,"time":3,"station_name":"Kampung Bandan","i_lat":-6.132549,"i_long":106.826365,"is_transit":true,"transit":true,"line":0,"station_id":"KPB"},{"transit":false,"line":0,"station_name":"Angke","time":9,"station_id":"AK","i_long":106.79867,"i_lat":-6.144674,"is_transit":false,"distance":4102},{"station_id":"DU","distance":1230,"time":4,"transit":true,"i_lat":-6.155215,"is_transit":true,"i_long":106.800832,"station_name":"Duri","line":1},{"i_long":106.811091,"time":8,"i_lat":-6.185545,"station_id":"THB","distance":3632,"line":1,"is_transit":true,"station_name":"Tanah Abang","transit":true},{"is_transit":false,"distance":3191,"station_id":"PLM","transit":false,"station_name":"Palmerah","i_lat":-6.207404,"i_long":106.79689,"line":6,"time":6},{"time":7,"station_id":"KBY","is_transit":false,"i_lat":-6.237242,"line":6,"station_name":"Kebayoran","transit":false,"distance":3737,"i_long":106.780334},{"time":8,"distance":6218,"station_name":"Pondokranji","i_long":106.74273,"line":6,"station_id":"PDJ","transit":false,"i_lat":-6.276362,"is_transit":false},{"distance":2179,"station_id":"JMU","i_lat":-6.288927,"i_long":106.728916,"time":3,"line":6,"station_name":"Jurangmangu","transit":false,"is_transit":false},{"distance":1994,"i_lat":-6.296963,"line":6,"transit":false,"i_long":106.712277,"is_transit":false,"station_id":"SDM","time":4,"station_name":"Sudimara"},{"transit":false,"is_transit":false,"line":6,"distance":4566,"time":6,"i_lat":-6.314823,"station_name":"Rawa Buntu","station_id":"RU","i_long":106.675475},{"station_id":"SRP","station_name":"Serpong","is_transit":false,"distance":2413,"line":6,"i_lat":-6.319871,"i_long":106.66566,"transit":false,"time":4},{"is_transit":false,"i_long":106.640411,"i_lat":-6.32484,"time":4,"station_id":"CSK","distance":1784,"line":0,"transit":false,"station_name":"Cisauk"},{"transit":false,"time":4,"distance":2519,"is_transit":false,"station_id":"CC","station_name":"Cicayur","i_long":106.617853,"i_lat":-6.329547,"line":0},{"distance":5968,"i_lat":-6.3441410000000005,"i_long":106.568863,"station_id":"PRP","line":6,"transit":false,"station_name":"Parung Panjang","time":8,"is_transit":false},{"is_transit":false,"time":9,"distance":7025,"station_name":"Cilejit","i_lat":-6.354349,"i_long":106.508482,"transit":false,"line":0,"station_id":"CJT"},{"distance":2675,"is_transit":false,"station_name":"Daru","i_long":106.491338,"i_lat":-6.338021,"station_id":"DAR","line":0,"transit":false,"time":6},{"distance":3902,"line":6,"i_long":106.460812,"station_id":"TEJ","time":5,"transit":false,"station_name":"Tenjo","i_lat":-6.327251,"is_transit":false},{"line":6,"time":5,"station_name":"Tigaraksa","i_lat":-6.328533,"i_long":106.425991,"is_transit":false,"station_id":"TGS","transit":false,"distance":2974},{"i_lat":-6.33561,"transit":false,"line":0,"station_name":"Cikoya","i_long":106.411216,"is_transit":false,"distance":2651,"time":3,"station_id":"CKY"}],[{"is_transit":false,"distance":0,"line":0,"time":0,"i_long":106.922662,"station_id":"BUA","i_lat":-6.215568,"transit":false,"station_name":"Buaran"},{"distance":3100,"station_id":"KLD","line":1,"i_long":106.899548,"station_name":"Klender","i_lat":-6.2135,"time":2,"transit":false,"is_transit":false},{"i_lat":-6.215091,"distance":3395,"time":3,"station_id":"JNG","i_long":106.86807400000001,"station_name":"Jatinegara","transit":false,"line":0,"is_transit":true},{"is_transit":false,"station_id":"MTR","distance":1377,"station_name":"Matraman","i_long":106.858896,"transit":false,"line":1,"time":2,"i_lat":-6.212485},{"time":2,"distance":1275,"station_name":"Manggarai","is_transit":true,"station_id":"MRI","transit":true,"i_lat":-6.209883,"i_long":106.84912,"line":0},{"line":0,"time":4,"distance":1590,"i_long":106.840169,"i_lat":-6.198556,"is_transit":false,"station_name":"Cikini","transit":false,"station_id":"CKI"},{"is_transit":false,"station_name":"Gondangdia","time":3,"transit":false,"i_lat":-6.186295,"station_id":"GDD","line":2,"distance":1750,"i_long":106.832183},{"transit":false,"distance":2015,"i_lat":-6.166716,"is_transit":false,"time":4,"i_long":106.828284,"station_name":"Juanda","line":2,"station_id":"JUA"},{"station_id":"SW","distance":1149,"line":2,"transit":false,"time":2,"is_transit":false,"i_long":106.827103,"station_name":"Sawah Besar","i_lat":-6.160725},{"time":2,"station_id":"MGB","station_name":"Manggabesar","transit":false,"i_long":106.82482,"line":2,"is_transit":false,"i_lat":-6.149769,"distance":906},{"i_long":106.820901,"line":7,"is_transit":false,"time":2,"station_id":"JAY","i_lat":-6.141205,"station_name":"Jayakarta","distance":1080,"transit":false},{"i_lat":-6.137569,"line":0,"is_transit":true,"i_long":106.812439,"distance":1264,"station_name":"Jakarta Kota","station_id":"JAKK","time":4,"transit":true},{"transit":false,"i_lat":-6.132549,"is_transit":true,"time":3,"station_name":"Kampung Bandan","distance":1364,"i_long":106.826365,"line":0,"station_id":"KPB"},{"transit":false,"line":0,"distance":4102,"station_name":"Angke","i_long":106.79867,"is_transit":false,"i_lat":-6.144674,"time":9,"station_id":"AK"},{"line":1,"station_name":"Duri","transit":true,"distance":1230,"station_id":"DU","time":4,"i_lat":-6.155215,"is_transit":true,"i_long":106.800832},{"is_transit":true,"distance":3632,"station_name":"Tanah Abang","station_id":"THB","transit":true,"i_long":106.811091,"time":8,"i_lat":-6.185545,"line":1},{"line":6,"i_long":106.79689,"time":6,"distance":3191,"i_lat":-6.207404,"station_name":"Palmerah","station_id":"PLM","is_transit":false,"transit":false},{"distance":3737,"station_name":"Kebayoran","transit":false,"station_id":"KBY","time":7,"i_lat":-6.237242,"i_long":106.780334,"line":6,"is_transit":false},{"transit":false,"distance":6218,"is_transit":false,"i_long":106.74273,"line":6,"station_name":"Pondokranji","time":8,"station_id":"PDJ","i_lat":-6.276362},{"i_long":106.728916,"time":3,"station_name":"Jurangmangu","distance":2179,"transit":false,"line":6,"station_id":"JMU","is_transit":false,"i_lat":-6.288927},{"line":6,"distance":1994,"i_long":106.712277,"transit":false,"time":4,"i_lat":-6.296963,"station_id":"SDM","is_transit":false,"station_name":"Sudimara"},{"station_id":"RU","station_name":"Rawa Buntu","transit":false,"i_lat":-6.314823,"time":6,"is_transit":false,"line":6,"distance":4566,"i_long":106.675475},{"time":4,"is_transit":false,"transit":false,"i_lat":-6.319871,"station_id":"SRP","distance":2413,"station_name":"Serpong","line":6,"i_long":106.66566},{"line":0,"station_id":"CSK","i_lat":-6.32484,"time":4,"is_transit":false,"station_name":"Cisauk","transit":false,"i_long":106.640411,"distance":1784},{"station_id":"CC","station_name":"Cicayur","time":4,"line":0,"is_transit":false,"distance":2519,"i_lat":-6.329547,"transit":false,"i_long":106.617853},{"station_name":"Parung Panjang","is_transit":false,"line":6,"i_lat":-6.3441410000000005,"time":8,"station_id":"PRP","distance":5968,"transit":false,"i_long":106.568863},{"line":0,"i_lat":-6.354349,"is_transit":false,"station_id":"CJT","distance":7025,"station_name":"Cilejit","transit":false,"i_long":106.508482,"time":9},{"station_id":"DAR","time":6,"i_lat":-6.338021,"transit":false,"line":0,"is_transit":false,"distance":2675,"station_name":"Daru","i_long":106.491338},{"station_id":"TEJ","is_transit":false,"station_name":"Tenjo","line":6,"i_long":106.460812,"transit":false,"time":5,"distance":3902,"i_lat":-6.327251},{"distance":2974,"time":5,"station_name":"Tigaraksa","transit":false,"i_long":106.425991,"is_transit":false,"i_lat":-6.328533,"station_id":"TGS","line":6},{"station_name":"Cikoya","transit":false,"is_transit":false,"station_id":"CKY","i_long":106.411216,"i_lat":-6.33561,"line":0,"distance":2651,"time":3}],[{"station_id":"BUA","transit":false,"time":0,"station_name":"Buaran","is_transit":false,"i_long":106.922662,"distance":0,"i_lat":-6.215568,"line":0},{"line":1,"time":2,"i_lat":-6.2135,"transit":false,"is_transit":false,"station_id":"KLD","i_long":106.899548,"station_name":"Klender","distance":3100},{"distance":3395,"station_name":"Jatinegara","station_id":"JNG","i_lat":-6.215091,"i_long":106.86807400000001,"is_transit":true,"transit":true,"line":0,"time":3},{"is_transit":false,"transit":false,"distance":1236,"line":11,"i_lat":-6.209188,"station_id":"POK","station_name":"Pondok Jati","i_long":106.861737,"time":2},{"i_long":106.855437,"line":11,"distance":1829,"transit":false,"station_id":"KMT","station_name":"Kramat","i_lat":-6.193792,"is_transit":false,"time":2},{"distance":973,"is_transit":false,"station_id":"GST","i_lat":-6.185975,"i_long":106.850107,"station_name":"Gang Sentiong","transit":false,"time":1,"line":11},{"station_name":"Pasar Senen","distance":1567,"transit":false,"is_transit":false,"i_long":106.84368,"station_id":"PSE","time":8,"i_lat":-6.174784,"line":11},{"time":4,"line":11,"is_transit":false,"station_name":"Kemayoran","i_long":106.839204,"transit":false,"station_id":"KMO","i_lat":-6.161728,"distance":1436},{"distance":1901,"station_id":"RJW","station_name":"Rajawali","time":5,"line":11,"i_long":106.836569,"is_transit":false,"transit":false,"i_lat":-6.14505},{"i_long":106.826365,"distance":1444,"station_name":"Kampung Bandan","is_transit":true,"line":0,"time":3,"transit":true,"i_lat":-6.132549,"station_id":"KPB"},{"station_id":"JAKK","is_transit":true,"distance":1364,"transit":true,"station_name":"Jakarta Kota","time":3,"i_long":106.812439,"line":0,"i_lat":-6.137569},{"station_name":"Jayakarta","distance":1264,"line":7,"i_long":106.820901,"i_lat":-6.141205,"station_id":"JAY","is_transit":false,"time":4,"transit":false},{"time":2,"distance":1080,"i_lat":-6.149769,"i_long":106.82482,"is_transit":false,"station_name":"Manggabesar","line":2,"station_id":"MGB","transit":false},{"transit":false,"i_lat":-6.160725,"time":2,"is_transit":false,"distance":906,"station_name":"Sawah Besar","i_long":106.827103,"station_id":"SW","line":2},{"transit":false,"station_name":"Juanda","station_id":"JUA","is_transit":false,"line":2,"distance":1149,"i_lat":-6.166716,"i_long":106.828284,"time":2},{"time":4,"transit":false,"station_name":"Gondangdia","i_long":106.832183,"i_lat":-6.186295,"line":2,"distance":2015,"station_id":"GDD","is_transit":false},{"i_long":106.840169,"i_lat":-6.198556,"time":3,"line":0,"station_id":"CKI","station_name":"Cikini","distance":1750,"transit":false,"is_transit":false},{"i_lat":-6.209883,"station_id":"MRI","is_transit":true,"time":4,"distance":1590,"i_long":106.84912,"transit":true,"station_name":"Manggarai","line":0},{"i_long":106.822649,"is_transit":false,"station_id":"SUD","i_lat":-6.202263,"transit":false,"line":1,"time":4,"station_name":"Sudirman","distance":3186},{"time":1,"line":1,"distance":280,"station_name":"Sudirman Baru","i_lat":-6.201433,"i_long":106.819881,"is_transit":false,"transit":false,"station_id":"SUDB"},{"station_name":"Karet","distance":471,"is_transit":false,"station_id":"KAT","transit":false,"i_lat":-6.20132,"i_long":106.816351,"line":1,"time":1},{"i_lat":-6.185545,"is_transit":true,"station_name":"Tanah Abang","transit":true,"i_long":106.811091,"line":1,"time":5,"distance":2029,"station_id":"THB"},{"i_long":106.79689,"line":6,"distance":3191,"transit":false,"station_id":"PLM","station_name":"Palmerah","is_transit":false,"time":6,"i_lat":-6.207404},{"transit":false,"distance":3737,"i_lat":-6.237242,"is_transit":false,"time":7,"station_name":"Kebayoran","line":6,"station_id":"KBY","i_long":106.780334},{"is_transit":false,"time":8,"station_id":"PDJ","distance":6218,"station_name":"Pondokranji","transit":false,"line":6,"i_lat":-6.276362,"i_long":106.74273},{"time":3,"distance":2179,"station_id":"JMU","station_name":"Jurangmangu","i_lat":-6.288927,"transit":false,"i_long":106.728916,"line":6,"is_transit":false},{"station_id":"SDM","transit":false,"station_name":"Sudimara","i_long":106.712277,"time":4,"line":6,"is_transit":false,"distance":1994,"i_lat":-6.296963},{"station_name":"Rawa Buntu","is_transit":false,"i_long":106.675475,"transit":false,"i_lat":-6.314823,"line":6,"distance":4566,"station_id":"RU","time":6},{"line":6,"i_long":106.66566,"transit":false,"station_name":"Serpong","station_id":"SRP","time":4,"is_transit":false,"distance":2413,"i_lat":-6.319871},{"station_id":"CSK","distance":1784,"time":4,"i_long":106.640411,"station_name":"Cisauk","i_lat":-6.32484,"is_transit":false,"transit":false,"line":0},{"line":0,"station_name":"Cicayur","time":4,"distance":2519,"station_id":"CC","i_long":106.617853,"is_transit":false,"transit":false,"i_lat":-6.329547},{"station_name":"Parung Panjang","distance":5968,"transit":false,"line":6,"i_lat":-6.3441410000000005,"station_id":"PRP","i_long":106.568863,"is_transit":false,"time":8},{"distance":7025,"is_transit":false,"i_long":106.508482,"station_name":"Cilejit","time":9,"i_lat":-6.354349,"station_id":"CJT","transit":false,"line":0},{"transit":false,"line":0,"time":6,"is_transit":false,"station_id":"DAR","distance":2675,"station_name":"Daru","i_lat":-6.338021,"i_long":106.491338},{"transit":false,"station_id":"TEJ","line":6,"distance":3902,"i_lat":-6.327251,"is_transit":false,"station_name":"Tenjo","time":5,"i_long":106.460812},{"line":6,"i_long":106.425991,"distance":2974,"station_id":"TGS","transit":false,"time":5,"station_name":"Tigaraksa","i_lat":-6.328533,"is_transit":false},{"is_transit":false,"distance":2651,"station_id":"CKY","i_lat":-6.33561,"time":3,"station_name":"Cikoya","transit":false,"i_long":106.411216,"line":0}]]}