{"data":[[{"i_lat":-6.215568,"is_transit":false,"station_name":"Buaran","transit":false,"line":1,"i_long":106.922662,"station_id":"BUA","distance":0,"time":0},{"station_name":"Klender","line":1,"transit":false,"distance":3100,"time":2,"i_long":106.899548,"is_transit":false,"station_id":"KLD","i_lat":-6.2135},{"i_long":106.86807400000001,"station_name":"Jatinegara","station_id":"JNG","transit":false,"time":3,"i_lat":-6.215091,"line":1,"distance":3395,"is_transit":false},{"i_long":106.858896,"is_transit":false,"i_lat":-6.212485,"station_name":"Matraman","transit":false,"station_id":"MTR","time":2,"distance":1377,"line":1},{"i_lat":-6.209883,"is_transit":false,"distance":1275,"line":2,"i_long":106.84912,"station_id":"MRI","station_name":"Manggarai","transit":false,"time":2},{"transit":false,"station_name":"Sudirman","station_id":"SUD","distance":3186,"is_transit":false,"line":1,"i_lat":-6.202263,"time":4,"i_long":106.822649},{"transit":false,"station_id":"SUDB","line":1,"distance":280,"i_long":106.819881,"i_lat":-6.201433,"station_name":"Sudirman Baru","time":1,"is_transit":false},{"transit":false,"station_name":"Karet","line":1,"time":1,"station_id":"KAT","distance":471,"i_lat":-6.20132,"i_long":106.816351,"is_transit":false},{"is_transit":false,"transit":false,"time":5,"station_name":"Tanah Abang","station_id":"THB","distance":2029,"i_lat":-6.185545,"i_long":106.811091,"line":1},{"distance":3632,"i_lat":-6.155215,"time":8,"line":1,"i_long":106.800832,"station_id":"DU","station_name":"Duri","transit":true,"is_transit":true},{"is_transit":false,"station_id":"GGL","station_name":"Grogol","transit":false,"i_long":106.788277,"time":3,"i_lat":-6.162021,"line":5,"distance":1700},{"station_name":"Pesing","time":2,"distance":2036,"i_lat":-6.161433,"line":5,"transit":false,"is_transit":false,"station_id":"PSG","i_long":106.771379}],[{"transit":false,"i_long":106.922662,"distance":0,"line":1,"station_name":"Buaran","station_id":"BUA","is_transit":false,"i_lat":-6.215568,"time":0},{"i_long":106.899548,"station_name":"Klender","transit":false,"distance":3100,"line":1,"i_lat":-6.2135,"is_transit":false,"time":2,"station_id":"KLD"},{"i_lat":-6.215091,"is_transit":true,"station_id":"JNG","time":3,"distance":3395,"transit":true,"i_long":106.86807400000001,"line":1,"station_name":"Jatinegara"},{"station_name":"Pondok Jati","distance":1236,"line":11,"i_lat":-6.209188,"station_id":"POK","time":2,"is_transit":false,"i_long":106.861737,"transit":false},{"line":11,"time":2,"station_id":"KMT","transit":false,"i_lat":-6.193792,"i_long":106.855437,"distance":1829,"is_transit":false,"station_name":"Kramat"},{"distance":973,"i_lat":-6.185975,"i_long":106.850107,"station_id":"GST","time":1,"line":11,"transit":false,"station_name":"Gang Sentiong","is_transit":false},{"station_name":"Pasar Senen","station_id":"PSE","distance":1567,"time":8,"i_lat":-6.174784,"transit":false,"i_long":106.84368,"line":11,"is_transit":false},{"station_name":"Kemayoran","station_id":"KMO","is_transit":false,"line":11,"i_long":106.839204,"time":4,"i_lat":-6.161728,"transit":false,"distance":1436},{"line":11,"time":5,"station_name":"Rajawali","distance":1901,"i_lat":-6.14505,"transit":false,"i_long":106.836569,"station_id":"RJW","is_transit":false},{"station_name":"Kampung Bandan","is_transit":true,"distance":1444,"i_lat":-6.132549,"station_id":"KPB","transit":true,"line":4,"time":3,"i_long":106.826365},{"station_name":"Angke","i_long":106.79867,"i_lat":-6.144674,"line":1,"station_id":"AK","distance":4102,"time":9,"transit":false,"is_transit":false},{"distance":1230,"i_lat":-6.155215,"station_id":"DU","is_transit":true,"line":1,"i_long":106.800832,"station_name":"Duri","transit":true,"time":4},{"transit":false,"station_name":"Grogol","line":5,"time":3,"i_lat":-6.162021,"is_transit":false,"station_id":"GGL","distance":1700,"i_long":106.788277},{"time":2,"station_id":"PSG","station_name":"Pesing","transit":false,"i_long":106.771379,"distance":2036,"i_lat":-6.161433,"is_transit":false,"line":5}],[{"i_lat":-6.215568,"station_name":"Buaran","is_transit":false,"time":0,"transit":false,"i_long":106.922662,"line":1,"distance":0,"station_id":"BUA"},{"transit":false,"is_transit":false,"station_id":"KLD","i_lat":-6.2135,"i_long":106.899548,"station_name":"Klender","time":2,"distance":3100,"line":1},{"line":1,"station_id":"JNG","time":3,"distance":3395,"i_lat":-6.215091,"is_transit":false,"transit":false,"i_long":106.86807400000001,"station_name":"Jatinegara"},{"i_long":106.858896,"transit":false,"i_lat":-6.212485,"distance":1377,"is_transit":false,"station_name":"Matraman","station_id":"MTR","time":2,"line":1},{"station_name":"Manggarai","transit":true,"distance":1275,"station_id":"MRI","is_transit":true,"i_lat":-6.209883,"i_long":106.84912,"time":2,"line":2},{"station_id":"CKI","distance":1590,"is_transit":false,"station_name":"Cikini","time":4,"i_lat":-6.198556,"i_long":106.840169,"line":2,"transit":false},{"is_transit":false,"i_lat":-6.186295,"i_long":106.832183,"line":2,"transit":false,"distance":1750,"station_id":"GDD","station_name":"Gondangdia","time":3},{"station_id":"JUA","station_name":"Juanda","transit":false,"is_transit":false,"time":4,"distance":2015,"i_lat":-6.166716,"line":2,"i_long":106.828284},{"station_name":"Sawah Besar","is_transit":false,"i_lat":-6.160725,"line":2,"time":2,"distance":1149,"i_long":106.827103,"transit":false,"station_id":"SW"},{"station_name":"Manggabesar","station_id":"MGB","transit":false,"is_transit":false,"time":2,"distance":906,"i_long":106.82482,"line":2,"i_lat":-6.149769},{"transit":false,"is_transit":false,"distance":1080,"i_lat":-6.141205,"i_long":106.820901,"time":2,"line":2,"station_name":"Jayakarta","station_id":"JAY"},{"transit":true,"station_id":"JAKK","is_transit":true,"distance":1264,"station_name":"Jakarta Kota","time":4,"i_lat":-6.137569,"line":2,"i_long":106.812439},{"transit":true,"time":3,"i_long":106.826365,"station_name":"Kampung Bandan","line":4,"i_lat":-6.132549,"distance":1364,"station_id":"KPB","is_transit":true},{"i_lat":-6.144674,"transit":false,"station_name":"Angke","is_transit":false,"time":9,"i_long":106.79867,"line":1,"distance":4102,"station_id":"AK"},{"transit":true,"is_transit":true,"time":4,"line":1,"station_id":"DU","station_name":"Duri","distance":1230,"i_lat":-6.155215,"i_long":106.800832},{"station_name":"Grogol","transit":false,"is_transit":false,"time":3,"line":5,"station_id":"GGL","distance":1700,"i_long":106.788277,"i_lat":-6.162021},{"station_name":"Pesing","line":5,"time":2,"i_long":106.771379,"transit":false,"station_id":"PSG","is_transit":false,"distance":2036,"i_lat":-6.161433}],[{"station_id":"BUA","i_lat":-6.215568,"transit":false,"is_transit":false,"i_long":106.922662,"line":1,"time":0,"station_name":"Buaran","distance":0},{"time":2,"line":1,"station_id":"KLD","station_name":"Klender","is_transit":false,"i_lat":-6.2135,"transit":false,"distance":3100,"i_long":106.899548},{"station_id":"JNG","is_transit":true,"transit":true,"i_lat":-6.215091,"i_long":106.86807400000001,"line":1,"time":3,"distance":3395,"station_name":"Jatinegara"},{"is_transit":false,"time":2,"line":11,"distance":1236,"i_long":106.861737,"transit":false,"i_lat":-6.209188,"station_name":"Pondok Jati","station_id":"POK"},{"transit":false,"line":11,"station_name":"Kramat","i_long":106.855437,"i_lat":-6.193792,"station_id":"KMT","is_transit":false,"distance":1829,"time":2},{"distance":973,"station_name":"Gang Sentiong","time":1,"i_long":106.850107,"is_transit":false,"line":11,"transit":false,"i_lat":-6.185975,"station_id":"GST"},{"is_transit":false,"station_name":"Pasar Senen","transit":false,"i_lat":-6.174784,"time":8,"distance":1567,"station_id":"PSE","i_long":106.84368,"line":11},{"i_long":106.839204,"station_name":"Kemayoran","is_transit":false,"station_id":"KMO","time":4,"i_lat":-6.161728,"distance":1436,"line":11,"transit":false},{"line":11,"i_lat":-6.14505,"station_id":"RJW","time":5,"transit":false,"is_transit":false,"station_name":"Rajawali","distance":1901,"i_long":106.836569},{"line":4,"station_id":"KPB","is_transit":true,"distance":1444,"i_lat":-6.132549,"station_name":"Kampung Bandan","transit":true,"i_long":106.826365,"time":3},{"station_name":"Jakarta Kota","time":3,"transit":true,"is_transit":true,"station_id":"JAKK","line":2,"i_long":106.812439,"distance":1364,"i_lat":-6.137569},{"distance":1264,"i_long":106.820901,"i_lat":-6.141205,"line":2,"station_name":"Jayakarta","transit":false,"is_transit":false,"time":4,"station_id":"JAY"},{"line":2,"station_id":"MGB","i_long":106.82482,"i_lat":-6.149769,"transit":false,"station_name":"Manggabesar","distance":1080,"is_transit":false,"time":2},{"i_lat":-6.160725,"distance":906,"is_transit":false,"time":2,"line":2,"station_name":"Sawah Besar","transit":false,"station_id":"SW","i_long":106.827103},{"i_long":106.828284,"is_transit":false,"station_name":"Juanda","line":2,"distance":1149,"station_id":"JUA","transit":false,"time":2,"i_lat":-6.166716},{"i_long":106.832183,"is_transit":false,"i_lat":-6.186295,"line":2,"time":4,"station_name":"Gondangdia","station_id":"GDD","transit":false,"distance":2015},{"i_long":106.840169,"i_lat":-6.198556,"transit":false,"distance":1750,"is_transit":false,"line":2,"station_name":"Cikini","station_id":"CKI","time":3},{"station_name":"Manggarai","station_id":"MRI","transit":true,"i_lat":-6.209883,"is_transit":true,"time":4,"line":2,"distance":1590,"i_long":106.84912},{"i_lat":-6.202263,"i_long":106.822649,"time":4,"distance":3186,"station_id":"SUD","line":1,"station_name":"Sudirman","transit":false,"is_transit":false},{"i_lat":-6.201433,"line":1,"station_name":"Sudirman Baru","time":1,"distance":280,"transit":false,"is_transit":false,"i_long":106.819881,"station_id":"SUDB"},{"i_lat":-6.20132,"distance":471,"station_name":"Karet","time":1,"station_id":"KAT","line":1,"is_transit":false,"transit":false,"i_long":106.816351},{"line":1,"i_long":106.811091,"time":5,"is_transit":false,"station_name":"Tanah Abang","distance":2029,"i_lat":-6.185545,"station_id":"THB","transit":false},{"is_transit":true,"station_name":"Duri","time":8,"distance":3632,"i_lat":-6.155215,"transit":true,"i_long":106.800832,"line":1,"station_id":"DU"},{"transit":false,"station_name":"Grogol","i_lat":-6.162021,"line":5,"distance":1700,"i_long":106.788277,"is_transit":false,"time":3,"station_id":"GGL"},{"station_id":"PSG","distance":2036,"transit":false,"i_lat":-6.161433,"line":5,"is_transit":false,"station_name":"Pesing","time":2,"i_long":106.771379}]]}