{"data":[[{"time":0,"station_name":"Buaran","line":1,"station_id":"BUA","transit":false,"i_lat":-6.215568,"is_transit":false,"distance":0,"i_long":106.922662},{"distance":3100,"transit":false,"i_lat":-6.2135,"i_long":106.899548,"line":1,"time":2,"is_transit":false,"station_name":"Klender","station_id":"KLD"},{"is_transit":false,"line":1,"station_id":"JNG","i_long":106.86807400000001,"distance":3395,"transit":false,"time":3,"station_name":"Jatinegara","i_lat":-6.215091},{"station_id":"MTR","i_long":106.858896,"station_name":"Matraman","time":2,"distance":1377,"is_transit":false,"i_lat":-6.212485,"line":1,"transit":false},{"transit":false,"i_lat":-6.209883,"is_transit":false,"line":2,"station_id":"MRI","station_name":"Manggarai","distance":1275,"i_long":106.84912,"time":2},{"i_long":106.822649,"time":4,"station_id":"SUD","i_lat":-6.202263,"line":1,"is_transit":false,"transit":false,"distance":3186,"station_name":"Sudirman"},{"time":1,"i_lat":-6.201433,"line":1,"distance":280,"i_long":106.819881,"station_id":"SUDB","is_transit":false,"station_name":"Sudirman Baru","transit":false},{"time":1,"distance":471,"transit":false,"i_long":106.816351,"station_id":"KAT","i_lat":-6.20132,"is_transit":false,"line":1,"station_name":"Karet"},{"transit":false,"station_name":"Tanah Abang","is_transit":false,"line":1,"time":5,"station_id":"THB","i_lat":-6.185545,"distance":2029,"i_long":106.811091},{"time":8,"station_id":"DU","distance":3632,"is_transit":true,"i_lat":-6.155215,"i_long":106.800832,"station_name":"Duri","transit":true,"line":1},{"station_name":"Grogol","transit":false,"line":5,"distance":1700,"is_transit":false,"i_lat":-6.162021,"station_id":"GGL","time":3,"i_long":106.788277},{"station_name":"Pesing","time":2,"transit":false,"i_long":106.771379,"distance":2036,"line":5,"station_id":"PSG","i_lat":-6.161433,"is_transit":false},{"line":5,"time":2,"station_name":"Taman Kota","transit":false,"is_transit":false,"distance":1614,"i_long":106.756522,"i_lat":-6.1587309999999995,"station_id":"TKO"},{"transit":false,"station_name":"Bojongindah","line":5,"time":2,"distance":2334,"i_long":106.737035,"i_lat":-6.159876,"is_transit":false,"station_id":"BOI"},{"station_name":"Rawa Buaya","station_id":"RW","i_lat":-6.162758,"transit":false,"i_long":106.723064,"is_transit":false,"time":4,"distance":1152,"line":5}],[{"distance":0,"i_lat":-6.215568,"is_transit":false,"i_long":106.922662,"line":1,"time":0,"transit":false,"station_id":"BUA","station_name":"Buaran"},{"station_id":"KLD","line":1,"time":2,"i_lat":-6.2135,"i_long":106.899548,"distance":3100,"station_name":"Klender","is_transit":false,"transit":false},{"i_lat":-6.215091,"station_name":"Jatinegara","is_transit":true,"distance":3395,"transit":true,"line":1,"station_id":"JNG","time":3,"i_long":106.86807400000001},{"transit":false,"i_long":106.861737,"is_transit":false,"station_name":"Pondok Jati","time":2,"i_lat":-6.209188,"station_id":"POK","distance":1236,"line":11},{"station_id":"KMT","i_long":106.855437,"station_name":"Kramat","time":2,"transit":false,"is_transit":false,"i_lat":-6.193792,"distance":1829,"line":11},{"distance":973,"i_long":106.850107,"is_transit":false,"station_name":"Gang Sentiong","time":1,"line":11,"i_lat":-6.185975,"transit":false,"station_id":"GST"},{"time":8,"i_long":106.84368,"station_name":"Pasar Senen","transit":false,"line":11,"station_id":"PSE","is_transit":false,"distance":1567,"i_lat":-6.174784},{"i_long":106.839204,"i_lat":-6.161728,"line":11,"transit":false,"is_transit":false,"station_id":"KMO","time":4,"distance":1436,"station_name":"Kemayoran"},{"distance":1901,"i_lat":-6.14505,"time":5,"line":11,"i_long":106.836569,"is_transit":false,"transit":false,"station_name":"Rajawali","station_id":"RJW"},{"is_transit":true,"station_id":"KPB","transit":true,"distance":1444,"i_long":106.826365,"i_lat":-6.132549,"line":4,"station_name":"Kampung Bandan","time":3},{"distance":4102,"i_lat":-6.144674,"station_name":"Angke","i_long":106.79867,"is_transit":false,"transit":false,"line":1,"station_id":"AK","time":9},{"station_id":"DU","time":4,"line":1,"distance":1230,"is_transit":true,"transit":true,"station_name":"Duri","i_lat":-6.155215,"i_long":106.800832},{"is_transit":false,"transit":false,"line":5,"i_lat":-6.162021,"i_long":106.788277,"distance":1700,"station_name":"Grogol","time":3,"station_id":"GGL"},{"station_id":"PSG","is_transit":false,"i_long":106.771379,"transit":false,"station_name":"Pesing","time":2,"line":5,"distance":2036,"i_lat":-6.161433},{"station_id":"TKO","station_name":"Taman Kota","is_transit":false,"i_long":106.756522,"distance":1614,"time":2,"i_lat":-6.1587309999999995,"line":5,"transit":false},{"distance":2334,"station_id":"BOI","i_lat":-6.159876,"line":5,"i_long":106.737035,"station_name":"Bojongindah","is_transit":false,"time":2,"transit":false},{"station_name":"Rawa Buaya","i_long":106.723064,"transit":false,"line":5,"distance":1152,"station_id":"RW","is_transit":false,"time":4,"i_lat":-6.162758}],[{"station_id":"BUA","i_lat":-6.215568,"is_transit":false,"station_name":"Buaran","distance":0,"transit":false,"time":0,"i_long":106.922662,"line":1},{"time":2,"station_name":"Klender","is_transit":false,"transit":false,"distance":3100,"i_lat":-6.2135,"i_long":106.899548,"line":1,"station_id":"KLD"},{"is_transit":false,"line":1,"i_lat":-6.215091,"station_name":"Jatinegara","i_long":106.86807400000001,"transit":false,"time":3,"distance":3395,"station_id":"JNG"},{"i_lat":-6.212485,"station_id":"MTR","time":2,"station_name":"Matraman","distance":1377,"is_transit":false,"transit":false,"line":1,"i_long":106.858896},{"station_id":"MRI","line":2,"time":2,"station_name":"Manggarai","distance":1275,"is_transit":true,"i_lat":-6.209883,"transit":true,"i_long":106.84912},{"station_id":"CKI","station_name":"Cikini","line":2,"i_lat":-6.198556,"transit":false,"is_transit":false,"time":4,"distance":1590,"i_long":106.840169},{"distance":1750,"is_transit":false,"i_long":106.832183,"station_id":"GDD","station_name":"Gondangdia","i_lat":-6.186295,"transit":false,"line":2,"time":3},{"line":2,"is_transit":false,"station_name":"Juanda","transit":false,"distance":2015,"i_lat":-6.166716,"time":4,"i_long":106.828284,"station_id":"JUA"},{"is_transit":false,"time":2,"line":2,"i_lat":-6.160725,"station_name":"Sawah Besar","i_long":106.827103,"station_id":"SW","transit":false,"distance":1149},{"i_long":106.82482,"station_id":"MGB","station_name":"Manggabesar","i_lat":-6.149769,"distance":906,"line":2,"time":2,"transit":false,"is_transit":false},{"transit":false,"distance":1080,"station_name":"Jayakarta","i_lat":-6.141205,"station_id":"JAY","i_long":106.820901,"line":2,"time":2,"is_transit":false},{"station_id":"JAKK","transit":true,"distance":1264,"i_long":106.812439,"is_transit":true,"time":4,"station_name":"Jakarta Kota","i_lat":-6.137569,"line":2},{"station_name":"Kampung Bandan","distance":1364,"station_id":"KPB","line":4,"transit":true,"i_long":106.826365,"time":3,"i_lat":-6.132549,"is_transit":true},{"i_lat":-6.144674,"distance":4102,"transit":false,"i_long":106.79867,"line":1,"is_transit":false,"station_id":"AK","time":9,"station_name":"Angke"},{"is_transit":true,"station_id":"DU","transit":true,"line":1,"distance":1230,"i_long":106.800832,"station_name":"Duri","time":4,"i_lat":-6.155215},{"distance":1700,"i_long":106.788277,"i_lat":-6.162021,"transit":false,"line":5,"station_name":"Grogol","time":3,"station_id":"GGL","is_transit":false},{"time":2,"line":5,"is_transit":false,"transit":false,"i_long":106.771379,"i_lat":-6.161433,"station_id":"PSG","distance":2036,"station_name":"Pesing"},{"station_id":"TKO","line":5,"transit":false,"i_long":106.756522,"time":2,"is_transit":false,"i_lat":-6.1587309999999995,"station_name":"Taman Kota","distance":1614},{"station_id":"BOI","time":2,"transit":false,"i_lat":-6.159876,"station_name":"Bojongindah","i_long":106.737035,"line":5,"distance":2334,"is_transit":false},{"line":5,"i_long":106.723064,"station_id":"RW","distance":1152,"is_transit":false,"time":4,"station_name":"Rawa Buaya","transit":false,"i_lat":-6.162758}],[{"station_name":"Buaran","distance":0,"line":1,"time":0,"i_lat":-6.215568,"is_transit":false,"station_id":"BUA","i_long":106.922662,"transit":false},{"distance":3100,"i_long":106.899548,"station_id":"KLD","transit":false,"line":1,"station_name":"Klender","time":2,"is_transit":false,"i_lat":-6.2135},{"time":3,"station_id":"JNG","station_name":"Jatinegara","transit":true,"distance":3395,"line":1,"i_lat":-6.215091,"i_long":106.86807400000001,"is_transit":true},{"station_name":"Pondok Jati","transit":false,"distance":1236,"is_transit":false,"time":2,"line":11,"i_long":106.861737,"station_id":"POK","i_lat":-6.209188},{"is_transit":false,"station_name":"Kramat","line":11,"i_lat":-6.193792,"i_long":106.855437,"distance":1829,"time":2,"transit":false,"station_id":"KMT"},{"station_id":"GST","i_long":106.850107,"station_name":"Gang Sentiong","is_transit":false,"time":1,"distance":973,"i_lat":-6.185975,"transit":false,"line":11},{"station_id":"PSE","time":8,"distance":1567,"is_transit":false,"station_name":"Pasar Senen","i_lat":-6.174784,"i_long":106.84368,"line":11,"transit":false},{"transit":false,"is_transit":false,"i_long":106.839204,"line":11,"i_lat":-6.161728,"station_id":"KMO","distance":1436,"station_name":"Kemayoran","time":4},{"i_long":106.836569,"is_transit":false,"time":5,"line":11,"transit":false,"station_name":"Rajawali","i_lat":-6.14505,"station_id":"RJW","distance":1901},{"line":4,"transit":true,"station_id":"KPB","i_lat":-6.132549,"station_name":"Kampung Bandan","i_long":106.826365,"distance":1444,"time":3,"is_transit":true},{"station_id":"JAKK","time":3,"is_transit":true,"i_lat":-6.137569,"i_long":106.812439,"line":2,"distance":1364,"station_name":"Jakarta Kota","transit":true},{"station_name":"Jayakarta","i_long":106.820901,"time":4,"transit":false,"i_lat":-6.141205,"line":2,"is_transit":false,"station_id":"JAY","distance":1264},{"transit":false,"station_name":"Manggabesar","station_id":"MGB","time":2,"is_transit":false,"i_long":106.82482,"line":2,"i_lat":-6.149769,"distance":1080},{"transit":false,"station_name":"Sawah Besar","i_long":106.827103,"line":2,"station_id":"SW","i_lat":-6.160725,"is_transit":false,"distance":906,"time":2},{"transit":false,"station_id":"JUA","time":2,"distance":1149,"i_long":106.828284,"is_transit":false,"i_lat":-6.166716,"line":2,"station_name":"Juanda"},{"time":4,"transit":false,"line":2,"station_name":"Gondangdia","i_lat":-6.186295,"distance":2015,"i_long":106.832183,"station_id":"GDD","is_transit":false},{"is_transit":false,"transit":false,"i_long":106.840169,"station_id":"CKI","line":2,"i_lat":-6.198556,"station_name":"Cikini","time":3,"distance":1750},{"i_long":106.84912,"transit":true,"line":2,"i_lat":-6.209883,"is_transit":true,"station_id":"MRI","station_name":"Manggarai","time":4,"distance":1590},{"is_transit":false,"station_name":"Sudirman","transit":false,"station_id":"SUD","i_long":106.822649,"time":4,"distance":3186,"line":1,"i_lat":-6.202263},{"station_name":"Sudirman Baru","transit":false,"i_lat":-6.201433,"i_long":106.819881,"time":1,"station_id":"SUDB","distance":280,"is_transit":false,"line":1},{"station_id":"KAT","station_name":"Karet","distance":471,"is_transit":false,"transit":false,"i_long":106.816351,"time":1,"line":1,"i_lat":-6.20132},{"transit":false,"is_transit":false,"time":5,"line":1,"i_long":106.811091,"i_lat":-6.185545,"station_id":"THB","distance":2029,"station_name":"Tanah Abang"},{"time":8,"i_lat":-6.155215,"station_name":"Duri","i_long":106.800832,"transit":true,"is_transit":true,"station_id":"DU","line":1,"distance":3632},{"i_long":106.788277,"time":3,"station_id":"GGL","distance":1700,"is_transit":false,"station_name":"Grogol","transit":false,"i_lat":-6.162021,"line":5},{"i_long":106.771379,"line":5,"i_lat":-6.161433,"time":2,"transit":false,"station_id":"PSG","is_transit":false,"station_name":"Pesing","distance":2036},{"is_transit":false,"time":2,"station_id":"TKO","transit":false,"i_lat":-6.1587309999999995,"i_long":106.756522,"line":5,"station_name":"Taman Kota","distance":1614},{"i_long":106.737035,"station_name":"Bojongindah","station_id":"BOI","transit":false,"i_lat":-6.159876,"time":2,"line":5,"is_transit":false,"distance":2334},{"transit":false,"distance":1152,"is_transit":false,"i_lat":-6.162758,"i_long":106.723064,"line":5,"time":4,"station_name":"Rawa Buaya","station_id":"RW"}]]}