{"data":[[{"transit":false,"station_name":"Buaran","distance":0,"station_id":"BUA","is_transit":false,"time":0,"i_lat":-6.215568,"line":0,"i_long":106.922662},{"transit":false,"i_long":106.899548,"station_id":"KLD","station_name":"Klender","distance":3100,"is_transit":false,"i_lat":-6.2135,"line":1,"time":2},{"station_id":"JNG","time":3,"i_lat":-6.215091,"line":0,"station_name":"Jatinegara","is_transit":true,"distance":3395,"i_long":106.86807400000001,"transit":false},{"line":1,"station_name":"Matraman","transit":false,"time":2,"station_id":"MTR","is_transit":false,"distance":1377,"i_lat":-6.212485,"i_long":106.858896},{"time":2,"distance":1275,"i_long":106.84912,"transit":true,"station_name":"Manggarai","station_id":"MRI","line":0,"is_transit":true,"i_lat":-6.209883},{"is_transit":false,"i_long":106.840169,"line":0,"station_id":"CKI","station_name":"Cikini","distance":1590,"transit":false,"i_lat":-6.198556,"time":4},{"is_transit":false,"time":3,"station_name":"Gondangdia","distance":1750,"line":2,"i_lat":-6.186295,"i_long":106.832183,"station_id":"GDD","transit":false},{"station_name":"Juanda","distance":2015,"line":2,"is_transit":false,"station_id":"JUA","i_lat":-6.166716,"time":4,"transit":false,"i_long":106.828284}],[{"station_id":"BUA","is_transit":false,"i_lat":-6.215568,"time":0,"transit":false,"distance":0,"station_name":"Buaran","i_long":106.922662,"line":0},{"station_id":"KLD","station_name":"Klender","time":2,"transit":false,"i_long":106.899548,"distance":3100,"is_transit":false,"i_lat":-6.2135,"line":1},{"line":0,"distance":3395,"i_long":106.86807400000001,"station_id":"JNG","station_name":"Jatinegara","transit":true,"is_transit":true,"i_lat":-6.215091,"time":3},{"distance":1236,"station_name":"Pondok Jati","station_id":"POK","time":2,"i_lat":-6.209188,"transit":false,"line":11,"is_transit":false,"i_long":106.861737},{"line":11,"transit":false,"station_id":"KMT","time":2,"i_lat":-6.193792,"i_long":106.855437,"is_transit":false,"distance":1829,"station_name":"Kramat"},{"is_transit":false,"line":11,"station_name":"Gang Sentiong","transit":false,"distance":973,"i_lat":-6.185975,"station_id":"GST","time":1,"i_long":106.850107},{"time":8,"line":11,"station_id":"PSE","i_lat":-6.174784,"i_long":106.84368,"is_transit":false,"distance":1567,"transit":false,"station_name":"Pasar Senen"},{"i_long":106.839204,"time":4,"line":11,"station_name":"Kemayoran","i_lat":-6.161728,"transit":false,"station_id":"KMO","is_transit":false,"distance":1436},{"line":11,"time":5,"is_transit":false,"transit":false,"station_name":"Rajawali","station_id":"RJW","i_long":106.836569,"distance":1901,"i_lat":-6.14505},{"i_long":106.826365,"time":3,"i_lat":-6.132549,"station_id":"KPB","station_name":"Kampung Bandan","distance":1444,"is_transit":true,"line":0,"transit":true},{"time":3,"distance":1364,"station_name":"Jakarta Kota","i_long":106.812439,"line":0,"i_lat":-6.137569,"station_id":"JAKK","is_transit":true,"transit":true},{"transit":false,"i_lat":-6.141205,"is_transit":false,"station_id":"JAY","i_long":106.820901,"line":7,"time":4,"distance":1264,"station_name":"Jayakarta"},{"station_id":"MGB","line":2,"is_transit":false,"station_name":"Manggabesar","transit":false,"time":2,"distance":1080,"i_lat":-6.149769,"i_long":106.82482},{"time":2,"transit":false,"station_id":"SW","distance":906,"is_transit":false,"i_lat":-6.160725,"station_name":"Sawah Besar","i_long":106.827103,"line":2},{"station_name":"Juanda","line":2,"is_transit":false,"i_long":106.828284,"transit":false,"distance":1149,"station_id":"JUA","time":2,"i_lat":-6.166716}],[{"i_long":106.922662,"line":0,"transit":false,"distance":0,"station_id":"BUA","i_lat":-6.215568,"is_transit":false,"time":0,"station_name":"Buaran"},{"station_id":"KLD","time":2,"distance":3100,"is_transit":false,"station_name":"Klender","transit":false,"i_lat":-6.2135,"i_long":106.899548,"line":1},{"is_transit":true,"transit":false,"time":3,"i_lat":-6.215091,"distance":3395,"station_id":"JNG","i_long":106.86807400000001,"line":0,"station_name":"Jatinegara"},{"is_transit":false,"i_long":106.858896,"distance":1377,"station_id":"MTR","station_name":"Matraman","line":1,"time":2,"transit":false,"i_lat":-6.212485},{"transit":false,"i_long":106.84912,"is_transit":true,"distance":1275,"i_lat":-6.209883,"station_name":"Manggarai","station_id":"MRI","time":2,"line":0},{"station_id":"SUD","is_transit":false,"time":4,"station_name":"Sudirman","distance":3186,"i_long":106.822649,"transit":false,"line":1,"i_lat":-6.202263},{"time":1,"distance":280,"is_transit":false,"station_id":"SUDB","station_name":"Sudirman Baru","transit":false,"i_lat":-6.201433,"i_long":106.819881,"line":1},{"line":1,"i_lat":-6.20132,"is_transit":false,"time":1,"i_long":106.816351,"distance":471,"station_name":"Karet","station_id":"KAT","transit":false},{"station_id":"THB","is_transit":true,"distance":2029,"i_long":106.811091,"station_name":"Tanah Abang","time":5,"i_lat":-6.185545,"line":1,"transit":false},{"transit":true,"station_id":"DU","i_lat":-6.155215,"is_transit":true,"station_name":"Duri","line":1,"time":8,"distance":3632,"i_long":106.800832},{"i_lat":-6.144674,"time":4,"i_long":106.79867,"station_id":"AK","is_transit":false,"station_name":"Angke","distance":1230,"line":0,"transit":false},{"line":0,"i_long":106.826365,"i_lat":-6.132549,"station_name":"Kampung Bandan","distance":4102,"time":9,"station_id":"KPB","is_transit":true,"transit":false},{"i_lat":-6.137569,"is_transit":true,"time":3,"station_id":"JAKK","station_name":"Jakarta Kota","distance":1364,"transit":true,"i_long":106.812439,"line":0},{"time":4,"transit":false,"line":7,"i_long":106.820901,"station_id":"JAY","is_transit":false,"distance":1264,"station_name":"Jayakarta","i_lat":-6.141205},{"station_name":"Manggabesar","i_lat":-6.149769,"distance":1080,"time":2,"line":2,"station_id":"MGB","transit":false,"is_transit":false,"i_long":106.82482},{"distance":906,"line":2,"is_transit":false,"i_lat":-6.160725,"station_id":"SW","transit":false,"i_long":106.827103,"station_name":"Sawah Besar","time":2},{"station_name":"Juanda","line":2,"is_transit":false,"transit":false,"i_lat":-6.166716,"distance":1149,"station_id":"JUA","i_long":106.828284,"time":2}],[{"i_lat":-6.215568,"station_name":"Buaran","time":0,"i_long":106.922662,"is_transit":false,"line":0,"transit":false,"station_id":"BUA","distance":0},{"station_id":"KLD","time":2,"is_transit":false,"transit":false,"line":1,"station_name":"Klender","i_long":106.899548,"distance":3100,"i_lat":-6.2135},{"distance":3395,"is_transit":true,"station_id":"JNG","time":3,"transit":true,"i_long":106.86807400000001,"station_name":"Jatinegara","i_lat":-6.215091,"line":0},{"distance":1236,"station_name":"Pondok Jati","i_lat":-6.209188,"is_transit":false,"time":2,"line":11,"i_long":106.861737,"station_id":"POK","transit":false},{"distance":1829,"i_lat":-6.193792,"i_long":106.855437,"time":2,"station_name":"Kramat","is_transit":false,"transit":false,"line":11,"station_id":"KMT"},{"station_id":"GST","i_long":106.850107,"is_transit":false,"transit":false,"line":11,"station_name":"Gang Sentiong","time":1,"i_lat":-6.185975,"distance":973},{"time":8,"i_lat":-6.174784,"i_long":106.84368,"line":11,"transit":false,"station_id":"PSE","station_name":"Pasar Senen","is_transit":false,"distance":1567},{"transit":false,"station_name":"Kemayoran","time":4,"distance":1436,"is_transit":false,"line":11,"i_lat":-6.161728,"i_long":106.839204,"station_id":"KMO"},{"station_id":"RJW","station_name":"Rajawali","distance":1901,"transit":false,"line":11,"time":5,"i_lat":-6.14505,"is_transit":false,"i_long":106.836569},{"is_transit":true,"time":3,"i_long":106.826365,"i_lat":-6.132549,"line":0,"station_name":"Kampung Bandan","transit":true,"station_id":"KPB","distance":1444},{"transit":false,"i_lat":-6.144674,"is_transit":false,"distance":4102,"line":0,"i_long":106.79867,"time":9,"station_name":"Angke","station_id":"AK"},{"i_long":106.800832,"i_lat":-6.155215,"time":4,"distance":1230,"is_transit":true,"station_id":"DU","transit":true,"line":1,"station_name":"Duri"},{"i_long":106.811091,"station_name":"Tanah Abang","distance":3632,"transit":false,"i_lat":-6.185545,"station_id":"THB","time":8,"is_transit":true,"line":1},{"line":1,"time":5,"i_lat":-6.20132,"is_transit":false,"station_id":"KAT","distance":2029,"transit":false,"station_name":"Karet","i_long":106.816351},{"line":1,"distance":471,"time":1,"i_long":106.819881,"is_transit":false,"transit":false,"i_lat":-6.201433,"station_name":"Sudirman Baru","station_id":"SUDB"},{"i_lat":-6.202263,"distance":280,"is_transit":false,"time":1,"transit":false,"station_id":"SUD","station_name":"Sudirman","line":1,"i_long":106.822649},{"station_name":"Manggarai","line":0,"is_transit":true,"time":4,"station_id":"MRI","distance":3186,"transit":true,"i_lat":-6.209883,"i_long":106.84912},{"i_lat":-6.198556,"station_name":"Cikini","is_transit":false,"transit":false,"distance":1590,"station_id":"CKI","i_long":106.840169,"line":0,"time":4},{"i_lat":-6.186295,"station_name":"Gondangdia","i_long":106.832183,"line":2,"distance":1750,"is_transit":false,"time":3,"station_id":"GDD","transit":false},{"transit":false,"station_id":"JUA","is_transit":false,"station_name":"Juanda","time":4,"i_lat":-6.166716,"i_long":106.828284,"line":2,"distance":2015}]]}