{"data":[[{"station_id":"BUA","distance":0,"line":1,"transit":false,"station_name":"Buaran","i_long":106.922662,"time":0,"is_transit":false,"i_lat":-6.215568},{"time":2,"i_lat":-6.2135,"station_name":"Klender","is_transit":false,"i_long":106.899548,"station_id":"KLD","distance":3100,"transit":false,"line":1},{"distance":3395,"station_id":"JNG","station_name":"Jatinegara","is_transit":true,"i_long":106.86807400000001,"line":1,"time":3,"i_lat":-6.215091,"transit":true},{"station_id":"POK","transit":false,"station_name":"Pondok Jati","time":2,"is_transit":false,"distance":1236,"i_lat":-6.209188,"i_long":106.861737,"line":11},{"line":11,"is_transit":false,"time":2,"station_id":"KMT","i_long":106.855437,"transit":false,"station_name":"Kramat","i_lat":-6.193792,"distance":1829},{"i_lat":-6.185975,"station_id":"GST","transit":false,"time":1,"is_transit":false,"line":11,"station_name":"Gang Sentiong","distance":973,"i_long":106.850107},{"time":8,"station_id":"PSE","i_lat":-6.174784,"distance":1567,"station_name":"Pasar Senen","transit":false,"is_transit":false,"i_long":106.84368,"line":11},{"line":11,"i_lat":-6.161728,"station_id":"KMO","transit":false,"station_name":"Kemayoran","time":4,"is_transit":false,"distance":1436,"i_long":106.839204}],[{"transit":false,"station_name":"Buaran","distance":0,"time":0,"station_id":"BUA","is_transit":false,"i_long":106.922662,"line":1,"i_lat":-6.215568},{"i_long":106.899548,"line":1,"time":2,"station_id":"KLD","station_name":"Klender","i_lat":-6.2135,"distance":3100,"transit":false,"is_transit":false},{"i_lat":-6.215091,"time":3,"transit":false,"line":1,"i_long":106.86807400000001,"station_id":"JNG","station_name":"Jatinegara","distance":3395,"is_transit":false},{"time":2,"station_name":"Matraman","line":1,"is_transit":false,"transit":false,"station_id":"MTR","i_lat":-6.212485,"i_long":106.858896,"distance":1377},{"station_name":"Manggarai","distance":1275,"i_long":106.84912,"is_transit":false,"time":2,"station_id":"MRI","i_lat":-6.209883,"transit":false,"line":2},{"i_lat":-6.202263,"i_long":106.822649,"time":4,"line":1,"is_transit":false,"distance":3186,"station_id":"SUD","transit":false,"station_name":"Sudirman"},{"i_long":106.819881,"station_id":"SUDB","transit":false,"station_name":"Sudirman Baru","is_transit":false,"line":1,"time":1,"distance":280,"i_lat":-6.201433},{"time":1,"is_transit":false,"station_name":"Karet","line":1,"station_id":"KAT","i_long":106.816351,"transit":false,"distance":471,"i_lat":-6.20132},{"time":5,"is_transit":false,"i_long":106.811091,"station_name":"Tanah Abang","transit":false,"distance":2029,"station_id":"THB","line":1,"i_lat":-6.185545},{"station_name":"Duri","is_transit":false,"time":8,"transit":false,"i_long":106.800832,"distance":3632,"line":1,"station_id":"DU","i_lat":-6.155215},{"distance":1230,"station_id":"AK","time":4,"i_lat":-6.144674,"transit":false,"station_name":"Angke","is_transit":false,"i_long":106.79867,"line":1},{"station_id":"KPB","distance":4102,"time":9,"line":4,"i_lat":-6.132549,"transit":true,"is_transit":true,"station_name":"Kampung Bandan","i_long":106.826365},{"time":3,"station_name":"Rajawali","is_transit":false,"transit":false,"i_long":106.836569,"station_id":"RJW","i_lat":-6.14505,"distance":1444,"line":11},{"line":11,"station_id":"KMO","time":5,"station_name":"Kemayoran","i_lat":-6.161728,"transit":false,"is_transit":false,"i_long":106.839204,"distance":1901}],[{"distance":0,"transit":false,"line":1,"station_id":"BUA","station_name":"Buaran","i_lat":-6.215568,"i_long":106.922662,"time":0,"is_transit":false},{"line":1,"transit":false,"distance":3100,"i_long":106.899548,"i_lat":-6.2135,"station_id":"KLD","time":2,"station_name":"Klender","is_transit":false},{"i_lat":-6.215091,"distance":3395,"station_name":"Jatinegara","is_transit":false,"line":1,"time":3,"station_id":"JNG","transit":false,"i_long":106.86807400000001},{"station_id":"MTR","transit":false,"i_long":106.858896,"line":1,"station_name":"Matraman","i_lat":-6.212485,"distance":1377,"is_transit":false,"time":2},{"station_id":"MRI","station_name":"Manggarai","is_transit":true,"i_lat":-6.209883,"i_long":106.84912,"transit":true,"time":2,"line":2,"distance":1275},{"i_lat":-6.198556,"station_id":"CKI","station_name":"Cikini","line":2,"is_transit":false,"transit":false,"distance":1590,"i_long":106.840169,"time":4},{"time":3,"station_name":"Gondangdia","station_id":"GDD","is_transit":false,"line":2,"distance":1750,"transit":false,"i_lat":-6.186295,"i_long":106.832183},{"time":4,"is_transit":false,"distance":2015,"station_id":"JUA","transit":false,"station_name":"Juanda","i_long":106.828284,"line":2,"i_lat":-6.166716},{"distance":1149,"station_name":"Sawah Besar","line":2,"station_id":"SW","is_transit":false,"i_long":106.827103,"time":2,"i_lat":-6.160725,"transit":false},{"distance":906,"is_transit":false,"station_name":"Manggabesar","transit":false,"i_long":106.82482,"line":2,"time":2,"station_id":"MGB","i_lat":-6.149769},{"time":2,"line":2,"distance":1080,"transit":false,"is_transit":false,"i_lat":-6.141205,"station_name":"Jayakarta","i_long":106.820901,"station_id":"JAY"},{"line":2,"distance":1264,"i_long":106.812439,"station_name":"Jakarta Kota","is_transit":true,"transit":true,"time":4,"station_id":"JAKK","i_lat":-6.137569},{"station_name":"Kampung Bandan","i_lat":-6.132549,"is_transit":true,"line":4,"station_id":"KPB","i_long":106.826365,"distance":1364,"transit":true,"time":3},{"station_id":"RJW","is_transit":false,"distance":1444,"transit":false,"station_name":"Rajawali","i_long":106.836569,"i_lat":-6.14505,"time":3,"line":11},{"station_id":"KMO","i_long":106.839204,"transit":false,"station_name":"Kemayoran","time":5,"line":11,"i_lat":-6.161728,"is_transit":false,"distance":1901}]]}