{"data":[[{"i_long":106.922662,"station_name":"Buaran","transit":false,"line":1,"station_id":"BUA","time":0,"is_transit":false,"distance":0,"i_lat":-6.215568},{"station_name":"Klender","station_id":"KLD","is_transit":false,"i_long":106.899548,"transit":false,"distance":3100,"time":2,"i_lat":-6.2135,"line":1},{"station_name":"Jatinegara","is_transit":false,"station_id":"JNG","time":3,"i_lat":-6.215091,"i_long":106.86807400000001,"line":1,"transit":false,"distance":3395},{"transit":false,"station_id":"MTR","distance":1377,"station_name":"Matraman","is_transit":false,"time":2,"i_lat":-6.212485,"line":1,"i_long":106.858896},{"i_long":106.84912,"i_lat":-6.209883,"is_transit":true,"distance":1275,"line":2,"station_id":"MRI","time":2,"station_name":"Manggarai","transit":true},{"station_name":"Tebet","i_lat":-6.226659,"i_long":106.857948,"distance":2610,"is_transit":false,"line":2,"station_id":"TEB","time":4,"transit":false},{"transit":false,"distance":1230,"line":2,"station_id":"CW","time":2,"is_transit":false,"i_long":106.856607,"i_lat":-6.242512,"station_name":"Cawang"},{"i_long":106.85449,"station_name":"Duren Kalibata","is_transit":false,"station_id":"DRN","line":2,"time":3,"distance":1546,"i_lat":-6.255332,"transit":false},{"i_long":106.851577,"is_transit":false,"station_id":"PSMB","station_name":"Pasar Minggu Baru","time":2,"transit":false,"line":2,"i_lat":-6.263214,"distance":824},{"time":2,"line":2,"station_name":"Pasar Minggu","distance":2380,"i_lat":-6.2842400000000005,"i_long":106.843999,"station_id":"PSM","is_transit":false,"transit":false},{"station_id":"TNT","line":2,"station_name":"Tanjung Barat","transit":false,"time":4,"is_transit":false,"i_lat":-6.3080680000000005,"distance":2820,"i_long":106.838896},{"transit":false,"line":2,"is_transit":false,"i_long":106.832616,"distance":2671,"time":3,"i_lat":-6.330363,"station_name":"Lenteng Agung","station_id":"LNA"},{"transit":false,"station_id":"UP","is_transit":false,"i_lat":-6.339291,"line":2,"time":2,"i_long":106.834175,"distance":1029,"station_name":"Univ. Pancasila"},{"transit":false,"is_transit":false,"distance":2264,"i_long":106.831474,"line":2,"station_id":"UI","station_name":"Univ. Indonesia","i_lat":-6.360749,"time":3},{"transit":false,"time":2,"is_transit":false,"station_id":"POC","distance":1109,"line":2,"i_lat":-6.369073,"station_name":"Pondok Cina","i_long":106.831114},{"transit":false,"is_transit":false,"station_id":"DPB","time":4,"distance":2727,"i_lat":-6.391065,"line":2,"i_long":106.819451,"station_name":"Depokbaru"}],[{"line":1,"is_transit":false,"station_id":"BUA","station_name":"Buaran","time":0,"transit":false,"i_long":106.922662,"i_lat":-6.215568,"distance":0},{"distance":3100,"transit":false,"station_name":"Klender","i_long":106.899548,"i_lat":-6.2135,"line":1,"is_transit":false,"station_id":"KLD","time":2},{"distance":3395,"transit":true,"station_name":"Jatinegara","i_long":106.86807400000001,"is_transit":true,"line":1,"station_id":"JNG","i_lat":-6.215091,"time":3},{"time":2,"is_transit":false,"i_lat":-6.209188,"transit":false,"station_id":"POK","distance":1236,"i_long":106.861737,"station_name":"Pondok Jati","line":11},{"distance":1829,"is_transit":false,"station_name":"Kramat","station_id":"KMT","line":11,"i_lat":-6.193792,"time":2,"i_long":106.855437,"transit":false},{"time":1,"i_long":106.850107,"station_name":"Gang Sentiong","is_transit":false,"station_id":"GST","transit":false,"distance":973,"i_lat":-6.185975,"line":11},{"transit":false,"i_lat":-6.174784,"is_transit":false,"distance":1567,"station_id":"PSE","line":11,"time":8,"i_long":106.84368,"station_name":"Pasar Senen"},{"is_transit":false,"distance":1436,"station_name":"Kemayoran","transit":false,"time":4,"station_id":"KMO","i_long":106.839204,"i_lat":-6.161728,"line":11},{"is_transit":false,"i_lat":-6.14505,"i_long":106.836569,"line":11,"time":5,"station_name":"Rajawali","distance":1901,"transit":false,"station_id":"RJW"},{"transit":true,"time":3,"distance":1444,"station_id":"KPB","i_long":106.826365,"is_transit":true,"line":4,"i_lat":-6.132549,"station_name":"Kampung Bandan"},{"line":1,"i_long":106.79867,"i_lat":-6.144674,"station_name":"Angke","is_transit":false,"station_id":"AK","distance":4102,"time":9,"transit":false},{"station_id":"DU","i_lat":-6.155215,"line":1,"distance":1230,"transit":false,"time":4,"station_name":"Duri","i_long":106.800832,"is_transit":false},{"transit":false,"station_id":"THB","is_transit":false,"line":1,"i_long":106.811091,"station_name":"Tanah Abang","time":8,"distance":3632,"i_lat":-6.185545},{"i_long":106.816351,"station_id":"KAT","is_transit":false,"station_name":"Karet","time":5,"distance":2029,"transit":false,"i_lat":-6.20132,"line":1},{"time":1,"transit":false,"distance":471,"is_transit":false,"station_id":"SUDB","station_name":"Sudirman Baru","i_lat":-6.201433,"i_long":106.819881,"line":1},{"is_transit":false,"line":1,"transit":false,"i_lat":-6.202263,"station_name":"Sudirman","station_id":"SUD","time":1,"distance":280,"i_long":106.822649},{"time":4,"is_transit":true,"line":2,"station_name":"Manggarai","station_id":"MRI","distance":3186,"transit":true,"i_long":106.84912,"i_lat":-6.209883},{"line":2,"time":4,"is_transit":false,"distance":2610,"transit":false,"station_name":"Tebet","i_long":106.857948,"i_lat":-6.226659,"station_id":"TEB"},{"i_long":106.856607,"station_id":"CW","i_lat":-6.242512,"is_transit":false,"transit":false,"time":2,"line":2,"station_name":"Cawang","distance":1230},{"i_lat":-6.255332,"is_transit":false,"time":3,"i_long":106.85449,"distance":1546,"transit":false,"station_id":"DRN","line":2,"station_name":"Duren Kalibata"},{"transit":false,"time":2,"i_long":106.851577,"i_lat":-6.263214,"distance":824,"station_id":"PSMB","line":2,"is_transit":false,"station_name":"Pasar Minggu Baru"},{"time":2,"i_lat":-6.2842400000000005,"is_transit":false,"station_id":"PSM","distance":2380,"i_long":106.843999,"line":2,"transit":false,"station_name":"Pasar Minggu"},{"time":4,"line":2,"station_name":"Tanjung Barat","transit":false,"station_id":"TNT","is_transit":false,"distance":2820,"i_long":106.838896,"i_lat":-6.3080680000000005},{"i_lat":-6.330363,"is_transit":false,"distance":2671,"i_long":106.832616,"station_name":"Lenteng Agung","time":3,"transit":false,"station_id":"LNA","line":2},{"i_long":106.834175,"is_transit":false,"i_lat":-6.339291,"transit":false,"station_id":"UP","station_name":"Univ. Pancasila","line":2,"time":2,"distance":1029},{"station_name":"Univ. Indonesia","is_transit":false,"distance":2264,"transit":false,"line":2,"station_id":"UI","i_long":106.831474,"time":3,"i_lat":-6.360749},{"line":2,"transit":false,"station_name":"Pondok Cina","time":2,"station_id":"POC","is_transit":false,"i_lat":-6.369073,"i_long":106.831114,"distance":1109},{"station_id":"DPB","is_transit":false,"time":4,"i_long":106.819451,"station_name":"Depokbaru","line":2,"i_lat":-6.391065,"transit":false,"distance":2727}],[{"i_long":106.922662,"station_id":"BUA","i_lat":-6.215568,"transit":false,"line":1,"distance":0,"station_name":"Buaran","is_transit":false,"time":0},{"is_transit":false,"line":1,"transit":false,"i_lat":-6.2135,"station_id":"KLD","time":2,"i_long":106.899548,"station_name":"Klender","distance":3100},{"i_long":106.86807400000001,"line":1,"transit":true,"station_name":"Jatinegara","station_id":"JNG","is_transit":true,"time":3,"i_lat":-6.215091,"distance":3395},{"station_name":"Pondok Jati","transit":false,"distance":1236,"is_transit":false,"station_id":"POK","time":2,"i_lat":-6.209188,"line":11,"i_long":106.861737},{"i_lat":-6.193792,"station_name":"Kramat","i_long":106.855437,"station_id":"KMT","time":2,"transit":false,"is_transit":false,"line":11,"distance":1829},{"line":11,"time":1,"station_id":"GST","i_long":106.850107,"station_name":"Gang Sentiong","transit":false,"is_transit":false,"distance":973,"i_lat":-6.185975},{"is_transit":false,"i_long":106.84368,"transit":false,"time":8,"distance":1567,"line":11,"station_id":"PSE","i_lat":-6.174784,"station_name":"Pasar Senen"},{"station_id":"KMO","distance":1436,"is_transit":false,"i_lat":-6.161728,"station_name":"Kemayoran","transit":false,"time":4,"i_long":106.839204,"line":11},{"station_name":"Rajawali","i_long":106.836569,"distance":1901,"line":11,"transit":false,"station_id":"RJW","is_transit":false,"time":5,"i_lat":-6.14505},{"station_id":"KPB","station_name":"Kampung Bandan","distance":1444,"i_lat":-6.132549,"transit":true,"time":3,"line":4,"is_transit":true,"i_long":106.826365},{"station_name":"Jakarta Kota","station_id":"JAKK","is_transit":true,"line":2,"transit":true,"i_long":106.812439,"time":3,"distance":1364,"i_lat":-6.137569},{"station_name":"Jayakarta","distance":1264,"i_long":106.820901,"line":2,"time":4,"transit":false,"i_lat":-6.141205,"station_id":"JAY","is_transit":false},{"transit":false,"time":2,"is_transit":false,"distance":1080,"station_id":"MGB","i_lat":-6.149769,"i_long":106.82482,"station_name":"Manggabesar","line":2},{"is_transit":false,"time":2,"i_lat":-6.160725,"i_long":106.827103,"distance":906,"station_name":"Sawah Besar","line":2,"station_id":"SW","transit":false},{"station_id":"JUA","distance":1149,"is_transit":false,"i_long":106.828284,"line":2,"transit":false,"time":2,"i_lat":-6.166716,"station_name":"Juanda"},{"time":4,"station_name":"Gondangdia","line":2,"is_transit":false,"transit":false,"distance":2015,"i_lat":-6.186295,"station_id":"GDD","i_long":106.832183},{"i_long":106.840169,"transit":false,"time":3,"station_id":"CKI","distance":1750,"is_transit":false,"line":2,"station_name":"Cikini","i_lat":-6.198556},{"station_id":"MRI","i_long":106.84912,"station_name":"Manggarai","distance":1590,"i_lat":-6.209883,"is_transit":false,"time":4,"transit":false,"line":2},{"station_name":"Tebet","station_id":"TEB","is_transit":false,"distance":2610,"i_lat":-6.226659,"i_long":106.857948,"line":2,"time":4,"transit":false},{"i_lat":-6.242512,"distance":1230,"i_long":106.856607,"line":2,"station_id":"CW","is_transit":false,"station_name":"Cawang","time":2,"transit":false},{"time":3,"i_long":106.85449,"station_id":"DRN","is_transit":false,"station_name":"Duren Kalibata","line":2,"transit":false,"distance":1546,"i_lat":-6.255332},{"distance":824,"line":2,"time":2,"i_lat":-6.263214,"i_long":106.851577,"station_name":"Pasar Minggu Baru","station_id":"PSMB","transit":false,"is_transit":false},{"i_long":106.843999,"station_id":"PSM","transit":false,"station_name":"Pasar Minggu","is_transit":false,"time":2,"line":2,"distance":2380,"i_lat":-6.2842400000000005},{"transit":false,"station_name":"Tanjung Barat","station_id":"TNT","is_transit":false,"time":4,"distance":2820,"i_lat":-6.3080680000000005,"i_long":106.838896,"line":2},{"station_id":"LNA","time":3,"i_lat":-6.330363,"is_transit":false,"line":2,"i_long":106.832616,"transit":false,"station_name":"Lenteng Agung","distance":2671},{"distance":1029,"i_long":106.834175,"is_transit":false,"time":2,"i_lat":-6.339291,"transit":false,"station_id":"UP","station_name":"Univ. Pancasila","line":2},{"transit":false,"station_name":"Univ. Indonesia","time":3,"line":2,"i_lat":-6.360749,"is_transit":false,"i_long":106.831474,"station_id":"UI","distance":2264},{"time":2,"i_lat":-6.369073,"is_transit":false,"line":2,"i_long":106.831114,"station_name":"Pondok Cina","station_id":"POC","distance":1109,"transit":false},{"station_name":"Depokbaru","line":2,"transit":false,"i_lat":-6.391065,"is_transit":false,"station_id":"DPB","i_long":106.819451,"time":4,"distance":2727}]]}