{"data":[[{"i_lat":-6.215568,"distance":0,"transit":false,"time":0,"station_id":"BUA","line":1,"is_transit":false,"station_name":"Buaran","i_long":106.922662},{"time":2,"i_long":106.899548,"distance":3100,"station_name":"Klender","line":1,"is_transit":false,"i_lat":-6.2135,"transit":false,"station_id":"KLD"},{"transit":false,"station_name":"Jatinegara","station_id":"JNG","time":3,"i_long":106.86807400000001,"line":1,"distance":3395,"i_lat":-6.215091,"is_transit":false},{"station_name":"Matraman","station_id":"MTR","i_lat":-6.212485,"distance":1377,"transit":false,"time":2,"is_transit":false,"line":1,"i_long":106.858896},{"station_name":"Manggarai","is_transit":true,"time":2,"i_long":106.84912,"line":2,"transit":true,"distance":1275,"i_lat":-6.209883,"station_id":"MRI"},{"distance":2610,"station_name":"Tebet","line":2,"i_long":106.857948,"is_transit":false,"station_id":"TEB","time":4,"transit":false,"i_lat":-6.226659},{"i_long":106.856607,"distance":1230,"station_name":"Cawang","is_transit":false,"time":2,"transit":false,"line":2,"station_id":"CW","i_lat":-6.242512},{"line":2,"i_long":106.85449,"is_transit":false,"distance":1546,"station_id":"DRN","station_name":"Duren Kalibata","time":3,"i_lat":-6.255332,"transit":false},{"station_id":"PSMB","i_long":106.851577,"is_transit":false,"i_lat":-6.263214,"station_name":"Pasar Minggu Baru","distance":824,"transit":false,"time":2,"line":2},{"time":2,"transit":false,"distance":2380,"i_lat":-6.2842400000000005,"station_name":"Pasar Minggu","is_transit":false,"station_id":"PSM","i_long":106.843999,"line":2},{"station_id":"TNT","i_long":106.838896,"i_lat":-6.3080680000000005,"station_name":"Tanjung Barat","transit":false,"distance":2820,"time":4,"is_transit":false,"line":2},{"is_transit":false,"station_id":"LNA","distance":2671,"line":2,"transit":false,"i_long":106.832616,"station_name":"Lenteng Agung","i_lat":-6.330363,"time":3},{"line":2,"is_transit":false,"time":2,"station_name":"Univ. Pancasila","transit":false,"i_long":106.834175,"distance":1029,"i_lat":-6.339291,"station_id":"UP"},{"distance":2264,"line":2,"is_transit":false,"i_long":106.831474,"transit":false,"i_lat":-6.360749,"station_name":"Univ. Indonesia","time":3,"station_id":"UI"},{"i_lat":-6.369073,"distance":1109,"is_transit":false,"line":2,"time":2,"i_long":106.831114,"station_name":"Pondok Cina","station_id":"POC","transit":false},{"transit":false,"is_transit":false,"line":2,"i_long":106.819451,"i_lat":-6.391065,"station_name":"Depokbaru","distance":2727,"time":4,"station_id":"DPB"}],[{"station_name":"Buaran","line":1,"is_transit":false,"station_id":"BUA","i_lat":-6.215568,"i_long":106.922662,"time":0,"distance":0,"transit":false},{"i_long":106.899548,"time":2,"line":1,"station_name":"Klender","i_lat":-6.2135,"transit":false,"station_id":"KLD","distance":3100,"is_transit":false},{"i_long":106.86807400000001,"i_lat":-6.215091,"is_transit":true,"line":1,"distance":3395,"station_id":"JNG","time":3,"transit":true,"station_name":"Jatinegara"},{"i_lat":-6.209188,"i_long":106.861737,"transit":false,"station_name":"Pondok Jati","station_id":"POK","is_transit":false,"line":11,"distance":1236,"time":2},{"station_id":"KMT","station_name":"Kramat","distance":1829,"time":2,"transit":false,"line":11,"i_long":106.855437,"i_lat":-6.193792,"is_transit":false},{"transit":false,"line":11,"i_long":106.850107,"station_name":"Gang Sentiong","time":1,"i_lat":-6.185975,"is_transit":false,"station_id":"GST","distance":973},{"i_lat":-6.174784,"distance":1567,"time":8,"station_id":"PSE","is_transit":false,"station_name":"Pasar Senen","i_long":106.84368,"transit":false,"line":11},{"i_lat":-6.161728,"i_long":106.839204,"station_name":"Kemayoran","time":4,"distance":1436,"line":11,"is_transit":false,"station_id":"KMO","transit":false},{"station_name":"Rajawali","distance":1901,"i_long":106.836569,"line":11,"is_transit":false,"transit":false,"station_id":"RJW","i_lat":-6.14505,"time":5},{"i_long":106.826365,"line":4,"station_name":"Kampung Bandan","i_lat":-6.132549,"distance":1444,"station_id":"KPB","is_transit":true,"time":3,"transit":true},{"line":1,"time":9,"station_id":"AK","is_transit":false,"station_name":"Angke","distance":4102,"i_lat":-6.144674,"i_long":106.79867,"transit":false},{"transit":false,"i_long":106.800832,"station_name":"Duri","line":1,"i_lat":-6.155215,"time":4,"is_transit":false,"distance":1230,"station_id":"DU"},{"line":1,"time":8,"transit":false,"i_lat":-6.185545,"distance":3632,"is_transit":false,"station_name":"Tanah Abang","station_id":"THB","i_long":106.811091},{"is_transit":false,"line":1,"station_name":"Karet","transit":false,"time":5,"station_id":"KAT","i_lat":-6.20132,"distance":2029,"i_long":106.816351},{"transit":false,"is_transit":false,"station_name":"Sudirman Baru","time":1,"distance":471,"i_lat":-6.201433,"i_long":106.819881,"line":1,"station_id":"SUDB"},{"i_lat":-6.202263,"is_transit":false,"station_name":"Sudirman","i_long":106.822649,"line":1,"time":1,"station_id":"SUD","transit":false,"distance":280},{"station_id":"MRI","i_lat":-6.209883,"transit":true,"distance":3186,"line":2,"is_transit":true,"i_long":106.84912,"time":4,"station_name":"Manggarai"},{"i_long":106.857948,"station_name":"Tebet","i_lat":-6.226659,"line":2,"transit":false,"is_transit":false,"distance":2610,"station_id":"TEB","time":4},{"line":2,"is_transit":false,"station_id":"CW","i_lat":-6.242512,"distance":1230,"station_name":"Cawang","i_long":106.856607,"time":2,"transit":false},{"transit":false,"i_long":106.85449,"time":3,"i_lat":-6.255332,"distance":1546,"line":2,"station_name":"Duren Kalibata","station_id":"DRN","is_transit":false},{"station_name":"Pasar Minggu Baru","time":2,"station_id":"PSMB","transit":false,"i_long":106.851577,"is_transit":false,"line":2,"i_lat":-6.263214,"distance":824},{"station_id":"PSM","transit":false,"station_name":"Pasar Minggu","is_transit":false,"time":2,"line":2,"i_lat":-6.2842400000000005,"i_long":106.843999,"distance":2380},{"is_transit":false,"i_long":106.838896,"transit":false,"line":2,"station_id":"TNT","i_lat":-6.3080680000000005,"station_name":"Tanjung Barat","time":4,"distance":2820},{"station_name":"Lenteng Agung","i_lat":-6.330363,"station_id":"LNA","is_transit":false,"transit":false,"i_long":106.832616,"distance":2671,"line":2,"time":3},{"distance":1029,"is_transit":false,"transit":false,"i_lat":-6.339291,"station_name":"Univ. Pancasila","time":2,"i_long":106.834175,"line":2,"station_id":"UP"},{"i_long":106.831474,"station_id":"UI","transit":false,"line":2,"is_transit":false,"distance":2264,"station_name":"Univ. Indonesia","time":3,"i_lat":-6.360749},{"line":2,"distance":1109,"station_id":"POC","is_transit":false,"station_name":"Pondok Cina","time":2,"i_lat":-6.369073,"i_long":106.831114,"transit":false},{"line":2,"i_long":106.819451,"is_transit":false,"station_id":"DPB","distance":2727,"station_name":"Depokbaru","transit":false,"i_lat":-6.391065,"time":4}],[{"is_transit":false,"transit":false,"time":0,"i_lat":-6.215568,"station_id":"BUA","distance":0,"line":1,"i_long":106.922662,"station_name":"Buaran"},{"station_name":"Klender","distance":3100,"i_lat":-6.2135,"time":2,"station_id":"KLD","line":1,"transit":false,"i_long":106.899548,"is_transit":false},{"station_name":"Jatinegara","is_transit":true,"distance":3395,"line":1,"i_lat":-6.215091,"time":3,"i_long":106.86807400000001,"transit":true,"station_id":"JNG"},{"station_id":"POK","i_lat":-6.209188,"line":11,"is_transit":false,"distance":1236,"transit":false,"station_name":"Pondok Jati","i_long":106.861737,"time":2},{"i_long":106.855437,"time":2,"i_lat":-6.193792,"transit":false,"station_name":"Kramat","distance":1829,"is_transit":false,"line":11,"station_id":"KMT"},{"distance":973,"station_id":"GST","is_transit":false,"i_long":106.850107,"transit":false,"station_name":"Gang Sentiong","time":1,"line":11,"i_lat":-6.185975},{"distance":1567,"line":11,"i_long":106.84368,"time":8,"i_lat":-6.174784,"transit":false,"station_id":"PSE","station_name":"Pasar Senen","is_transit":false},{"is_transit":false,"i_long":106.839204,"station_name":"Kemayoran","line":11,"station_id":"KMO","transit":false,"i_lat":-6.161728,"time":4,"distance":1436},{"i_lat":-6.14505,"line":11,"station_name":"Rajawali","time":5,"station_id":"RJW","transit":false,"is_transit":false,"i_long":106.836569,"distance":1901},{"is_transit":true,"distance":1444,"station_id":"KPB","i_long":106.826365,"i_lat":-6.132549,"line":4,"station_name":"Kampung Bandan","time":3,"transit":true},{"time":3,"transit":true,"i_lat":-6.137569,"is_transit":true,"station_name":"Jakarta Kota","i_long":106.812439,"station_id":"JAKK","distance":1364,"line":2},{"station_id":"JAY","is_transit":false,"station_name":"Jayakarta","time":4,"transit":false,"line":2,"i_lat":-6.141205,"i_long":106.820901,"distance":1264},{"is_transit":false,"time":2,"station_id":"MGB","i_lat":-6.149769,"i_long":106.82482,"distance":1080,"station_name":"Manggabesar","transit":false,"line":2},{"time":2,"line":2,"i_long":106.827103,"station_id":"SW","station_name":"Sawah Besar","is_transit":false,"distance":906,"i_lat":-6.160725,"transit":false},{"station_name":"Juanda","transit":false,"line":2,"is_transit":false,"station_id":"JUA","i_lat":-6.166716,"distance":1149,"time":2,"i_long":106.828284},{"is_transit":false,"line":2,"i_lat":-6.186295,"distance":2015,"transit":false,"i_long":106.832183,"time":4,"station_name":"Gondangdia","station_id":"GDD"},{"is_transit":false,"station_id":"CKI","transit":false,"i_long":106.840169,"line":2,"distance":1750,"station_name":"Cikini","i_lat":-6.198556,"time":3},{"time":4,"distance":1590,"transit":false,"i_lat":-6.209883,"i_long":106.84912,"station_name":"Manggarai","is_transit":false,"station_id":"MRI","line":2},{"i_lat":-6.226659,"station_name":"Tebet","i_long":106.857948,"station_id":"TEB","time":4,"line":2,"distance":2610,"transit":false,"is_transit":false},{"time":2,"line":2,"station_name":"Cawang","transit":false,"is_transit":false,"i_long":106.856607,"distance":1230,"station_id":"CW","i_lat":-6.242512},{"i_long":106.85449,"line":2,"transit":false,"i_lat":-6.255332,"distance":1546,"station_id":"DRN","time":3,"is_transit":false,"station_name":"Duren Kalibata"},{"distance":824,"station_id":"PSMB","i_lat":-6.263214,"i_long":106.851577,"line":2,"time":2,"transit":false,"station_name":"Pasar Minggu Baru","is_transit":false},{"i_long":106.843999,"time":2,"is_transit":false,"i_lat":-6.2842400000000005,"distance":2380,"transit":false,"station_name":"Pasar Minggu","line":2,"station_id":"PSM"},{"station_name":"Tanjung Barat","station_id":"TNT","i_lat":-6.3080680000000005,"line":2,"time":4,"distance":2820,"is_transit":false,"transit":false,"i_long":106.838896},{"i_long":106.832616,"time":3,"i_lat":-6.330363,"transit":false,"distance":2671,"station_name":"Lenteng Agung","station_id":"LNA","line":2,"is_transit":false},{"line":2,"i_lat":-6.339291,"i_long":106.834175,"station_id":"UP","station_name":"Univ. Pancasila","is_transit":false,"time":2,"transit":false,"distance":1029},{"station_id":"UI","distance":2264,"time":3,"i_long":106.831474,"line":2,"station_name":"Univ. Indonesia","transit":false,"i_lat":-6.360749,"is_transit":false},{"station_id":"POC","i_lat":-6.369073,"station_name":"Pondok Cina","distance":1109,"line":2,"time":2,"i_long":106.831114,"is_transit":false,"transit":false},{"i_lat":-6.391065,"distance":2727,"station_name":"Depokbaru","time":4,"station_id":"DPB","line":2,"is_transit":false,"i_long":106.819451,"transit":false}]]}