{"data":[[{"transit":false,"station_id":"BUA","line":0,"distance":0,"is_transit":false,"i_lat":-6.215568,"station_name":"Buaran","time":0,"i_long":106.922662},{"distance":3100,"is_transit":false,"transit":false,"i_long":106.899548,"station_id":"KLD","station_name":"Klender","line":1,"time":2,"i_lat":-6.2135},{"line":0,"transit":false,"station_id":"JNG","station_name":"Jatinegara","i_lat":-6.215091,"distance":3395,"is_transit":true,"i_long":106.86807400000001,"time":3},{"station_id":"MTR","i_lat":-6.212485,"time":2,"station_name":"Matraman","distance":1377,"transit":false,"line":1,"i_long":106.858896,"is_transit":false},{"line":0,"distance":1275,"is_transit":true,"station_name":"Manggarai","i_lat":-6.209883,"i_long":106.84912,"station_id":"MRI","transit":true,"time":2},{"i_lat":-6.198556,"time":4,"station_name":"Cikini","station_id":"CKI","is_transit":false,"i_long":106.840169,"transit":false,"line":0,"distance":1590},{"is_transit":false,"i_lat":-6.186295,"i_long":106.832183,"distance":1750,"time":3,"transit":false,"station_name":"Gondangdia","line":2,"station_id":"GDD"},{"station_id":"JUA","transit":false,"line":2,"i_lat":-6.166716,"station_name":"Juanda","i_long":106.828284,"is_transit":false,"distance":2015,"time":4},{"distance":1149,"line":2,"i_long":106.827103,"station_id":"SW","is_transit":false,"transit":false,"i_lat":-6.160725,"station_name":"Sawah Besar","time":2},{"transit":false,"station_id":"MGB","i_lat":-6.149769,"line":2,"i_long":106.82482,"time":2,"station_name":"Manggabesar","is_transit":false,"distance":906},{"station_name":"Jayakarta","i_lat":-6.141205,"distance":1080,"station_id":"JAY","i_long":106.820901,"time":2,"line":7,"transit":false,"is_transit":false}],[{"transit":false,"time":0,"station_name":"Buaran","i_lat":-6.215568,"distance":0,"is_transit":false,"i_long":106.922662,"line":0,"station_id":"BUA"},{"is_transit":false,"i_lat":-6.2135,"transit":false,"line":1,"station_id":"KLD","distance":3100,"i_long":106.899548,"time":2,"station_name":"Klender"},{"station_id":"JNG","i_long":106.86807400000001,"station_name":"Jatinegara","distance":3395,"is_transit":true,"transit":true,"time":3,"line":0,"i_lat":-6.215091},{"distance":1236,"is_transit":false,"station_id":"POK","line":11,"transit":false,"i_long":106.861737,"station_name":"Pondok Jati","time":2,"i_lat":-6.209188},{"i_long":106.855437,"line":11,"station_name":"Kramat","station_id":"KMT","time":2,"transit":false,"is_transit":false,"distance":1829,"i_lat":-6.193792},{"line":11,"distance":973,"i_long":106.850107,"station_id":"GST","i_lat":-6.185975,"transit":false,"station_name":"Gang Sentiong","time":1,"is_transit":false},{"i_lat":-6.174784,"transit":false,"line":11,"is_transit":false,"station_id":"PSE","time":8,"distance":1567,"i_long":106.84368,"station_name":"Pasar Senen"},{"is_transit":false,"i_long":106.839204,"station_name":"Kemayoran","i_lat":-6.161728,"time":4,"transit":false,"line":11,"station_id":"KMO","distance":1436},{"time":5,"station_name":"Rajawali","is_transit":false,"distance":1901,"i_lat":-6.14505,"line":11,"transit":false,"station_id":"RJW","i_long":106.836569},{"time":3,"i_long":106.826365,"transit":true,"line":0,"distance":1444,"is_transit":true,"i_lat":-6.132549,"station_id":"KPB","station_name":"Kampung Bandan"},{"i_long":106.812439,"line":0,"i_lat":-6.137569,"is_transit":true,"distance":1364,"station_name":"Jakarta Kota","transit":true,"time":3,"station_id":"JAKK"},{"station_name":"Jayakarta","i_lat":-6.141205,"station_id":"JAY","line":7,"i_long":106.820901,"is_transit":false,"transit":false,"time":4,"distance":1264}],[{"station_name":"Buaran","i_lat":-6.215568,"transit":false,"line":0,"is_transit":false,"station_id":"BUA","time":0,"distance":0,"i_long":106.922662},{"i_long":106.899548,"station_name":"Klender","time":2,"is_transit":false,"i_lat":-6.2135,"distance":3100,"transit":false,"station_id":"KLD","line":1},{"station_name":"Jatinegara","i_lat":-6.215091,"transit":false,"is_transit":true,"time":3,"i_long":106.86807400000001,"station_id":"JNG","line":0,"distance":3395},{"time":2,"line":1,"distance":1377,"transit":false,"is_transit":false,"station_id":"MTR","i_lat":-6.212485,"station_name":"Matraman","i_long":106.858896},{"is_transit":true,"station_name":"Manggarai","time":2,"i_lat":-6.209883,"transit":false,"i_long":106.84912,"distance":1275,"station_id":"MRI","line":0},{"station_name":"Sudirman","station_id":"SUD","i_long":106.822649,"distance":3186,"transit":false,"is_transit":false,"time":4,"i_lat":-6.202263,"line":1},{"time":1,"distance":280,"transit":false,"station_name":"Sudirman Baru","is_transit":false,"station_id":"SUDB","i_lat":-6.201433,"i_long":106.819881,"line":1},{"distance":471,"station_id":"KAT","time":1,"transit":false,"i_long":106.816351,"station_name":"Karet","i_lat":-6.20132,"is_transit":false,"line":1},{"distance":2029,"transit":false,"i_lat":-6.185545,"station_id":"THB","is_transit":true,"time":5,"station_name":"Tanah Abang","i_long":106.811091,"line":1},{"is_transit":true,"transit":true,"i_lat":-6.155215,"i_long":106.800832,"line":1,"station_id":"DU","time":8,"distance":3632,"station_name":"Duri"},{"i_lat":-6.144674,"station_id":"AK","station_name":"Angke","time":4,"i_long":106.79867,"distance":1230,"line":0,"transit":false,"is_transit":false},{"station_name":"Kampung Bandan","time":9,"distance":4102,"station_id":"KPB","i_long":106.826365,"line":0,"is_transit":true,"transit":false,"i_lat":-6.132549},{"station_name":"Jakarta Kota","is_transit":true,"station_id":"JAKK","distance":1364,"transit":true,"line":0,"i_lat":-6.137569,"time":3,"i_long":106.812439},{"station_name":"Jayakarta","is_transit":false,"distance":1264,"transit":false,"time":4,"i_lat":-6.141205,"i_long":106.820901,"line":7,"station_id":"JAY"}],[{"station_name":"Buaran","time":0,"transit":false,"i_lat":-6.215568,"station_id":"BUA","is_transit":false,"i_long":106.922662,"distance":0,"line":0},{"station_name":"Klender","line":1,"transit":false,"i_long":106.899548,"distance":3100,"is_transit":false,"time":2,"i_lat":-6.2135,"station_id":"KLD"},{"i_long":106.86807400000001,"station_name":"Jatinegara","is_transit":true,"time":3,"line":0,"distance":3395,"i_lat":-6.215091,"transit":true,"station_id":"JNG"},{"time":2,"station_id":"POK","is_transit":false,"i_long":106.861737,"transit":false,"i_lat":-6.209188,"station_name":"Pondok Jati","line":11,"distance":1236},{"i_long":106.855437,"time":2,"transit":false,"i_lat":-6.193792,"line":11,"station_id":"KMT","distance":1829,"is_transit":false,"station_name":"Kramat"},{"i_lat":-6.185975,"line":11,"transit":false,"station_name":"Gang Sentiong","time":1,"distance":973,"station_id":"GST","is_transit":false,"i_long":106.850107},{"is_transit":false,"station_name":"Pasar Senen","station_id":"PSE","time":8,"distance":1567,"transit":false,"i_lat":-6.174784,"i_long":106.84368,"line":11},{"i_long":106.839204,"line":11,"time":4,"distance":1436,"transit":false,"is_transit":false,"station_name":"Kemayoran","i_lat":-6.161728,"station_id":"KMO"},{"is_transit":false,"transit":false,"i_long":106.836569,"distance":1901,"line":11,"station_id":"RJW","time":5,"station_name":"Rajawali","i_lat":-6.14505},{"transit":true,"i_long":106.826365,"station_name":"Kampung Bandan","is_transit":true,"station_id":"KPB","time":3,"distance":1444,"i_lat":-6.132549,"line":0},{"i_long":106.79867,"is_transit":false,"time":9,"station_id":"AK","transit":false,"line":0,"distance":4102,"i_lat":-6.144674,"station_name":"Angke"},{"station_id":"DU","station_name":"Duri","transit":true,"line":1,"is_transit":true,"distance":1230,"i_long":106.800832,"i_lat":-6.155215,"time":4},{"line":1,"i_lat":-6.185545,"transit":false,"is_transit":true,"station_name":"Tanah Abang","distance":3632,"i_long":106.811091,"station_id":"THB","time":8},{"station_name":"Karet","transit":false,"distance":2029,"line":1,"station_id":"KAT","is_transit":false,"time":5,"i_lat":-6.20132,"i_long":106.816351},{"distance":471,"is_transit":false,"i_lat":-6.201433,"time":1,"i_long":106.819881,"transit":false,"station_name":"Sudirman Baru","station_id":"SUDB","line":1},{"i_lat":-6.202263,"time":1,"is_transit":false,"line":1,"transit":false,"station_name":"Sudirman","distance":280,"station_id":"SUD","i_long":106.822649},{"station_name":"Manggarai","line":0,"station_id":"MRI","is_transit":true,"distance":3186,"transit":true,"i_lat":-6.209883,"i_long":106.84912,"time":4},{"transit":false,"station_id":"CKI","station_name":"Cikini","time":4,"distance":1590,"i_lat":-6.198556,"i_long":106.840169,"line":0,"is_transit":false},{"station_name":"Gondangdia","line":2,"station_id":"GDD","time":3,"is_transit":false,"distance":1750,"i_lat":-6.186295,"i_long":106.832183,"transit":false},{"transit":false,"i_lat":-6.166716,"time":4,"station_name":"Juanda","distance":2015,"is_transit":false,"i_long":106.828284,"line":2,"station_id":"JUA"},{"distance":1149,"i_lat":-6.160725,"time":2,"line":2,"i_long":106.827103,"transit":false,"is_transit":false,"station_id":"SW","station_name":"Sawah Besar"},{"i_long":106.82482,"distance":906,"station_id":"MGB","station_name":"Manggabesar","is_transit":false,"i_lat":-6.149769,"line":2,"time":2,"transit":false},{"line":7,"i_lat":-6.141205,"station_name":"Jayakarta","is_transit":false,"time":2,"distance":1080,"station_id":"JAY","transit":false,"i_long":106.820901}]]}