{"data":[[{"line":1,"transit":false,"i_long":106.922662,"time":0,"station_name":"Buaran","distance":0,"i_lat":-6.215568,"is_transit":false,"station_id":"BUA"},{"distance":3100,"transit":false,"i_long":106.899548,"line":1,"station_name":"Klender","station_id":"KLD","is_transit":false,"time":2,"i_lat":-6.2135},{"i_long":106.86807400000001,"station_id":"JNG","line":1,"distance":3395,"transit":false,"station_name":"Jatinegara","is_transit":false,"time":3,"i_lat":-6.215091},{"is_transit":false,"i_long":106.858896,"distance":1377,"line":1,"station_id":"MTR","i_lat":-6.212485,"station_name":"Matraman","transit":false,"time":2},{"line":2,"is_transit":true,"i_long":106.84912,"distance":1275,"transit":true,"station_name":"Manggarai","time":2,"station_id":"MRI","i_lat":-6.209883},{"line":2,"station_name":"Cikini","i_lat":-6.198556,"station_id":"CKI","i_long":106.840169,"transit":false,"is_transit":false,"time":4,"distance":1590},{"station_id":"GDD","time":3,"distance":1750,"line":2,"i_lat":-6.186295,"transit":false,"i_long":106.832183,"is_transit":false,"station_name":"Gondangdia"}],[{"transit":false,"distance":0,"i_long":106.922662,"i_lat":-6.215568,"station_id":"BUA","line":1,"time":0,"is_transit":false,"station_name":"Buaran"},{"time":2,"i_lat":-6.2135,"station_id":"KLD","transit":false,"distance":3100,"line":1,"station_name":"Klender","is_transit":false,"i_long":106.899548},{"station_name":"Jatinegara","transit":true,"time":3,"station_id":"JNG","line":1,"i_long":106.86807400000001,"distance":3395,"i_lat":-6.215091,"is_transit":true},{"i_long":106.861737,"line":11,"transit":false,"station_name":"Pondok Jati","station_id":"POK","distance":1236,"i_lat":-6.209188,"is_transit":false,"time":2},{"is_transit":false,"i_long":106.855437,"distance":1829,"transit":false,"time":2,"i_lat":-6.193792,"station_name":"Kramat","line":11,"station_id":"KMT"},{"transit":false,"time":1,"distance":973,"is_transit":false,"station_id":"GST","i_long":106.850107,"station_name":"Gang Sentiong","i_lat":-6.185975,"line":11},{"station_id":"PSE","i_long":106.84368,"line":11,"transit":false,"i_lat":-6.174784,"station_name":"Pasar Senen","time":8,"distance":1567,"is_transit":false},{"time":4,"is_transit":false,"distance":1436,"station_name":"Kemayoran","transit":false,"station_id":"KMO","i_lat":-6.161728,"i_long":106.839204,"line":11},{"distance":1901,"transit":false,"time":5,"i_long":106.836569,"i_lat":-6.14505,"line":11,"is_transit":false,"station_id":"RJW","station_name":"Rajawali"},{"i_long":106.826365,"transit":true,"is_transit":true,"distance":1444,"line":4,"station_name":"Kampung Bandan","time":3,"station_id":"KPB","i_lat":-6.132549},{"station_id":"JAKK","time":3,"distance":1364,"i_long":106.812439,"station_name":"Jakarta Kota","is_transit":true,"transit":true,"i_lat":-6.137569,"line":2},{"station_name":"Jayakarta","time":4,"transit":false,"is_transit":false,"distance":1264,"i_lat":-6.141205,"line":2,"station_id":"JAY","i_long":106.820901},{"line":2,"is_transit":false,"i_long":106.82482,"i_lat":-6.149769,"distance":1080,"station_name":"Manggabesar","transit":false,"station_id":"MGB","time":2},{"i_long":106.827103,"distance":906,"transit":false,"line":2,"station_name":"Sawah Besar","time":2,"station_id":"SW","is_transit":false,"i_lat":-6.160725},{"station_id":"JUA","is_transit":false,"distance":1149,"i_lat":-6.166716,"i_long":106.828284,"line":2,"time":2,"station_name":"Juanda","transit":false},{"time":4,"distance":2015,"i_long":106.832183,"i_lat":-6.186295,"is_transit":false,"station_id":"GDD","station_name":"Gondangdia","transit":false,"line":2}],[{"i_lat":-6.215568,"i_long":106.922662,"time":0,"distance":0,"station_id":"BUA","line":1,"is_transit":false,"transit":false,"station_name":"Buaran"},{"distance":3100,"station_id":"KLD","i_lat":-6.2135,"i_long":106.899548,"line":1,"transit":false,"time":2,"station_name":"Klender","is_transit":false},{"transit":false,"station_id":"JNG","is_transit":false,"station_name":"Jatinegara","time":3,"i_lat":-6.215091,"i_long":106.86807400000001,"distance":3395,"line":1},{"transit":false,"i_long":106.858896,"line":1,"time":2,"is_transit":false,"station_name":"Matraman","station_id":"MTR","distance":1377,"i_lat":-6.212485},{"station_name":"Manggarai","station_id":"MRI","i_lat":-6.209883,"i_long":106.84912,"line":2,"distance":1275,"time":2,"is_transit":false,"transit":false},{"time":4,"i_lat":-6.202263,"line":1,"distance":3186,"station_name":"Sudirman","i_long":106.822649,"station_id":"SUD","transit":false,"is_transit":false},{"transit":false,"i_long":106.819881,"station_name":"Sudirman Baru","is_transit":false,"station_id":"SUDB","time":1,"distance":280,"line":1,"i_lat":-6.201433},{"station_name":"Karet","is_transit":false,"time":1,"i_long":106.816351,"transit":false,"i_lat":-6.20132,"line":1,"station_id":"KAT","distance":471},{"station_name":"Tanah Abang","distance":2029,"i_lat":-6.185545,"transit":false,"station_id":"THB","i_long":106.811091,"is_transit":false,"line":1,"time":5},{"distance":3632,"line":1,"i_long":106.800832,"time":8,"transit":false,"i_lat":-6.155215,"station_id":"DU","is_transit":false,"station_name":"Duri"},{"i_lat":-6.144674,"station_name":"Angke","station_id":"AK","transit":false,"is_transit":false,"distance":1230,"line":1,"i_long":106.79867,"time":4},{"transit":true,"is_transit":true,"i_long":106.826365,"station_name":"Kampung Bandan","distance":4102,"station_id":"KPB","time":9,"line":4,"i_lat":-6.132549},{"station_name":"Jakarta Kota","station_id":"JAKK","is_transit":true,"line":2,"i_lat":-6.137569,"transit":true,"time":3,"distance":1364,"i_long":106.812439},{"station_name":"Jayakarta","i_lat":-6.141205,"is_transit":false,"distance":1264,"line":2,"i_long":106.820901,"transit":false,"time":4,"station_id":"JAY"},{"distance":1080,"time":2,"transit":false,"station_name":"Manggabesar","i_lat":-6.149769,"i_long":106.82482,"station_id":"MGB","is_transit":false,"line":2},{"is_transit":false,"time":2,"transit":false,"station_name":"Sawah Besar","distance":906,"line":2,"i_lat":-6.160725,"station_id":"SW","i_long":106.827103},{"time":2,"i_long":106.828284,"line":2,"station_name":"Juanda","transit":false,"i_lat":-6.166716,"station_id":"JUA","distance":1149,"is_transit":false},{"station_id":"GDD","i_long":106.832183,"line":2,"transit":false,"station_name":"Gondangdia","is_transit":false,"time":4,"i_lat":-6.186295,"distance":2015}],[{"station_id":"BUA","station_name":"Buaran","is_transit":false,"distance":0,"i_long":106.922662,"transit":false,"time":0,"i_lat":-6.215568,"line":1},{"station_id":"KLD","station_name":"Klender","distance":3100,"i_long":106.899548,"transit":false,"is_transit":false,"i_lat":-6.2135,"line":1,"time":2},{"line":1,"time":3,"transit":true,"station_name":"Jatinegara","i_lat":-6.215091,"distance":3395,"station_id":"JNG","is_transit":true,"i_long":106.86807400000001},{"i_long":106.861737,"transit":false,"station_name":"Pondok Jati","is_transit":false,"time":2,"distance":1236,"i_lat":-6.209188,"line":11,"station_id":"POK"},{"i_lat":-6.193792,"line":11,"station_id":"KMT","i_long":106.855437,"time":2,"is_transit":false,"transit":false,"station_name":"Kramat","distance":1829},{"station_name":"Gang Sentiong","time":1,"i_lat":-6.185975,"distance":973,"is_transit":false,"i_long":106.850107,"station_id":"GST","line":11,"transit":false},{"time":8,"is_transit":false,"line":11,"station_name":"Pasar Senen","distance":1567,"i_long":106.84368,"i_lat":-6.174784,"transit":false,"station_id":"PSE"},{"distance":1436,"transit":false,"line":11,"time":4,"station_name":"Kemayoran","i_lat":-6.161728,"is_transit":false,"station_id":"KMO","i_long":106.839204},{"station_name":"Rajawali","line":11,"i_long":106.836569,"is_transit":false,"transit":false,"i_lat":-6.14505,"station_id":"RJW","distance":1901,"time":5},{"distance":1444,"i_long":106.826365,"is_transit":true,"transit":true,"i_lat":-6.132549,"station_name":"Kampung Bandan","line":4,"station_id":"KPB","time":3},{"station_name":"Angke","time":9,"is_transit":false,"distance":4102,"station_id":"AK","transit":false,"i_lat":-6.144674,"line":1,"i_long":106.79867},{"transit":false,"line":1,"time":4,"station_id":"DU","is_transit":false,"station_name":"Duri","i_long":106.800832,"distance":1230,"i_lat":-6.155215},{"i_long":106.811091,"station_id":"THB","is_transit":false,"transit":false,"line":1,"station_name":"Tanah Abang","time":8,"distance":3632,"i_lat":-6.185545},{"time":5,"i_lat":-6.20132,"distance":2029,"station_id":"KAT","line":1,"station_name":"Karet","transit":false,"is_transit":false,"i_long":106.816351},{"station_name":"Sudirman Baru","is_transit":false,"i_long":106.819881,"transit":false,"station_id":"SUDB","time":1,"distance":471,"i_lat":-6.201433,"line":1},{"line":1,"i_lat":-6.202263,"station_id":"SUD","station_name":"Sudirman","is_transit":false,"time":1,"transit":false,"distance":280,"i_long":106.822649},{"time":4,"i_lat":-6.209883,"i_long":106.84912,"distance":3186,"is_transit":true,"line":2,"station_name":"Manggarai","station_id":"MRI","transit":true},{"i_long":106.840169,"i_lat":-6.198556,"transit":false,"is_transit":false,"time":4,"line":2,"station_name":"Cikini","station_id":"CKI","distance":1590},{"i_lat":-6.186295,"is_transit":false,"transit":false,"distance":1750,"i_long":106.832183,"station_name":"Gondangdia","station_id":"GDD","line":2,"time":3}]]}