{"data":[[{"is_transit":false,"time":0,"station_name":"Buaran","transit":false,"i_long":106.922662,"distance":0,"station_id":"BUA","line":0,"i_lat":-6.215568},{"distance":3100,"time":2,"line":1,"i_long":106.899548,"i_lat":-6.2135,"is_transit":false,"station_name":"Klender","transit":false,"station_id":"KLD"},{"line":0,"station_id":"JNG","distance":3395,"station_name":"Jatinegara","transit":false,"is_transit":true,"time":3,"i_lat":-6.215091,"i_long":106.86807400000001},{"is_transit":false,"i_lat":-6.212485,"i_long":106.858896,"transit":false,"time":2,"line":1,"station_id":"MTR","distance":1377,"station_name":"Matraman"},{"i_lat":-6.209883,"is_transit":true,"i_long":106.84912,"line":0,"station_id":"MRI","distance":1275,"station_name":"Manggarai","transit":false,"time":2},{"station_id":"SUD","i_long":106.822649,"station_name":"Sudirman","line":1,"time":4,"distance":3186,"i_lat":-6.202263,"transit":false,"is_transit":false},{"transit":false,"line":1,"i_lat":-6.201433,"station_name":"Sudirman Baru","distance":280,"is_transit":false,"i_long":106.819881,"station_id":"SUDB","time":1},{"i_long":106.816351,"time":1,"distance":471,"station_name":"Karet","is_transit":false,"line":1,"transit":false,"i_lat":-6.20132,"station_id":"KAT"},{"time":5,"transit":false,"i_long":106.811091,"is_transit":true,"distance":2029,"line":1,"i_lat":-6.185545,"station_name":"Tanah Abang","station_id":"THB"},{"time":8,"distance":3632,"station_name":"Duri","transit":true,"line":1,"is_transit":true,"station_id":"DU","i_long":106.800832,"i_lat":-6.155215},{"station_id":"GGL","distance":1700,"line":5,"i_long":106.788277,"transit":false,"i_lat":-6.162021,"station_name":"Grogol","time":3,"is_transit":false},{"line":5,"is_transit":false,"station_id":"PSG","station_name":"Pesing","distance":2036,"i_long":106.771379,"time":2,"transit":false,"i_lat":-6.161433},{"is_transit":false,"station_name":"Taman Kota","transit":false,"time":2,"i_lat":-6.1587309999999995,"i_long":106.756522,"station_id":"TKO","line":5,"distance":1614},{"station_id":"BOI","distance":2334,"time":2,"transit":false,"i_lat":-6.159876,"i_long":106.737035,"line":0,"is_transit":false,"station_name":"Bojongindah"},{"station_id":"RW","i_lat":-6.162758,"line":5,"time":4,"station_name":"Rawa Buaya","transit":false,"i_long":106.723064,"is_transit":false,"distance":1152}],[{"transit":false,"station_name":"Buaran","line":0,"station_id":"BUA","i_lat":-6.215568,"i_long":106.922662,"is_transit":false,"distance":0,"time":0},{"i_lat":-6.2135,"station_name":"Klender","line":1,"station_id":"KLD","is_transit":false,"distance":3100,"time":2,"transit":false,"i_long":106.899548},{"line":0,"distance":3395,"transit":true,"station_name":"Jatinegara","time":3,"i_lat":-6.215091,"station_id":"JNG","is_transit":true,"i_long":106.86807400000001},{"i_lat":-6.209188,"i_long":106.861737,"transit":false,"station_id":"POK","line":11,"station_name":"Pondok Jati","time":2,"distance":1236,"is_transit":false},{"station_id":"KMT","distance":1829,"transit":false,"time":2,"station_name":"Kramat","i_lat":-6.193792,"i_long":106.855437,"line":11,"is_transit":false},{"i_lat":-6.185975,"station_name":"Gang Sentiong","transit":false,"station_id":"GST","i_long":106.850107,"is_transit":false,"line":11,"time":1,"distance":973},{"station_name":"Pasar Senen","line":11,"i_long":106.84368,"transit":false,"time":8,"distance":1567,"i_lat":-6.174784,"station_id":"PSE","is_transit":false},{"line":11,"station_id":"KMO","time":4,"i_long":106.839204,"station_name":"Kemayoran","i_lat":-6.161728,"is_transit":false,"transit":false,"distance":1436},{"distance":1901,"is_transit":false,"station_name":"Rajawali","transit":false,"i_lat":-6.14505,"station_id":"RJW","time":5,"i_long":106.836569,"line":11},{"distance":1444,"is_transit":true,"i_long":106.826365,"transit":true,"i_lat":-6.132549,"line":0,"time":3,"station_name":"Kampung Bandan","station_id":"KPB"},{"line":0,"station_id":"AK","distance":4102,"station_name":"Angke","is_transit":false,"time":9,"transit":false,"i_lat":-6.144674,"i_long":106.79867},{"distance":1230,"i_long":106.800832,"transit":true,"station_id":"DU","i_lat":-6.155215,"station_name":"Duri","line":1,"time":4,"is_transit":true},{"line":5,"station_id":"GGL","i_long":106.788277,"station_name":"Grogol","is_transit":false,"time":3,"transit":false,"distance":1700,"i_lat":-6.162021},{"i_lat":-6.161433,"i_long":106.771379,"transit":false,"station_name":"Pesing","line":5,"station_id":"PSG","time":2,"distance":2036,"is_transit":false},{"station_name":"Taman Kota","station_id":"TKO","line":5,"transit":false,"distance":1614,"i_lat":-6.1587309999999995,"i_long":106.756522,"time":2,"is_transit":false},{"time":2,"distance":2334,"transit":false,"i_long":106.737035,"is_transit":false,"station_name":"Bojongindah","station_id":"BOI","i_lat":-6.159876,"line":0},{"i_lat":-6.162758,"i_long":106.723064,"station_id":"RW","is_transit":false,"transit":false,"time":4,"line":5,"distance":1152,"station_name":"Rawa Buaya"}],[{"is_transit":false,"station_name":"Buaran","transit":false,"i_lat":-6.215568,"line":0,"i_long":106.922662,"station_id":"BUA","time":0,"distance":0},{"i_long":106.899548,"line":1,"transit":false,"time":2,"station_name":"Klender","station_id":"KLD","is_transit":false,"distance":3100,"i_lat":-6.2135},{"time":3,"station_id":"JNG","transit":false,"i_lat":-6.215091,"i_long":106.86807400000001,"line":0,"is_transit":true,"distance":3395,"station_name":"Jatinegara"},{"transit":false,"station_id":"MTR","line":1,"is_transit":false,"distance":1377,"i_lat":-6.212485,"station_name":"Matraman","time":2,"i_long":106.858896},{"i_lat":-6.209883,"time":2,"i_long":106.84912,"station_name":"Manggarai","line":0,"transit":true,"distance":1275,"is_transit":true,"station_id":"MRI"},{"station_name":"Cikini","station_id":"CKI","is_transit":false,"transit":false,"i_lat":-6.198556,"time":4,"i_long":106.840169,"line":0,"distance":1590},{"i_long":106.832183,"line":2,"i_lat":-6.186295,"distance":1750,"station_id":"GDD","transit":false,"station_name":"Gondangdia","is_transit":false,"time":3},{"line":2,"station_name":"Juanda","i_lat":-6.166716,"distance":2015,"time":4,"transit":false,"i_long":106.828284,"station_id":"JUA","is_transit":false},{"line":2,"station_name":"Sawah Besar","station_id":"SW","i_long":106.827103,"is_transit":false,"i_lat":-6.160725,"transit":false,"distance":1149,"time":2},{"i_long":106.82482,"time":2,"is_transit":false,"i_lat":-6.149769,"transit":false,"line":2,"distance":906,"station_id":"MGB","station_name":"Manggabesar"},{"i_long":106.820901,"is_transit":false,"i_lat":-6.141205,"station_name":"Jayakarta","time":2,"station_id":"JAY","line":7,"distance":1080,"transit":false},{"i_long":106.812439,"station_name":"Jakarta Kota","station_id":"JAKK","is_transit":true,"i_lat":-6.137569,"transit":true,"distance":1264,"time":4,"line":0},{"line":0,"distance":1364,"i_lat":-6.132549,"transit":false,"station_id":"KPB","is_transit":true,"station_name":"Kampung Bandan","i_long":106.826365,"time":3},{"time":9,"station_name":"Angke","station_id":"AK","i_long":106.79867,"i_lat":-6.144674,"is_transit":false,"line":0,"distance":4102,"transit":false},{"time":4,"distance":1230,"station_name":"Duri","transit":true,"i_long":106.800832,"i_lat":-6.155215,"line":1,"is_transit":true,"station_id":"DU"},{"transit":false,"time":3,"is_transit":false,"distance":1700,"station_id":"GGL","i_lat":-6.162021,"line":5,"i_long":106.788277,"station_name":"Grogol"},{"line":5,"station_name":"Pesing","station_id":"PSG","i_lat":-6.161433,"distance":2036,"transit":false,"time":2,"is_transit":false,"i_long":106.771379},{"i_long":106.756522,"line":5,"is_transit":false,"time":2,"i_lat":-6.1587309999999995,"station_id":"TKO","station_name":"Taman Kota","transit":false,"distance":1614},{"i_lat":-6.159876,"is_transit":false,"i_long":106.737035,"station_id":"BOI","time":2,"station_name":"Bojongindah","distance":2334,"line":0,"transit":false},{"i_lat":-6.162758,"is_transit":false,"time":4,"station_id":"RW","transit":false,"distance":1152,"line":5,"station_name":"Rawa Buaya","i_long":106.723064}],[{"line":0,"i_long":106.922662,"distance":0,"time":0,"is_transit":false,"station_id":"BUA","station_name":"Buaran","transit":false,"i_lat":-6.215568},{"i_long":106.899548,"line":1,"station_id":"KLD","distance":3100,"transit":false,"is_transit":false,"station_name":"Klender","i_lat":-6.2135,"time":2},{"station_id":"JNG","time":3,"station_name":"Jatinegara","i_long":106.86807400000001,"line":0,"i_lat":-6.215091,"distance":3395,"is_transit":true,"transit":true},{"time":2,"line":11,"station_name":"Pondok Jati","station_id":"POK","is_transit":false,"distance":1236,"i_lat":-6.209188,"transit":false,"i_long":106.861737},{"station_id":"KMT","i_lat":-6.193792,"line":11,"station_name":"Kramat","i_long":106.855437,"is_transit":false,"time":2,"transit":false,"distance":1829},{"station_id":"GST","i_lat":-6.185975,"i_long":106.850107,"is_transit":false,"line":11,"transit":false,"distance":973,"station_name":"Gang Sentiong","time":1},{"station_name":"Pasar Senen","distance":1567,"i_lat":-6.174784,"station_id":"PSE","time":8,"line":11,"transit":false,"i_long":106.84368,"is_transit":false},{"time":4,"station_name":"Kemayoran","i_long":106.839204,"i_lat":-6.161728,"station_id":"KMO","is_transit":false,"distance":1436,"transit":false,"line":11},{"transit":false,"i_long":106.836569,"line":11,"distance":1901,"is_transit":false,"i_lat":-6.14505,"station_id":"RJW","station_name":"Rajawali","time":5},{"distance":1444,"line":0,"i_lat":-6.132549,"station_id":"KPB","time":3,"i_long":106.826365,"transit":true,"is_transit":true,"station_name":"Kampung Bandan"},{"station_name":"Jakarta Kota","transit":true,"time":3,"station_id":"JAKK","distance":1364,"is_transit":true,"i_long":106.812439,"i_lat":-6.137569,"line":0},{"is_transit":false,"i_lat":-6.141205,"i_long":106.820901,"transit":false,"station_name":"Jayakarta","distance":1264,"time":4,"station_id":"JAY","line":7},{"station_name":"Manggabesar","station_id":"MGB","transit":false,"time":2,"i_lat":-6.149769,"is_transit":false,"distance":1080,"i_long":106.82482,"line":2},{"line":2,"station_name":"Sawah Besar","distance":906,"transit":false,"time":2,"is_transit":false,"i_lat":-6.160725,"i_long":106.827103,"station_id":"SW"},{"distance":1149,"transit":false,"i_long":106.828284,"line":2,"is_transit":false,"time":2,"station_id":"JUA","station_name":"Juanda","i_lat":-6.166716},{"is_transit":false,"i_lat":-6.186295,"line":2,"station_name":"Gondangdia","distance":2015,"i_long":106.832183,"time":4,"transit":false,"station_id":"GDD"},{"time":3,"i_long":106.840169,"station_id":"CKI","i_lat":-6.198556,"line":0,"station_name":"Cikini","is_transit":false,"distance":1750,"transit":false},{"distance":1590,"station_name":"Manggarai","i_lat":-6.209883,"transit":true,"i_long":106.84912,"time":4,"line":0,"station_id":"MRI","is_transit":true},{"is_transit":false,"i_lat":-6.202263,"distance":3186,"station_id":"SUD","line":1,"station_name":"Sudirman","transit":false,"time":4,"i_long":106.822649},{"station_name":"Sudirman Baru","i_lat":-6.201433,"i_long":106.819881,"transit":false,"distance":280,"line":1,"station_id":"SUDB","is_transit":false,"time":1},{"transit":false,"line":1,"time":1,"station_name":"Karet","i_lat":-6.20132,"distance":471,"i_long":106.816351,"station_id":"KAT","is_transit":false},{"time":5,"i_lat":-6.185545,"is_transit":true,"station_id":"THB","line":1,"distance":2029,"station_name":"Tanah Abang","i_long":106.811091,"transit":false},{"station_name":"Duri","i_lat":-6.155215,"i_long":106.800832,"line":1,"time":8,"transit":true,"station_id":"DU","is_transit":true,"distance":3632},{"station_name":"Grogol","time":3,"transit":false,"distance":1700,"i_lat":-6.162021,"i_long":106.788277,"line":5,"station_id":"GGL","is_transit":false},{"line":5,"is_transit":false,"i_lat":-6.161433,"station_name":"Pesing","time":2,"distance":2036,"transit":false,"station_id":"PSG","i_long":106.771379},{"is_transit":false,"i_lat":-6.1587309999999995,"i_long":106.756522,"time":2,"station_id":"TKO","distance":1614,"station_name":"Taman Kota","line":5,"transit":false},{"distance":2334,"station_id":"BOI","is_transit":false,"time":2,"i_lat":-6.159876,"i_long":106.737035,"station_name":"Bojongindah","line":0,"transit":false},{"i_long":106.723064,"is_transit":false,"station_id":"RW","transit":false,"time":4,"distance":1152,"i_lat":-6.162758,"line":5,"station_name":"Rawa Buaya"}]]}