{"data":[[{"is_transit":false,"station_name":"Buaran","i_long":106.922662,"distance":0,"station_id":"BUA","time":0,"line":1,"transit":false,"i_lat":-6.215568},{"time":2,"distance":3100,"station_id":"KLD","i_lat":-6.2135,"transit":false,"i_long":106.899548,"line":1,"station_name":"Klender","is_transit":false},{"distance":3395,"i_lat":-6.215091,"is_transit":false,"i_long":106.86807400000001,"station_name":"Jatinegara","line":1,"transit":false,"station_id":"JNG","time":3},{"station_id":"MTR","station_name":"Matraman","transit":false,"i_lat":-6.212485,"line":1,"distance":1377,"is_transit":false,"time":2,"i_long":106.858896},{"time":2,"distance":1275,"transit":true,"i_lat":-6.209883,"is_transit":true,"station_name":"Manggarai","i_long":106.84912,"line":2,"station_id":"MRI"},{"station_name":"Cikini","time":4,"is_transit":false,"i_lat":-6.198556,"transit":false,"i_long":106.840169,"distance":1590,"station_id":"CKI","line":2},{"station_id":"GDD","i_lat":-6.186295,"station_name":"Gondangdia","time":3,"distance":1750,"transit":false,"i_long":106.832183,"is_transit":false,"line":2},{"distance":2015,"transit":false,"station_id":"JUA","i_lat":-6.166716,"is_transit":false,"station_name":"Juanda","time":4,"i_long":106.828284,"line":2},{"line":2,"station_id":"SW","i_long":106.827103,"is_transit":false,"distance":1149,"station_name":"Sawah Besar","time":2,"transit":false,"i_lat":-6.160725},{"line":2,"is_transit":false,"i_lat":-6.149769,"transit":false,"station_name":"Manggabesar","time":2,"distance":906,"station_id":"MGB","i_long":106.82482},{"station_name":"Jayakarta","time":2,"station_id":"JAY","is_transit":false,"transit":false,"i_lat":-6.141205,"line":2,"distance":1080,"i_long":106.820901}],[{"is_transit":false,"station_name":"Buaran","i_long":106.922662,"time":0,"transit":false,"station_id":"BUA","line":1,"i_lat":-6.215568,"distance":0},{"i_long":106.899548,"distance":3100,"line":1,"time":2,"i_lat":-6.2135,"station_name":"Klender","transit":false,"is_transit":false,"station_id":"KLD"},{"is_transit":true,"line":1,"station_name":"Jatinegara","i_lat":-6.215091,"distance":3395,"time":3,"station_id":"JNG","transit":true,"i_long":106.86807400000001},{"station_id":"POK","time":2,"distance":1236,"transit":false,"i_lat":-6.209188,"line":11,"station_name":"Pondok Jati","i_long":106.861737,"is_transit":false},{"line":11,"time":2,"i_long":106.855437,"transit":false,"is_transit":false,"station_id":"KMT","i_lat":-6.193792,"distance":1829,"station_name":"Kramat"},{"transit":false,"is_transit":false,"i_lat":-6.185975,"time":1,"i_long":106.850107,"line":11,"distance":973,"station_id":"GST","station_name":"Gang Sentiong"},{"station_id":"PSE","i_long":106.84368,"station_name":"Pasar Senen","distance":1567,"line":11,"i_lat":-6.174784,"is_transit":false,"transit":false,"time":8},{"station_name":"Kemayoran","distance":1436,"is_transit":false,"i_long":106.839204,"transit":false,"station_id":"KMO","i_lat":-6.161728,"time":4,"line":11},{"distance":1901,"station_id":"RJW","is_transit":false,"transit":false,"i_lat":-6.14505,"time":5,"i_long":106.836569,"station_name":"Rajawali","line":11},{"station_id":"KPB","station_name":"Kampung Bandan","i_lat":-6.132549,"i_long":106.826365,"distance":1444,"time":3,"is_transit":true,"transit":true,"line":4},{"is_transit":true,"transit":true,"station_id":"JAKK","distance":1364,"station_name":"Jakarta Kota","i_lat":-6.137569,"i_long":106.812439,"line":2,"time":3},{"transit":false,"station_name":"Jayakarta","i_long":106.820901,"station_id":"JAY","is_transit":false,"i_lat":-6.141205,"line":2,"time":4,"distance":1264}],[{"is_transit":false,"line":1,"station_name":"Buaran","time":0,"transit":false,"i_lat":-6.215568,"station_id":"BUA","i_long":106.922662,"distance":0},{"time":2,"distance":3100,"i_long":106.899548,"i_lat":-6.2135,"station_name":"Klender","station_id":"KLD","transit":false,"line":1,"is_transit":false},{"is_transit":false,"distance":3395,"i_lat":-6.215091,"transit":false,"i_long":106.86807400000001,"time":3,"station_id":"JNG","line":1,"station_name":"Jatinegara"},{"time":2,"i_long":106.858896,"station_name":"Matraman","i_lat":-6.212485,"distance":1377,"line":1,"is_transit":false,"station_id":"MTR","transit":false},{"line":2,"time":2,"station_name":"Manggarai","transit":false,"i_long":106.84912,"is_transit":false,"distance":1275,"station_id":"MRI","i_lat":-6.209883},{"time":4,"transit":false,"i_lat":-6.202263,"line":1,"is_transit":false,"station_id":"SUD","station_name":"Sudirman","distance":3186,"i_long":106.822649},{"is_transit":false,"i_long":106.819881,"i_lat":-6.201433,"distance":280,"station_id":"SUDB","line":1,"time":1,"station_name":"Sudirman Baru","transit":false},{"distance":471,"is_transit":false,"i_long":106.816351,"station_id":"KAT","line":1,"i_lat":-6.20132,"time":1,"transit":false,"station_name":"Karet"},{"is_transit":false,"time":5,"station_name":"Tanah Abang","i_long":106.811091,"transit":false,"distance":2029,"i_lat":-6.185545,"station_id":"THB","line":1},{"is_transit":false,"distance":3632,"station_id":"DU","i_lat":-6.155215,"i_long":106.800832,"transit":false,"line":1,"time":8,"station_name":"Duri"},{"time":4,"station_name":"Angke","transit":false,"station_id":"AK","i_lat":-6.144674,"is_transit":false,"i_long":106.79867,"line":1,"distance":1230},{"is_transit":true,"station_name":"Kampung Bandan","line":4,"station_id":"KPB","transit":true,"distance":4102,"i_lat":-6.132549,"time":9,"i_long":106.826365},{"station_id":"JAKK","i_long":106.812439,"is_transit":true,"distance":1364,"i_lat":-6.137569,"station_name":"Jakarta Kota","transit":true,"line":2,"time":3},{"distance":1264,"station_name":"Jayakarta","time":4,"is_transit":false,"transit":false,"line":2,"i_long":106.820901,"station_id":"JAY","i_lat":-6.141205}],[{"station_id":"BUA","is_transit":false,"i_lat":-6.215568,"i_long":106.922662,"distance":0,"station_name":"Buaran","transit":false,"line":1,"time":0},{"transit":false,"time":2,"distance":3100,"station_id":"KLD","is_transit":false,"i_long":106.899548,"line":1,"i_lat":-6.2135,"station_name":"Klender"},{"distance":3395,"station_id":"JNG","transit":true,"i_lat":-6.215091,"time":3,"is_transit":true,"line":1,"station_name":"Jatinegara","i_long":106.86807400000001},{"station_id":"POK","time":2,"station_name":"Pondok Jati","distance":1236,"transit":false,"line":11,"i_lat":-6.209188,"i_long":106.861737,"is_transit":false},{"is_transit":false,"station_id":"KMT","time":2,"line":11,"i_long":106.855437,"station_name":"Kramat","transit":false,"i_lat":-6.193792,"distance":1829},{"station_id":"GST","time":1,"transit":false,"distance":973,"i_lat":-6.185975,"line":11,"station_name":"Gang Sentiong","is_transit":false,"i_long":106.850107},{"station_name":"Pasar Senen","time":8,"station_id":"PSE","transit":false,"line":11,"is_transit":false,"distance":1567,"i_lat":-6.174784,"i_long":106.84368},{"i_lat":-6.161728,"station_id":"KMO","transit":false,"is_transit":false,"distance":1436,"station_name":"Kemayoran","line":11,"time":4,"i_long":106.839204},{"time":5,"station_id":"RJW","i_long":106.836569,"distance":1901,"transit":false,"station_name":"Rajawali","is_transit":false,"line":11,"i_lat":-6.14505},{"station_id":"KPB","is_transit":true,"station_name":"Kampung Bandan","i_lat":-6.132549,"line":4,"distance":1444,"i_long":106.826365,"time":3,"transit":true},{"i_long":106.79867,"station_name":"Angke","is_transit":false,"time":9,"station_id":"AK","i_lat":-6.144674,"line":1,"distance":4102,"transit":false},{"distance":1230,"station_id":"DU","is_transit":false,"i_long":106.800832,"line":1,"i_lat":-6.155215,"transit":false,"time":4,"station_name":"Duri"},{"is_transit":false,"transit":false,"i_lat":-6.185545,"i_long":106.811091,"time":8,"line":1,"station_id":"THB","station_name":"Tanah Abang","distance":3632},{"distance":2029,"line":1,"station_name":"Karet","time":5,"i_lat":-6.20132,"i_long":106.816351,"transit":false,"station_id":"KAT","is_transit":false},{"distance":471,"station_name":"Sudirman Baru","time":1,"is_transit":false,"transit":false,"line":1,"i_lat":-6.201433,"station_id":"SUDB","i_long":106.819881},{"station_id":"SUD","station_name":"Sudirman","transit":false,"i_long":106.822649,"is_transit":false,"line":1,"i_lat":-6.202263,"distance":280,"time":1},{"distance":3186,"is_transit":true,"time":4,"i_long":106.84912,"station_name":"Manggarai","station_id":"MRI","line":2,"i_lat":-6.209883,"transit":true},{"i_lat":-6.198556,"time":4,"is_transit":false,"distance":1590,"transit":false,"station_name":"Cikini","station_id":"CKI","i_long":106.840169,"line":2},{"distance":1750,"station_id":"GDD","station_name":"Gondangdia","time":3,"i_long":106.832183,"is_transit":false,"i_lat":-6.186295,"transit":false,"line":2},{"transit":false,"i_long":106.828284,"is_transit":false,"station_name":"Juanda","i_lat":-6.166716,"distance":2015,"line":2,"station_id":"JUA","time":4},{"station_name":"Sawah Besar","i_long":106.827103,"i_lat":-6.160725,"transit":false,"distance":1149,"line":2,"is_transit":false,"station_id":"SW","time":2},{"i_lat":-6.149769,"i_long":106.82482,"line":2,"transit":false,"time":2,"station_name":"Manggabesar","is_transit":false,"distance":906,"station_id":"MGB"},{"i_lat":-6.141205,"time":2,"i_long":106.820901,"line":2,"station_id":"JAY","distance":1080,"transit":false,"is_transit":false,"station_name":"Jayakarta"}]]}