{"data":[[{"time":0,"station_name":"Buaran","distance":0,"station_id":"BUA","transit":false,"is_transit":false,"i_long":106.922662,"line":1,"i_lat":-6.215568},{"time":2,"station_name":"Klender","is_transit":false,"i_long":106.899548,"distance":3100,"i_lat":-6.2135,"line":1,"station_id":"KLD","transit":false},{"i_lat":-6.215091,"time":3,"distance":3395,"transit":false,"station_id":"JNG","station_name":"Jatinegara","is_transit":false,"i_long":106.86807400000001,"line":1},{"station_id":"MTR","i_long":106.858896,"station_name":"Matraman","line":1,"time":2,"is_transit":false,"distance":1377,"transit":false,"i_lat":-6.212485},{"time":2,"station_id":"MRI","transit":true,"distance":1275,"i_lat":-6.209883,"is_transit":true,"station_name":"Manggarai","line":2,"i_long":106.84912},{"i_lat":-6.226659,"transit":false,"i_long":106.857948,"line":2,"station_name":"Tebet","station_id":"TEB","time":4,"is_transit":false,"distance":2610},{"distance":1230,"transit":false,"i_lat":-6.242512,"i_long":106.856607,"line":2,"is_transit":false,"station_id":"CW","station_name":"Cawang","time":2},{"station_name":"Duren Kalibata","i_lat":-6.255332,"is_transit":false,"i_long":106.85449,"distance":1546,"time":3,"transit":false,"station_id":"DRN","line":2},{"i_long":106.851577,"i_lat":-6.263214,"line":2,"station_id":"PSMB","distance":824,"station_name":"Pasar Minggu Baru","is_transit":false,"time":2,"transit":false},{"distance":2380,"is_transit":false,"i_long":106.843999,"i_lat":-6.2842400000000005,"line":2,"station_name":"Pasar Minggu","time":2,"station_id":"PSM","transit":false},{"line":2,"i_lat":-6.3080680000000005,"i_long":106.838896,"is_transit":false,"time":4,"station_id":"TNT","station_name":"Tanjung Barat","distance":2820,"transit":false},{"station_name":"Lenteng Agung","i_long":106.832616,"time":3,"station_id":"LNA","distance":2671,"is_transit":false,"transit":false,"line":2,"i_lat":-6.330363},{"station_id":"UP","line":2,"distance":1029,"station_name":"Univ. Pancasila","transit":false,"is_transit":false,"i_long":106.834175,"i_lat":-6.339291,"time":2},{"distance":2264,"i_lat":-6.360749,"station_id":"UI","time":3,"line":2,"station_name":"Univ. Indonesia","is_transit":false,"transit":false,"i_long":106.831474},{"i_lat":-6.369073,"line":2,"is_transit":false,"i_long":106.831114,"transit":false,"time":2,"distance":1109,"station_id":"POC","station_name":"Pondok Cina"},{"is_transit":false,"time":4,"station_id":"DPB","transit":false,"distance":2727,"i_lat":-6.391065,"i_long":106.819451,"line":2,"station_name":"Depokbaru"},{"i_lat":-6.405256,"line":2,"time":3,"station_name":"Depok","is_transit":false,"transit":false,"station_id":"DP","distance":1584,"i_long":106.816926},{"transit":false,"distance":5084,"i_lat":-6.448811,"station_id":"CTA","station_name":"Citayam","i_long":106.800298,"time":6,"line":2,"is_transit":false},{"is_transit":false,"time":5,"line":2,"station_id":"BJD","i_lat":-6.493243,"station_name":"Bojonggede","distance":5197,"i_long":106.792719,"transit":false},{"time":5,"i_long":106.800016,"station_id":"CLT","i_lat":-6.530544,"station_name":"Cilebut","is_transit":false,"transit":false,"distance":4331,"line":2}],[{"distance":0,"i_long":106.922662,"line":1,"station_name":"Buaran","i_lat":-6.215568,"is_transit":false,"station_id":"BUA","transit":false,"time":0},{"line":1,"station_id":"KLD","i_long":106.899548,"station_name":"Klender","distance":3100,"time":2,"is_transit":false,"i_lat":-6.2135,"transit":false},{"distance":3395,"station_name":"Jatinegara","line":1,"time":3,"station_id":"JNG","i_lat":-6.215091,"transit":true,"i_long":106.86807400000001,"is_transit":true},{"i_long":106.861737,"time":2,"is_transit":false,"i_lat":-6.209188,"transit":false,"line":11,"distance":1236,"station_id":"POK","station_name":"Pondok Jati"},{"i_long":106.855437,"station_id":"KMT","time":2,"line":11,"is_transit":false,"distance":1829,"station_name":"Kramat","transit":false,"i_lat":-6.193792},{"transit":false,"is_transit":false,"station_id":"GST","i_long":106.850107,"i_lat":-6.185975,"time":1,"distance":973,"station_name":"Gang Sentiong","line":11},{"distance":1567,"i_long":106.84368,"line":11,"station_id":"PSE","station_name":"Pasar Senen","is_transit":false,"i_lat":-6.174784,"time":8,"transit":false},{"station_id":"KMO","station_name":"Kemayoran","is_transit":false,"line":11,"distance":1436,"transit":false,"i_lat":-6.161728,"time":4,"i_long":106.839204},{"distance":1901,"station_id":"RJW","is_transit":false,"line":11,"i_lat":-6.14505,"i_long":106.836569,"station_name":"Rajawali","transit":false,"time":5},{"i_lat":-6.132549,"line":4,"station_name":"Kampung Bandan","transit":true,"time":3,"is_transit":true,"distance":1444,"station_id":"KPB","i_long":106.826365},{"distance":4102,"time":9,"i_long":106.79867,"transit":false,"i_lat":-6.144674,"line":1,"station_name":"Angke","station_id":"AK","is_transit":false},{"line":1,"station_id":"DU","station_name":"Duri","is_transit":false,"time":4,"distance":1230,"i_lat":-6.155215,"transit":false,"i_long":106.800832},{"line":1,"distance":3632,"is_transit":false,"i_long":106.811091,"station_id":"THB","time":8,"station_name":"Tanah Abang","i_lat":-6.185545,"transit":false},{"station_id":"KAT","transit":false,"is_transit":false,"i_lat":-6.20132,"line":1,"time":5,"station_name":"Karet","i_long":106.816351,"distance":2029},{"line":1,"transit":false,"i_lat":-6.201433,"station_id":"SUDB","distance":471,"i_long":106.819881,"is_transit":false,"time":1,"station_name":"Sudirman Baru"},{"station_name":"Sudirman","line":1,"i_lat":-6.202263,"distance":280,"time":1,"transit":false,"station_id":"SUD","is_transit":false,"i_long":106.822649},{"distance":3186,"transit":true,"i_lat":-6.209883,"station_id":"MRI","i_long":106.84912,"line":2,"station_name":"Manggarai","time":4,"is_transit":true},{"line":2,"station_name":"Tebet","is_transit":false,"i_long":106.857948,"i_lat":-6.226659,"distance":2610,"station_id":"TEB","time":4,"transit":false},{"i_lat":-6.242512,"line":2,"station_id":"CW","distance":1230,"transit":false,"i_long":106.856607,"is_transit":false,"station_name":"Cawang","time":2},{"is_transit":false,"distance":1546,"time":3,"i_lat":-6.255332,"i_long":106.85449,"line":2,"transit":false,"station_name":"Duren Kalibata","station_id":"DRN"},{"time":2,"distance":824,"line":2,"transit":false,"station_id":"PSMB","is_transit":false,"i_lat":-6.263214,"i_long":106.851577,"station_name":"Pasar Minggu Baru"},{"distance":2380,"station_name":"Pasar Minggu","i_long":106.843999,"line":2,"transit":false,"station_id":"PSM","i_lat":-6.2842400000000005,"is_transit":false,"time":2},{"is_transit":false,"station_name":"Tanjung Barat","line":2,"transit":false,"station_id":"TNT","time":4,"distance":2820,"i_lat":-6.3080680000000005,"i_long":106.838896},{"distance":2671,"transit":false,"i_long":106.832616,"is_transit":false,"station_id":"LNA","i_lat":-6.330363,"station_name":"Lenteng Agung","time":3,"line":2},{"distance":1029,"i_lat":-6.339291,"i_long":106.834175,"station_id":"UP","station_name":"Univ. Pancasila","line":2,"transit":false,"is_transit":false,"time":2},{"time":3,"line":2,"station_id":"UI","transit":false,"distance":2264,"i_lat":-6.360749,"i_long":106.831474,"station_name":"Univ. Indonesia","is_transit":false},{"transit":false,"is_transit":false,"station_id":"POC","time":2,"distance":1109,"line":2,"station_name":"Pondok Cina","i_lat":-6.369073,"i_long":106.831114},{"transit":false,"distance":2727,"i_long":106.819451,"is_transit":false,"i_lat":-6.391065,"station_name":"Depokbaru","time":4,"line":2,"station_id":"DPB"},{"i_lat":-6.405256,"time":3,"line":2,"transit":false,"i_long":106.816926,"station_name":"Depok","station_id":"DP","is_transit":false,"distance":1584},{"is_transit":false,"distance":5084,"station_name":"Citayam","transit":false,"station_id":"CTA","line":2,"time":6,"i_lat":-6.448811,"i_long":106.800298},{"distance":5197,"station_name":"Bojonggede","line":2,"i_lat":-6.493243,"station_id":"BJD","transit":false,"is_transit":false,"i_long":106.792719,"time":5},{"i_long":106.800016,"i_lat":-6.530544,"distance":4331,"station_name":"Cilebut","line":2,"is_transit":false,"transit":false,"time":5,"station_id":"CLT"}],[{"time":0,"station_id":"BUA","is_transit":false,"i_lat":-6.215568,"line":1,"station_name":"Buaran","transit":false,"distance":0,"i_long":106.922662},{"station_name":"Klender","distance":3100,"transit":false,"i_long":106.899548,"time":2,"i_lat":-6.2135,"is_transit":false,"station_id":"KLD","line":1},{"is_transit":true,"transit":true,"distance":3395,"station_id":"JNG","time":3,"i_lat":-6.215091,"station_name":"Jatinegara","line":1,"i_long":106.86807400000001},{"station_id":"POK","transit":false,"is_transit":false,"station_name":"Pondok Jati","i_lat":-6.209188,"distance":1236,"i_long":106.861737,"line":11,"time":2},{"distance":1829,"station_name":"Kramat","transit":false,"time":2,"line":11,"station_id":"KMT","i_long":106.855437,"i_lat":-6.193792,"is_transit":false},{"is_transit":false,"transit":false,"i_long":106.850107,"line":11,"station_name":"Gang Sentiong","i_lat":-6.185975,"distance":973,"time":1,"station_id":"GST"},{"i_lat":-6.174784,"transit":false,"i_long":106.84368,"time":8,"line":11,"station_name":"Pasar Senen","station_id":"PSE","is_transit":false,"distance":1567},{"time":4,"station_name":"Kemayoran","is_transit":false,"i_lat":-6.161728,"transit":false,"distance":1436,"station_id":"KMO","i_long":106.839204,"line":11},{"is_transit":false,"station_id":"RJW","station_name":"Rajawali","distance":1901,"line":11,"time":5,"i_lat":-6.14505,"i_long":106.836569,"transit":false},{"i_long":106.826365,"line":4,"distance":1444,"i_lat":-6.132549,"station_id":"KPB","station_name":"Kampung Bandan","is_transit":true,"time":3,"transit":true},{"is_transit":true,"i_lat":-6.137569,"station_id":"JAKK","station_name":"Jakarta Kota","transit":true,"i_long":106.812439,"line":2,"distance":1364,"time":3},{"is_transit":false,"time":4,"i_long":106.820901,"station_name":"Jayakarta","i_lat":-6.141205,"line":2,"station_id":"JAY","transit":false,"distance":1264},{"time":2,"station_name":"Manggabesar","is_transit":false,"line":2,"station_id":"MGB","i_lat":-6.149769,"transit":false,"distance":1080,"i_long":106.82482},{"station_name":"Sawah Besar","transit":false,"station_id":"SW","i_lat":-6.160725,"distance":906,"is_transit":false,"time":2,"i_long":106.827103,"line":2},{"line":2,"transit":false,"is_transit":false,"station_name":"Juanda","i_lat":-6.166716,"distance":1149,"i_long":106.828284,"time":2,"station_id":"JUA"},{"transit":false,"station_id":"GDD","is_transit":false,"distance":2015,"i_long":106.832183,"time":4,"i_lat":-6.186295,"line":2,"station_name":"Gondangdia"},{"distance":1750,"transit":false,"i_lat":-6.198556,"i_long":106.840169,"station_id":"CKI","is_transit":false,"station_name":"Cikini","line":2,"time":3},{"distance":1590,"station_name":"Manggarai","transit":false,"station_id":"MRI","line":2,"time":4,"i_lat":-6.209883,"i_long":106.84912,"is_transit":false},{"station_name":"Tebet","transit":false,"time":4,"i_lat":-6.226659,"station_id":"TEB","i_long":106.857948,"line":2,"is_transit":false,"distance":2610},{"i_lat":-6.242512,"i_long":106.856607,"line":2,"time":2,"transit":false,"distance":1230,"station_id":"CW","is_transit":false,"station_name":"Cawang"},{"station_id":"DRN","i_long":106.85449,"is_transit":false,"station_name":"Duren Kalibata","i_lat":-6.255332,"time":3,"line":2,"distance":1546,"transit":false},{"is_transit":false,"i_lat":-6.263214,"transit":false,"station_name":"Pasar Minggu Baru","distance":824,"i_long":106.851577,"line":2,"station_id":"PSMB","time":2},{"i_long":106.843999,"line":2,"time":2,"transit":false,"station_id":"PSM","i_lat":-6.2842400000000005,"is_transit":false,"distance":2380,"station_name":"Pasar Minggu"},{"transit":false,"i_lat":-6.3080680000000005,"station_id":"TNT","i_long":106.838896,"station_name":"Tanjung Barat","distance":2820,"time":4,"line":2,"is_transit":false},{"is_transit":false,"transit":false,"i_lat":-6.330363,"station_id":"LNA","time":3,"distance":2671,"i_long":106.832616,"line":2,"station_name":"Lenteng Agung"},{"transit":false,"is_transit":false,"i_long":106.834175,"station_id":"UP","station_name":"Univ. Pancasila","line":2,"time":2,"i_lat":-6.339291,"distance":1029},{"line":2,"time":3,"is_transit":false,"i_lat":-6.360749,"transit":false,"station_id":"UI","station_name":"Univ. Indonesia","i_long":106.831474,"distance":2264},{"station_id":"POC","line":2,"is_transit":false,"transit":false,"distance":1109,"time":2,"station_name":"Pondok Cina","i_long":106.831114,"i_lat":-6.369073},{"i_long":106.819451,"distance":2727,"line":2,"transit":false,"is_transit":false,"i_lat":-6.391065,"station_name":"Depokbaru","station_id":"DPB","time":4},{"station_id":"DP","i_long":106.816926,"line":2,"station_name":"Depok","distance":1584,"is_transit":false,"transit":false,"time":3,"i_lat":-6.405256},{"is_transit":false,"transit":false,"i_long":106.800298,"line":2,"time":6,"distance":5084,"station_id":"CTA","i_lat":-6.448811,"station_name":"Citayam"},{"station_id":"BJD","time":5,"i_lat":-6.493243,"is_transit":false,"i_long":106.792719,"line":2,"distance":5197,"transit":false,"station_name":"Bojonggede"},{"station_name":"Cilebut","i_lat":-6.530544,"i_long":106.800016,"is_transit":false,"station_id":"CLT","transit":false,"line":2,"time":5,"distance":4331}]]}