{"data":[[{"station_id":"BUA","distance":0,"i_lat":-6.215568,"is_transit":false,"time":0,"i_long":106.922662,"station_name":"Buaran","line":0,"transit":false},{"time":2,"station_id":"KLD","is_transit":false,"transit":false,"i_lat":-6.2135,"i_long":106.899548,"station_name":"Klender","distance":3100,"line":1},{"time":3,"i_long":106.86807400000001,"line":0,"transit":false,"distance":3395,"station_id":"JNG","i_lat":-6.215091,"station_name":"Jatinegara","is_transit":true},{"time":2,"station_id":"MTR","transit":false,"distance":1377,"line":1,"is_transit":false,"i_long":106.858896,"i_lat":-6.212485,"station_name":"Matraman"},{"distance":1275,"i_long":106.84912,"station_name":"Manggarai","i_lat":-6.209883,"transit":true,"station_id":"MRI","is_transit":true,"time":2,"line":0},{"transit":false,"i_long":106.857948,"distance":2610,"time":4,"i_lat":-6.226659,"line":2,"station_id":"TEB","is_transit":false,"station_name":"Tebet"},{"time":2,"distance":1230,"is_transit":false,"line":0,"transit":false,"station_name":"Cawang","i_lat":-6.242512,"i_long":106.856607,"station_id":"CW"},{"time":3,"is_transit":false,"distance":1546,"i_long":106.85449,"station_id":"DRN","station_name":"Duren Kalibata","i_lat":-6.255332,"transit":false,"line":0},{"line":2,"time":2,"transit":false,"station_id":"PSMB","distance":824,"station_name":"Pasar Minggu Baru","i_long":106.851577,"i_lat":-6.263214,"is_transit":false},{"i_long":106.843999,"line":2,"i_lat":-6.2842400000000005,"station_name":"Pasar Minggu","is_transit":false,"station_id":"PSM","time":2,"distance":2380,"transit":false},{"station_id":"TNT","transit":false,"i_lat":-6.3080680000000005,"i_long":106.838896,"line":2,"distance":2820,"station_name":"Tanjung Barat","is_transit":false,"time":4},{"i_lat":-6.330363,"station_id":"LNA","is_transit":false,"time":3,"station_name":"Lenteng Agung","transit":false,"i_long":106.832616,"distance":2671,"line":2},{"time":2,"is_transit":false,"distance":1029,"station_name":"Univ. Pancasila","i_long":106.834175,"station_id":"UP","i_lat":-6.339291,"line":2,"transit":false},{"i_lat":-6.360749,"i_long":106.831474,"line":2,"is_transit":false,"transit":false,"time":3,"station_name":"Univ. Indonesia","station_id":"UI","distance":2264},{"time":2,"line":2,"distance":1109,"station_name":"Pondok Cina","station_id":"POC","transit":false,"i_long":106.831114,"i_lat":-6.369073,"is_transit":false},{"i_lat":-6.391065,"station_id":"DPB","time":4,"line":0,"is_transit":false,"station_name":"Depokbaru","i_long":106.819451,"transit":false,"distance":2727},{"i_lat":-6.405256,"station_name":"Depok","line":0,"time":3,"distance":1584,"station_id":"DP","is_transit":false,"transit":false,"i_long":106.816926},{"time":6,"line":1,"i_long":106.800298,"station_name":"Citayam","is_transit":true,"distance":5084,"transit":false,"i_lat":-6.448811,"station_id":"CTA"},{"station_name":"Bojonggede","i_lat":-6.493243,"transit":false,"line":0,"station_id":"BJD","i_long":106.792719,"is_transit":false,"time":5,"distance":5197},{"station_name":"Cilebut","station_id":"CLT","i_lat":-6.530544,"line":0,"transit":false,"time":5,"is_transit":false,"i_long":106.800016,"distance":4331}],[{"is_transit":false,"line":0,"station_id":"BUA","distance":0,"transit":false,"station_name":"Buaran","i_long":106.922662,"i_lat":-6.215568,"time":0},{"station_name":"Klender","transit":false,"line":1,"is_transit":false,"time":2,"i_lat":-6.2135,"station_id":"KLD","distance":3100,"i_long":106.899548},{"distance":3395,"i_lat":-6.215091,"station_name":"Jatinegara","time":3,"i_long":106.86807400000001,"transit":true,"station_id":"JNG","is_transit":true,"line":0},{"station_id":"POK","line":11,"time":2,"i_long":106.861737,"i_lat":-6.209188,"is_transit":false,"station_name":"Pondok Jati","distance":1236,"transit":false},{"i_lat":-6.193792,"station_id":"KMT","i_long":106.855437,"station_name":"Kramat","distance":1829,"is_transit":false,"transit":false,"line":11,"time":2},{"station_id":"GST","is_transit":false,"i_long":106.850107,"time":1,"i_lat":-6.185975,"distance":973,"station_name":"Gang Sentiong","line":11,"transit":false},{"distance":1567,"station_id":"PSE","line":11,"time":8,"station_name":"Pasar Senen","transit":false,"i_long":106.84368,"i_lat":-6.174784,"is_transit":false},{"time":4,"i_long":106.839204,"i_lat":-6.161728,"is_transit":false,"station_id":"KMO","distance":1436,"station_name":"Kemayoran","transit":false,"line":11},{"station_id":"RJW","time":5,"is_transit":false,"station_name":"Rajawali","transit":false,"i_lat":-6.14505,"i_long":106.836569,"distance":1901,"line":11},{"distance":1444,"transit":true,"station_id":"KPB","i_long":106.826365,"station_name":"Kampung Bandan","time":3,"i_lat":-6.132549,"line":0,"is_transit":true},{"is_transit":false,"time":9,"distance":4102,"station_id":"AK","station_name":"Angke","transit":false,"i_lat":-6.144674,"i_long":106.79867,"line":0},{"station_id":"DU","is_transit":true,"time":4,"station_name":"Duri","line":1,"distance":1230,"transit":true,"i_lat":-6.155215,"i_long":106.800832},{"station_name":"Tanah Abang","is_transit":true,"transit":false,"i_long":106.811091,"time":8,"line":1,"station_id":"THB","i_lat":-6.185545,"distance":3632},{"distance":2029,"i_lat":-6.20132,"is_transit":false,"transit":false,"time":5,"line":1,"station_id":"KAT","station_name":"Karet","i_long":106.816351},{"transit":false,"i_long":106.819881,"is_transit":false,"distance":471,"i_lat":-6.201433,"line":1,"station_id":"SUDB","time":1,"station_name":"Sudirman Baru"},{"i_lat":-6.202263,"line":1,"is_transit":false,"transit":false,"distance":280,"station_id":"SUD","station_name":"Sudirman","time":1,"i_long":106.822649},{"is_transit":true,"time":4,"distance":3186,"station_name":"Manggarai","i_long":106.84912,"transit":true,"station_id":"MRI","i_lat":-6.209883,"line":0},{"station_name":"Tebet","i_long":106.857948,"i_lat":-6.226659,"line":2,"transit":false,"is_transit":false,"distance":2610,"station_id":"TEB","time":4},{"time":2,"distance":1230,"transit":false,"station_id":"CW","station_name":"Cawang","i_long":106.856607,"i_lat":-6.242512,"line":0,"is_transit":false},{"i_long":106.85449,"time":3,"is_transit":false,"distance":1546,"station_id":"DRN","station_name":"Duren Kalibata","transit":false,"i_lat":-6.255332,"line":0},{"is_transit":false,"distance":824,"station_id":"PSMB","transit":false,"line":2,"time":2,"i_long":106.851577,"i_lat":-6.263214,"station_name":"Pasar Minggu Baru"},{"time":2,"transit":false,"station_name":"Pasar Minggu","line":2,"distance":2380,"is_transit":false,"i_long":106.843999,"i_lat":-6.2842400000000005,"station_id":"PSM"},{"station_id":"TNT","i_lat":-6.3080680000000005,"distance":2820,"time":4,"transit":false,"station_name":"Tanjung Barat","i_long":106.838896,"line":2,"is_transit":false},{"i_lat":-6.330363,"station_id":"LNA","distance":2671,"line":2,"time":3,"station_name":"Lenteng Agung","transit":false,"is_transit":false,"i_long":106.832616},{"station_name":"Univ. Pancasila","i_lat":-6.339291,"transit":false,"time":2,"distance":1029,"line":2,"station_id":"UP","is_transit":false,"i_long":106.834175},{"station_id":"UI","station_name":"Univ. Indonesia","transit":false,"i_lat":-6.360749,"i_long":106.831474,"line":2,"time":3,"is_transit":false,"distance":2264},{"is_transit":false,"time":2,"distance":1109,"station_name":"Pondok Cina","station_id":"POC","i_lat":-6.369073,"i_long":106.831114,"transit":false,"line":2},{"distance":2727,"station_id":"DPB","time":4,"i_long":106.819451,"transit":false,"station_name":"Depokbaru","line":0,"is_transit":false,"i_lat":-6.391065},{"i_long":106.816926,"station_id":"DP","is_transit":false,"i_lat":-6.405256,"station_name":"Depok","time":3,"distance":1584,"transit":false,"line":0},{"station_name":"Citayam","distance":5084,"i_lat":-6.448811,"i_long":106.800298,"line":1,"is_transit":true,"station_id":"CTA","transit":false,"time":6},{"i_long":106.792719,"time":5,"is_transit":false,"distance":5197,"transit":false,"line":0,"station_name":"Bojonggede","i_lat":-6.493243,"station_id":"BJD"},{"distance":4331,"i_lat":-6.530544,"is_transit":false,"line":0,"time":5,"station_name":"Cilebut","station_id":"CLT","i_long":106.800016,"transit":false}],[{"i_lat":-6.215568,"transit":false,"line":0,"station_id":"BUA","time":0,"distance":0,"i_long":106.922662,"is_transit":false,"station_name":"Buaran"},{"time":2,"station_name":"Klender","i_long":106.899548,"transit":false,"station_id":"KLD","i_lat":-6.2135,"is_transit":false,"line":1,"distance":3100},{"transit":true,"i_lat":-6.215091,"station_id":"JNG","distance":3395,"line":0,"station_name":"Jatinegara","i_long":106.86807400000001,"time":3,"is_transit":true},{"line":11,"station_id":"POK","is_transit":false,"time":2,"i_long":106.861737,"i_lat":-6.209188,"station_name":"Pondok Jati","distance":1236,"transit":false},{"line":11,"i_lat":-6.193792,"time":2,"i_long":106.855437,"station_name":"Kramat","station_id":"KMT","is_transit":false,"distance":1829,"transit":false},{"station_id":"GST","station_name":"Gang Sentiong","transit":false,"i_long":106.850107,"line":11,"distance":973,"i_lat":-6.185975,"is_transit":false,"time":1},{"is_transit":false,"distance":1567,"station_name":"Pasar Senen","transit":false,"i_lat":-6.174784,"time":8,"i_long":106.84368,"station_id":"PSE","line":11},{"station_id":"KMO","i_lat":-6.161728,"distance":1436,"transit":false,"station_name":"Kemayoran","is_transit":false,"i_long":106.839204,"line":11,"time":4},{"is_transit":false,"line":11,"time":5,"i_lat":-6.14505,"station_id":"RJW","transit":false,"i_long":106.836569,"distance":1901,"station_name":"Rajawali"},{"is_transit":true,"distance":1444,"i_lat":-6.132549,"i_long":106.826365,"line":0,"transit":true,"time":3,"station_id":"KPB","station_name":"Kampung Bandan"},{"i_lat":-6.137569,"time":3,"distance":1364,"is_transit":true,"transit":true,"i_long":106.812439,"line":0,"station_name":"Jakarta Kota","station_id":"JAKK"},{"line":7,"i_lat":-6.141205,"is_transit":false,"station_id":"JAY","station_name":"Jayakarta","i_long":106.820901,"distance":1264,"time":4,"transit":false},{"i_lat":-6.149769,"station_id":"MGB","is_transit":false,"time":2,"station_name":"Manggabesar","distance":1080,"transit":false,"line":2,"i_long":106.82482},{"transit":false,"station_name":"Sawah Besar","is_transit":false,"distance":906,"time":2,"i_long":106.827103,"station_id":"SW","line":2,"i_lat":-6.160725},{"distance":1149,"station_name":"Juanda","i_lat":-6.166716,"transit":false,"time":2,"station_id":"JUA","i_long":106.828284,"line":2,"is_transit":false},{"line":2,"distance":2015,"i_long":106.832183,"station_id":"GDD","station_name":"Gondangdia","time":4,"transit":false,"is_transit":false,"i_lat":-6.186295},{"i_long":106.840169,"i_lat":-6.198556,"station_id":"CKI","station_name":"Cikini","distance":1750,"is_transit":false,"transit":false,"line":0,"time":3},{"station_name":"Manggarai","i_lat":-6.209883,"distance":1590,"line":0,"transit":true,"i_long":106.84912,"time":4,"is_transit":true,"station_id":"MRI"},{"line":2,"time":4,"station_id":"TEB","i_long":106.857948,"distance":2610,"transit":false,"is_transit":false,"i_lat":-6.226659,"station_name":"Tebet"},{"station_name":"Cawang","distance":1230,"transit":false,"line":0,"is_transit":false,"station_id":"CW","i_long":106.856607,"time":2,"i_lat":-6.242512},{"station_id":"DRN","time":3,"distance":1546,"i_long":106.85449,"i_lat":-6.255332,"line":0,"station_name":"Duren Kalibata","is_transit":false,"transit":false},{"line":2,"time":2,"i_lat":-6.263214,"distance":824,"i_long":106.851577,"is_transit":false,"station_name":"Pasar Minggu Baru","transit":false,"station_id":"PSMB"},{"i_long":106.843999,"distance":2380,"i_lat":-6.2842400000000005,"time":2,"station_id":"PSM","transit":false,"station_name":"Pasar Minggu","is_transit":false,"line":2},{"transit":false,"station_id":"TNT","i_lat":-6.3080680000000005,"time":4,"is_transit":false,"i_long":106.838896,"distance":2820,"line":2,"station_name":"Tanjung Barat"},{"i_long":106.832616,"line":2,"is_transit":false,"station_id":"LNA","time":3,"station_name":"Lenteng Agung","distance":2671,"transit":false,"i_lat":-6.330363},{"transit":false,"i_lat":-6.339291,"i_long":106.834175,"is_transit":false,"time":2,"station_name":"Univ. Pancasila","line":2,"distance":1029,"station_id":"UP"},{"time":3,"is_transit":false,"i_long":106.831474,"transit":false,"distance":2264,"i_lat":-6.360749,"line":2,"station_id":"UI","station_name":"Univ. Indonesia"},{"distance":1109,"transit":false,"is_transit":false,"line":2,"i_lat":-6.369073,"station_id":"POC","i_long":106.831114,"station_name":"Pondok Cina","time":2},{"is_transit":false,"transit":false,"station_name":"Depokbaru","distance":2727,"i_long":106.819451,"i_lat":-6.391065,"line":0,"time":4,"station_id":"DPB"},{"is_transit":false,"distance":1584,"transit":false,"i_lat":-6.405256,"station_id":"DP","time":3,"i_long":106.816926,"station_name":"Depok","line":0},{"station_id":"CTA","distance":5084,"station_name":"Citayam","i_long":106.800298,"time":6,"is_transit":true,"line":1,"transit":false,"i_lat":-6.448811},{"transit":false,"i_long":106.792719,"distance":5197,"station_id":"BJD","is_transit":false,"i_lat":-6.493243,"time":5,"line":0,"station_name":"Bojonggede"},{"transit":false,"station_name":"Cilebut","is_transit":false,"time":5,"i_lat":-6.530544,"i_long":106.800016,"station_id":"CLT","distance":4331,"line":0}]]}