{"data":[[{"transit":false,"i_long":106.922662,"distance":0,"is_transit":false,"station_id":"BUA","time":0,"i_lat":-6.215568,"line":0,"station_name":"Buaran"},{"station_id":"KLD","transit":false,"is_transit":false,"distance":3100,"line":1,"station_name":"Klender","time":2,"i_long":106.899548,"i_lat":-6.2135},{"station_name":"Jatinegara","station_id":"JNG","is_transit":true,"time":3,"transit":false,"line":0,"i_long":106.86807400000001,"i_lat":-6.215091,"distance":3395},{"station_id":"MTR","time":2,"station_name":"Matraman","line":1,"is_transit":false,"i_lat":-6.212485,"distance":1377,"i_long":106.858896,"transit":false},{"transit":false,"distance":1275,"i_lat":-6.209883,"station_id":"MRI","station_name":"Manggarai","time":2,"i_long":106.84912,"line":0,"is_transit":true},{"station_id":"SUD","line":1,"i_long":106.822649,"transit":false,"i_lat":-6.202263,"station_name":"Sudirman","is_transit":false,"time":4,"distance":3186},{"station_name":"Sudirman Baru","distance":280,"transit":false,"is_transit":false,"i_lat":-6.201433,"time":1,"station_id":"SUDB","i_long":106.819881,"line":1},{"is_transit":false,"transit":false,"i_long":106.816351,"i_lat":-6.20132,"distance":471,"line":1,"time":1,"station_id":"KAT","station_name":"Karet"},{"distance":2029,"time":5,"is_transit":true,"station_id":"THB","line":1,"i_lat":-6.185545,"station_name":"Tanah Abang","i_long":106.811091,"transit":false},{"time":8,"station_name":"Duri","line":1,"station_id":"DU","distance":3632,"i_lat":-6.155215,"transit":false,"i_long":106.800832,"is_transit":true}],[{"station_name":"Buaran","line":0,"i_long":106.922662,"transit":false,"station_id":"BUA","is_transit":false,"time":0,"distance":0,"i_lat":-6.215568},{"i_long":106.899548,"i_lat":-6.2135,"station_name":"Klender","station_id":"KLD","is_transit":false,"line":1,"transit":false,"time":2,"distance":3100},{"i_long":106.86807400000001,"station_name":"Jatinegara","distance":3395,"time":3,"transit":true,"line":0,"i_lat":-6.215091,"station_id":"JNG","is_transit":true},{"time":2,"i_long":106.861737,"distance":1236,"is_transit":false,"line":11,"i_lat":-6.209188,"station_name":"Pondok Jati","station_id":"POK","transit":false},{"i_long":106.855437,"line":11,"is_transit":false,"transit":false,"station_id":"KMT","station_name":"Kramat","time":2,"i_lat":-6.193792,"distance":1829},{"time":1,"transit":false,"distance":973,"i_long":106.850107,"line":11,"station_name":"Gang Sentiong","is_transit":false,"station_id":"GST","i_lat":-6.185975},{"transit":false,"i_lat":-6.174784,"line":11,"station_id":"PSE","i_long":106.84368,"is_transit":false,"time":8,"distance":1567,"station_name":"Pasar Senen"},{"station_name":"Kemayoran","distance":1436,"transit":false,"time":4,"i_lat":-6.161728,"i_long":106.839204,"station_id":"KMO","line":11,"is_transit":false},{"station_id":"RJW","line":11,"is_transit":false,"time":5,"transit":false,"station_name":"Rajawali","i_long":106.836569,"distance":1901,"i_lat":-6.14505},{"station_name":"Kampung Bandan","transit":true,"distance":1444,"i_lat":-6.132549,"time":3,"station_id":"KPB","i_long":106.826365,"line":0,"is_transit":true},{"is_transit":false,"transit":false,"line":0,"time":9,"station_id":"AK","distance":4102,"i_lat":-6.144674,"i_long":106.79867,"station_name":"Angke"},{"distance":1230,"line":1,"station_name":"Duri","time":4,"transit":false,"i_lat":-6.155215,"station_id":"DU","is_transit":true,"i_long":106.800832}],[{"distance":0,"line":0,"i_long":106.922662,"transit":false,"station_name":"Buaran","station_id":"BUA","is_transit":false,"i_lat":-6.215568,"time":0},{"station_name":"Klender","transit":false,"is_transit":false,"i_lat":-6.2135,"i_long":106.899548,"line":1,"time":2,"station_id":"KLD","distance":3100},{"i_lat":-6.215091,"line":0,"distance":3395,"i_long":106.86807400000001,"is_transit":true,"station_id":"JNG","time":3,"transit":false,"station_name":"Jatinegara"},{"time":2,"transit":false,"i_lat":-6.212485,"distance":1377,"station_name":"Matraman","i_long":106.858896,"line":1,"is_transit":false,"station_id":"MTR"},{"distance":1275,"transit":true,"is_transit":true,"station_name":"Manggarai","station_id":"MRI","i_long":106.84912,"time":2,"i_lat":-6.209883,"line":0},{"station_id":"CKI","transit":false,"station_name":"Cikini","distance":1590,"is_transit":false,"i_long":106.840169,"line":0,"i_lat":-6.198556,"time":4},{"time":3,"i_lat":-6.186295,"transit":false,"distance":1750,"station_id":"GDD","station_name":"Gondangdia","i_long":106.832183,"line":2,"is_transit":false},{"distance":2015,"station_name":"Juanda","station_id":"JUA","i_lat":-6.166716,"time":4,"is_transit":false,"line":2,"i_long":106.828284,"transit":false},{"transit":false,"line":2,"station_id":"SW","i_lat":-6.160725,"time":2,"i_long":106.827103,"is_transit":false,"distance":1149,"station_name":"Sawah Besar"},{"i_lat":-6.149769,"time":2,"transit":false,"i_long":106.82482,"station_id":"MGB","distance":906,"line":2,"station_name":"Manggabesar","is_transit":false},{"transit":false,"station_name":"Jayakarta","station_id":"JAY","i_lat":-6.141205,"i_long":106.820901,"distance":1080,"line":7,"time":2,"is_transit":false},{"is_transit":true,"transit":true,"line":0,"distance":1264,"station_id":"JAKK","i_long":106.812439,"station_name":"Jakarta Kota","time":4,"i_lat":-6.137569},{"is_transit":true,"i_long":106.826365,"line":0,"time":3,"distance":1364,"station_name":"Kampung Bandan","station_id":"KPB","transit":false,"i_lat":-6.132549},{"station_id":"AK","station_name":"Angke","is_transit":false,"transit":false,"i_long":106.79867,"line":0,"distance":4102,"time":9,"i_lat":-6.144674},{"is_transit":true,"i_long":106.800832,"station_name":"Duri","station_id":"DU","transit":false,"line":1,"time":4,"i_lat":-6.155215,"distance":1230}],[{"i_long":106.922662,"time":0,"transit":false,"line":0,"distance":0,"is_transit":false,"station_name":"Buaran","i_lat":-6.215568,"station_id":"BUA"},{"station_name":"Klender","station_id":"KLD","i_long":106.899548,"line":1,"i_lat":-6.2135,"is_transit":false,"distance":3100,"transit":false,"time":2},{"transit":true,"station_id":"JNG","i_lat":-6.215091,"time":3,"distance":3395,"line":0,"is_transit":true,"i_long":106.86807400000001,"station_name":"Jatinegara"},{"station_id":"POK","time":2,"i_long":106.861737,"distance":1236,"transit":false,"line":11,"station_name":"Pondok Jati","is_transit":false,"i_lat":-6.209188},{"time":2,"station_name":"Kramat","transit":false,"i_lat":-6.193792,"station_id":"KMT","distance":1829,"line":11,"is_transit":false,"i_long":106.855437},{"i_lat":-6.185975,"i_long":106.850107,"station_id":"GST","station_name":"Gang Sentiong","time":1,"is_transit":false,"transit":false,"line":11,"distance":973},{"line":11,"distance":1567,"station_name":"Pasar Senen","is_transit":false,"station_id":"PSE","time":8,"i_lat":-6.174784,"transit":false,"i_long":106.84368},{"station_name":"Kemayoran","i_lat":-6.161728,"station_id":"KMO","i_long":106.839204,"is_transit":false,"line":11,"distance":1436,"transit":false,"time":4},{"distance":1901,"station_id":"RJW","time":5,"station_name":"Rajawali","i_lat":-6.14505,"line":11,"transit":false,"is_transit":false,"i_long":106.836569},{"station_id":"KPB","i_lat":-6.132549,"i_long":106.826365,"station_name":"Kampung Bandan","is_transit":true,"time":3,"distance":1444,"transit":true,"line":0},{"i_lat":-6.137569,"line":0,"transit":true,"station_name":"Jakarta Kota","is_transit":true,"time":3,"distance":1364,"i_long":106.812439,"station_id":"JAKK"},{"i_lat":-6.141205,"station_name":"Jayakarta","distance":1264,"is_transit":false,"i_long":106.820901,"transit":false,"line":7,"time":4,"station_id":"JAY"},{"station_name":"Manggabesar","transit":false,"is_transit":false,"i_long":106.82482,"station_id":"MGB","i_lat":-6.149769,"distance":1080,"line":2,"time":2},{"is_transit":false,"i_lat":-6.160725,"i_long":106.827103,"station_name":"Sawah Besar","distance":906,"station_id":"SW","transit":false,"time":2,"line":2},{"i_long":106.828284,"station_id":"JUA","station_name":"Juanda","line":2,"distance":1149,"i_lat":-6.166716,"time":2,"transit":false,"is_transit":false},{"transit":false,"station_id":"GDD","station_name":"Gondangdia","distance":2015,"line":2,"is_transit":false,"time":4,"i_lat":-6.186295,"i_long":106.832183},{"i_lat":-6.198556,"transit":false,"i_long":106.840169,"station_name":"Cikini","time":3,"is_transit":false,"line":0,"station_id":"CKI","distance":1750},{"transit":true,"station_id":"MRI","i_long":106.84912,"station_name":"Manggarai","line":0,"i_lat":-6.209883,"time":4,"distance":1590,"is_transit":true},{"i_lat":-6.202263,"station_id":"SUD","is_transit":false,"station_name":"Sudirman","time":4,"distance":3186,"transit":false,"i_long":106.822649,"line":1},{"station_name":"Sudirman Baru","transit":false,"i_lat":-6.201433,"i_long":106.819881,"station_id":"SUDB","is_transit":false,"line":1,"distance":280,"time":1},{"i_long":106.816351,"time":1,"is_transit":false,"i_lat":-6.20132,"distance":471,"transit":false,"station_id":"KAT","station_name":"Karet","line":1},{"station_id":"THB","distance":2029,"time":5,"station_name":"Tanah Abang","is_transit":true,"i_long":106.811091,"transit":false,"i_lat":-6.185545,"line":1},{"i_lat":-6.155215,"station_name":"Duri","transit":false,"i_long":106.800832,"is_transit":true,"time":8,"station_id":"DU","distance":3632,"line":1}]]}