{"data":[[{"i_lat":-6.215568,"distance":0,"station_name":"Buaran","line":1,"i_long":106.922662,"station_id":"BUA","transit":false,"time":0,"is_transit":false},{"i_lat":-6.2135,"is_transit":false,"distance":3100,"time":2,"transit":false,"line":1,"station_id":"KLD","i_long":106.899548,"station_name":"Klender"},{"transit":false,"station_name":"Jatinegara","i_long":106.86807400000001,"i_lat":-6.215091,"distance":3395,"is_transit":false,"station_id":"JNG","line":1,"time":3},{"line":1,"station_name":"Matraman","i_lat":-6.212485,"distance":1377,"station_id":"MTR","time":2,"is_transit":false,"i_long":106.858896,"transit":false},{"transit":false,"station_name":"Manggarai","station_id":"MRI","distance":1275,"i_lat":-6.209883,"time":2,"is_transit":false,"i_long":106.84912,"line":2},{"station_name":"Sudirman","is_transit":false,"i_long":106.822649,"distance":3186,"i_lat":-6.202263,"time":4,"transit":false,"line":1,"station_id":"SUD"},{"station_name":"Sudirman Baru","is_transit":false,"i_long":106.819881,"line":1,"transit":false,"time":1,"i_lat":-6.201433,"station_id":"SUDB","distance":280},{"is_transit":false,"station_id":"KAT","i_long":106.816351,"time":1,"distance":471,"station_name":"Karet","line":1,"transit":false,"i_lat":-6.20132},{"line":1,"is_transit":false,"station_id":"THB","i_lat":-6.185545,"transit":false,"time":5,"i_long":106.811091,"distance":2029,"station_name":"Tanah Abang"},{"time":8,"line":1,"i_long":106.800832,"station_id":"DU","i_lat":-6.155215,"transit":false,"station_name":"Duri","distance":3632,"is_transit":false}],[{"station_id":"BUA","distance":0,"line":1,"transit":false,"is_transit":false,"i_long":106.922662,"time":0,"station_name":"Buaran","i_lat":-6.215568},{"distance":3100,"is_transit":false,"i_lat":-6.2135,"line":1,"i_long":106.899548,"station_name":"Klender","transit":false,"station_id":"KLD","time":2},{"is_transit":true,"i_long":106.86807400000001,"station_id":"JNG","transit":true,"i_lat":-6.215091,"line":1,"time":3,"distance":3395,"station_name":"Jatinegara"},{"i_lat":-6.209188,"distance":1236,"line":11,"is_transit":false,"transit":false,"time":2,"i_long":106.861737,"station_name":"Pondok Jati","station_id":"POK"},{"station_id":"KMT","station_name":"Kramat","i_lat":-6.193792,"transit":false,"i_long":106.855437,"distance":1829,"time":2,"line":11,"is_transit":false},{"distance":973,"line":11,"station_name":"Gang Sentiong","transit":false,"station_id":"GST","i_lat":-6.185975,"is_transit":false,"time":1,"i_long":106.850107},{"station_id":"PSE","i_lat":-6.174784,"line":11,"time":8,"i_long":106.84368,"station_name":"Pasar Senen","is_transit":false,"transit":false,"distance":1567},{"i_long":106.839204,"station_name":"Kemayoran","i_lat":-6.161728,"transit":false,"distance":1436,"time":4,"line":11,"station_id":"KMO","is_transit":false},{"transit":false,"distance":1901,"station_name":"Rajawali","i_long":106.836569,"i_lat":-6.14505,"is_transit":false,"time":5,"station_id":"RJW","line":11},{"distance":1444,"station_id":"KPB","station_name":"Kampung Bandan","is_transit":true,"time":3,"i_lat":-6.132549,"i_long":106.826365,"transit":true,"line":4},{"i_long":106.79867,"distance":4102,"line":1,"time":9,"transit":false,"station_name":"Angke","is_transit":false,"station_id":"AK","i_lat":-6.144674},{"station_name":"Duri","i_long":106.800832,"line":1,"time":4,"transit":false,"station_id":"DU","distance":1230,"is_transit":false,"i_lat":-6.155215}],[{"time":0,"i_long":106.922662,"station_name":"Buaran","station_id":"BUA","transit":false,"line":1,"i_lat":-6.215568,"is_transit":false,"distance":0},{"line":1,"time":2,"is_transit":false,"station_id":"KLD","transit":false,"i_long":106.899548,"i_lat":-6.2135,"distance":3100,"station_name":"Klender"},{"transit":false,"distance":3395,"station_id":"JNG","i_lat":-6.215091,"time":3,"station_name":"Jatinegara","is_transit":false,"line":1,"i_long":106.86807400000001},{"station_name":"Matraman","time":2,"station_id":"MTR","line":1,"i_long":106.858896,"is_transit":false,"transit":false,"i_lat":-6.212485,"distance":1377},{"time":2,"station_name":"Manggarai","i_long":106.84912,"transit":true,"distance":1275,"line":2,"i_lat":-6.209883,"station_id":"MRI","is_transit":true},{"distance":1590,"line":2,"is_transit":false,"time":4,"i_lat":-6.198556,"transit":false,"station_name":"Cikini","i_long":106.840169,"station_id":"CKI"},{"distance":1750,"station_name":"Gondangdia","station_id":"GDD","is_transit":false,"i_long":106.832183,"transit":false,"line":2,"time":3,"i_lat":-6.186295},{"station_name":"Juanda","station_id":"JUA","i_long":106.828284,"transit":false,"distance":2015,"is_transit":false,"time":4,"line":2,"i_lat":-6.166716},{"station_id":"SW","distance":1149,"i_lat":-6.160725,"station_name":"Sawah Besar","time":2,"line":2,"transit":false,"i_long":106.827103,"is_transit":false},{"transit":false,"i_long":106.82482,"distance":906,"line":2,"is_transit":false,"time":2,"i_lat":-6.149769,"station_id":"MGB","station_name":"Manggabesar"},{"transit":false,"i_lat":-6.141205,"station_name":"Jayakarta","time":2,"station_id":"JAY","line":2,"distance":1080,"i_long":106.820901,"is_transit":false},{"time":4,"station_id":"JAKK","i_lat":-6.137569,"line":2,"station_name":"Jakarta Kota","i_long":106.812439,"transit":true,"distance":1264,"is_transit":true},{"time":3,"i_lat":-6.132549,"line":4,"is_transit":true,"distance":1364,"i_long":106.826365,"station_id":"KPB","transit":true,"station_name":"Kampung Bandan"},{"station_name":"Angke","distance":4102,"is_transit":false,"line":1,"station_id":"AK","i_lat":-6.144674,"time":9,"transit":false,"i_long":106.79867},{"i_long":106.800832,"line":1,"distance":1230,"station_name":"Duri","is_transit":false,"transit":false,"station_id":"DU","i_lat":-6.155215,"time":4}],[{"station_id":"BUA","i_lat":-6.215568,"is_transit":false,"i_long":106.922662,"line":1,"time":0,"distance":0,"station_name":"Buaran","transit":false},{"station_name":"Klender","is_transit":false,"line":1,"i_long":106.899548,"i_lat":-6.2135,"time":2,"distance":3100,"transit":false,"station_id":"KLD"},{"is_transit":true,"i_long":106.86807400000001,"distance":3395,"transit":true,"time":3,"i_lat":-6.215091,"line":1,"station_name":"Jatinegara","station_id":"JNG"},{"station_id":"POK","is_transit":false,"i_lat":-6.209188,"line":11,"distance":1236,"i_long":106.861737,"station_name":"Pondok Jati","time":2,"transit":false},{"i_lat":-6.193792,"transit":false,"i_long":106.855437,"station_id":"KMT","is_transit":false,"line":11,"time":2,"distance":1829,"station_name":"Kramat"},{"distance":973,"time":1,"station_id":"GST","line":11,"i_long":106.850107,"station_name":"Gang Sentiong","transit":false,"is_transit":false,"i_lat":-6.185975},{"distance":1567,"station_name":"Pasar Senen","i_lat":-6.174784,"line":11,"transit":false,"is_transit":false,"station_id":"PSE","i_long":106.84368,"time":8},{"is_transit":false,"i_lat":-6.161728,"station_id":"KMO","line":11,"transit":false,"i_long":106.839204,"distance":1436,"time":4,"station_name":"Kemayoran"},{"station_name":"Rajawali","distance":1901,"line":11,"is_transit":false,"transit":false,"time":5,"station_id":"RJW","i_lat":-6.14505,"i_long":106.836569},{"is_transit":true,"line":4,"station_name":"Kampung Bandan","transit":true,"distance":1444,"time":3,"i_lat":-6.132549,"i_long":106.826365,"station_id":"KPB"},{"i_lat":-6.137569,"i_long":106.812439,"station_id":"JAKK","line":2,"transit":true,"is_transit":true,"distance":1364,"time":3,"station_name":"Jakarta Kota"},{"is_transit":false,"i_lat":-6.141205,"i_long":106.820901,"station_name":"Jayakarta","station_id":"JAY","transit":false,"distance":1264,"line":2,"time":4},{"station_id":"MGB","transit":false,"i_lat":-6.149769,"distance":1080,"time":2,"line":2,"i_long":106.82482,"is_transit":false,"station_name":"Manggabesar"},{"station_id":"SW","transit":false,"line":2,"distance":906,"station_name":"Sawah Besar","i_lat":-6.160725,"i_long":106.827103,"is_transit":false,"time":2},{"time":2,"transit":false,"distance":1149,"station_name":"Juanda","is_transit":false,"line":2,"station_id":"JUA","i_lat":-6.166716,"i_long":106.828284},{"distance":2015,"i_long":106.832183,"station_id":"GDD","transit":false,"station_name":"Gondangdia","i_lat":-6.186295,"is_transit":false,"time":4,"line":2},{"station_name":"Cikini","i_lat":-6.198556,"line":2,"i_long":106.840169,"is_transit":false,"station_id":"CKI","distance":1750,"time":3,"transit":false},{"station_id":"MRI","distance":1590,"line":2,"station_name":"Manggarai","transit":true,"is_transit":true,"i_long":106.84912,"i_lat":-6.209883,"time":4},{"station_name":"Sudirman","i_lat":-6.202263,"i_long":106.822649,"distance":3186,"line":1,"is_transit":false,"transit":false,"time":4,"station_id":"SUD"},{"station_id":"SUDB","line":1,"distance":280,"i_long":106.819881,"station_name":"Sudirman Baru","i_lat":-6.201433,"transit":false,"is_transit":false,"time":1},{"is_transit":false,"line":1,"transit":false,"i_lat":-6.20132,"station_name":"Karet","distance":471,"time":1,"station_id":"KAT","i_long":106.816351},{"line":1,"transit":false,"time":5,"station_id":"THB","station_name":"Tanah Abang","i_long":106.811091,"i_lat":-6.185545,"is_transit":false,"distance":2029},{"transit":false,"is_transit":false,"i_lat":-6.155215,"i_long":106.800832,"line":1,"station_name":"Duri","time":8,"distance":3632,"station_id":"DU"}]]}