{"data":[[{"station_id":"BUA","time":0,"is_transit":false,"transit":false,"line":1,"station_name":"Buaran","distance":0,"i_lat":-6.215568,"i_long":106.922662},{"i_lat":-6.2135,"i_long":106.899548,"transit":false,"distance":3100,"station_name":"Klender","time":2,"is_transit":false,"line":1,"station_id":"KLD"},{"distance":3395,"station_id":"JNG","is_transit":false,"i_long":106.86807400000001,"station_name":"Jatinegara","line":1,"transit":false,"i_lat":-6.215091,"time":3},{"distance":1377,"i_long":106.858896,"time":2,"is_transit":false,"transit":false,"station_name":"Matraman","i_lat":-6.212485,"line":1,"station_id":"MTR"},{"distance":1275,"time":2,"line":2,"station_name":"Manggarai","is_transit":true,"i_long":106.84912,"transit":true,"station_id":"MRI","i_lat":-6.209883},{"transit":false,"i_long":106.857948,"line":2,"i_lat":-6.226659,"distance":2610,"is_transit":false,"time":4,"station_id":"TEB","station_name":"Tebet"},{"i_lat":-6.242512,"station_id":"CW","distance":1230,"is_transit":false,"transit":false,"line":2,"station_name":"Cawang","i_long":106.856607,"time":2},{"transit":false,"station_name":"Duren Kalibata","distance":1546,"time":3,"is_transit":false,"station_id":"DRN","i_long":106.85449,"line":2,"i_lat":-6.255332},{"time":2,"distance":824,"station_id":"PSMB","station_name":"Pasar Minggu Baru","is_transit":false,"i_lat":-6.263214,"i_long":106.851577,"line":2,"transit":false},{"is_transit":false,"i_lat":-6.2842400000000005,"line":2,"time":2,"station_name":"Pasar Minggu","i_long":106.843999,"station_id":"PSM","transit":false,"distance":2380},{"i_long":106.838896,"is_transit":false,"station_name":"Tanjung Barat","line":2,"i_lat":-6.3080680000000005,"time":4,"distance":2820,"transit":false,"station_id":"TNT"},{"line":2,"transit":false,"distance":2671,"i_long":106.832616,"i_lat":-6.330363,"time":3,"station_name":"Lenteng Agung","station_id":"LNA","is_transit":false},{"i_long":106.834175,"line":2,"i_lat":-6.339291,"is_transit":false,"distance":1029,"transit":false,"station_id":"UP","time":2,"station_name":"Univ. Pancasila"},{"distance":2264,"time":3,"transit":false,"station_name":"Univ. Indonesia","station_id":"UI","i_lat":-6.360749,"i_long":106.831474,"is_transit":false,"line":2},{"i_lat":-6.369073,"distance":1109,"transit":false,"time":2,"station_name":"Pondok Cina","is_transit":false,"station_id":"POC","i_long":106.831114,"line":2},{"station_name":"Depokbaru","station_id":"DPB","time":4,"i_lat":-6.391065,"is_transit":false,"i_long":106.819451,"transit":false,"line":2,"distance":2727}],[{"station_name":"Buaran","i_long":106.922662,"distance":0,"i_lat":-6.215568,"transit":false,"station_id":"BUA","time":0,"line":1,"is_transit":false},{"is_transit":false,"transit":false,"i_long":106.899548,"station_id":"KLD","station_name":"Klender","line":1,"time":2,"i_lat":-6.2135,"distance":3100},{"i_long":106.86807400000001,"time":3,"transit":true,"station_name":"Jatinegara","distance":3395,"is_transit":true,"i_lat":-6.215091,"line":1,"station_id":"JNG"},{"i_long":106.861737,"station_id":"POK","is_transit":false,"distance":1236,"transit":false,"i_lat":-6.209188,"line":11,"station_name":"Pondok Jati","time":2},{"time":2,"transit":false,"i_long":106.855437,"distance":1829,"station_id":"KMT","is_transit":false,"i_lat":-6.193792,"station_name":"Kramat","line":11},{"station_name":"Gang Sentiong","station_id":"GST","is_transit":false,"transit":false,"i_lat":-6.185975,"distance":973,"i_long":106.850107,"line":11,"time":1},{"station_id":"PSE","time":8,"line":11,"station_name":"Pasar Senen","transit":false,"i_long":106.84368,"is_transit":false,"i_lat":-6.174784,"distance":1567},{"line":11,"time":4,"distance":1436,"station_name":"Kemayoran","transit":false,"i_long":106.839204,"is_transit":false,"i_lat":-6.161728,"station_id":"KMO"},{"i_lat":-6.14505,"i_long":106.836569,"line":11,"station_name":"Rajawali","time":5,"station_id":"RJW","is_transit":false,"distance":1901,"transit":false},{"time":3,"transit":true,"station_id":"KPB","distance":1444,"i_long":106.826365,"line":4,"i_lat":-6.132549,"station_name":"Kampung Bandan","is_transit":true},{"station_name":"Angke","i_lat":-6.144674,"line":1,"time":9,"i_long":106.79867,"transit":false,"distance":4102,"is_transit":false,"station_id":"AK"},{"transit":false,"is_transit":false,"time":4,"i_long":106.800832,"station_name":"Duri","line":1,"distance":1230,"station_id":"DU","i_lat":-6.155215},{"distance":3632,"line":1,"station_id":"THB","i_lat":-6.185545,"time":8,"station_name":"Tanah Abang","i_long":106.811091,"is_transit":false,"transit":false},{"line":1,"transit":false,"i_lat":-6.20132,"time":5,"station_name":"Karet","is_transit":false,"distance":2029,"i_long":106.816351,"station_id":"KAT"},{"distance":471,"is_transit":false,"i_lat":-6.201433,"time":1,"line":1,"i_long":106.819881,"station_id":"SUDB","station_name":"Sudirman Baru","transit":false},{"distance":280,"line":1,"station_name":"Sudirman","station_id":"SUD","transit":false,"time":1,"i_lat":-6.202263,"i_long":106.822649,"is_transit":false},{"station_id":"MRI","station_name":"Manggarai","time":4,"i_lat":-6.209883,"line":2,"distance":3186,"is_transit":true,"transit":true,"i_long":106.84912},{"station_name":"Tebet","distance":2610,"station_id":"TEB","i_long":106.857948,"line":2,"is_transit":false,"time":4,"transit":false,"i_lat":-6.226659},{"station_name":"Cawang","distance":1230,"time":2,"station_id":"CW","i_long":106.856607,"line":2,"i_lat":-6.242512,"is_transit":false,"transit":false},{"line":2,"time":3,"distance":1546,"i_long":106.85449,"station_id":"DRN","station_name":"Duren Kalibata","i_lat":-6.255332,"is_transit":false,"transit":false},{"line":2,"distance":824,"time":2,"transit":false,"station_name":"Pasar Minggu Baru","station_id":"PSMB","i_long":106.851577,"is_transit":false,"i_lat":-6.263214},{"i_lat":-6.2842400000000005,"distance":2380,"station_id":"PSM","line":2,"is_transit":false,"station_name":"Pasar Minggu","transit":false,"i_long":106.843999,"time":2},{"is_transit":false,"i_long":106.838896,"transit":false,"i_lat":-6.3080680000000005,"station_id":"TNT","line":2,"station_name":"Tanjung Barat","distance":2820,"time":4},{"transit":false,"is_transit":false,"station_id":"LNA","i_long":106.832616,"distance":2671,"i_lat":-6.330363,"station_name":"Lenteng Agung","time":3,"line":2},{"i_long":106.834175,"distance":1029,"is_transit":false,"transit":false,"station_name":"Univ. Pancasila","line":2,"i_lat":-6.339291,"station_id":"UP","time":2},{"line":2,"transit":false,"time":3,"station_name":"Univ. Indonesia","i_lat":-6.360749,"i_long":106.831474,"distance":2264,"is_transit":false,"station_id":"UI"},{"i_long":106.831114,"line":2,"station_id":"POC","is_transit":false,"distance":1109,"station_name":"Pondok Cina","time":2,"transit":false,"i_lat":-6.369073},{"is_transit":false,"distance":2727,"time":4,"i_long":106.819451,"station_id":"DPB","line":2,"station_name":"Depokbaru","transit":false,"i_lat":-6.391065}],[{"station_name":"Buaran","is_transit":false,"station_id":"BUA","time":0,"i_long":106.922662,"i_lat":-6.215568,"line":1,"transit":false,"distance":0},{"station_id":"KLD","transit":false,"i_long":106.899548,"line":1,"station_name":"Klender","distance":3100,"time":2,"i_lat":-6.2135,"is_transit":false},{"distance":3395,"i_long":106.86807400000001,"i_lat":-6.215091,"station_name":"Jatinegara","is_transit":true,"line":1,"station_id":"JNG","time":3,"transit":true},{"transit":false,"distance":1236,"i_lat":-6.209188,"station_id":"POK","is_transit":false,"i_long":106.861737,"line":11,"station_name":"Pondok Jati","time":2},{"is_transit":false,"distance":1829,"time":2,"transit":false,"line":11,"station_id":"KMT","i_lat":-6.193792,"i_long":106.855437,"station_name":"Kramat"},{"station_id":"GST","time":1,"i_long":106.850107,"i_lat":-6.185975,"line":11,"transit":false,"distance":973,"is_transit":false,"station_name":"Gang Sentiong"},{"station_id":"PSE","time":8,"station_name":"Pasar Senen","line":11,"distance":1567,"i_long":106.84368,"i_lat":-6.174784,"is_transit":false,"transit":false},{"station_name":"Kemayoran","line":11,"time":4,"i_long":106.839204,"distance":1436,"station_id":"KMO","transit":false,"i_lat":-6.161728,"is_transit":false},{"station_name":"Rajawali","distance":1901,"transit":false,"station_id":"RJW","i_long":106.836569,"time":5,"i_lat":-6.14505,"is_transit":false,"line":11},{"station_id":"KPB","line":4,"time":3,"i_long":106.826365,"station_name":"Kampung Bandan","distance":1444,"transit":true,"is_transit":true,"i_lat":-6.132549},{"station_name":"Jakarta Kota","distance":1364,"line":2,"is_transit":true,"time":3,"i_long":106.812439,"transit":true,"station_id":"JAKK","i_lat":-6.137569},{"distance":1264,"time":4,"is_transit":false,"station_name":"Jayakarta","transit":false,"line":2,"i_lat":-6.141205,"i_long":106.820901,"station_id":"JAY"},{"transit":false,"i_lat":-6.149769,"i_long":106.82482,"line":2,"time":2,"station_id":"MGB","station_name":"Manggabesar","distance":1080,"is_transit":false},{"station_id":"SW","transit":false,"i_long":106.827103,"distance":906,"is_transit":false,"line":2,"station_name":"Sawah Besar","i_lat":-6.160725,"time":2},{"is_transit":false,"station_name":"Juanda","line":2,"time":2,"i_lat":-6.166716,"i_long":106.828284,"distance":1149,"station_id":"JUA","transit":false},{"i_lat":-6.186295,"line":2,"transit":false,"station_id":"GDD","station_name":"Gondangdia","distance":2015,"is_transit":false,"i_long":106.832183,"time":4},{"i_lat":-6.198556,"time":3,"station_name":"Cikini","distance":1750,"transit":false,"line":2,"is_transit":false,"station_id":"CKI","i_long":106.840169},{"is_transit":false,"transit":false,"station_name":"Manggarai","distance":1590,"line":2,"i_lat":-6.209883,"i_long":106.84912,"station_id":"MRI","time":4},{"station_id":"TEB","i_lat":-6.226659,"is_transit":false,"station_name":"Tebet","time":4,"transit":false,"distance":2610,"line":2,"i_long":106.857948},{"i_lat":-6.242512,"distance":1230,"line":2,"station_name":"Cawang","i_long":106.856607,"time":2,"is_transit":false,"transit":false,"station_id":"CW"},{"is_transit":false,"time":3,"station_id":"DRN","transit":false,"i_lat":-6.255332,"station_name":"Duren Kalibata","i_long":106.85449,"distance":1546,"line":2},{"i_lat":-6.263214,"station_id":"PSMB","time":2,"i_long":106.851577,"line":2,"distance":824,"station_name":"Pasar Minggu Baru","transit":false,"is_transit":false},{"is_transit":false,"i_lat":-6.2842400000000005,"distance":2380,"time":2,"i_long":106.843999,"station_id":"PSM","line":2,"station_name":"Pasar Minggu","transit":false},{"station_name":"Tanjung Barat","station_id":"TNT","line":2,"time":4,"is_transit":false,"i_long":106.838896,"transit":false,"distance":2820,"i_lat":-6.3080680000000005},{"is_transit":false,"station_id":"LNA","transit":false,"time":3,"i_lat":-6.330363,"line":2,"station_name":"Lenteng Agung","i_long":106.832616,"distance":2671},{"i_long":106.834175,"is_transit":false,"transit":false,"time":2,"i_lat":-6.339291,"station_name":"Univ. Pancasila","distance":1029,"line":2,"station_id":"UP"},{"line":2,"station_id":"UI","distance":2264,"transit":false,"time":3,"i_lat":-6.360749,"is_transit":false,"station_name":"Univ. Indonesia","i_long":106.831474},{"time":2,"transit":false,"station_name":"Pondok Cina","is_transit":false,"i_long":106.831114,"i_lat":-6.369073,"line":2,"station_id":"POC","distance":1109},{"distance":2727,"i_lat":-6.391065,"line":2,"station_id":"DPB","station_name":"Depokbaru","transit":false,"is_transit":false,"time":4,"i_long":106.819451}]]}