{"data":[[{"i_long":106.922662,"time":0,"distance":0,"transit":false,"i_lat":-6.215568,"station_id":"BUA","line":0,"is_transit":false,"station_name":"Buaran"},{"station_name":"Klender","station_id":"KLD","distance":3100,"i_long":106.899548,"time":2,"is_transit":false,"line":1,"transit":false,"i_lat":-6.2135},{"time":3,"is_transit":true,"station_id":"JNG","station_name":"Jatinegara","transit":false,"i_lat":-6.215091,"distance":3395,"i_long":106.86807400000001,"line":0},{"station_id":"MTR","is_transit":false,"i_long":106.858896,"i_lat":-6.212485,"distance":1377,"station_name":"Matraman","time":2,"transit":false,"line":1},{"is_transit":true,"station_id":"MRI","line":0,"i_lat":-6.209883,"time":2,"i_long":106.84912,"station_name":"Manggarai","transit":true,"distance":1275},{"is_transit":false,"i_long":106.857948,"time":4,"distance":2610,"transit":false,"i_lat":-6.226659,"station_name":"Tebet","station_id":"TEB","line":2},{"station_id":"CW","distance":1230,"i_long":106.856607,"time":2,"i_lat":-6.242512,"line":0,"transit":false,"station_name":"Cawang","is_transit":false},{"line":0,"station_id":"DRN","station_name":"Duren Kalibata","time":3,"is_transit":false,"i_lat":-6.255332,"distance":1546,"i_long":106.85449,"transit":false},{"station_name":"Pasar Minggu Baru","transit":false,"i_lat":-6.263214,"is_transit":false,"time":2,"i_long":106.851577,"distance":824,"line":2,"station_id":"PSMB"},{"station_name":"Pasar Minggu","transit":false,"time":2,"distance":2380,"station_id":"PSM","i_lat":-6.2842400000000005,"is_transit":false,"line":2,"i_long":106.843999},{"i_lat":-6.3080680000000005,"line":2,"transit":false,"station_name":"Tanjung Barat","time":4,"station_id":"TNT","distance":2820,"is_transit":false,"i_long":106.838896},{"transit":false,"distance":2671,"i_lat":-6.330363,"station_id":"LNA","is_transit":false,"station_name":"Lenteng Agung","i_long":106.832616,"line":2,"time":3},{"time":2,"station_id":"UP","distance":1029,"transit":false,"station_name":"Univ. Pancasila","i_lat":-6.339291,"line":2,"i_long":106.834175,"is_transit":false},{"i_long":106.831474,"is_transit":false,"line":2,"transit":false,"distance":2264,"station_name":"Univ. Indonesia","time":3,"station_id":"UI","i_lat":-6.360749},{"i_long":106.831114,"transit":false,"distance":1109,"line":2,"station_name":"Pondok Cina","is_transit":false,"time":2,"i_lat":-6.369073,"station_id":"POC"},{"transit":false,"i_lat":-6.391065,"line":0,"i_long":106.819451,"time":4,"is_transit":false,"station_id":"DPB","station_name":"Depokbaru","distance":2727}],[{"line":0,"distance":0,"station_id":"BUA","is_transit":false,"i_lat":-6.215568,"i_long":106.922662,"time":0,"station_name":"Buaran","transit":false},{"i_lat":-6.2135,"line":1,"i_long":106.899548,"is_transit":false,"time":2,"transit":false,"station_id":"KLD","distance":3100,"station_name":"Klender"},{"time":3,"transit":true,"line":0,"i_long":106.86807400000001,"station_id":"JNG","is_transit":true,"station_name":"Jatinegara","distance":3395,"i_lat":-6.215091},{"distance":1236,"i_lat":-6.209188,"station_name":"Pondok Jati","station_id":"POK","line":11,"is_transit":false,"i_long":106.861737,"time":2,"transit":false},{"station_name":"Kramat","transit":false,"distance":1829,"i_long":106.855437,"station_id":"KMT","is_transit":false,"time":2,"i_lat":-6.193792,"line":11},{"is_transit":false,"transit":false,"i_lat":-6.185975,"distance":973,"line":11,"i_long":106.850107,"station_id":"GST","station_name":"Gang Sentiong","time":1},{"i_lat":-6.174784,"transit":false,"distance":1567,"i_long":106.84368,"time":8,"is_transit":false,"line":11,"station_id":"PSE","station_name":"Pasar Senen"},{"time":4,"line":11,"is_transit":false,"station_id":"KMO","distance":1436,"i_lat":-6.161728,"station_name":"Kemayoran","transit":false,"i_long":106.839204},{"transit":false,"i_long":106.836569,"is_transit":false,"time":5,"station_id":"RJW","station_name":"Rajawali","distance":1901,"i_lat":-6.14505,"line":11},{"transit":true,"i_lat":-6.132549,"time":3,"i_long":106.826365,"distance":1444,"station_name":"Kampung Bandan","station_id":"KPB","line":0,"is_transit":true},{"i_lat":-6.144674,"time":9,"station_id":"AK","distance":4102,"is_transit":false,"i_long":106.79867,"line":0,"station_name":"Angke","transit":false},{"station_name":"Duri","is_transit":true,"i_lat":-6.155215,"i_long":106.800832,"station_id":"DU","line":1,"distance":1230,"time":4,"transit":true},{"i_long":106.811091,"transit":false,"station_name":"Tanah Abang","is_transit":true,"distance":3632,"time":8,"line":1,"station_id":"THB","i_lat":-6.185545},{"line":1,"time":5,"transit":false,"i_lat":-6.20132,"i_long":106.816351,"station_name":"Karet","station_id":"KAT","is_transit":false,"distance":2029},{"time":1,"i_lat":-6.201433,"i_long":106.819881,"station_id":"SUDB","is_transit":false,"distance":471,"station_name":"Sudirman Baru","transit":false,"line":1},{"is_transit":false,"line":1,"distance":280,"time":1,"transit":false,"i_lat":-6.202263,"station_name":"Sudirman","station_id":"SUD","i_long":106.822649},{"time":4,"transit":true,"i_lat":-6.209883,"station_name":"Manggarai","is_transit":true,"line":0,"i_long":106.84912,"station_id":"MRI","distance":3186},{"i_long":106.857948,"time":4,"is_transit":false,"station_id":"TEB","i_lat":-6.226659,"distance":2610,"transit":false,"station_name":"Tebet","line":2},{"transit":false,"line":0,"station_name":"Cawang","is_transit":false,"distance":1230,"station_id":"CW","i_lat":-6.242512,"time":2,"i_long":106.856607},{"line":0,"distance":1546,"station_name":"Duren Kalibata","time":3,"transit":false,"i_long":106.85449,"is_transit":false,"i_lat":-6.255332,"station_id":"DRN"},{"transit":false,"is_transit":false,"i_long":106.851577,"station_name":"Pasar Minggu Baru","line":2,"station_id":"PSMB","time":2,"distance":824,"i_lat":-6.263214},{"station_id":"PSM","distance":2380,"time":2,"transit":false,"i_lat":-6.2842400000000005,"line":2,"is_transit":false,"i_long":106.843999,"station_name":"Pasar Minggu"},{"transit":false,"is_transit":false,"time":4,"distance":2820,"line":2,"station_name":"Tanjung Barat","station_id":"TNT","i_lat":-6.3080680000000005,"i_long":106.838896},{"station_id":"LNA","i_lat":-6.330363,"time":3,"station_name":"Lenteng Agung","i_long":106.832616,"distance":2671,"line":2,"is_transit":false,"transit":false},{"station_id":"UP","time":2,"station_name":"Univ. Pancasila","i_lat":-6.339291,"is_transit":false,"i_long":106.834175,"distance":1029,"transit":false,"line":2},{"i_lat":-6.360749,"time":3,"i_long":106.831474,"station_name":"Univ. Indonesia","line":2,"station_id":"UI","is_transit":false,"transit":false,"distance":2264},{"i_long":106.831114,"time":2,"line":2,"station_id":"POC","distance":1109,"station_name":"Pondok Cina","i_lat":-6.369073,"transit":false,"is_transit":false},{"distance":2727,"transit":false,"station_name":"Depokbaru","station_id":"DPB","i_long":106.819451,"line":0,"i_lat":-6.391065,"is_transit":false,"time":4}],[{"is_transit":false,"i_long":106.922662,"station_id":"BUA","i_lat":-6.215568,"line":0,"transit":false,"station_name":"Buaran","time":0,"distance":0},{"i_long":106.899548,"is_transit":false,"time":2,"distance":3100,"transit":false,"i_lat":-6.2135,"station_id":"KLD","line":1,"station_name":"Klender"},{"line":0,"station_id":"JNG","i_lat":-6.215091,"is_transit":true,"time":3,"distance":3395,"transit":true,"i_long":106.86807400000001,"station_name":"Jatinegara"},{"station_id":"POK","i_long":106.861737,"line":11,"time":2,"station_name":"Pondok Jati","is_transit":false,"distance":1236,"i_lat":-6.209188,"transit":false},{"is_transit":false,"station_name":"Kramat","line":11,"time":2,"distance":1829,"station_id":"KMT","transit":false,"i_long":106.855437,"i_lat":-6.193792},{"is_transit":false,"time":1,"i_lat":-6.185975,"station_id":"GST","transit":false,"i_long":106.850107,"distance":973,"station_name":"Gang Sentiong","line":11},{"station_id":"PSE","time":8,"i_long":106.84368,"is_transit":false,"station_name":"Pasar Senen","distance":1567,"line":11,"i_lat":-6.174784,"transit":false},{"station_name":"Kemayoran","station_id":"KMO","i_lat":-6.161728,"distance":1436,"is_transit":false,"time":4,"transit":false,"line":11,"i_long":106.839204},{"station_name":"Rajawali","i_lat":-6.14505,"distance":1901,"line":11,"time":5,"station_id":"RJW","is_transit":false,"i_long":106.836569,"transit":false},{"i_long":106.826365,"time":3,"distance":1444,"i_lat":-6.132549,"transit":true,"line":0,"is_transit":true,"station_id":"KPB","station_name":"Kampung Bandan"},{"distance":1364,"is_transit":true,"time":3,"station_name":"Jakarta Kota","i_long":106.812439,"line":0,"transit":true,"station_id":"JAKK","i_lat":-6.137569},{"line":7,"is_transit":false,"distance":1264,"time":4,"station_name":"Jayakarta","transit":false,"i_long":106.820901,"station_id":"JAY","i_lat":-6.141205},{"is_transit":false,"distance":1080,"i_long":106.82482,"time":2,"station_name":"Manggabesar","line":2,"station_id":"MGB","transit":false,"i_lat":-6.149769},{"time":2,"distance":906,"station_id":"SW","station_name":"Sawah Besar","i_lat":-6.160725,"i_long":106.827103,"is_transit":false,"line":2,"transit":false},{"is_transit":false,"time":2,"i_lat":-6.166716,"i_long":106.828284,"distance":1149,"station_name":"Juanda","station_id":"JUA","line":2,"transit":false},{"time":4,"transit":false,"i_lat":-6.186295,"station_id":"GDD","i_long":106.832183,"is_transit":false,"station_name":"Gondangdia","distance":2015,"line":2},{"station_name":"Cikini","is_transit":false,"station_id":"CKI","i_lat":-6.198556,"time":3,"transit":false,"i_long":106.840169,"distance":1750,"line":0},{"time":4,"i_long":106.84912,"transit":true,"i_lat":-6.209883,"distance":1590,"station_id":"MRI","is_transit":true,"station_name":"Manggarai","line":0},{"station_name":"Tebet","i_long":106.857948,"is_transit":false,"line":2,"station_id":"TEB","time":4,"distance":2610,"transit":false,"i_lat":-6.226659},{"is_transit":false,"i_lat":-6.242512,"transit":false,"i_long":106.856607,"distance":1230,"time":2,"station_name":"Cawang","line":0,"station_id":"CW"},{"station_name":"Duren Kalibata","distance":1546,"i_lat":-6.255332,"is_transit":false,"time":3,"station_id":"DRN","line":0,"i_long":106.85449,"transit":false},{"is_transit":false,"transit":false,"i_lat":-6.263214,"i_long":106.851577,"line":2,"station_name":"Pasar Minggu Baru","station_id":"PSMB","time":2,"distance":824},{"i_lat":-6.2842400000000005,"time":2,"transit":false,"i_long":106.843999,"station_id":"PSM","is_transit":false,"distance":2380,"station_name":"Pasar Minggu","line":2},{"distance":2820,"i_long":106.838896,"station_id":"TNT","i_lat":-6.3080680000000005,"transit":false,"time":4,"line":2,"is_transit":false,"station_name":"Tanjung Barat"},{"i_long":106.832616,"station_name":"Lenteng Agung","station_id":"LNA","is_transit":false,"time":3,"distance":2671,"transit":false,"i_lat":-6.330363,"line":2},{"transit":false,"time":2,"i_lat":-6.339291,"station_id":"UP","i_long":106.834175,"station_name":"Univ. Pancasila","is_transit":false,"distance":1029,"line":2},{"station_id":"UI","distance":2264,"is_transit":false,"time":3,"transit":false,"station_name":"Univ. Indonesia","i_long":106.831474,"line":2,"i_lat":-6.360749},{"time":2,"station_id":"POC","station_name":"Pondok Cina","line":2,"distance":1109,"i_long":106.831114,"transit":false,"is_transit":false,"i_lat":-6.369073},{"is_transit":false,"transit":false,"station_id":"DPB","i_lat":-6.391065,"i_long":106.819451,"line":0,"distance":2727,"time":4,"station_name":"Depokbaru"}]]}