{"data":[[{"time":0,"i_lat":-6.215568,"station_name":"Buaran","is_transit":false,"distance":0,"station_id":"BUA","transit":false,"i_long":106.922662,"line":1},{"i_long":106.899548,"distance":3100,"line":1,"station_id":"KLD","is_transit":false,"transit":false,"time":2,"i_lat":-6.2135,"station_name":"Klender"},{"i_long":106.86807400000001,"line":1,"time":3,"distance":3395,"transit":false,"station_name":"Jatinegara","i_lat":-6.215091,"station_id":"JNG","is_transit":false},{"time":2,"station_id":"MTR","is_transit":false,"station_name":"Matraman","transit":false,"i_lat":-6.212485,"i_long":106.858896,"line":1,"distance":1377},{"i_lat":-6.209883,"station_id":"MRI","is_transit":true,"distance":1275,"line":2,"transit":true,"time":2,"i_long":106.84912,"station_name":"Manggarai"},{"station_id":"TEB","is_transit":false,"time":4,"distance":2610,"station_name":"Tebet","transit":false,"line":2,"i_long":106.857948,"i_lat":-6.226659},{"is_transit":false,"i_long":106.856607,"line":2,"i_lat":-6.242512,"time":2,"station_id":"CW","station_name":"Cawang","distance":1230,"transit":false},{"distance":1546,"transit":false,"i_long":106.85449,"is_transit":false,"station_name":"Duren Kalibata","line":2,"i_lat":-6.255332,"time":3,"station_id":"DRN"},{"time":2,"transit":false,"station_name":"Pasar Minggu Baru","is_transit":false,"station_id":"PSMB","i_long":106.851577,"distance":824,"i_lat":-6.263214,"line":2}],[{"i_lat":-6.215568,"station_id":"BUA","distance":0,"is_transit":false,"time":0,"transit":false,"i_long":106.922662,"line":1,"station_name":"Buaran"},{"i_long":106.899548,"line":1,"distance":3100,"station_name":"Klender","transit":false,"is_transit":false,"i_lat":-6.2135,"station_id":"KLD","time":2},{"station_id":"JNG","line":1,"station_name":"Jatinegara","is_transit":true,"transit":true,"time":3,"distance":3395,"i_lat":-6.215091,"i_long":106.86807400000001},{"station_name":"Pondok Jati","i_long":106.861737,"line":11,"transit":false,"i_lat":-6.209188,"station_id":"POK","distance":1236,"time":2,"is_transit":false},{"is_transit":false,"station_id":"KMT","i_long":106.855437,"time":2,"i_lat":-6.193792,"line":11,"distance":1829,"station_name":"Kramat","transit":false},{"time":1,"station_name":"Gang Sentiong","i_lat":-6.185975,"line":11,"distance":973,"is_transit":false,"station_id":"GST","transit":false,"i_long":106.850107},{"time":8,"distance":1567,"station_name":"Pasar Senen","transit":false,"i_long":106.84368,"is_transit":false,"station_id":"PSE","i_lat":-6.174784,"line":11},{"time":4,"station_name":"Kemayoran","i_lat":-6.161728,"distance":1436,"is_transit":false,"i_long":106.839204,"line":11,"station_id":"KMO","transit":false},{"i_lat":-6.14505,"line":11,"station_name":"Rajawali","i_long":106.836569,"is_transit":false,"transit":false,"distance":1901,"time":5,"station_id":"RJW"},{"line":4,"station_id":"KPB","is_transit":true,"i_long":106.826365,"distance":1444,"time":3,"i_lat":-6.132549,"station_name":"Kampung Bandan","transit":true},{"is_transit":false,"line":1,"time":9,"i_lat":-6.144674,"station_name":"Angke","transit":false,"distance":4102,"i_long":106.79867,"station_id":"AK"},{"distance":1230,"is_transit":false,"i_long":106.800832,"transit":false,"i_lat":-6.155215,"line":1,"time":4,"station_id":"DU","station_name":"Duri"},{"time":8,"distance":3632,"station_id":"THB","station_name":"Tanah Abang","transit":false,"i_lat":-6.185545,"line":1,"is_transit":false,"i_long":106.811091},{"distance":2029,"i_lat":-6.20132,"i_long":106.816351,"station_id":"KAT","station_name":"Karet","is_transit":false,"transit":false,"time":5,"line":1},{"station_id":"SUDB","transit":false,"i_lat":-6.201433,"distance":471,"station_name":"Sudirman Baru","i_long":106.819881,"line":1,"time":1,"is_transit":false},{"station_name":"Sudirman","i_long":106.822649,"time":1,"is_transit":false,"line":1,"transit":false,"i_lat":-6.202263,"distance":280,"station_id":"SUD"},{"distance":3186,"i_lat":-6.209883,"line":2,"station_name":"Manggarai","is_transit":true,"transit":true,"station_id":"MRI","i_long":106.84912,"time":4},{"is_transit":false,"distance":2610,"time":4,"i_lat":-6.226659,"transit":false,"line":2,"station_id":"TEB","station_name":"Tebet","i_long":106.857948},{"distance":1230,"transit":false,"i_lat":-6.242512,"station_name":"Cawang","time":2,"line":2,"is_transit":false,"i_long":106.856607,"station_id":"CW"},{"is_transit":false,"transit":false,"station_id":"DRN","line":2,"i_lat":-6.255332,"distance":1546,"time":3,"i_long":106.85449,"station_name":"Duren Kalibata"},{"distance":824,"transit":false,"station_name":"Pasar Minggu Baru","is_transit":false,"i_lat":-6.263214,"line":2,"i_long":106.851577,"station_id":"PSMB","time":2}],[{"is_transit":false,"station_id":"BUA","station_name":"Buaran","i_lat":-6.215568,"time":0,"distance":0,"i_long":106.922662,"transit":false,"line":1},{"transit":false,"time":2,"distance":3100,"i_lat":-6.2135,"station_name":"Klender","station_id":"KLD","i_long":106.899548,"line":1,"is_transit":false},{"transit":true,"line":1,"station_id":"JNG","i_long":106.86807400000001,"is_transit":true,"distance":3395,"time":3,"station_name":"Jatinegara","i_lat":-6.215091},{"time":2,"station_id":"POK","distance":1236,"i_lat":-6.209188,"is_transit":false,"i_long":106.861737,"transit":false,"station_name":"Pondok Jati","line":11},{"line":11,"time":2,"transit":false,"station_id":"KMT","is_transit":false,"i_lat":-6.193792,"i_long":106.855437,"station_name":"Kramat","distance":1829},{"time":1,"distance":973,"transit":false,"station_id":"GST","is_transit":false,"station_name":"Gang Sentiong","i_lat":-6.185975,"line":11,"i_long":106.850107},{"i_lat":-6.174784,"time":8,"distance":1567,"i_long":106.84368,"line":11,"station_id":"PSE","is_transit":false,"transit":false,"station_name":"Pasar Senen"},{"time":4,"station_name":"Kemayoran","line":11,"station_id":"KMO","i_lat":-6.161728,"i_long":106.839204,"is_transit":false,"transit":false,"distance":1436},{"station_id":"RJW","time":5,"is_transit":false,"line":11,"i_long":106.836569,"transit":false,"distance":1901,"station_name":"Rajawali","i_lat":-6.14505},{"distance":1444,"i_long":106.826365,"i_lat":-6.132549,"time":3,"station_id":"KPB","transit":true,"is_transit":true,"station_name":"Kampung Bandan","line":4},{"distance":1364,"i_long":106.812439,"is_transit":true,"line":2,"time":3,"station_name":"Jakarta Kota","station_id":"JAKK","i_lat":-6.137569,"transit":true},{"time":4,"transit":false,"station_id":"JAY","station_name":"Jayakarta","i_lat":-6.141205,"i_long":106.820901,"line":2,"distance":1264,"is_transit":false},{"is_transit":false,"transit":false,"distance":1080,"station_id":"MGB","time":2,"station_name":"Manggabesar","i_lat":-6.149769,"i_long":106.82482,"line":2},{"transit":false,"i_long":106.827103,"is_transit":false,"station_id":"SW","station_name":"Sawah Besar","line":2,"i_lat":-6.160725,"time":2,"distance":906},{"station_name":"Juanda","line":2,"i_lat":-6.166716,"i_long":106.828284,"time":2,"transit":false,"is_transit":false,"distance":1149,"station_id":"JUA"},{"is_transit":false,"station_id":"GDD","distance":2015,"station_name":"Gondangdia","time":4,"i_lat":-6.186295,"i_long":106.832183,"transit":false,"line":2},{"line":2,"is_transit":false,"distance":1750,"i_lat":-6.198556,"time":3,"transit":false,"station_id":"CKI","station_name":"Cikini","i_long":106.840169},{"is_transit":false,"i_long":106.84912,"station_name":"Manggarai","i_lat":-6.209883,"transit":false,"station_id":"MRI","time":4,"line":2,"distance":1590},{"station_id":"TEB","i_lat":-6.226659,"station_name":"Tebet","line":2,"transit":false,"is_transit":false,"distance":2610,"i_long":106.857948,"time":4},{"station_id":"CW","line":2,"i_long":106.856607,"distance":1230,"transit":false,"station_name":"Cawang","i_lat":-6.242512,"is_transit":false,"time":2},{"distance":1546,"i_long":106.85449,"time":3,"station_id":"DRN","i_lat":-6.255332,"transit":false,"station_name":"Duren Kalibata","line":2,"is_transit":false},{"i_long":106.851577,"time":2,"distance":824,"is_transit":false,"station_id":"PSMB","i_lat":-6.263214,"line":2,"station_name":"Pasar Minggu Baru","transit":false}]]}