{"data":[[{"i_lat":-6.215568,"is_transit":false,"time":0,"line":1,"station_name":"Buaran","station_id":"BUA","distance":0,"i_long":106.922662,"transit":false},{"transit":false,"i_long":106.939679,"i_lat":-6.217455,"station_name":"Klenderbaru","is_transit":false,"line":1,"distance":1305,"station_id":"KLDB","time":1},{"line":1,"transit":false,"is_transit":false,"station_id":"CUK","distance":1385,"i_lat":-6.219053,"station_name":"Cakung","time":8,"i_long":106.951283},{"i_lat":-6.224515,"transit":false,"station_id":"KRI","i_long":106.977657,"station_name":"Kranji","is_transit":false,"time":3,"distance":3097,"line":1},{"station_name":"Bekasi","station_id":"BKS","i_lat":-6.236616,"distance":2520,"i_long":106.997013,"line":1,"is_transit":false,"time":4,"transit":false},{"i_lat":-6.248029,"is_transit":false,"distance":2368,"time":2,"transit":false,"i_long":107.016735,"station_id":"BKST","line":1,"station_name":"Bekasi Timur"},{"time":7,"station_name":"Tambun","i_lat":-6.258864,"line":1,"transit":false,"is_transit":false,"station_id":"TB","distance":4460,"i_long":107.055722}]]}