{"data":[[{"station_name":"Buaran","distance":0,"station_id":"BUA","i_long":106.922662,"is_transit":false,"transit":false,"line":0,"i_lat":-6.215568,"time":0},{"time":2,"distance":3100,"station_id":"KLD","i_lat":-6.2135,"is_transit":false,"i_long":106.899548,"station_name":"Klender","transit":false,"line":1},{"is_transit":true,"line":0,"transit":false,"station_id":"JNG","distance":3395,"time":3,"i_long":106.86807400000001,"station_name":"Jatinegara","i_lat":-6.215091},{"i_long":106.858896,"distance":1377,"station_name":"Matraman","transit":false,"line":1,"is_transit":false,"station_id":"MTR","time":2,"i_lat":-6.212485},{"i_lat":-6.209883,"station_id":"MRI","transit":true,"time":2,"distance":1275,"i_long":106.84912,"line":0,"station_name":"Manggarai","is_transit":true},{"transit":false,"i_long":106.840169,"is_transit":false,"i_lat":-6.198556,"station_name":"Cikini","station_id":"CKI","line":0,"distance":1590,"time":4}],[{"transit":false,"distance":0,"station_id":"BUA","time":0,"line":0,"is_transit":false,"station_name":"Buaran","i_lat":-6.215568,"i_long":106.922662},{"i_lat":-6.2135,"station_name":"Klender","line":1,"station_id":"KLD","is_transit":false,"time":2,"distance":3100,"transit":false,"i_long":106.899548},{"i_long":106.86807400000001,"time":3,"line":0,"distance":3395,"station_id":"JNG","is_transit":true,"station_name":"Jatinegara","transit":true,"i_lat":-6.215091},{"distance":1236,"station_name":"Pondok Jati","line":11,"i_lat":-6.209188,"i_long":106.861737,"time":2,"is_transit":false,"station_id":"POK","transit":false},{"line":11,"station_id":"KMT","i_lat":-6.193792,"i_long":106.855437,"time":2,"is_transit":false,"distance":1829,"station_name":"Kramat","transit":false},{"is_transit":false,"line":11,"i_long":106.850107,"time":1,"transit":false,"station_name":"Gang Sentiong","distance":973,"i_lat":-6.185975,"station_id":"GST"},{"station_name":"Pasar Senen","i_lat":-6.174784,"is_transit":false,"station_id":"PSE","distance":1567,"time":8,"i_long":106.84368,"line":11,"transit":false},{"i_lat":-6.161728,"line":11,"station_id":"KMO","is_transit":false,"distance":1436,"time":4,"transit":false,"station_name":"Kemayoran","i_long":106.839204},{"is_transit":false,"transit":false,"i_long":106.836569,"distance":1901,"time":5,"i_lat":-6.14505,"station_id":"RJW","line":11,"station_name":"Rajawali"},{"line":0,"station_id":"KPB","transit":true,"is_transit":true,"time":3,"i_lat":-6.132549,"station_name":"Kampung Bandan","i_long":106.826365,"distance":1444},{"transit":true,"time":3,"station_name":"Jakarta Kota","station_id":"JAKK","distance":1364,"line":0,"i_lat":-6.137569,"i_long":106.812439,"is_transit":true},{"station_name":"Jayakarta","transit":false,"station_id":"JAY","time":4,"is_transit":false,"i_long":106.820901,"i_lat":-6.141205,"distance":1264,"line":7},{"is_transit":false,"i_long":106.82482,"station_id":"MGB","time":2,"line":2,"station_name":"Manggabesar","i_lat":-6.149769,"distance":1080,"transit":false},{"distance":906,"station_name":"Sawah Besar","transit":false,"time":2,"line":2,"i_long":106.827103,"i_lat":-6.160725,"is_transit":false,"station_id":"SW"},{"i_lat":-6.166716,"station_name":"Juanda","i_long":106.828284,"line":2,"is_transit":false,"time":2,"distance":1149,"station_id":"JUA","transit":false},{"transit":false,"station_name":"Gondangdia","i_long":106.832183,"i_lat":-6.186295,"distance":2015,"station_id":"GDD","is_transit":false,"time":4,"line":2},{"is_transit":false,"i_lat":-6.198556,"time":3,"line":0,"i_long":106.840169,"station_id":"CKI","distance":1750,"station_name":"Cikini","transit":false}],[{"station_id":"BUA","line":0,"distance":0,"time":0,"i_lat":-6.215568,"transit":false,"station_name":"Buaran","i_long":106.922662,"is_transit":false},{"transit":false,"line":1,"is_transit":false,"time":2,"i_lat":-6.2135,"distance":3100,"station_id":"KLD","station_name":"Klender","i_long":106.899548},{"time":3,"station_id":"JNG","i_long":106.86807400000001,"is_transit":true,"distance":3395,"station_name":"Jatinegara","line":0,"i_lat":-6.215091,"transit":true},{"station_name":"Pondok Jati","transit":false,"i_long":106.861737,"time":2,"line":11,"i_lat":-6.209188,"distance":1236,"station_id":"POK","is_transit":false},{"is_transit":false,"line":11,"distance":1829,"station_name":"Kramat","time":2,"i_lat":-6.193792,"i_long":106.855437,"transit":false,"station_id":"KMT"},{"station_name":"Gang Sentiong","i_long":106.850107,"station_id":"GST","line":11,"distance":973,"time":1,"i_lat":-6.185975,"transit":false,"is_transit":false},{"transit":false,"i_lat":-6.174784,"line":11,"station_id":"PSE","distance":1567,"station_name":"Pasar Senen","is_transit":false,"i_long":106.84368,"time":8},{"i_lat":-6.161728,"line":11,"time":4,"i_long":106.839204,"distance":1436,"transit":false,"station_id":"KMO","is_transit":false,"station_name":"Kemayoran"},{"i_lat":-6.14505,"transit":false,"station_name":"Rajawali","distance":1901,"is_transit":false,"station_id":"RJW","i_long":106.836569,"line":11,"time":5},{"transit":true,"station_name":"Kampung Bandan","line":0,"i_lat":-6.132549,"is_transit":true,"time":3,"station_id":"KPB","distance":1444,"i_long":106.826365},{"distance":4102,"line":0,"i_lat":-6.144674,"i_long":106.79867,"station_id":"AK","is_transit":false,"transit":false,"station_name":"Angke","time":9},{"distance":1230,"station_name":"Duri","transit":true,"station_id":"DU","is_transit":true,"i_lat":-6.155215,"i_long":106.800832,"time":4,"line":1},{"station_id":"THB","i_lat":-6.185545,"station_name":"Tanah Abang","i_long":106.811091,"time":8,"is_transit":true,"line":1,"distance":3632,"transit":false},{"i_lat":-6.20132,"station_id":"KAT","station_name":"Karet","transit":false,"time":5,"distance":2029,"line":1,"i_long":106.816351,"is_transit":false},{"station_name":"Sudirman Baru","i_long":106.819881,"distance":471,"station_id":"SUDB","transit":false,"line":1,"time":1,"is_transit":false,"i_lat":-6.201433},{"i_long":106.822649,"line":1,"is_transit":false,"time":1,"distance":280,"station_name":"Sudirman","station_id":"SUD","transit":false,"i_lat":-6.202263},{"time":4,"distance":3186,"i_long":106.84912,"is_transit":true,"transit":true,"i_lat":-6.209883,"station_id":"MRI","line":0,"station_name":"Manggarai"},{"distance":1590,"transit":false,"i_long":106.840169,"time":4,"line":0,"station_name":"Cikini","is_transit":false,"station_id":"CKI","i_lat":-6.198556}],[{"station_name":"Buaran","i_long":106.922662,"is_transit":false,"i_lat":-6.215568,"transit":false,"time":0,"line":0,"station_id":"BUA","distance":0},{"line":1,"station_id":"KLD","is_transit":false,"distance":3100,"i_lat":-6.2135,"transit":false,"i_long":106.899548,"station_name":"Klender","time":2},{"line":0,"station_id":"JNG","distance":3395,"time":3,"transit":false,"i_long":106.86807400000001,"is_transit":true,"station_name":"Jatinegara","i_lat":-6.215091},{"is_transit":false,"time":2,"distance":1377,"station_name":"Matraman","station_id":"MTR","transit":false,"i_long":106.858896,"i_lat":-6.212485,"line":1},{"is_transit":true,"distance":1275,"station_name":"Manggarai","station_id":"MRI","time":2,"i_lat":-6.209883,"line":0,"transit":false,"i_long":106.84912},{"station_name":"Sudirman","transit":false,"line":1,"i_long":106.822649,"station_id":"SUD","is_transit":false,"time":4,"distance":3186,"i_lat":-6.202263},{"transit":false,"distance":280,"line":1,"i_long":106.819881,"i_lat":-6.201433,"station_id":"SUDB","is_transit":false,"time":1,"station_name":"Sudirman Baru"},{"i_long":106.816351,"line":1,"station_name":"Karet","is_transit":false,"station_id":"KAT","distance":471,"transit":false,"time":1,"i_lat":-6.20132},{"i_lat":-6.185545,"line":1,"is_transit":true,"station_id":"THB","time":5,"transit":false,"i_long":106.811091,"distance":2029,"station_name":"Tanah Abang"},{"station_id":"DU","is_transit":true,"time":8,"i_long":106.800832,"distance":3632,"station_name":"Duri","i_lat":-6.155215,"line":1,"transit":true},{"distance":1230,"station_id":"AK","transit":false,"station_name":"Angke","time":4,"is_transit":false,"i_lat":-6.144674,"i_long":106.79867,"line":0},{"is_transit":true,"time":9,"i_lat":-6.132549,"distance":4102,"i_long":106.826365,"line":0,"station_id":"KPB","transit":false,"station_name":"Kampung Bandan"},{"line":0,"time":3,"distance":1364,"transit":true,"i_lat":-6.137569,"is_transit":true,"station_id":"JAKK","station_name":"Jakarta Kota","i_long":106.812439},{"station_name":"Jayakarta","i_long":106.820901,"station_id":"JAY","distance":1264,"time":4,"is_transit":false,"line":7,"transit":false,"i_lat":-6.141205},{"transit":false,"station_id":"MGB","i_lat":-6.149769,"i_long":106.82482,"is_transit":false,"time":2,"line":2,"distance":1080,"station_name":"Manggabesar"},{"is_transit":false,"station_name":"Sawah Besar","line":2,"i_lat":-6.160725,"i_long":106.827103,"distance":906,"transit":false,"station_id":"SW","time":2},{"line":2,"distance":1149,"i_lat":-6.166716,"transit":false,"station_name":"Juanda","i_long":106.828284,"is_transit":false,"time":2,"station_id":"JUA"},{"line":2,"station_id":"GDD","distance":2015,"transit":false,"time":4,"i_long":106.832183,"station_name":"Gondangdia","i_lat":-6.186295,"is_transit":false},{"transit":false,"is_transit":false,"i_lat":-6.198556,"distance":1750,"i_long":106.840169,"station_id":"CKI","time":3,"station_name":"Cikini","line":0}]]}