{"data":[[{"time":0,"station_id":"BUA","i_long":106.922662,"line":1,"is_transit":false,"transit":false,"i_lat":-6.215568,"distance":0,"station_name":"Buaran"},{"station_id":"KLD","line":1,"i_long":106.899548,"i_lat":-6.2135,"transit":false,"distance":3100,"station_name":"Klender","is_transit":false,"time":2},{"station_id":"JNG","i_lat":-6.215091,"station_name":"Jatinegara","is_transit":true,"line":1,"transit":true,"i_long":106.86807400000001,"distance":3395,"time":3},{"line":11,"station_name":"Pondok Jati","station_id":"POK","distance":1236,"i_long":106.861737,"transit":false,"i_lat":-6.209188,"is_transit":false,"time":2},{"station_id":"KMT","station_name":"Kramat","transit":false,"distance":1829,"is_transit":false,"i_long":106.855437,"time":2,"i_lat":-6.193792,"line":11},{"time":1,"station_id":"GST","is_transit":false,"distance":973,"line":11,"transit":false,"i_long":106.850107,"station_name":"Gang Sentiong","i_lat":-6.185975},{"i_lat":-6.174784,"transit":false,"line":11,"time":8,"is_transit":false,"distance":1567,"i_long":106.84368,"station_id":"PSE","station_name":"Pasar Senen"},{"time":4,"i_lat":-6.161728,"distance":1436,"transit":false,"station_name":"Kemayoran","is_transit":false,"line":11,"i_long":106.839204,"station_id":"KMO"}],[{"i_lat":-6.215568,"station_name":"Buaran","transit":false,"i_long":106.922662,"line":1,"station_id":"BUA","is_transit":false,"time":0,"distance":0},{"time":2,"transit":false,"line":1,"i_long":106.899548,"station_id":"KLD","distance":3100,"i_lat":-6.2135,"is_transit":false,"station_name":"Klender"},{"i_long":106.86807400000001,"station_id":"JNG","i_lat":-6.215091,"time":3,"transit":false,"line":1,"station_name":"Jatinegara","distance":3395,"is_transit":false},{"i_lat":-6.212485,"station_name":"Matraman","distance":1377,"time":2,"station_id":"MTR","transit":false,"i_long":106.858896,"line":1,"is_transit":false},{"line":2,"station_id":"MRI","i_lat":-6.209883,"distance":1275,"transit":false,"is_transit":false,"i_long":106.84912,"station_name":"Manggarai","time":2},{"i_lat":-6.202263,"line":1,"station_id":"SUD","distance":3186,"station_name":"Sudirman","is_transit":false,"transit":false,"i_long":106.822649,"time":4},{"distance":280,"station_name":"Sudirman Baru","station_id":"SUDB","is_transit":false,"i_long":106.819881,"line":1,"time":1,"transit":false,"i_lat":-6.201433},{"transit":false,"time":1,"station_id":"KAT","station_name":"Karet","is_transit":false,"i_lat":-6.20132,"distance":471,"i_long":106.816351,"line":1},{"distance":2029,"line":1,"i_long":106.811091,"station_name":"Tanah Abang","time":5,"i_lat":-6.185545,"station_id":"THB","is_transit":false,"transit":false},{"line":1,"is_transit":false,"distance":3632,"i_long":106.800832,"transit":false,"station_name":"Duri","time":8,"i_lat":-6.155215,"station_id":"DU"},{"transit":false,"i_long":106.79867,"line":1,"i_lat":-6.144674,"time":4,"distance":1230,"station_id":"AK","station_name":"Angke","is_transit":false},{"transit":true,"line":4,"i_lat":-6.132549,"is_transit":true,"time":9,"station_name":"Kampung Bandan","distance":4102,"i_long":106.826365,"station_id":"KPB"},{"distance":1444,"line":11,"station_id":"RJW","i_lat":-6.14505,"time":3,"transit":false,"i_long":106.836569,"station_name":"Rajawali","is_transit":false},{"line":11,"distance":1901,"station_name":"Kemayoran","i_lat":-6.161728,"station_id":"KMO","time":5,"is_transit":false,"transit":false,"i_long":106.839204}],[{"is_transit":false,"i_long":106.922662,"i_lat":-6.215568,"line":1,"station_name":"Buaran","distance":0,"time":0,"station_id":"BUA","transit":false},{"line":1,"i_lat":-6.2135,"time":2,"station_name":"Klender","station_id":"KLD","i_long":106.899548,"distance":3100,"transit":false,"is_transit":false},{"station_id":"JNG","i_lat":-6.215091,"line":1,"station_name":"Jatinegara","i_long":106.86807400000001,"is_transit":false,"distance":3395,"transit":false,"time":3},{"station_name":"Matraman","i_lat":-6.212485,"station_id":"MTR","line":1,"transit":false,"i_long":106.858896,"distance":1377,"time":2,"is_transit":false},{"time":2,"distance":1275,"station_name":"Manggarai","is_transit":true,"transit":true,"station_id":"MRI","i_long":106.84912,"line":2,"i_lat":-6.209883},{"i_lat":-6.198556,"station_name":"Cikini","transit":false,"i_long":106.840169,"line":2,"station_id":"CKI","time":4,"distance":1590,"is_transit":false},{"i_long":106.832183,"line":2,"i_lat":-6.186295,"station_id":"GDD","time":3,"is_transit":false,"transit":false,"station_name":"Gondangdia","distance":1750},{"distance":2015,"i_lat":-6.166716,"is_transit":false,"i_long":106.828284,"time":4,"station_name":"Juanda","line":2,"transit":false,"station_id":"JUA"},{"station_id":"SW","is_transit":false,"station_name":"Sawah Besar","i_lat":-6.160725,"time":2,"distance":1149,"i_long":106.827103,"line":2,"transit":false},{"line":2,"i_lat":-6.149769,"distance":906,"transit":false,"is_transit":false,"station_name":"Manggabesar","time":2,"i_long":106.82482,"station_id":"MGB"},{"time":2,"station_id":"JAY","is_transit":false,"i_lat":-6.141205,"i_long":106.820901,"transit":false,"station_name":"Jayakarta","line":2,"distance":1080},{"line":2,"distance":1264,"i_long":106.812439,"is_transit":true,"i_lat":-6.137569,"station_id":"JAKK","time":4,"station_name":"Jakarta Kota","transit":true},{"transit":true,"i_long":106.826365,"station_id":"KPB","is_transit":true,"line":4,"time":3,"station_name":"Kampung Bandan","distance":1364,"i_lat":-6.132549},{"distance":1444,"station_id":"RJW","i_long":106.836569,"is_transit":false,"i_lat":-6.14505,"transit":false,"time":3,"station_name":"Rajawali","line":11},{"station_id":"KMO","transit":false,"is_transit":false,"i_long":106.839204,"station_name":"Kemayoran","distance":1901,"i_lat":-6.161728,"time":5,"line":11}]]}