{"data":[[{"i_lat":-6.215568,"line":0,"distance":0,"station_id":"BUA","is_transit":false,"transit":false,"station_name":"Buaran","i_long":106.922662,"time":0},{"station_id":"KLD","distance":3100,"station_name":"Klender","i_lat":-6.2135,"time":2,"transit":false,"i_long":106.899548,"line":1,"is_transit":false},{"line":0,"i_lat":-6.215091,"distance":3395,"station_name":"Jatinegara","is_transit":true,"time":3,"i_long":106.86807400000001,"transit":false,"station_id":"JNG"},{"line":1,"time":2,"station_id":"MTR","transit":false,"is_transit":false,"station_name":"Matraman","i_lat":-6.212485,"distance":1377,"i_long":106.858896},{"station_id":"MRI","i_lat":-6.209883,"line":0,"station_name":"Manggarai","time":2,"distance":1275,"is_transit":true,"transit":true,"i_long":106.84912},{"i_lat":-6.226659,"line":2,"station_name":"Tebet","distance":2610,"transit":false,"station_id":"TEB","is_transit":false,"time":4,"i_long":106.857948},{"distance":1230,"station_id":"CW","is_transit":false,"station_name":"Cawang","transit":false,"i_long":106.856607,"i_lat":-6.242512,"line":0,"time":2}],[{"line":0,"transit":false,"time":0,"is_transit":false,"station_id":"BUA","i_long":106.922662,"distance":0,"station_name":"Buaran","i_lat":-6.215568},{"time":2,"i_long":106.899548,"transit":false,"i_lat":-6.2135,"line":1,"is_transit":false,"distance":3100,"station_id":"KLD","station_name":"Klender"},{"is_transit":true,"i_long":106.86807400000001,"station_id":"JNG","time":3,"distance":3395,"station_name":"Jatinegara","transit":true,"i_lat":-6.215091,"line":0},{"station_id":"POK","i_lat":-6.209188,"station_name":"Pondok Jati","time":2,"is_transit":false,"distance":1236,"transit":false,"i_long":106.861737,"line":11},{"i_long":106.855437,"station_name":"Kramat","station_id":"KMT","line":11,"time":2,"distance":1829,"i_lat":-6.193792,"is_transit":false,"transit":false},{"line":11,"is_transit":false,"distance":973,"i_lat":-6.185975,"transit":false,"station_id":"GST","i_long":106.850107,"station_name":"Gang Sentiong","time":1},{"time":8,"i_lat":-6.174784,"i_long":106.84368,"station_name":"Pasar Senen","distance":1567,"is_transit":false,"transit":false,"line":11,"station_id":"PSE"},{"transit":false,"i_lat":-6.161728,"distance":1436,"i_long":106.839204,"station_id":"KMO","is_transit":false,"time":4,"station_name":"Kemayoran","line":11},{"i_long":106.836569,"line":11,"is_transit":false,"transit":false,"station_id":"RJW","time":5,"i_lat":-6.14505,"station_name":"Rajawali","distance":1901},{"line":0,"is_transit":true,"station_name":"Kampung Bandan","i_lat":-6.132549,"time":3,"distance":1444,"station_id":"KPB","transit":true,"i_long":106.826365},{"i_long":106.79867,"i_lat":-6.144674,"station_name":"Angke","line":0,"transit":false,"distance":4102,"is_transit":false,"station_id":"AK","time":9},{"station_name":"Duri","is_transit":true,"distance":1230,"transit":true,"time":4,"i_lat":-6.155215,"station_id":"DU","line":1,"i_long":106.800832},{"station_id":"THB","is_transit":true,"distance":3632,"station_name":"Tanah Abang","i_long":106.811091,"time":8,"i_lat":-6.185545,"transit":false,"line":1},{"i_lat":-6.20132,"is_transit":false,"station_id":"KAT","distance":2029,"i_long":106.816351,"line":1,"station_name":"Karet","time":5,"transit":false},{"is_transit":false,"time":1,"station_name":"Sudirman Baru","station_id":"SUDB","distance":471,"transit":false,"i_long":106.819881,"line":1,"i_lat":-6.201433},{"i_long":106.822649,"distance":280,"station_name":"Sudirman","station_id":"SUD","time":1,"line":1,"i_lat":-6.202263,"transit":false,"is_transit":false},{"is_transit":true,"station_id":"MRI","i_lat":-6.209883,"distance":3186,"time":4,"transit":true,"i_long":106.84912,"line":0,"station_name":"Manggarai"},{"station_name":"Tebet","is_transit":false,"distance":2610,"line":2,"station_id":"TEB","i_lat":-6.226659,"i_long":106.857948,"time":4,"transit":false},{"is_transit":false,"distance":1230,"station_name":"Cawang","i_lat":-6.242512,"transit":false,"station_id":"CW","i_long":106.856607,"time":2,"line":0}],[{"distance":0,"i_long":106.922662,"station_name":"Buaran","transit":false,"i_lat":-6.215568,"station_id":"BUA","time":0,"line":0,"is_transit":false},{"distance":3100,"is_transit":false,"station_id":"KLD","i_lat":-6.2135,"station_name":"Klender","line":1,"time":2,"i_long":106.899548,"transit":false},{"station_id":"JNG","time":3,"station_name":"Jatinegara","i_lat":-6.215091,"i_long":106.86807400000001,"is_transit":true,"line":0,"distance":3395,"transit":true},{"transit":false,"i_lat":-6.209188,"time":2,"station_id":"POK","distance":1236,"line":11,"i_long":106.861737,"is_transit":false,"station_name":"Pondok Jati"},{"time":2,"is_transit":false,"station_name":"Kramat","i_lat":-6.193792,"distance":1829,"transit":false,"i_long":106.855437,"line":11,"station_id":"KMT"},{"i_long":106.850107,"station_name":"Gang Sentiong","station_id":"GST","time":1,"distance":973,"transit":false,"i_lat":-6.185975,"is_transit":false,"line":11},{"station_name":"Pasar Senen","distance":1567,"station_id":"PSE","line":11,"transit":false,"is_transit":false,"i_long":106.84368,"i_lat":-6.174784,"time":8},{"distance":1436,"i_long":106.839204,"time":4,"transit":false,"line":11,"is_transit":false,"station_id":"KMO","station_name":"Kemayoran","i_lat":-6.161728},{"i_long":106.836569,"transit":false,"is_transit":false,"station_id":"RJW","i_lat":-6.14505,"line":11,"station_name":"Rajawali","distance":1901,"time":5},{"line":0,"station_id":"KPB","time":3,"station_name":"Kampung Bandan","distance":1444,"transit":true,"i_long":106.826365,"is_transit":true,"i_lat":-6.132549},{"transit":true,"i_long":106.812439,"is_transit":true,"time":3,"station_name":"Jakarta Kota","i_lat":-6.137569,"line":0,"distance":1364,"station_id":"JAKK"},{"station_name":"Jayakarta","transit":false,"line":7,"i_long":106.820901,"time":4,"i_lat":-6.141205,"station_id":"JAY","is_transit":false,"distance":1264},{"time":2,"is_transit":false,"distance":1080,"station_name":"Manggabesar","i_lat":-6.149769,"i_long":106.82482,"station_id":"MGB","line":2,"transit":false},{"i_lat":-6.160725,"transit":false,"time":2,"station_name":"Sawah Besar","station_id":"SW","distance":906,"i_long":106.827103,"is_transit":false,"line":2},{"transit":false,"station_name":"Juanda","distance":1149,"is_transit":false,"time":2,"i_long":106.828284,"i_lat":-6.166716,"line":2,"station_id":"JUA"},{"distance":2015,"line":2,"is_transit":false,"time":4,"i_long":106.832183,"transit":false,"station_name":"Gondangdia","station_id":"GDD","i_lat":-6.186295},{"time":3,"station_name":"Cikini","distance":1750,"i_lat":-6.198556,"station_id":"CKI","transit":false,"line":0,"is_transit":false,"i_long":106.840169},{"is_transit":true,"i_lat":-6.209883,"transit":true,"line":0,"distance":1590,"station_id":"MRI","time":4,"station_name":"Manggarai","i_long":106.84912},{"i_long":106.857948,"distance":2610,"is_transit":false,"time":4,"line":2,"i_lat":-6.226659,"station_id":"TEB","station_name":"Tebet","transit":false},{"distance":1230,"station_id":"CW","is_transit":false,"i_long":106.856607,"line":0,"transit":false,"i_lat":-6.242512,"time":2,"station_name":"Cawang"}]]}