{"data":[[{"time":0,"distance":0,"i_lat":-6.215568,"station_id":"BUA","station_name":"Buaran","i_long":106.922662,"line":1,"is_transit":false,"transit":false},{"line":1,"time":2,"is_transit":false,"distance":3100,"station_id":"KLD","transit":false,"i_lat":-6.2135,"station_name":"Klender","i_long":106.899548},{"i_lat":-6.215091,"is_transit":false,"distance":3395,"transit":false,"line":1,"station_name":"Jatinegara","time":3,"i_long":106.86807400000001,"station_id":"JNG"},{"station_name":"Matraman","station_id":"MTR","transit":false,"i_lat":-6.212485,"is_transit":false,"i_long":106.858896,"time":2,"distance":1377,"line":1},{"station_id":"MRI","transit":true,"is_transit":true,"time":2,"line":2,"i_lat":-6.209883,"station_name":"Manggarai","distance":1275,"i_long":106.84912},{"line":2,"time":4,"i_long":106.857948,"is_transit":false,"station_name":"Tebet","station_id":"TEB","transit":false,"i_lat":-6.226659,"distance":2610},{"station_name":"Cawang","is_transit":false,"station_id":"CW","transit":false,"time":2,"distance":1230,"i_long":106.856607,"i_lat":-6.242512,"line":2},{"time":3,"station_id":"DRN","i_long":106.85449,"line":2,"i_lat":-6.255332,"is_transit":false,"transit":false,"station_name":"Duren Kalibata","distance":1546},{"station_id":"PSMB","i_lat":-6.263214,"is_transit":false,"time":2,"i_long":106.851577,"line":2,"station_name":"Pasar Minggu Baru","transit":false,"distance":824},{"i_lat":-6.2842400000000005,"station_id":"PSM","i_long":106.843999,"line":2,"time":2,"distance":2380,"transit":false,"station_name":"Pasar Minggu","is_transit":false},{"i_long":106.838896,"line":2,"distance":2820,"station_name":"Tanjung Barat","transit":false,"i_lat":-6.3080680000000005,"station_id":"TNT","is_transit":false,"time":4},{"i_long":106.832616,"i_lat":-6.330363,"transit":false,"station_name":"Lenteng Agung","station_id":"LNA","time":3,"is_transit":false,"line":2,"distance":2671},{"station_name":"Univ. Pancasila","station_id":"UP","distance":1029,"is_transit":false,"line":2,"transit":false,"i_long":106.834175,"i_lat":-6.339291,"time":2},{"station_id":"UI","time":3,"i_lat":-6.360749,"station_name":"Univ. Indonesia","is_transit":false,"i_long":106.831474,"distance":2264,"transit":false,"line":2},{"station_id":"POC","is_transit":false,"distance":1109,"time":2,"station_name":"Pondok Cina","i_long":106.831114,"i_lat":-6.369073,"line":2,"transit":false},{"time":4,"transit":false,"station_id":"DPB","distance":2727,"i_long":106.819451,"station_name":"Depokbaru","is_transit":false,"i_lat":-6.391065,"line":2},{"time":3,"line":2,"is_transit":false,"station_name":"Depok","i_lat":-6.405256,"i_long":106.816926,"station_id":"DP","distance":1584,"transit":false},{"transit":false,"station_id":"CTA","i_lat":-6.448811,"line":2,"distance":5084,"station_name":"Citayam","is_transit":false,"time":6,"i_long":106.800298},{"station_name":"Bojonggede","distance":5197,"time":5,"station_id":"BJD","transit":false,"i_lat":-6.493243,"is_transit":false,"line":2,"i_long":106.792719},{"i_long":106.800016,"station_name":"Cilebut","time":5,"distance":4331,"i_lat":-6.530544,"line":2,"station_id":"CLT","transit":false,"is_transit":false}],[{"transit":false,"is_transit":false,"time":0,"station_name":"Buaran","i_lat":-6.215568,"line":1,"distance":0,"i_long":106.922662,"station_id":"BUA"},{"time":2,"i_lat":-6.2135,"i_long":106.899548,"line":1,"transit":false,"is_transit":false,"distance":3100,"station_name":"Klender","station_id":"KLD"},{"i_long":106.86807400000001,"station_name":"Jatinegara","is_transit":true,"station_id":"JNG","transit":true,"time":3,"line":1,"i_lat":-6.215091,"distance":3395},{"station_id":"POK","distance":1236,"transit":false,"station_name":"Pondok Jati","is_transit":false,"i_lat":-6.209188,"time":2,"i_long":106.861737,"line":11},{"line":11,"distance":1829,"i_lat":-6.193792,"transit":false,"station_name":"Kramat","time":2,"i_long":106.855437,"is_transit":false,"station_id":"KMT"},{"transit":false,"station_name":"Gang Sentiong","i_lat":-6.185975,"is_transit":false,"station_id":"GST","time":1,"line":11,"i_long":106.850107,"distance":973},{"is_transit":false,"i_lat":-6.174784,"station_id":"PSE","line":11,"time":8,"transit":false,"i_long":106.84368,"distance":1567,"station_name":"Pasar Senen"},{"distance":1436,"station_id":"KMO","station_name":"Kemayoran","i_long":106.839204,"time":4,"line":11,"transit":false,"i_lat":-6.161728,"is_transit":false},{"is_transit":false,"station_name":"Rajawali","transit":false,"line":11,"distance":1901,"time":5,"station_id":"RJW","i_long":106.836569,"i_lat":-6.14505},{"distance":1444,"station_id":"KPB","i_lat":-6.132549,"line":4,"is_transit":true,"time":3,"i_long":106.826365,"transit":true,"station_name":"Kampung Bandan"},{"transit":false,"is_transit":false,"distance":4102,"station_name":"Angke","i_lat":-6.144674,"time":9,"station_id":"AK","i_long":106.79867,"line":1},{"i_lat":-6.155215,"line":1,"station_id":"DU","is_transit":false,"transit":false,"station_name":"Duri","distance":1230,"time":4,"i_long":106.800832},{"time":8,"distance":3632,"station_name":"Tanah Abang","transit":false,"i_lat":-6.185545,"i_long":106.811091,"line":1,"is_transit":false,"station_id":"THB"},{"station_id":"KAT","is_transit":false,"transit":false,"station_name":"Karet","time":5,"i_lat":-6.20132,"i_long":106.816351,"line":1,"distance":2029},{"time":1,"station_name":"Sudirman Baru","distance":471,"i_lat":-6.201433,"i_long":106.819881,"transit":false,"station_id":"SUDB","line":1,"is_transit":false},{"station_name":"Sudirman","i_long":106.822649,"line":1,"is_transit":false,"time":1,"distance":280,"station_id":"SUD","i_lat":-6.202263,"transit":false},{"i_lat":-6.209883,"transit":true,"line":2,"distance":3186,"i_long":106.84912,"is_transit":true,"time":4,"station_id":"MRI","station_name":"Manggarai"},{"transit":false,"is_transit":false,"i_long":106.857948,"line":2,"time":4,"station_id":"TEB","station_name":"Tebet","i_lat":-6.226659,"distance":2610},{"transit":false,"i_long":106.856607,"line":2,"is_transit":false,"station_name":"Cawang","time":2,"station_id":"CW","i_lat":-6.242512,"distance":1230},{"station_name":"Duren Kalibata","transit":false,"is_transit":false,"station_id":"DRN","time":3,"i_lat":-6.255332,"i_long":106.85449,"distance":1546,"line":2},{"is_transit":false,"distance":824,"transit":false,"time":2,"station_id":"PSMB","i_lat":-6.263214,"line":2,"i_long":106.851577,"station_name":"Pasar Minggu Baru"},{"is_transit":false,"distance":2380,"i_lat":-6.2842400000000005,"time":2,"i_long":106.843999,"transit":false,"station_name":"Pasar Minggu","station_id":"PSM","line":2},{"station_name":"Tanjung Barat","is_transit":false,"i_long":106.838896,"distance":2820,"line":2,"transit":false,"i_lat":-6.3080680000000005,"time":4,"station_id":"TNT"},{"is_transit":false,"line":2,"distance":2671,"station_name":"Lenteng Agung","time":3,"transit":false,"i_long":106.832616,"station_id":"LNA","i_lat":-6.330363},{"distance":1029,"time":2,"transit":false,"is_transit":false,"station_id":"UP","i_long":106.834175,"line":2,"station_name":"Univ. Pancasila","i_lat":-6.339291},{"time":3,"station_name":"Univ. Indonesia","i_lat":-6.360749,"i_long":106.831474,"line":2,"station_id":"UI","transit":false,"distance":2264,"is_transit":false},{"transit":false,"line":2,"is_transit":false,"i_lat":-6.369073,"station_name":"Pondok Cina","station_id":"POC","distance":1109,"i_long":106.831114,"time":2},{"transit":false,"time":4,"station_id":"DPB","distance":2727,"i_lat":-6.391065,"line":2,"i_long":106.819451,"station_name":"Depokbaru","is_transit":false},{"i_long":106.816926,"station_name":"Depok","line":2,"is_transit":false,"i_lat":-6.405256,"station_id":"DP","time":3,"distance":1584,"transit":false},{"is_transit":false,"station_name":"Citayam","transit":false,"distance":5084,"time":6,"i_lat":-6.448811,"i_long":106.800298,"station_id":"CTA","line":2},{"time":5,"i_lat":-6.493243,"i_long":106.792719,"line":2,"station_name":"Bojonggede","is_transit":false,"station_id":"BJD","distance":5197,"transit":false},{"i_lat":-6.530544,"transit":false,"station_id":"CLT","is_transit":false,"line":2,"i_long":106.800016,"time":5,"station_name":"Cilebut","distance":4331}],[{"is_transit":false,"distance":0,"transit":false,"station_id":"BUA","time":0,"station_name":"Buaran","i_long":106.922662,"i_lat":-6.215568,"line":1},{"station_name":"Klender","transit":false,"is_transit":false,"station_id":"KLD","i_lat":-6.2135,"line":1,"distance":3100,"time":2,"i_long":106.899548},{"transit":true,"distance":3395,"time":3,"station_name":"Jatinegara","i_long":106.86807400000001,"is_transit":true,"station_id":"JNG","line":1,"i_lat":-6.215091},{"station_name":"Pondok Jati","line":11,"i_long":106.861737,"distance":1236,"i_lat":-6.209188,"is_transit":false,"time":2,"station_id":"POK","transit":false},{"station_id":"KMT","i_lat":-6.193792,"is_transit":false,"i_long":106.855437,"time":2,"line":11,"transit":false,"station_name":"Kramat","distance":1829},{"distance":973,"is_transit":false,"transit":false,"station_id":"GST","line":11,"time":1,"station_name":"Gang Sentiong","i_lat":-6.185975,"i_long":106.850107},{"i_long":106.84368,"is_transit":false,"time":8,"station_id":"PSE","line":11,"transit":false,"distance":1567,"i_lat":-6.174784,"station_name":"Pasar Senen"},{"i_long":106.839204,"station_id":"KMO","transit":false,"station_name":"Kemayoran","distance":1436,"i_lat":-6.161728,"is_transit":false,"line":11,"time":4},{"station_name":"Rajawali","i_long":106.836569,"distance":1901,"time":5,"station_id":"RJW","transit":false,"is_transit":false,"i_lat":-6.14505,"line":11},{"i_lat":-6.132549,"line":4,"station_id":"KPB","i_long":106.826365,"transit":true,"is_transit":true,"time":3,"distance":1444,"station_name":"Kampung Bandan"},{"time":3,"is_transit":true,"i_long":106.812439,"station_id":"JAKK","i_lat":-6.137569,"distance":1364,"line":2,"transit":true,"station_name":"Jakarta Kota"},{"transit":false,"i_long":106.820901,"is_transit":false,"station_name":"Jayakarta","distance":1264,"line":2,"time":4,"i_lat":-6.141205,"station_id":"JAY"},{"i_long":106.82482,"line":2,"is_transit":false,"transit":false,"i_lat":-6.149769,"distance":1080,"time":2,"station_name":"Manggabesar","station_id":"MGB"},{"station_name":"Sawah Besar","distance":906,"is_transit":false,"line":2,"i_long":106.827103,"station_id":"SW","transit":false,"time":2,"i_lat":-6.160725},{"is_transit":false,"line":2,"station_name":"Juanda","i_long":106.828284,"i_lat":-6.166716,"transit":false,"distance":1149,"station_id":"JUA","time":2},{"station_name":"Gondangdia","station_id":"GDD","i_long":106.832183,"time":4,"line":2,"i_lat":-6.186295,"is_transit":false,"distance":2015,"transit":false},{"i_lat":-6.198556,"station_id":"CKI","transit":false,"is_transit":false,"distance":1750,"station_name":"Cikini","i_long":106.840169,"line":2,"time":3},{"i_lat":-6.209883,"transit":false,"line":2,"station_id":"MRI","is_transit":false,"station_name":"Manggarai","distance":1590,"i_long":106.84912,"time":4},{"line":2,"i_lat":-6.226659,"time":4,"station_id":"TEB","station_name":"Tebet","is_transit":false,"distance":2610,"transit":false,"i_long":106.857948},{"transit":false,"station_id":"CW","i_lat":-6.242512,"station_name":"Cawang","is_transit":false,"time":2,"line":2,"i_long":106.856607,"distance":1230},{"line":2,"is_transit":false,"station_id":"DRN","i_lat":-6.255332,"time":3,"distance":1546,"i_long":106.85449,"station_name":"Duren Kalibata","transit":false},{"distance":824,"i_long":106.851577,"station_id":"PSMB","time":2,"i_lat":-6.263214,"transit":false,"is_transit":false,"line":2,"station_name":"Pasar Minggu Baru"},{"transit":false,"is_transit":false,"station_name":"Pasar Minggu","distance":2380,"i_lat":-6.2842400000000005,"station_id":"PSM","line":2,"time":2,"i_long":106.843999},{"i_lat":-6.3080680000000005,"distance":2820,"transit":false,"is_transit":false,"time":4,"line":2,"station_name":"Tanjung Barat","station_id":"TNT","i_long":106.838896},{"station_name":"Lenteng Agung","is_transit":false,"distance":2671,"station_id":"LNA","time":3,"i_long":106.832616,"line":2,"transit":false,"i_lat":-6.330363},{"station_id":"UP","i_long":106.834175,"transit":false,"time":2,"line":2,"i_lat":-6.339291,"distance":1029,"station_name":"Univ. Pancasila","is_transit":false},{"transit":false,"is_transit":false,"i_long":106.831474,"station_name":"Univ. Indonesia","line":2,"i_lat":-6.360749,"station_id":"UI","time":3,"distance":2264},{"is_transit":false,"transit":false,"station_name":"Pondok Cina","i_lat":-6.369073,"distance":1109,"line":2,"time":2,"station_id":"POC","i_long":106.831114},{"i_lat":-6.391065,"is_transit":false,"time":4,"station_id":"DPB","line":2,"transit":false,"station_name":"Depokbaru","i_long":106.819451,"distance":2727},{"i_lat":-6.405256,"is_transit":false,"time":3,"transit":false,"line":2,"station_id":"DP","i_long":106.816926,"station_name":"Depok","distance":1584},{"is_transit":false,"line":2,"transit":false,"station_name":"Citayam","station_id":"CTA","distance":5084,"i_long":106.800298,"time":6,"i_lat":-6.448811},{"distance":5197,"line":2,"transit":false,"station_id":"BJD","i_lat":-6.493243,"i_long":106.792719,"is_transit":false,"time":5,"station_name":"Bojonggede"},{"i_lat":-6.530544,"line":2,"station_id":"CLT","is_transit":false,"distance":4331,"i_long":106.800016,"transit":false,"station_name":"Cilebut","time":5}]]}