{"data":[[{"line":1,"distance":0,"time":0,"is_transit":false,"station_id":"BUA","transit":false,"i_lat":-6.215568,"i_long":106.922662,"station_name":"Buaran"},{"time":2,"distance":3100,"station_id":"KLD","transit":false,"i_lat":-6.2135,"i_long":106.899548,"line":1,"station_name":"Klender","is_transit":false},{"station_id":"JNG","i_long":106.86807400000001,"station_name":"Jatinegara","is_transit":false,"line":1,"transit":false,"i_lat":-6.215091,"time":3,"distance":3395},{"i_lat":-6.212485,"i_long":106.858896,"station_id":"MTR","station_name":"Matraman","line":1,"time":2,"distance":1377,"is_transit":false,"transit":false},{"time":2,"i_lat":-6.209883,"transit":false,"is_transit":false,"distance":1275,"station_id":"MRI","i_long":106.84912,"line":2,"station_name":"Manggarai"},{"i_long":106.822649,"distance":3186,"is_transit":false,"transit":false,"time":4,"station_id":"SUD","i_lat":-6.202263,"station_name":"Sudirman","line":1},{"station_id":"SUDB","is_transit":false,"transit":false,"time":1,"line":1,"station_name":"Sudirman Baru","i_long":106.819881,"i_lat":-6.201433,"distance":280},{"i_long":106.816351,"station_id":"KAT","transit":false,"line":1,"time":1,"distance":471,"is_transit":false,"station_name":"Karet","i_lat":-6.20132},{"is_transit":false,"i_long":106.811091,"station_name":"Tanah Abang","line":1,"time":5,"station_id":"THB","i_lat":-6.185545,"distance":2029,"transit":false},{"transit":false,"line":1,"time":8,"station_name":"Duri","is_transit":false,"distance":3632,"i_lat":-6.155215,"station_id":"DU","i_long":106.800832}],[{"distance":0,"i_long":106.922662,"line":1,"station_id":"BUA","is_transit":false,"i_lat":-6.215568,"station_name":"Buaran","time":0,"transit":false},{"is_transit":false,"transit":false,"distance":3100,"line":1,"station_id":"KLD","i_long":106.899548,"time":2,"i_lat":-6.2135,"station_name":"Klender"},{"is_transit":true,"transit":true,"line":1,"time":3,"station_id":"JNG","i_lat":-6.215091,"i_long":106.86807400000001,"distance":3395,"station_name":"Jatinegara"},{"station_name":"Pondok Jati","is_transit":false,"time":2,"distance":1236,"i_lat":-6.209188,"station_id":"POK","transit":false,"line":11,"i_long":106.861737},{"distance":1829,"transit":false,"station_name":"Kramat","is_transit":false,"i_long":106.855437,"station_id":"KMT","line":11,"time":2,"i_lat":-6.193792},{"transit":false,"station_name":"Gang Sentiong","i_long":106.850107,"time":1,"line":11,"i_lat":-6.185975,"station_id":"GST","distance":973,"is_transit":false},{"time":8,"station_id":"PSE","line":11,"transit":false,"i_lat":-6.174784,"is_transit":false,"station_name":"Pasar Senen","distance":1567,"i_long":106.84368},{"time":4,"station_id":"KMO","i_lat":-6.161728,"i_long":106.839204,"transit":false,"distance":1436,"station_name":"Kemayoran","is_transit":false,"line":11},{"station_name":"Rajawali","is_transit":false,"i_long":106.836569,"transit":false,"distance":1901,"station_id":"RJW","i_lat":-6.14505,"line":11,"time":5},{"i_long":106.826365,"is_transit":true,"station_id":"KPB","transit":true,"i_lat":-6.132549,"time":3,"distance":1444,"line":4,"station_name":"Kampung Bandan"},{"i_long":106.79867,"is_transit":false,"station_id":"AK","i_lat":-6.144674,"time":9,"station_name":"Angke","transit":false,"line":1,"distance":4102},{"time":4,"station_name":"Duri","i_lat":-6.155215,"transit":false,"line":1,"i_long":106.800832,"distance":1230,"is_transit":false,"station_id":"DU"}],[{"is_transit":false,"i_long":106.922662,"station_name":"Buaran","distance":0,"station_id":"BUA","time":0,"i_lat":-6.215568,"line":1,"transit":false},{"transit":false,"is_transit":false,"station_id":"KLD","i_long":106.899548,"time":2,"i_lat":-6.2135,"distance":3100,"line":1,"station_name":"Klender"},{"station_name":"Jatinegara","station_id":"JNG","time":3,"transit":false,"i_lat":-6.215091,"distance":3395,"i_long":106.86807400000001,"line":1,"is_transit":false},{"station_id":"MTR","line":1,"time":2,"distance":1377,"station_name":"Matraman","transit":false,"is_transit":false,"i_long":106.858896,"i_lat":-6.212485},{"time":2,"transit":true,"i_lat":-6.209883,"station_name":"Manggarai","line":2,"is_transit":true,"station_id":"MRI","i_long":106.84912,"distance":1275},{"i_lat":-6.198556,"station_name":"Cikini","is_transit":false,"station_id":"CKI","i_long":106.840169,"line":2,"time":4,"distance":1590,"transit":false},{"i_long":106.832183,"line":2,"station_id":"GDD","time":3,"distance":1750,"i_lat":-6.186295,"is_transit":false,"transit":false,"station_name":"Gondangdia"},{"station_name":"Juanda","i_lat":-6.166716,"transit":false,"station_id":"JUA","time":4,"is_transit":false,"line":2,"i_long":106.828284,"distance":2015},{"i_lat":-6.160725,"i_long":106.827103,"transit":false,"distance":1149,"is_transit":false,"line":2,"station_id":"SW","time":2,"station_name":"Sawah Besar"},{"i_long":106.82482,"time":2,"distance":906,"station_id":"MGB","line":2,"is_transit":false,"transit":false,"station_name":"Manggabesar","i_lat":-6.149769},{"transit":false,"i_long":106.820901,"i_lat":-6.141205,"time":2,"station_id":"JAY","distance":1080,"is_transit":false,"line":2,"station_name":"Jayakarta"},{"station_name":"Jakarta Kota","is_transit":true,"transit":true,"i_long":106.812439,"i_lat":-6.137569,"station_id":"JAKK","line":2,"time":4,"distance":1264},{"transit":true,"i_lat":-6.132549,"is_transit":true,"station_id":"KPB","time":3,"station_name":"Kampung Bandan","distance":1364,"line":4,"i_long":106.826365},{"line":1,"distance":4102,"i_long":106.79867,"station_id":"AK","station_name":"Angke","transit":false,"time":9,"i_lat":-6.144674,"is_transit":false},{"i_lat":-6.155215,"is_transit":false,"line":1,"time":4,"distance":1230,"transit":false,"station_name":"Duri","station_id":"DU","i_long":106.800832}],[{"i_long":106.922662,"station_id":"BUA","i_lat":-6.215568,"line":1,"distance":0,"is_transit":false,"time":0,"station_name":"Buaran","transit":false},{"transit":false,"i_lat":-6.2135,"distance":3100,"time":2,"station_id":"KLD","i_long":106.899548,"line":1,"station_name":"Klender","is_transit":false},{"time":3,"transit":true,"i_lat":-6.215091,"i_long":106.86807400000001,"line":1,"distance":3395,"station_id":"JNG","is_transit":true,"station_name":"Jatinegara"},{"i_long":106.861737,"distance":1236,"is_transit":false,"transit":false,"i_lat":-6.209188,"time":2,"station_name":"Pondok Jati","line":11,"station_id":"POK"},{"i_long":106.855437,"distance":1829,"station_name":"Kramat","is_transit":false,"transit":false,"station_id":"KMT","i_lat":-6.193792,"line":11,"time":2},{"is_transit":false,"line":11,"station_name":"Gang Sentiong","time":1,"distance":973,"i_long":106.850107,"i_lat":-6.185975,"transit":false,"station_id":"GST"},{"time":8,"station_name":"Pasar Senen","station_id":"PSE","transit":false,"line":11,"is_transit":false,"i_long":106.84368,"distance":1567,"i_lat":-6.174784},{"i_lat":-6.161728,"i_long":106.839204,"transit":false,"station_name":"Kemayoran","line":11,"distance":1436,"time":4,"station_id":"KMO","is_transit":false},{"i_lat":-6.14505,"station_id":"RJW","i_long":106.836569,"is_transit":false,"station_name":"Rajawali","time":5,"line":11,"distance":1901,"transit":false},{"time":3,"transit":true,"i_long":106.826365,"is_transit":true,"line":4,"station_name":"Kampung Bandan","distance":1444,"i_lat":-6.132549,"station_id":"KPB"},{"time":3,"transit":true,"i_long":106.812439,"is_transit":true,"i_lat":-6.137569,"line":2,"distance":1364,"station_id":"JAKK","station_name":"Jakarta Kota"},{"station_id":"JAY","is_transit":false,"i_lat":-6.141205,"distance":1264,"station_name":"Jayakarta","i_long":106.820901,"line":2,"time":4,"transit":false},{"is_transit":false,"i_long":106.82482,"station_id":"MGB","station_name":"Manggabesar","i_lat":-6.149769,"distance":1080,"line":2,"time":2,"transit":false},{"transit":false,"i_long":106.827103,"is_transit":false,"station_name":"Sawah Besar","time":2,"distance":906,"i_lat":-6.160725,"line":2,"station_id":"SW"},{"line":2,"station_id":"JUA","i_long":106.828284,"transit":false,"i_lat":-6.166716,"distance":1149,"station_name":"Juanda","time":2,"is_transit":false},{"i_long":106.832183,"time":4,"distance":2015,"station_name":"Gondangdia","i_lat":-6.186295,"is_transit":false,"transit":false,"line":2,"station_id":"GDD"},{"is_transit":false,"station_id":"CKI","station_name":"Cikini","i_long":106.840169,"transit":false,"i_lat":-6.198556,"time":3,"distance":1750,"line":2},{"station_id":"MRI","distance":1590,"is_transit":true,"transit":true,"station_name":"Manggarai","i_long":106.84912,"line":2,"time":4,"i_lat":-6.209883},{"i_long":106.822649,"distance":3186,"is_transit":false,"station_name":"Sudirman","time":4,"transit":false,"i_lat":-6.202263,"station_id":"SUD","line":1},{"time":1,"line":1,"transit":false,"i_lat":-6.201433,"station_id":"SUDB","is_transit":false,"distance":280,"station_name":"Sudirman Baru","i_long":106.819881},{"station_name":"Karet","is_transit":false,"i_lat":-6.20132,"line":1,"station_id":"KAT","transit":false,"i_long":106.816351,"time":1,"distance":471},{"distance":2029,"time":5,"station_id":"THB","is_transit":false,"i_lat":-6.185545,"line":1,"transit":false,"i_long":106.811091,"station_name":"Tanah Abang"},{"station_id":"DU","i_long":106.800832,"distance":3632,"transit":false,"line":1,"is_transit":false,"station_name":"Duri","i_lat":-6.155215,"time":8}]]}