{"data":[[{"i_long":106.922662,"station_name":"Buaran","i_lat":-6.215568,"line":1,"transit":false,"is_transit":false,"distance":0,"station_id":"BUA","time":0},{"line":1,"is_transit":false,"station_id":"KLD","i_lat":-6.2135,"distance":3100,"station_name":"Klender","i_long":106.899548,"time":2,"transit":false},{"transit":false,"i_long":106.86807400000001,"time":3,"i_lat":-6.215091,"distance":3395,"line":1,"station_name":"Jatinegara","station_id":"JNG","is_transit":false},{"station_name":"Matraman","time":2,"transit":false,"station_id":"MTR","i_long":106.858896,"is_transit":false,"line":1,"i_lat":-6.212485,"distance":1377},{"station_id":"MRI","transit":false,"station_name":"Manggarai","is_transit":false,"time":2,"line":2,"i_lat":-6.209883,"i_long":106.84912,"distance":1275},{"is_transit":false,"i_long":106.822649,"transit":false,"line":1,"station_id":"SUD","i_lat":-6.202263,"station_name":"Sudirman","time":4,"distance":3186},{"station_name":"Sudirman Baru","i_lat":-6.201433,"station_id":"SUDB","is_transit":false,"transit":false,"i_long":106.819881,"distance":280,"line":1,"time":1},{"distance":471,"is_transit":false,"transit":false,"i_lat":-6.20132,"station_name":"Karet","time":1,"i_long":106.816351,"line":1,"station_id":"KAT"},{"i_long":106.811091,"station_id":"THB","transit":true,"line":1,"is_transit":true,"distance":2029,"station_name":"Tanah Abang","time":5,"i_lat":-6.185545},{"line":6,"distance":3191,"station_id":"PLM","is_transit":false,"station_name":"Palmerah","time":6,"i_lat":-6.207404,"i_long":106.79689,"transit":false},{"line":6,"i_long":106.780334,"is_transit":false,"station_id":"KBY","distance":3737,"transit":false,"station_name":"Kebayoran","i_lat":-6.237242,"time":7},{"is_transit":false,"transit":false,"time":8,"i_lat":-6.276362,"station_id":"PDJ","distance":6218,"line":6,"i_long":106.74273,"station_name":"Pondokranji"},{"station_name":"Jurangmangu","distance":2179,"i_lat":-6.288927,"time":3,"station_id":"JMU","line":6,"transit":false,"i_long":106.728916,"is_transit":false},{"station_name":"Sudimara","is_transit":false,"distance":1994,"line":6,"i_lat":-6.296963,"time":4,"i_long":106.712277,"transit":false,"station_id":"SDM"},{"station_id":"RU","i_lat":-6.314823,"line":6,"is_transit":false,"distance":4566,"transit":false,"station_name":"Rawa Buntu","i_long":106.675475,"time":6},{"i_long":106.66566,"time":4,"i_lat":-6.319871,"transit":false,"station_name":"Serpong","distance":2413,"is_transit":false,"line":6,"station_id":"SRP"},{"distance":1784,"station_id":"CSK","is_transit":false,"i_long":106.640411,"transit":false,"station_name":"Cisauk","time":4,"line":3,"i_lat":-6.32484},{"line":3,"station_name":"Cicayur","i_lat":-6.329547,"i_long":106.617853,"is_transit":false,"transit":false,"distance":2519,"station_id":"CC","time":4},{"i_lat":-6.3441410000000005,"distance":5968,"station_name":"Parung Panjang","time":8,"station_id":"PRP","is_transit":false,"transit":false,"i_long":106.568863,"line":6},{"distance":7025,"transit":false,"time":9,"is_transit":false,"station_id":"CJT","line":3,"i_long":106.508482,"i_lat":-6.354349,"station_name":"Cilejit"},{"is_transit":false,"distance":2675,"i_lat":-6.338021,"i_long":106.491338,"line":0,"station_id":"DAR","transit":false,"station_name":"Daru","time":6},{"transit":false,"i_lat":-6.327251,"station_name":"Tenjo","station_id":"TEJ","distance":3902,"is_transit":false,"line":6,"time":5,"i_long":106.460812},{"distance":2974,"station_name":"Tigaraksa","time":5,"i_lat":-6.328533,"line":6,"is_transit":false,"transit":false,"station_id":"TGS","i_long":106.425991}],[{"is_transit":false,"i_lat":-6.215568,"distance":0,"transit":false,"time":0,"station_id":"BUA","station_name":"Buaran","i_long":106.922662,"line":1},{"i_long":106.899548,"i_lat":-6.2135,"transit":false,"station_id":"KLD","line":1,"station_name":"Klender","is_transit":false,"time":2,"distance":3100},{"distance":3395,"i_lat":-6.215091,"line":1,"time":3,"is_transit":true,"i_long":106.86807400000001,"station_name":"Jatinegara","station_id":"JNG","transit":true},{"time":2,"station_id":"POK","i_long":106.861737,"transit":false,"is_transit":false,"station_name":"Pondok Jati","line":11,"i_lat":-6.209188,"distance":1236},{"transit":false,"time":2,"i_long":106.855437,"line":11,"is_transit":false,"distance":1829,"station_name":"Kramat","i_lat":-6.193792,"station_id":"KMT"},{"distance":973,"time":1,"transit":false,"i_lat":-6.185975,"i_long":106.850107,"station_name":"Gang Sentiong","is_transit":false,"station_id":"GST","line":11},{"i_lat":-6.174784,"station_name":"Pasar Senen","i_long":106.84368,"station_id":"PSE","time":8,"line":11,"distance":1567,"transit":false,"is_transit":false},{"time":4,"line":11,"station_name":"Kemayoran","transit":false,"is_transit":false,"i_long":106.839204,"distance":1436,"station_id":"KMO","i_lat":-6.161728},{"i_long":106.836569,"line":11,"transit":false,"i_lat":-6.14505,"distance":1901,"station_id":"RJW","time":5,"is_transit":false,"station_name":"Rajawali"},{"distance":1444,"station_id":"KPB","i_lat":-6.132549,"i_long":106.826365,"line":4,"time":3,"transit":true,"station_name":"Kampung Bandan","is_transit":true},{"i_long":106.79867,"time":9,"is_transit":false,"i_lat":-6.144674,"distance":4102,"transit":false,"station_name":"Angke","line":1,"station_id":"AK"},{"station_name":"Duri","station_id":"DU","i_lat":-6.155215,"line":1,"time":4,"distance":1230,"is_transit":false,"transit":false,"i_long":106.800832},{"i_long":106.811091,"time":8,"i_lat":-6.185545,"transit":true,"distance":3632,"station_name":"Tanah Abang","station_id":"THB","line":1,"is_transit":true},{"line":6,"i_lat":-6.207404,"i_long":106.79689,"station_id":"PLM","station_name":"Palmerah","is_transit":false,"transit":false,"time":6,"distance":3191},{"station_id":"KBY","distance":3737,"time":7,"i_long":106.780334,"line":6,"station_name":"Kebayoran","transit":false,"i_lat":-6.237242,"is_transit":false},{"station_id":"PDJ","i_lat":-6.276362,"station_name":"Pondokranji","distance":6218,"line":6,"time":8,"i_long":106.74273,"is_transit":false,"transit":false},{"i_lat":-6.288927,"distance":2179,"station_name":"Jurangmangu","time":3,"station_id":"JMU","line":6,"is_transit":false,"i_long":106.728916,"transit":false},{"line":6,"i_long":106.712277,"distance":1994,"is_transit":false,"time":4,"station_name":"Sudimara","transit":false,"i_lat":-6.296963,"station_id":"SDM"},{"distance":4566,"i_lat":-6.314823,"station_id":"RU","time":6,"line":6,"station_name":"Rawa Buntu","transit":false,"is_transit":false,"i_long":106.675475},{"transit":false,"distance":2413,"is_transit":false,"station_name":"Serpong","time":4,"i_long":106.66566,"station_id":"SRP","line":6,"i_lat":-6.319871},{"is_transit":false,"station_name":"Cisauk","time":4,"i_long":106.640411,"line":3,"distance":1784,"transit":false,"i_lat":-6.32484,"station_id":"CSK"},{"station_id":"CC","i_lat":-6.329547,"i_long":106.617853,"time":4,"line":3,"is_transit":false,"distance":2519,"transit":false,"station_name":"Cicayur"},{"distance":5968,"station_name":"Parung Panjang","transit":false,"time":8,"station_id":"PRP","i_lat":-6.3441410000000005,"is_transit":false,"line":6,"i_long":106.568863},{"station_name":"Cilejit","station_id":"CJT","distance":7025,"transit":false,"time":9,"i_lat":-6.354349,"is_transit":false,"i_long":106.508482,"line":3},{"station_name":"Daru","i_lat":-6.338021,"transit":false,"time":6,"station_id":"DAR","distance":2675,"is_transit":false,"i_long":106.491338,"line":0},{"line":6,"transit":false,"i_long":106.460812,"station_name":"Tenjo","distance":3902,"is_transit":false,"time":5,"station_id":"TEJ","i_lat":-6.327251},{"distance":2974,"transit":false,"time":5,"is_transit":false,"station_name":"Tigaraksa","station_id":"TGS","i_long":106.425991,"i_lat":-6.328533,"line":6}],[{"station_name":"Buaran","distance":0,"time":0,"transit":false,"station_id":"BUA","i_long":106.922662,"is_transit":false,"i_lat":-6.215568,"line":1},{"is_transit":false,"i_long":106.899548,"line":1,"time":2,"distance":3100,"station_name":"Klender","station_id":"KLD","i_lat":-6.2135,"transit":false},{"distance":3395,"i_lat":-6.215091,"i_long":106.86807400000001,"station_name":"Jatinegara","time":3,"is_transit":false,"line":1,"station_id":"JNG","transit":false},{"is_transit":false,"station_name":"Matraman","i_lat":-6.212485,"station_id":"MTR","line":1,"distance":1377,"transit":false,"time":2,"i_long":106.858896},{"station_id":"MRI","i_lat":-6.209883,"is_transit":true,"transit":true,"time":2,"distance":1275,"i_long":106.84912,"station_name":"Manggarai","line":2},{"distance":1590,"transit":false,"is_transit":false,"i_lat":-6.198556,"station_name":"Cikini","line":2,"time":4,"station_id":"CKI","i_long":106.840169},{"is_transit":false,"distance":1750,"i_lat":-6.186295,"time":3,"station_id":"GDD","line":2,"i_long":106.832183,"transit":false,"station_name":"Gondangdia"},{"line":2,"distance":2015,"i_long":106.828284,"station_name":"Juanda","i_lat":-6.166716,"station_id":"JUA","transit":false,"time":4,"is_transit":false},{"is_transit":false,"station_id":"SW","time":2,"distance":1149,"i_lat":-6.160725,"i_long":106.827103,"transit":false,"line":2,"station_name":"Sawah Besar"},{"transit":false,"time":2,"is_transit":false,"distance":906,"station_id":"MGB","i_long":106.82482,"line":2,"station_name":"Manggabesar","i_lat":-6.149769},{"station_id":"JAY","is_transit":false,"station_name":"Jayakarta","time":2,"transit":false,"i_lat":-6.141205,"i_long":106.820901,"line":2,"distance":1080},{"station_id":"JAKK","station_name":"Jakarta Kota","i_long":106.812439,"is_transit":true,"time":4,"i_lat":-6.137569,"distance":1264,"transit":true,"line":2},{"station_name":"Kampung Bandan","is_transit":true,"distance":1364,"transit":true,"time":3,"i_lat":-6.132549,"line":4,"station_id":"KPB","i_long":106.826365},{"i_lat":-6.144674,"is_transit":false,"station_name":"Angke","line":1,"i_long":106.79867,"distance":4102,"transit":false,"time":9,"station_id":"AK"},{"distance":1230,"is_transit":false,"transit":false,"i_lat":-6.155215,"i_long":106.800832,"station_name":"Duri","station_id":"DU","time":4,"line":1},{"station_name":"Tanah Abang","station_id":"THB","transit":true,"is_transit":true,"distance":3632,"time":8,"i_lat":-6.185545,"i_long":106.811091,"line":1},{"time":6,"station_name":"Palmerah","i_lat":-6.207404,"i_long":106.79689,"station_id":"PLM","transit":false,"distance":3191,"line":6,"is_transit":false},{"station_id":"KBY","distance":3737,"transit":false,"station_name":"Kebayoran","i_lat":-6.237242,"is_transit":false,"time":7,"i_long":106.780334,"line":6},{"station_name":"Pondokranji","distance":6218,"i_long":106.74273,"line":6,"is_transit":false,"transit":false,"station_id":"PDJ","time":8,"i_lat":-6.276362},{"station_id":"JMU","i_long":106.728916,"station_name":"Jurangmangu","transit":false,"is_transit":false,"distance":2179,"i_lat":-6.288927,"time":3,"line":6},{"distance":1994,"station_id":"SDM","time":4,"is_transit":false,"transit":false,"i_lat":-6.296963,"i_long":106.712277,"line":6,"station_name":"Sudimara"},{"transit":false,"station_id":"RU","distance":4566,"i_long":106.675475,"is_transit":false,"station_name":"Rawa Buntu","time":6,"line":6,"i_lat":-6.314823},{"is_transit":false,"line":6,"i_long":106.66566,"distance":2413,"station_name":"Serpong","time":4,"station_id":"SRP","i_lat":-6.319871,"transit":false},{"distance":1784,"transit":false,"station_id":"CSK","station_name":"Cisauk","i_long":106.640411,"line":3,"i_lat":-6.32484,"time":4,"is_transit":false},{"station_name":"Cicayur","i_lat":-6.329547,"is_transit":false,"i_long":106.617853,"transit":false,"distance":2519,"time":4,"line":3,"station_id":"CC"},{"transit":false,"time":8,"station_name":"Parung Panjang","line":6,"i_lat":-6.3441410000000005,"i_long":106.568863,"is_transit":false,"station_id":"PRP","distance":5968},{"is_transit":false,"transit":false,"i_lat":-6.354349,"time":9,"i_long":106.508482,"line":3,"distance":7025,"station_name":"Cilejit","station_id":"CJT"},{"distance":2675,"station_name":"Daru","time":6,"is_transit":false,"i_lat":-6.338021,"line":0,"transit":false,"i_long":106.491338,"station_id":"DAR"},{"is_transit":false,"line":6,"transit":false,"station_name":"Tenjo","station_id":"TEJ","distance":3902,"time":5,"i_lat":-6.327251,"i_long":106.460812},{"is_transit":false,"transit":false,"distance":2974,"station_name":"Tigaraksa","time":5,"station_id":"TGS","line":6,"i_long":106.425991,"i_lat":-6.328533}],[{"distance":0,"i_long":106.922662,"transit":false,"i_lat":-6.215568,"is_transit":false,"station_name":"Buaran","time":0,"station_id":"BUA","line":1},{"i_long":106.899548,"distance":3100,"transit":false,"station_name":"Klender","station_id":"KLD","i_lat":-6.2135,"time":2,"line":1,"is_transit":false},{"time":3,"station_id":"JNG","i_long":106.86807400000001,"is_transit":true,"station_name":"Jatinegara","i_lat":-6.215091,"transit":true,"distance":3395,"line":1},{"i_long":106.861737,"station_id":"POK","time":2,"distance":1236,"line":11,"transit":false,"is_transit":false,"station_name":"Pondok Jati","i_lat":-6.209188},{"distance":1829,"station_id":"KMT","i_lat":-6.193792,"transit":false,"station_name":"Kramat","time":2,"line":11,"i_long":106.855437,"is_transit":false},{"time":1,"i_lat":-6.185975,"station_name":"Gang Sentiong","is_transit":false,"distance":973,"station_id":"GST","i_long":106.850107,"line":11,"transit":false},{"distance":1567,"station_name":"Pasar Senen","station_id":"PSE","i_long":106.84368,"i_lat":-6.174784,"line":11,"is_transit":false,"transit":false,"time":8},{"station_id":"KMO","i_lat":-6.161728,"transit":false,"line":11,"station_name":"Kemayoran","distance":1436,"is_transit":false,"time":4,"i_long":106.839204},{"distance":1901,"line":11,"is_transit":false,"station_id":"RJW","transit":false,"station_name":"Rajawali","i_lat":-6.14505,"time":5,"i_long":106.836569},{"station_id":"KPB","i_long":106.826365,"time":3,"line":4,"i_lat":-6.132549,"is_transit":true,"station_name":"Kampung Bandan","distance":1444,"transit":true},{"distance":1364,"is_transit":true,"station_id":"JAKK","i_long":106.812439,"line":2,"transit":true,"i_lat":-6.137569,"station_name":"Jakarta Kota","time":3},{"station_id":"JAY","station_name":"Jayakarta","distance":1264,"transit":false,"time":4,"i_lat":-6.141205,"i_long":106.820901,"line":2,"is_transit":false},{"transit":false,"i_lat":-6.149769,"distance":1080,"i_long":106.82482,"line":2,"is_transit":false,"time":2,"station_id":"MGB","station_name":"Manggabesar"},{"is_transit":false,"transit":false,"i_lat":-6.160725,"station_name":"Sawah Besar","distance":906,"time":2,"i_long":106.827103,"line":2,"station_id":"SW"},{"station_name":"Juanda","i_long":106.828284,"line":2,"station_id":"JUA","distance":1149,"transit":false,"time":2,"i_lat":-6.166716,"is_transit":false},{"transit":false,"is_transit":false,"distance":2015,"line":2,"i_lat":-6.186295,"time":4,"station_id":"GDD","i_long":106.832183,"station_name":"Gondangdia"},{"time":3,"i_lat":-6.198556,"i_long":106.840169,"distance":1750,"station_name":"Cikini","line":2,"station_id":"CKI","transit":false,"is_transit":false},{"line":2,"is_transit":true,"time":4,"transit":true,"i_lat":-6.209883,"i_long":106.84912,"station_name":"Manggarai","distance":1590,"station_id":"MRI"},{"transit":false,"station_id":"SUD","line":1,"distance":3186,"i_lat":-6.202263,"i_long":106.822649,"is_transit":false,"time":4,"station_name":"Sudirman"},{"time":1,"station_id":"SUDB","line":1,"transit":false,"is_transit":false,"i_lat":-6.201433,"i_long":106.819881,"station_name":"Sudirman Baru","distance":280},{"station_name":"Karet","is_transit":false,"distance":471,"transit":false,"station_id":"KAT","i_lat":-6.20132,"line":1,"time":1,"i_long":106.816351},{"station_name":"Tanah Abang","transit":true,"station_id":"THB","distance":2029,"i_lat":-6.185545,"i_long":106.811091,"line":1,"is_transit":true,"time":5},{"i_long":106.79689,"distance":3191,"transit":false,"line":6,"station_id":"PLM","is_transit":false,"station_name":"Palmerah","i_lat":-6.207404,"time":6},{"line":6,"is_transit":false,"distance":3737,"i_lat":-6.237242,"station_name":"Kebayoran","station_id":"KBY","transit":false,"time":7,"i_long":106.780334},{"i_long":106.74273,"is_transit":false,"transit":false,"station_name":"Pondokranji","time":8,"station_id":"PDJ","distance":6218,"i_lat":-6.276362,"line":6},{"is_transit":false,"station_name":"Jurangmangu","i_lat":-6.288927,"distance":2179,"i_long":106.728916,"line":6,"transit":false,"station_id":"JMU","time":3},{"transit":false,"station_name":"Sudimara","station_id":"SDM","i_lat":-6.296963,"time":4,"is_transit":false,"distance":1994,"i_long":106.712277,"line":6},{"is_transit":false,"distance":4566,"time":6,"transit":false,"line":6,"station_id":"RU","i_lat":-6.314823,"station_name":"Rawa Buntu","i_long":106.675475},{"is_transit":false,"time":4,"line":6,"transit":false,"station_name":"Serpong","station_id":"SRP","i_long":106.66566,"i_lat":-6.319871,"distance":2413},{"station_name":"Cisauk","distance":1784,"transit":false,"is_transit":false,"time":4,"station_id":"CSK","i_lat":-6.32484,"i_long":106.640411,"line":3},{"time":4,"station_name":"Cicayur","distance":2519,"station_id":"CC","is_transit":false,"i_lat":-6.329547,"i_long":106.617853,"line":3,"transit":false},{"time":8,"distance":5968,"is_transit":false,"transit":false,"station_name":"Parung Panjang","station_id":"PRP","i_lat":-6.3441410000000005,"line":6,"i_long":106.568863},{"time":9,"i_long":106.508482,"i_lat":-6.354349,"is_transit":false,"station_name":"Cilejit","line":3,"distance":7025,"station_id":"CJT","transit":false},{"time":6,"transit":false,"is_transit":false,"distance":2675,"station_id":"DAR","station_name":"Daru","line":0,"i_long":106.491338,"i_lat":-6.338021},{"station_name":"Tenjo","time":5,"is_transit":false,"i_lat":-6.327251,"i_long":106.460812,"distance":3902,"line":6,"transit":false,"station_id":"TEJ"},{"line":6,"station_id":"TGS","transit":false,"is_transit":false,"i_long":106.425991,"i_lat":-6.328533,"station_name":"Tigaraksa","distance":2974,"time":5}]]}