{"data":[[{"i_lat":-6.215568,"line":1,"transit":false,"distance":0,"station_id":"BUA","station_name":"Buaran","i_long":106.922662,"time":0,"is_transit":false},{"transit":false,"is_transit":false,"time":2,"station_name":"Klender","line":1,"distance":3100,"station_id":"KLD","i_lat":-6.2135,"i_long":106.899548},{"i_lat":-6.215091,"distance":3395,"is_transit":false,"i_long":106.86807400000001,"transit":false,"line":1,"station_id":"JNG","time":3,"station_name":"Jatinegara"},{"station_id":"MTR","line":1,"station_name":"Matraman","i_lat":-6.212485,"transit":false,"is_transit":false,"time":2,"distance":1377,"i_long":106.858896},{"transit":true,"i_lat":-6.209883,"i_long":106.84912,"station_id":"MRI","station_name":"Manggarai","line":2,"is_transit":true,"distance":1275,"time":2},{"i_lat":-6.226659,"line":2,"is_transit":false,"transit":false,"station_id":"TEB","station_name":"Tebet","time":4,"distance":2610,"i_long":106.857948},{"station_name":"Cawang","i_long":106.856607,"station_id":"CW","transit":false,"i_lat":-6.242512,"time":2,"distance":1230,"is_transit":false,"line":2},{"time":3,"station_name":"Duren Kalibata","station_id":"DRN","distance":1546,"is_transit":false,"i_long":106.85449,"i_lat":-6.255332,"transit":false,"line":2},{"is_transit":false,"station_name":"Pasar Minggu Baru","i_lat":-6.263214,"line":2,"transit":false,"distance":824,"station_id":"PSMB","time":2,"i_long":106.851577},{"i_long":106.843999,"distance":2380,"is_transit":false,"i_lat":-6.2842400000000005,"station_id":"PSM","time":2,"station_name":"Pasar Minggu","transit":false,"line":2},{"distance":2820,"transit":false,"is_transit":false,"station_name":"Tanjung Barat","i_long":106.838896,"station_id":"TNT","i_lat":-6.3080680000000005,"line":2,"time":4}],[{"is_transit":false,"line":1,"transit":false,"i_long":106.922662,"distance":0,"time":0,"station_id":"BUA","station_name":"Buaran","i_lat":-6.215568},{"station_name":"Klender","i_lat":-6.2135,"i_long":106.899548,"line":1,"station_id":"KLD","transit":false,"distance":3100,"is_transit":false,"time":2},{"line":1,"station_name":"Jatinegara","station_id":"JNG","time":3,"i_lat":-6.215091,"distance":3395,"transit":true,"i_long":106.86807400000001,"is_transit":true},{"is_transit":false,"line":11,"i_long":106.861737,"i_lat":-6.209188,"station_name":"Pondok Jati","transit":false,"station_id":"POK","distance":1236,"time":2},{"distance":1829,"station_id":"KMT","transit":false,"is_transit":false,"i_long":106.855437,"time":2,"station_name":"Kramat","line":11,"i_lat":-6.193792},{"distance":973,"i_long":106.850107,"transit":false,"line":11,"station_name":"Gang Sentiong","is_transit":false,"i_lat":-6.185975,"station_id":"GST","time":1},{"station_name":"Pasar Senen","station_id":"PSE","transit":false,"i_lat":-6.174784,"is_transit":false,"line":11,"distance":1567,"i_long":106.84368,"time":8},{"time":4,"is_transit":false,"line":11,"station_name":"Kemayoran","transit":false,"station_id":"KMO","distance":1436,"i_lat":-6.161728,"i_long":106.839204},{"line":11,"station_id":"RJW","station_name":"Rajawali","i_long":106.836569,"is_transit":false,"distance":1901,"i_lat":-6.14505,"transit":false,"time":5},{"distance":1444,"time":3,"transit":true,"station_id":"KPB","i_long":106.826365,"is_transit":true,"i_lat":-6.132549,"line":4,"station_name":"Kampung Bandan"},{"station_name":"Angke","time":9,"transit":false,"distance":4102,"is_transit":false,"i_long":106.79867,"line":1,"station_id":"AK","i_lat":-6.144674},{"i_lat":-6.155215,"line":1,"station_name":"Duri","distance":1230,"time":4,"i_long":106.800832,"is_transit":false,"station_id":"DU","transit":false},{"is_transit":false,"time":8,"i_lat":-6.185545,"i_long":106.811091,"distance":3632,"line":1,"station_name":"Tanah Abang","station_id":"THB","transit":false},{"distance":2029,"transit":false,"is_transit":false,"station_id":"KAT","line":1,"time":5,"i_lat":-6.20132,"i_long":106.816351,"station_name":"Karet"},{"transit":false,"i_lat":-6.201433,"line":1,"is_transit":false,"station_name":"Sudirman Baru","i_long":106.819881,"distance":471,"station_id":"SUDB","time":1},{"time":1,"station_id":"SUD","distance":280,"transit":false,"is_transit":false,"station_name":"Sudirman","i_lat":-6.202263,"i_long":106.822649,"line":1},{"line":2,"is_transit":true,"distance":3186,"i_lat":-6.209883,"time":4,"transit":true,"i_long":106.84912,"station_id":"MRI","station_name":"Manggarai"},{"is_transit":false,"line":2,"station_id":"TEB","time":4,"distance":2610,"i_long":106.857948,"i_lat":-6.226659,"transit":false,"station_name":"Tebet"},{"distance":1230,"station_name":"Cawang","time":2,"i_long":106.856607,"i_lat":-6.242512,"is_transit":false,"line":2,"station_id":"CW","transit":false},{"station_name":"Duren Kalibata","is_transit":false,"i_long":106.85449,"distance":1546,"station_id":"DRN","transit":false,"line":2,"i_lat":-6.255332,"time":3},{"distance":824,"line":2,"transit":false,"station_name":"Pasar Minggu Baru","station_id":"PSMB","time":2,"is_transit":false,"i_lat":-6.263214,"i_long":106.851577},{"i_lat":-6.2842400000000005,"transit":false,"line":2,"station_name":"Pasar Minggu","distance":2380,"is_transit":false,"i_long":106.843999,"station_id":"PSM","time":2},{"i_long":106.838896,"is_transit":false,"transit":false,"distance":2820,"station_name":"Tanjung Barat","station_id":"TNT","time":4,"i_lat":-6.3080680000000005,"line":2}],[{"station_name":"Buaran","is_transit":false,"transit":false,"i_long":106.922662,"distance":0,"line":1,"station_id":"BUA","i_lat":-6.215568,"time":0},{"station_name":"Klender","i_lat":-6.2135,"line":1,"distance":3100,"is_transit":false,"i_long":106.899548,"station_id":"KLD","time":2,"transit":false},{"time":3,"transit":true,"distance":3395,"station_name":"Jatinegara","is_transit":true,"i_lat":-6.215091,"i_long":106.86807400000001,"line":1,"station_id":"JNG"},{"is_transit":false,"station_id":"POK","transit":false,"distance":1236,"station_name":"Pondok Jati","i_lat":-6.209188,"time":2,"i_long":106.861737,"line":11},{"station_id":"KMT","transit":false,"i_long":106.855437,"distance":1829,"line":11,"station_name":"Kramat","i_lat":-6.193792,"time":2,"is_transit":false},{"i_lat":-6.185975,"i_long":106.850107,"line":11,"distance":973,"time":1,"station_id":"GST","transit":false,"station_name":"Gang Sentiong","is_transit":false},{"station_id":"PSE","station_name":"Pasar Senen","i_lat":-6.174784,"i_long":106.84368,"time":8,"transit":false,"distance":1567,"line":11,"is_transit":false},{"i_long":106.839204,"transit":false,"time":4,"distance":1436,"i_lat":-6.161728,"line":11,"station_id":"KMO","is_transit":false,"station_name":"Kemayoran"},{"i_long":106.836569,"is_transit":false,"distance":1901,"i_lat":-6.14505,"line":11,"station_name":"Rajawali","time":5,"transit":false,"station_id":"RJW"},{"station_name":"Kampung Bandan","i_long":106.826365,"i_lat":-6.132549,"time":3,"transit":true,"distance":1444,"is_transit":true,"line":4,"station_id":"KPB"},{"time":3,"is_transit":true,"i_long":106.812439,"station_name":"Jakarta Kota","transit":true,"distance":1364,"station_id":"JAKK","i_lat":-6.137569,"line":2},{"i_long":106.820901,"line":2,"distance":1264,"i_lat":-6.141205,"time":4,"is_transit":false,"transit":false,"station_name":"Jayakarta","station_id":"JAY"},{"time":2,"transit":false,"is_transit":false,"distance":1080,"i_lat":-6.149769,"line":2,"i_long":106.82482,"station_name":"Manggabesar","station_id":"MGB"},{"transit":false,"is_transit":false,"i_long":106.827103,"line":2,"station_id":"SW","station_name":"Sawah Besar","distance":906,"i_lat":-6.160725,"time":2},{"is_transit":false,"i_lat":-6.166716,"i_long":106.828284,"transit":false,"time":2,"distance":1149,"station_name":"Juanda","line":2,"station_id":"JUA"},{"transit":false,"i_lat":-6.186295,"station_id":"GDD","time":4,"i_long":106.832183,"is_transit":false,"distance":2015,"line":2,"station_name":"Gondangdia"},{"line":2,"station_name":"Cikini","distance":1750,"is_transit":false,"time":3,"i_lat":-6.198556,"transit":false,"i_long":106.840169,"station_id":"CKI"},{"station_id":"MRI","distance":1590,"time":4,"line":2,"is_transit":false,"station_name":"Manggarai","i_lat":-6.209883,"transit":false,"i_long":106.84912},{"i_lat":-6.226659,"i_long":106.857948,"station_name":"Tebet","distance":2610,"transit":false,"line":2,"time":4,"station_id":"TEB","is_transit":false},{"distance":1230,"time":2,"transit":false,"is_transit":false,"station_name":"Cawang","i_lat":-6.242512,"station_id":"CW","i_long":106.856607,"line":2},{"is_transit":false,"station_name":"Duren Kalibata","line":2,"distance":1546,"i_lat":-6.255332,"station_id":"DRN","transit":false,"i_long":106.85449,"time":3},{"i_lat":-6.263214,"i_long":106.851577,"station_id":"PSMB","is_transit":false,"transit":false,"time":2,"line":2,"station_name":"Pasar Minggu Baru","distance":824},{"line":2,"i_lat":-6.2842400000000005,"time":2,"i_long":106.843999,"transit":false,"station_id":"PSM","distance":2380,"is_transit":false,"station_name":"Pasar Minggu"},{"line":2,"time":4,"transit":false,"station_name":"Tanjung Barat","is_transit":false,"i_lat":-6.3080680000000005,"distance":2820,"i_long":106.838896,"station_id":"TNT"}]]}