{"data":[[{"station_id":"BUA","is_transit":false,"i_lat":-6.215568,"line":1,"distance":0,"station_name":"Buaran","i_long":106.922662,"time":0,"transit":false},{"i_lat":-6.2135,"i_long":106.899548,"is_transit":false,"line":1,"station_id":"KLD","time":2,"distance":3100,"transit":false,"station_name":"Klender"},{"is_transit":false,"station_id":"JNG","i_long":106.86807400000001,"distance":3395,"line":1,"transit":false,"i_lat":-6.215091,"station_name":"Jatinegara","time":3},{"line":1,"station_name":"Matraman","time":2,"i_long":106.858896,"transit":false,"station_id":"MTR","is_transit":false,"i_lat":-6.212485,"distance":1377},{"i_long":106.84912,"station_name":"Manggarai","station_id":"MRI","line":2,"transit":true,"i_lat":-6.209883,"is_transit":true,"distance":1275,"time":2},{"station_id":"TEB","time":4,"distance":2610,"transit":false,"i_lat":-6.226659,"is_transit":false,"station_name":"Tebet","i_long":106.857948,"line":2},{"is_transit":false,"station_name":"Cawang","distance":1230,"line":2,"station_id":"CW","time":2,"transit":false,"i_lat":-6.242512,"i_long":106.856607}],[{"station_id":"BUA","i_long":106.922662,"transit":false,"distance":0,"time":0,"line":1,"station_name":"Buaran","is_transit":false,"i_lat":-6.215568},{"is_transit":false,"line":1,"transit":false,"station_id":"KLD","time":2,"i_lat":-6.2135,"i_long":106.899548,"distance":3100,"station_name":"Klender"},{"transit":true,"time":3,"station_name":"Jatinegara","i_lat":-6.215091,"line":1,"station_id":"JNG","is_transit":true,"distance":3395,"i_long":106.86807400000001},{"is_transit":false,"line":11,"i_lat":-6.209188,"time":2,"i_long":106.861737,"transit":false,"distance":1236,"station_name":"Pondok Jati","station_id":"POK"},{"station_name":"Kramat","time":2,"station_id":"KMT","i_lat":-6.193792,"line":11,"transit":false,"distance":1829,"i_long":106.855437,"is_transit":false},{"station_name":"Gang Sentiong","line":11,"is_transit":false,"distance":973,"i_lat":-6.185975,"i_long":106.850107,"time":1,"transit":false,"station_id":"GST"},{"station_id":"PSE","distance":1567,"i_lat":-6.174784,"transit":false,"line":11,"station_name":"Pasar Senen","is_transit":false,"time":8,"i_long":106.84368},{"transit":false,"i_lat":-6.161728,"time":4,"station_name":"Kemayoran","line":11,"distance":1436,"i_long":106.839204,"station_id":"KMO","is_transit":false},{"is_transit":false,"transit":false,"i_lat":-6.14505,"i_long":106.836569,"line":11,"time":5,"station_id":"RJW","station_name":"Rajawali","distance":1901},{"time":3,"i_long":106.826365,"line":4,"i_lat":-6.132549,"station_id":"KPB","station_name":"Kampung Bandan","is_transit":true,"distance":1444,"transit":true},{"distance":4102,"i_long":106.79867,"is_transit":false,"transit":false,"station_name":"Angke","station_id":"AK","time":9,"i_lat":-6.144674,"line":1},{"line":1,"station_name":"Duri","i_long":106.800832,"transit":false,"distance":1230,"station_id":"DU","is_transit":false,"time":4,"i_lat":-6.155215},{"i_long":106.811091,"station_name":"Tanah Abang","station_id":"THB","is_transit":false,"line":1,"i_lat":-6.185545,"distance":3632,"time":8,"transit":false},{"time":5,"i_lat":-6.20132,"station_name":"Karet","line":1,"is_transit":false,"i_long":106.816351,"transit":false,"station_id":"KAT","distance":2029},{"station_id":"SUDB","i_lat":-6.201433,"transit":false,"distance":471,"line":1,"time":1,"is_transit":false,"station_name":"Sudirman Baru","i_long":106.819881},{"i_long":106.822649,"station_id":"SUD","line":1,"time":1,"distance":280,"i_lat":-6.202263,"station_name":"Sudirman","is_transit":false,"transit":false},{"i_lat":-6.209883,"station_name":"Manggarai","transit":true,"i_long":106.84912,"line":2,"time":4,"distance":3186,"is_transit":true,"station_id":"MRI"},{"time":4,"station_name":"Tebet","station_id":"TEB","distance":2610,"i_lat":-6.226659,"i_long":106.857948,"is_transit":false,"line":2,"transit":false},{"is_transit":false,"station_name":"Cawang","time":2,"line":2,"i_lat":-6.242512,"i_long":106.856607,"distance":1230,"transit":false,"station_id":"CW"}],[{"station_id":"BUA","transit":false,"station_name":"Buaran","is_transit":false,"distance":0,"line":1,"i_long":106.922662,"time":0,"i_lat":-6.215568},{"i_long":106.899548,"time":2,"station_name":"Klender","line":1,"distance":3100,"i_lat":-6.2135,"station_id":"KLD","transit":false,"is_transit":false},{"station_id":"JNG","transit":true,"distance":3395,"is_transit":true,"station_name":"Jatinegara","i_lat":-6.215091,"line":1,"i_long":106.86807400000001,"time":3},{"station_id":"POK","station_name":"Pondok Jati","distance":1236,"i_lat":-6.209188,"transit":false,"time":2,"i_long":106.861737,"line":11,"is_transit":false},{"distance":1829,"i_lat":-6.193792,"i_long":106.855437,"is_transit":false,"line":11,"station_id":"KMT","transit":false,"time":2,"station_name":"Kramat"},{"station_name":"Gang Sentiong","is_transit":false,"line":11,"time":1,"i_lat":-6.185975,"i_long":106.850107,"transit":false,"distance":973,"station_id":"GST"},{"i_long":106.84368,"time":8,"distance":1567,"station_name":"Pasar Senen","is_transit":false,"line":11,"transit":false,"i_lat":-6.174784,"station_id":"PSE"},{"i_long":106.839204,"line":11,"distance":1436,"transit":false,"is_transit":false,"time":4,"station_id":"KMO","i_lat":-6.161728,"station_name":"Kemayoran"},{"time":5,"station_id":"RJW","i_lat":-6.14505,"is_transit":false,"station_name":"Rajawali","line":11,"i_long":106.836569,"transit":false,"distance":1901},{"line":4,"station_id":"KPB","station_name":"Kampung Bandan","is_transit":true,"i_long":106.826365,"time":3,"distance":1444,"transit":true,"i_lat":-6.132549},{"station_name":"Jakarta Kota","i_long":106.812439,"is_transit":true,"distance":1364,"i_lat":-6.137569,"station_id":"JAKK","time":3,"transit":true,"line":2},{"transit":false,"station_id":"JAY","i_lat":-6.141205,"distance":1264,"is_transit":false,"time":4,"station_name":"Jayakarta","i_long":106.820901,"line":2},{"is_transit":false,"transit":false,"time":2,"i_long":106.82482,"line":2,"i_lat":-6.149769,"station_name":"Manggabesar","station_id":"MGB","distance":1080},{"time":2,"transit":false,"is_transit":false,"i_long":106.827103,"station_name":"Sawah Besar","station_id":"SW","distance":906,"i_lat":-6.160725,"line":2},{"transit":false,"station_name":"Juanda","station_id":"JUA","distance":1149,"time":2,"i_long":106.828284,"is_transit":false,"line":2,"i_lat":-6.166716},{"station_name":"Gondangdia","is_transit":false,"station_id":"GDD","distance":2015,"line":2,"time":4,"i_long":106.832183,"transit":false,"i_lat":-6.186295},{"station_name":"Cikini","i_lat":-6.198556,"station_id":"CKI","is_transit":false,"line":2,"time":3,"distance":1750,"i_long":106.840169,"transit":false},{"i_long":106.84912,"line":2,"distance":1590,"transit":false,"station_name":"Manggarai","station_id":"MRI","is_transit":false,"time":4,"i_lat":-6.209883},{"distance":2610,"time":4,"is_transit":false,"i_lat":-6.226659,"station_name":"Tebet","i_long":106.857948,"transit":false,"line":2,"station_id":"TEB"},{"time":2,"i_long":106.856607,"line":2,"i_lat":-6.242512,"station_name":"Cawang","transit":false,"station_id":"CW","distance":1230,"is_transit":false}]]}