{"data":[[{"is_transit":false,"time":0,"station_name":"Cibinong","i_lat":-6.46424,"transit":false,"distance":0,"i_long":106.851978,"station_id":"CBN","line":21},{"time":0,"station_id":"PDRG","is_transit":false,"i_long":106.824374,"station_name":"Pondok Rajeg","line":21,"distance":0,"transit":false,"i_lat":-6.460735},{"line":2,"time":0,"station_id":"CTA","distance":0,"is_transit":true,"transit":true,"station_name":"Citayam","i_long":106.800298,"i_lat":-6.448811},{"station_name":"Depok","distance":5084,"transit":false,"i_lat":-6.405256,"line":2,"i_long":106.816926,"station_id":"DP","is_transit":false,"time":6},{"i_long":106.819451,"time":3,"station_name":"Depokbaru","station_id":"DPB","line":2,"distance":1584,"transit":false,"i_lat":-6.391065,"is_transit":false},{"line":2,"station_id":"POC","station_name":"Pondok Cina","time":4,"i_long":106.831114,"transit":false,"i_lat":-6.369073,"distance":2727,"is_transit":false},{"i_lat":-6.360749,"i_long":106.831474,"line":2,"transit":false,"is_transit":false,"station_name":"Univ. Indonesia","time":2,"distance":1109,"station_id":"UI"},{"time":3,"transit":false,"i_long":106.834175,"i_lat":-6.339291,"is_transit":false,"station_name":"Univ. Pancasila","distance":2264,"station_id":"UP","line":2},{"is_transit":false,"i_lat":-6.330363,"distance":1029,"time":2,"i_long":106.832616,"transit":false,"line":2,"station_id":"LNA","station_name":"Lenteng Agung"},{"transit":false,"time":3,"i_long":106.838896,"is_transit":false,"line":2,"i_lat":-6.3080680000000005,"distance":2671,"station_id":"TNT","station_name":"Tanjung Barat"},{"is_transit":false,"station_name":"Pasar Minggu","line":2,"transit":false,"i_lat":-6.2842400000000005,"i_long":106.843999,"time":4,"station_id":"PSM","distance":2820},{"station_id":"PSMB","i_long":106.851577,"time":2,"station_name":"Pasar Minggu Baru","transit":false,"distance":2380,"line":2,"is_transit":false,"i_lat":-6.263214},{"i_lat":-6.255332,"station_id":"DRN","i_long":106.85449,"transit":false,"line":2,"distance":824,"time":2,"station_name":"Duren Kalibata","is_transit":false},{"i_lat":-6.242512,"station_id":"CW","i_long":106.856607,"time":3,"transit":false,"line":2,"distance":1546,"station_name":"Cawang","is_transit":false},{"line":2,"time":2,"is_transit":false,"i_lat":-6.226659,"station_id":"TEB","transit":false,"i_long":106.857948,"distance":1230,"station_name":"Tebet"},{"i_long":106.84912,"time":4,"station_id":"MRI","is_transit":true,"station_name":"Manggarai","distance":2610,"line":2,"i_lat":-6.209883,"transit":true},{"station_id":"SUD","distance":3186,"i_long":106.822649,"transit":false,"time":4,"i_lat":-6.202263,"line":1,"station_name":"Sudirman","is_transit":false},{"station_name":"Sudirman Baru","station_id":"SUDB","is_transit":false,"i_long":106.819881,"line":1,"distance":280,"time":1,"transit":false,"i_lat":-6.201433},{"station_name":"Karet","is_transit":false,"distance":471,"transit":false,"time":1,"i_lat":-6.20132,"i_long":106.816351,"line":1,"station_id":"KAT"},{"i_lat":-6.185545,"transit":false,"station_id":"THB","time":5,"distance":2029,"station_name":"Tanah Abang","is_transit":false,"i_long":106.811091,"line":1},{"station_id":"DU","station_name":"Duri","time":8,"line":1,"i_lat":-6.155215,"distance":3632,"i_long":106.800832,"transit":true,"is_transit":true},{"station_id":"GGL","i_lat":-6.162021,"is_transit":false,"station_name":"Grogol","time":3,"i_long":106.788277,"line":5,"transit":false,"distance":1700},{"time":2,"is_transit":false,"distance":2036,"line":5,"i_lat":-6.161433,"transit":false,"station_id":"PSG","i_long":106.771379,"station_name":"Pesing"}],[{"time":0,"i_lat":-6.46424,"i_long":106.851978,"line":21,"transit":false,"station_name":"Cibinong","is_transit":false,"distance":0,"station_id":"CBN"},{"i_long":106.824374,"transit":false,"time":0,"station_name":"Pondok Rajeg","station_id":"PDRG","is_transit":false,"i_lat":-6.460735,"line":21,"distance":0},{"i_long":106.800298,"line":2,"station_name":"Citayam","transit":true,"is_transit":true,"station_id":"CTA","i_lat":-6.448811,"time":0,"distance":0},{"i_lat":-6.405256,"time":6,"distance":5084,"station_id":"DP","line":2,"transit":false,"station_name":"Depok","i_long":106.816926,"is_transit":false},{"distance":1584,"i_long":106.819451,"station_id":"DPB","time":3,"station_name":"Depokbaru","line":2,"transit":false,"i_lat":-6.391065,"is_transit":false},{"i_lat":-6.369073,"station_name":"Pondok Cina","distance":2727,"is_transit":false,"line":2,"transit":false,"station_id":"POC","time":4,"i_long":106.831114},{"i_lat":-6.360749,"time":2,"transit":false,"i_long":106.831474,"station_name":"Univ. Indonesia","station_id":"UI","line":2,"distance":1109,"is_transit":false},{"station_id":"UP","i_lat":-6.339291,"time":3,"is_transit":false,"distance":2264,"line":2,"transit":false,"i_long":106.834175,"station_name":"Univ. Pancasila"},{"is_transit":false,"transit":false,"station_id":"LNA","i_long":106.832616,"time":2,"distance":1029,"line":2,"station_name":"Lenteng Agung","i_lat":-6.330363},{"station_name":"Tanjung Barat","is_transit":false,"distance":2671,"i_lat":-6.3080680000000005,"time":3,"line":2,"i_long":106.838896,"transit":false,"station_id":"TNT"},{"time":4,"is_transit":false,"i_lat":-6.2842400000000005,"distance":2820,"i_long":106.843999,"transit":false,"line":2,"station_name":"Pasar Minggu","station_id":"PSM"},{"line":2,"station_id":"PSMB","distance":2380,"time":2,"transit":false,"i_lat":-6.263214,"i_long":106.851577,"station_name":"Pasar Minggu Baru","is_transit":false},{"line":2,"station_id":"DRN","distance":824,"i_lat":-6.255332,"i_long":106.85449,"time":2,"transit":false,"is_transit":false,"station_name":"Duren Kalibata"},{"transit":false,"station_name":"Cawang","time":3,"station_id":"CW","is_transit":false,"i_long":106.856607,"distance":1546,"line":2,"i_lat":-6.242512},{"is_transit":false,"line":2,"time":2,"distance":1230,"i_lat":-6.226659,"i_long":106.857948,"station_name":"Tebet","transit":false,"station_id":"TEB"},{"line":2,"station_name":"Manggarai","distance":2610,"i_lat":-6.209883,"i_long":106.84912,"station_id":"MRI","is_transit":false,"time":4,"transit":false},{"time":4,"i_long":106.840169,"station_name":"Cikini","is_transit":false,"station_id":"CKI","transit":false,"distance":1590,"i_lat":-6.198556,"line":2},{"i_lat":-6.186295,"distance":1750,"station_name":"Gondangdia","i_long":106.832183,"time":3,"station_id":"GDD","is_transit":false,"line":2,"transit":false},{"transit":false,"i_long":106.828284,"station_name":"Juanda","i_lat":-6.166716,"is_transit":false,"line":2,"station_id":"JUA","distance":2015,"time":4},{"i_lat":-6.160725,"station_name":"Sawah Besar","distance":1149,"transit":false,"line":2,"is_transit":false,"time":2,"i_long":106.827103,"station_id":"SW"},{"is_transit":false,"i_lat":-6.149769,"i_long":106.82482,"transit":false,"time":2,"station_id":"MGB","distance":906,"line":2,"station_name":"Manggabesar"},{"distance":1080,"is_transit":false,"station_id":"JAY","station_name":"Jayakarta","time":2,"line":2,"i_lat":-6.141205,"transit":false,"i_long":106.820901},{"is_transit":true,"transit":true,"i_long":106.812439,"station_name":"Jakarta Kota","station_id":"JAKK","line":2,"i_lat":-6.137569,"time":4,"distance":1264},{"transit":true,"station_id":"KPB","is_transit":true,"distance":1364,"time":3,"i_lat":-6.132549,"station_name":"Kampung Bandan","i_long":106.826365,"line":4},{"line":1,"time":9,"transit":false,"distance":4102,"is_transit":false,"i_lat":-6.144674,"i_long":106.79867,"station_name":"Angke","station_id":"AK"},{"line":1,"station_id":"DU","distance":1230,"time":4,"i_lat":-6.155215,"i_long":106.800832,"station_name":"Duri","is_transit":true,"transit":true},{"i_long":106.788277,"is_transit":false,"station_id":"GGL","distance":1700,"line":5,"station_name":"Grogol","i_lat":-6.162021,"transit":false,"time":3},{"transit":false,"i_lat":-6.161433,"is_transit":false,"i_long":106.771379,"line":5,"time":2,"distance":2036,"station_id":"PSG","station_name":"Pesing"}],[{"station_name":"Cibinong","i_lat":-6.46424,"station_id":"CBN","time":0,"is_transit":false,"transit":false,"distance":0,"i_long":106.851978,"line":21},{"time":0,"transit":false,"i_lat":-6.460735,"station_name":"Pondok Rajeg","distance":0,"station_id":"PDRG","is_transit":false,"line":21,"i_long":106.824374},{"transit":true,"i_long":106.800298,"station_id":"CTA","station_name":"Citayam","time":0,"line":2,"distance":0,"i_lat":-6.448811,"is_transit":true},{"distance":5084,"i_lat":-6.405256,"station_name":"Depok","station_id":"DP","time":6,"line":2,"is_transit":false,"i_long":106.816926,"transit":false},{"transit":false,"i_lat":-6.391065,"line":2,"time":3,"is_transit":false,"station_name":"Depokbaru","station_id":"DPB","distance":1584,"i_long":106.819451},{"distance":2727,"is_transit":false,"station_id":"POC","i_long":106.831114,"station_name":"Pondok Cina","time":4,"transit":false,"i_lat":-6.369073,"line":2},{"is_transit":false,"distance":1109,"transit":false,"station_id":"UI","line":2,"station_name":"Univ. Indonesia","time":2,"i_lat":-6.360749,"i_long":106.831474},{"transit":false,"station_name":"Univ. Pancasila","time":3,"is_transit":false,"distance":2264,"i_long":106.834175,"i_lat":-6.339291,"line":2,"station_id":"UP"},{"line":2,"station_name":"Lenteng Agung","is_transit":false,"i_long":106.832616,"i_lat":-6.330363,"transit":false,"distance":1029,"time":2,"station_id":"LNA"},{"is_transit":false,"distance":2671,"line":2,"time":3,"station_name":"Tanjung Barat","i_long":106.838896,"transit":false,"station_id":"TNT","i_lat":-6.3080680000000005},{"i_lat":-6.2842400000000005,"station_name":"Pasar Minggu","transit":false,"distance":2820,"is_transit":false,"i_long":106.843999,"time":4,"station_id":"PSM","line":2},{"i_lat":-6.263214,"station_name":"Pasar Minggu Baru","i_long":106.851577,"distance":2380,"transit":false,"time":2,"station_id":"PSMB","line":2,"is_transit":false},{"i_long":106.85449,"time":2,"station_name":"Duren Kalibata","is_transit":false,"line":2,"distance":824,"i_lat":-6.255332,"station_id":"DRN","transit":false},{"station_name":"Cawang","time":3,"is_transit":false,"station_id":"CW","i_lat":-6.242512,"distance":1546,"i_long":106.856607,"transit":false,"line":2},{"station_id":"TEB","is_transit":false,"i_lat":-6.226659,"line":2,"distance":1230,"i_long":106.857948,"transit":false,"station_name":"Tebet","time":2},{"station_id":"MRI","station_name":"Manggarai","distance":2610,"is_transit":true,"i_long":106.84912,"line":2,"i_lat":-6.209883,"time":4,"transit":true},{"line":1,"i_lat":-6.212485,"station_name":"Matraman","i_long":106.858896,"transit":false,"is_transit":false,"station_id":"MTR","time":2,"distance":1275},{"i_long":106.86807400000001,"time":8,"station_name":"Jatinegara","i_lat":-6.215091,"is_transit":true,"transit":true,"line":1,"station_id":"JNG","distance":1377},{"station_id":"POK","station_name":"Pondok Jati","i_lat":-6.209188,"i_long":106.861737,"is_transit":false,"transit":false,"time":2,"line":11,"distance":1236},{"i_lat":-6.193792,"is_transit":false,"line":11,"time":2,"i_long":106.855437,"station_id":"KMT","station_name":"Kramat","transit":false,"distance":1829},{"station_name":"Gang Sentiong","time":1,"i_lat":-6.185975,"distance":973,"station_id":"GST","is_transit":false,"line":11,"transit":false,"i_long":106.850107},{"transit":false,"station_id":"PSE","line":11,"distance":1567,"i_lat":-6.174784,"station_name":"Pasar Senen","is_transit":false,"time":8,"i_long":106.84368},{"station_id":"KMO","is_transit":false,"transit":false,"distance":1436,"i_long":106.839204,"line":11,"i_lat":-6.161728,"station_name":"Kemayoran","time":4},{"i_lat":-6.14505,"line":11,"distance":1901,"station_name":"Rajawali","transit":false,"time":5,"station_id":"RJW","i_long":106.836569,"is_transit":false},{"station_name":"Kampung Bandan","i_lat":-6.132549,"line":4,"transit":true,"time":3,"i_long":106.826365,"station_id":"KPB","is_transit":true,"distance":1444},{"i_lat":-6.144674,"distance":4102,"time":9,"i_long":106.79867,"line":1,"station_id":"AK","is_transit":false,"station_name":"Angke","transit":false},{"station_name":"Duri","is_transit":true,"time":4,"i_lat":-6.155215,"line":1,"distance":1230,"i_long":106.800832,"station_id":"DU","transit":true},{"transit":false,"i_lat":-6.162021,"station_name":"Grogol","line":5,"station_id":"GGL","i_long":106.788277,"is_transit":false,"distance":1700,"time":3},{"transit":false,"is_transit":false,"i_lat":-6.161433,"distance":2036,"station_id":"PSG","station_name":"Pesing","i_long":106.771379,"time":2,"line":5}]]}