{"data":[[{"transit":false,"station_name":"Cibinong","i_lat":-6.46424,"line":21,"distance":0,"i_long":106.851978,"is_transit":false,"time":0,"station_id":"CBN"},{"station_id":"PDRG","distance":0,"transit":false,"i_lat":-6.460735,"line":21,"is_transit":false,"station_name":"Pondok Rajeg","time":0,"i_long":106.824374},{"is_transit":true,"time":0,"line":2,"transit":true,"station_id":"CTA","i_long":106.800298,"i_lat":-6.448811,"distance":0,"station_name":"Citayam"},{"line":2,"i_long":106.816926,"station_id":"DP","distance":5084,"station_name":"Depok","time":6,"i_lat":-6.405256,"transit":false,"is_transit":false},{"is_transit":false,"station_name":"Depokbaru","transit":false,"distance":1584,"time":3,"i_long":106.819451,"line":2,"station_id":"DPB","i_lat":-6.391065},{"distance":2727,"i_long":106.831114,"station_name":"Pondok Cina","line":2,"is_transit":false,"time":4,"station_id":"POC","transit":false,"i_lat":-6.369073},{"line":2,"transit":false,"distance":1109,"station_name":"Univ. Indonesia","time":2,"i_long":106.831474,"i_lat":-6.360749,"station_id":"UI","is_transit":false},{"station_id":"UP","i_lat":-6.339291,"i_long":106.834175,"time":3,"station_name":"Univ. Pancasila","is_transit":false,"distance":2264,"line":2,"transit":false},{"is_transit":false,"i_lat":-6.330363,"station_id":"LNA","station_name":"Lenteng Agung","transit":false,"time":2,"line":2,"i_long":106.832616,"distance":1029},{"distance":2671,"station_id":"TNT","i_lat":-6.3080680000000005,"i_long":106.838896,"time":3,"line":2,"station_name":"Tanjung Barat","transit":false,"is_transit":false},{"i_lat":-6.2842400000000005,"i_long":106.843999,"distance":2820,"station_name":"Pasar Minggu","line":2,"transit":false,"time":4,"station_id":"PSM","is_transit":false},{"distance":2380,"is_transit":false,"station_id":"PSMB","time":2,"line":2,"transit":false,"i_lat":-6.263214,"i_long":106.851577,"station_name":"Pasar Minggu Baru"},{"is_transit":false,"station_id":"DRN","station_name":"Duren Kalibata","i_long":106.85449,"time":2,"distance":824,"transit":false,"line":2,"i_lat":-6.255332},{"transit":false,"i_long":106.856607,"is_transit":false,"station_name":"Cawang","line":2,"i_lat":-6.242512,"time":3,"distance":1546,"station_id":"CW"},{"is_transit":false,"station_name":"Tebet","transit":false,"i_lat":-6.226659,"time":2,"distance":1230,"line":2,"i_long":106.857948,"station_id":"TEB"},{"station_id":"MRI","transit":true,"station_name":"Manggarai","i_long":106.84912,"distance":2610,"line":2,"i_lat":-6.209883,"is_transit":true,"time":4},{"station_id":"SUD","i_long":106.822649,"station_name":"Sudirman","transit":false,"i_lat":-6.202263,"time":4,"line":1,"is_transit":false,"distance":3186}],[{"i_long":106.851978,"time":0,"line":21,"distance":0,"is_transit":false,"station_id":"CBN","station_name":"Cibinong","i_lat":-6.46424,"transit":false},{"line":21,"station_name":"Pondok Rajeg","time":0,"station_id":"PDRG","transit":false,"distance":0,"i_lat":-6.460735,"i_long":106.824374,"is_transit":false},{"time":0,"transit":true,"line":2,"i_long":106.800298,"station_id":"CTA","i_lat":-6.448811,"is_transit":true,"distance":0,"station_name":"Citayam"},{"line":2,"distance":5084,"station_id":"DP","transit":false,"station_name":"Depok","i_lat":-6.405256,"time":6,"i_long":106.816926,"is_transit":false},{"line":2,"i_long":106.819451,"transit":false,"station_name":"Depokbaru","is_transit":false,"time":3,"station_id":"DPB","i_lat":-6.391065,"distance":1584},{"distance":2727,"line":2,"station_id":"POC","station_name":"Pondok Cina","time":4,"i_lat":-6.369073,"i_long":106.831114,"transit":false,"is_transit":false},{"is_transit":false,"i_long":106.831474,"station_id":"UI","distance":1109,"time":2,"station_name":"Univ. Indonesia","line":2,"i_lat":-6.360749,"transit":false},{"transit":false,"line":2,"station_name":"Univ. Pancasila","distance":2264,"i_lat":-6.339291,"i_long":106.834175,"station_id":"UP","time":3,"is_transit":false},{"i_long":106.832616,"station_id":"LNA","station_name":"Lenteng Agung","distance":1029,"transit":false,"is_transit":false,"i_lat":-6.330363,"line":2,"time":2},{"distance":2671,"i_long":106.838896,"station_name":"Tanjung Barat","transit":false,"i_lat":-6.3080680000000005,"is_transit":false,"time":3,"line":2,"station_id":"TNT"},{"i_lat":-6.2842400000000005,"distance":2820,"transit":false,"station_name":"Pasar Minggu","i_long":106.843999,"station_id":"PSM","is_transit":false,"time":4,"line":2},{"i_long":106.851577,"distance":2380,"station_id":"PSMB","transit":false,"i_lat":-6.263214,"is_transit":false,"line":2,"time":2,"station_name":"Pasar Minggu Baru"},{"station_id":"DRN","is_transit":false,"i_long":106.85449,"line":2,"i_lat":-6.255332,"time":2,"transit":false,"distance":824,"station_name":"Duren Kalibata"},{"distance":1546,"is_transit":false,"station_name":"Cawang","time":3,"i_lat":-6.242512,"station_id":"CW","transit":false,"i_long":106.856607,"line":2},{"i_long":106.857948,"station_id":"TEB","distance":1230,"station_name":"Tebet","transit":false,"time":2,"line":2,"i_lat":-6.226659,"is_transit":false},{"is_transit":false,"transit":false,"time":4,"station_name":"Manggarai","distance":2610,"i_lat":-6.209883,"i_long":106.84912,"line":2,"station_id":"MRI"},{"time":4,"i_long":106.840169,"line":2,"station_id":"CKI","is_transit":false,"station_name":"Cikini","distance":1590,"transit":false,"i_lat":-6.198556},{"station_id":"GDD","is_transit":false,"transit":false,"station_name":"Gondangdia","time":3,"distance":1750,"i_lat":-6.186295,"i_long":106.832183,"line":2},{"transit":false,"station_name":"Juanda","time":4,"i_lat":-6.166716,"i_long":106.828284,"distance":2015,"is_transit":false,"station_id":"JUA","line":2},{"is_transit":false,"transit":false,"time":2,"line":2,"i_long":106.827103,"distance":1149,"station_name":"Sawah Besar","i_lat":-6.160725,"station_id":"SW"},{"i_lat":-6.149769,"distance":906,"time":2,"station_id":"MGB","is_transit":false,"transit":false,"station_name":"Manggabesar","line":2,"i_long":106.82482},{"i_long":106.820901,"line":2,"is_transit":false,"station_id":"JAY","station_name":"Jayakarta","transit":false,"time":2,"i_lat":-6.141205,"distance":1080},{"i_lat":-6.137569,"line":2,"station_name":"Jakarta Kota","distance":1264,"time":4,"i_long":106.812439,"station_id":"JAKK","is_transit":true,"transit":true},{"station_name":"Kampung Bandan","distance":1364,"i_lat":-6.132549,"line":4,"i_long":106.826365,"is_transit":true,"station_id":"KPB","transit":true,"time":3},{"is_transit":false,"station_id":"AK","transit":false,"time":9,"i_lat":-6.144674,"i_long":106.79867,"line":1,"station_name":"Angke","distance":4102},{"station_name":"Duri","transit":false,"is_transit":false,"i_lat":-6.155215,"line":1,"i_long":106.800832,"station_id":"DU","distance":1230,"time":4},{"station_name":"Tanah Abang","time":8,"i_lat":-6.185545,"station_id":"THB","transit":false,"is_transit":false,"distance":3632,"i_long":106.811091,"line":1},{"time":5,"i_lat":-6.20132,"station_id":"KAT","is_transit":false,"i_long":106.816351,"line":1,"transit":false,"distance":2029,"station_name":"Karet"},{"station_id":"SUDB","distance":471,"line":1,"time":1,"i_long":106.819881,"station_name":"Sudirman Baru","transit":false,"i_lat":-6.201433,"is_transit":false},{"station_name":"Sudirman","i_lat":-6.202263,"distance":280,"is_transit":false,"i_long":106.822649,"transit":false,"time":1,"station_id":"SUD","line":1}],[{"is_transit":false,"station_name":"Cibinong","station_id":"CBN","time":0,"i_long":106.851978,"line":21,"transit":false,"distance":0,"i_lat":-6.46424},{"distance":0,"i_lat":-6.460735,"station_name":"Pondok Rajeg","transit":false,"time":0,"line":21,"station_id":"PDRG","is_transit":false,"i_long":106.824374},{"i_long":106.800298,"station_id":"CTA","station_name":"Citayam","line":2,"time":0,"is_transit":true,"distance":0,"i_lat":-6.448811,"transit":true},{"distance":5084,"station_id":"DP","i_lat":-6.405256,"line":2,"is_transit":false,"time":6,"station_name":"Depok","i_long":106.816926,"transit":false},{"i_lat":-6.391065,"distance":1584,"station_id":"DPB","station_name":"Depokbaru","i_long":106.819451,"line":2,"time":3,"is_transit":false,"transit":false},{"time":4,"transit":false,"line":2,"is_transit":false,"station_id":"POC","distance":2727,"station_name":"Pondok Cina","i_lat":-6.369073,"i_long":106.831114},{"is_transit":false,"station_name":"Univ. Indonesia","station_id":"UI","distance":1109,"time":2,"line":2,"transit":false,"i_lat":-6.360749,"i_long":106.831474},{"i_long":106.834175,"line":2,"time":3,"i_lat":-6.339291,"station_name":"Univ. Pancasila","transit":false,"distance":2264,"station_id":"UP","is_transit":false},{"distance":1029,"station_id":"LNA","transit":false,"station_name":"Lenteng Agung","line":2,"i_lat":-6.330363,"is_transit":false,"time":2,"i_long":106.832616},{"distance":2671,"line":2,"station_id":"TNT","is_transit":false,"time":3,"i_lat":-6.3080680000000005,"i_long":106.838896,"station_name":"Tanjung Barat","transit":false},{"i_lat":-6.2842400000000005,"transit":false,"station_id":"PSM","station_name":"Pasar Minggu","line":2,"is_transit":false,"time":4,"distance":2820,"i_long":106.843999},{"i_long":106.851577,"distance":2380,"station_name":"Pasar Minggu Baru","i_lat":-6.263214,"time":2,"station_id":"PSMB","transit":false,"line":2,"is_transit":false},{"time":2,"line":2,"station_id":"DRN","is_transit":false,"station_name":"Duren Kalibata","transit":false,"i_long":106.85449,"distance":824,"i_lat":-6.255332},{"i_long":106.856607,"line":2,"is_transit":false,"transit":false,"station_id":"CW","station_name":"Cawang","time":3,"distance":1546,"i_lat":-6.242512},{"is_transit":false,"i_long":106.857948,"i_lat":-6.226659,"transit":false,"distance":1230,"station_id":"TEB","station_name":"Tebet","time":2,"line":2},{"station_id":"MRI","is_transit":true,"transit":true,"i_long":106.84912,"distance":2610,"i_lat":-6.209883,"line":2,"time":4,"station_name":"Manggarai"},{"time":2,"station_id":"MTR","line":1,"station_name":"Matraman","transit":false,"distance":1275,"is_transit":false,"i_lat":-6.212485,"i_long":106.858896},{"transit":true,"station_id":"JNG","distance":1377,"i_lat":-6.215091,"i_long":106.86807400000001,"station_name":"Jatinegara","is_transit":true,"time":8,"line":1},{"transit":false,"station_name":"Pondok Jati","i_lat":-6.209188,"i_long":106.861737,"time":2,"line":11,"station_id":"POK","is_transit":false,"distance":1236},{"time":2,"distance":1829,"i_long":106.855437,"station_name":"Kramat","i_lat":-6.193792,"is_transit":false,"line":11,"station_id":"KMT","transit":false},{"is_transit":false,"line":11,"station_id":"GST","i_lat":-6.185975,"i_long":106.850107,"time":1,"transit":false,"station_name":"Gang Sentiong","distance":973},{"time":8,"transit":false,"i_lat":-6.174784,"distance":1567,"station_name":"Pasar Senen","i_long":106.84368,"line":11,"station_id":"PSE","is_transit":false},{"i_lat":-6.161728,"distance":1436,"is_transit":false,"station_name":"Kemayoran","i_long":106.839204,"line":11,"station_id":"KMO","time":4,"transit":false},{"transit":false,"distance":1901,"station_name":"Rajawali","i_lat":-6.14505,"station_id":"RJW","i_long":106.836569,"time":5,"line":11,"is_transit":false},{"i_lat":-6.132549,"i_long":106.826365,"time":3,"station_id":"KPB","distance":1444,"is_transit":true,"transit":true,"station_name":"Kampung Bandan","line":4},{"distance":4102,"i_long":106.79867,"line":1,"is_transit":false,"station_id":"AK","transit":false,"station_name":"Angke","time":9,"i_lat":-6.144674},{"distance":1230,"station_name":"Duri","time":4,"i_lat":-6.155215,"is_transit":false,"transit":false,"line":1,"station_id":"DU","i_long":106.800832},{"is_transit":false,"line":1,"time":8,"distance":3632,"transit":false,"i_lat":-6.185545,"station_name":"Tanah Abang","i_long":106.811091,"station_id":"THB"},{"distance":2029,"station_name":"Karet","i_long":106.816351,"is_transit":false,"transit":false,"line":1,"station_id":"KAT","time":5,"i_lat":-6.20132},{"time":1,"station_id":"SUDB","transit":false,"distance":471,"i_lat":-6.201433,"i_long":106.819881,"line":1,"is_transit":false,"station_name":"Sudirman Baru"},{"station_name":"Sudirman","i_long":106.822649,"is_transit":false,"distance":280,"transit":false,"station_id":"SUD","line":1,"time":1,"i_lat":-6.202263}]]}