{"data":[[{"station_name":"Cibinong","transit":false,"i_lat":-6.46424,"time":0,"station_id":"CBN","distance":0,"i_long":106.851978,"is_transit":false,"line":0},{"distance":6740,"station_id":"CTA","is_transit":true,"time":10,"line":1,"i_lat":-6.448811,"transit":false,"i_long":106.800298,"station_name":"Citayam"},{"station_name":"Depok","time":6,"transit":false,"line":0,"i_long":106.816926,"is_transit":false,"distance":5084,"i_lat":-6.405256,"station_id":"DP"},{"i_long":106.819451,"transit":false,"distance":1584,"is_transit":false,"time":3,"station_id":"DPB","i_lat":-6.391065,"station_name":"Depokbaru","line":0},{"distance":2727,"station_id":"POC","line":2,"transit":false,"station_name":"Pondok Cina","i_long":106.831114,"is_transit":false,"i_lat":-6.369073,"time":4},{"station_name":"Univ. Indonesia","i_lat":-6.360749,"time":2,"station_id":"UI","line":2,"transit":false,"is_transit":false,"i_long":106.831474,"distance":1109},{"i_lat":-6.339291,"time":3,"line":2,"station_name":"Univ. Pancasila","i_long":106.834175,"is_transit":false,"distance":2264,"transit":false,"station_id":"UP"},{"i_lat":-6.330363,"i_long":106.832616,"line":2,"transit":false,"time":2,"station_name":"Lenteng Agung","is_transit":false,"distance":1029,"station_id":"LNA"},{"line":2,"station_id":"TNT","time":3,"distance":2671,"i_long":106.838896,"station_name":"Tanjung Barat","is_transit":false,"transit":false,"i_lat":-6.3080680000000005},{"time":4,"station_name":"Pasar Minggu","i_lat":-6.2842400000000005,"line":2,"station_id":"PSM","distance":2820,"transit":false,"i_long":106.843999,"is_transit":false}]]}