{"data":[[{"i_lat":-6.46424,"station_name":"Cibinong","time":0,"i_long":106.851978,"distance":0,"station_id":"CBN","line":21,"transit":false,"is_transit":false},{"is_transit":false,"i_long":106.824374,"station_name":"Pondok Rajeg","time":0,"i_lat":-6.460735,"station_id":"PDRG","transit":false,"line":21,"distance":0},{"station_id":"CTA","time":0,"i_long":106.800298,"station_name":"Citayam","transit":true,"distance":0,"is_transit":true,"i_lat":-6.448811,"line":2},{"line":2,"is_transit":false,"station_id":"DP","time":6,"i_lat":-6.405256,"i_long":106.816926,"distance":5084,"station_name":"Depok","transit":false},{"transit":false,"time":3,"i_lat":-6.391065,"station_name":"Depokbaru","station_id":"DPB","is_transit":false,"distance":1584,"i_long":106.819451,"line":2},{"distance":2727,"transit":false,"station_name":"Pondok Cina","is_transit":false,"i_lat":-6.369073,"line":2,"time":4,"i_long":106.831114,"station_id":"POC"},{"i_lat":-6.360749,"i_long":106.831474,"station_id":"UI","time":2,"line":2,"is_transit":false,"station_name":"Univ. Indonesia","distance":1109,"transit":false},{"i_lat":-6.339291,"line":2,"i_long":106.834175,"time":3,"distance":2264,"station_name":"Univ. Pancasila","station_id":"UP","transit":false,"is_transit":false},{"line":2,"distance":1029,"i_lat":-6.330363,"i_long":106.832616,"is_transit":false,"station_id":"LNA","transit":false,"station_name":"Lenteng Agung","time":2},{"time":3,"station_name":"Tanjung Barat","i_long":106.838896,"distance":2671,"i_lat":-6.3080680000000005,"is_transit":false,"transit":false,"line":2,"station_id":"TNT"},{"transit":false,"is_transit":false,"i_long":106.843999,"line":2,"time":4,"station_id":"PSM","station_name":"Pasar Minggu","i_lat":-6.2842400000000005,"distance":2820},{"transit":false,"i_long":106.851577,"line":2,"is_transit":false,"station_name":"Pasar Minggu Baru","station_id":"PSMB","time":2,"i_lat":-6.263214,"distance":2380},{"transit":false,"station_name":"Duren Kalibata","station_id":"DRN","is_transit":false,"time":2,"i_lat":-6.255332,"i_long":106.85449,"distance":824,"line":2},{"is_transit":false,"distance":1546,"transit":false,"time":3,"station_id":"CW","i_lat":-6.242512,"line":2,"i_long":106.856607,"station_name":"Cawang"},{"is_transit":false,"distance":1230,"i_lat":-6.226659,"time":2,"i_long":106.857948,"transit":false,"station_name":"Tebet","station_id":"TEB","line":2},{"station_name":"Manggarai","is_transit":true,"i_long":106.84912,"distance":2610,"line":2,"transit":true,"i_lat":-6.209883,"time":4,"station_id":"MRI"},{"is_transit":false,"line":1,"distance":3186,"station_name":"Sudirman","time":4,"transit":false,"i_long":106.822649,"station_id":"SUD","i_lat":-6.202263},{"transit":false,"is_transit":false,"time":1,"station_name":"Sudirman Baru","distance":280,"station_id":"SUDB","line":1,"i_long":106.819881,"i_lat":-6.201433},{"i_long":106.816351,"is_transit":false,"line":1,"transit":false,"station_name":"Karet","time":1,"station_id":"KAT","distance":471,"i_lat":-6.20132},{"time":5,"line":1,"station_name":"Tanah Abang","i_long":106.811091,"transit":false,"station_id":"THB","distance":2029,"i_lat":-6.185545,"is_transit":false},{"distance":3632,"time":8,"i_long":106.800832,"transit":true,"station_id":"DU","i_lat":-6.155215,"station_name":"Duri","is_transit":true,"line":1},{"station_id":"GGL","line":5,"station_name":"Grogol","is_transit":false,"distance":1700,"time":3,"i_long":106.788277,"transit":false,"i_lat":-6.162021},{"i_long":106.771379,"station_id":"PSG","is_transit":false,"station_name":"Pesing","transit":false,"distance":2036,"time":2,"line":5,"i_lat":-6.161433},{"i_lat":-6.1587309999999995,"time":2,"station_id":"TKO","is_transit":false,"line":5,"transit":false,"distance":1614,"station_name":"Taman Kota","i_long":106.756522},{"time":2,"station_name":"Bojongindah","distance":2334,"transit":false,"i_long":106.737035,"station_id":"BOI","is_transit":false,"i_lat":-6.159876,"line":5},{"i_lat":-6.162758,"station_name":"Rawa Buaya","transit":false,"i_long":106.723064,"is_transit":false,"station_id":"RW","line":5,"distance":1152,"time":4},{"station_id":"KDS","line":5,"station_name":"Kalideres","i_lat":-6.166068,"time":3,"transit":false,"distance":2504,"is_transit":false,"i_long":106.701612},{"distance":2548,"is_transit":false,"line":5,"time":3,"i_lat":-6.169933,"transit":false,"station_name":"Poris","station_id":"PI","i_long":106.679458},{"i_long":106.665036,"line":5,"station_id":"BPR","distance":1834,"time":3,"station_name":"Batuceper","transit":false,"is_transit":false,"i_lat":-6.171811}],[{"transit":false,"line":21,"i_lat":-6.46424,"is_transit":false,"i_long":106.851978,"distance":0,"station_name":"Cibinong","station_id":"CBN","time":0},{"i_lat":-6.460735,"distance":0,"is_transit":false,"i_long":106.824374,"line":21,"station_name":"Pondok Rajeg","transit":false,"station_id":"PDRG","time":0},{"time":0,"distance":0,"station_name":"Citayam","is_transit":true,"transit":true,"i_long":106.800298,"line":2,"i_lat":-6.448811,"station_id":"CTA"},{"is_transit":false,"i_long":106.816926,"station_id":"DP","station_name":"Depok","time":6,"i_lat":-6.405256,"line":2,"transit":false,"distance":5084},{"distance":1584,"time":3,"transit":false,"line":2,"station_id":"DPB","i_lat":-6.391065,"station_name":"Depokbaru","i_long":106.819451,"is_transit":false},{"station_name":"Pondok Cina","station_id":"POC","i_lat":-6.369073,"line":2,"i_long":106.831114,"is_transit":false,"distance":2727,"time":4,"transit":false},{"distance":1109,"station_name":"Univ. Indonesia","transit":false,"i_lat":-6.360749,"is_transit":false,"time":2,"line":2,"i_long":106.831474,"station_id":"UI"},{"i_lat":-6.339291,"line":2,"station_name":"Univ. Pancasila","is_transit":false,"time":3,"transit":false,"station_id":"UP","i_long":106.834175,"distance":2264},{"i_lat":-6.330363,"line":2,"distance":1029,"i_long":106.832616,"station_name":"Lenteng Agung","transit":false,"station_id":"LNA","time":2,"is_transit":false},{"transit":false,"i_lat":-6.3080680000000005,"i_long":106.838896,"distance":2671,"station_id":"TNT","is_transit":false,"station_name":"Tanjung Barat","line":2,"time":3},{"station_name":"Pasar Minggu","i_long":106.843999,"transit":false,"station_id":"PSM","i_lat":-6.2842400000000005,"line":2,"time":4,"is_transit":false,"distance":2820},{"station_id":"PSMB","time":2,"is_transit":false,"i_long":106.851577,"distance":2380,"transit":false,"line":2,"i_lat":-6.263214,"station_name":"Pasar Minggu Baru"},{"transit":false,"station_name":"Duren Kalibata","i_long":106.85449,"distance":824,"station_id":"DRN","is_transit":false,"time":2,"line":2,"i_lat":-6.255332},{"i_lat":-6.242512,"transit":false,"line":2,"station_id":"CW","is_transit":false,"station_name":"Cawang","distance":1546,"i_long":106.856607,"time":3},{"line":2,"i_lat":-6.226659,"time":2,"station_id":"TEB","station_name":"Tebet","distance":1230,"is_transit":false,"transit":false,"i_long":106.857948},{"transit":false,"station_id":"MRI","i_lat":-6.209883,"station_name":"Manggarai","is_transit":false,"time":4,"line":2,"i_long":106.84912,"distance":2610},{"line":2,"is_transit":false,"station_id":"CKI","i_lat":-6.198556,"time":4,"distance":1590,"i_long":106.840169,"station_name":"Cikini","transit":false},{"time":3,"line":2,"station_name":"Gondangdia","station_id":"GDD","i_lat":-6.186295,"transit":false,"is_transit":false,"distance":1750,"i_long":106.832183},{"station_name":"Juanda","distance":2015,"is_transit":false,"transit":false,"time":4,"i_lat":-6.166716,"i_long":106.828284,"station_id":"JUA","line":2},{"i_long":106.827103,"transit":false,"distance":1149,"line":2,"station_id":"SW","station_name":"Sawah Besar","is_transit":false,"time":2,"i_lat":-6.160725},{"station_name":"Manggabesar","station_id":"MGB","is_transit":false,"time":2,"i_long":106.82482,"line":2,"i_lat":-6.149769,"transit":false,"distance":906},{"station_name":"Jayakarta","time":2,"i_lat":-6.141205,"is_transit":false,"i_long":106.820901,"transit":false,"line":2,"distance":1080,"station_id":"JAY"},{"i_long":106.812439,"is_transit":true,"station_id":"JAKK","line":2,"transit":true,"time":4,"i_lat":-6.137569,"station_name":"Jakarta Kota","distance":1264},{"i_long":106.826365,"time":3,"line":4,"is_transit":true,"i_lat":-6.132549,"distance":1364,"transit":true,"station_name":"Kampung Bandan","station_id":"KPB"},{"i_long":106.79867,"line":1,"i_lat":-6.144674,"distance":4102,"station_id":"AK","transit":false,"station_name":"Angke","is_transit":false,"time":9},{"i_lat":-6.155215,"i_long":106.800832,"line":1,"station_name":"Duri","time":4,"transit":true,"distance":1230,"station_id":"DU","is_transit":true},{"time":3,"i_lat":-6.162021,"transit":false,"station_name":"Grogol","station_id":"GGL","line":5,"distance":1700,"i_long":106.788277,"is_transit":false},{"time":2,"distance":2036,"line":5,"is_transit":false,"station_id":"PSG","transit":false,"station_name":"Pesing","i_lat":-6.161433,"i_long":106.771379},{"distance":1614,"line":5,"is_transit":false,"time":2,"station_id":"TKO","i_lat":-6.1587309999999995,"i_long":106.756522,"transit":false,"station_name":"Taman Kota"},{"is_transit":false,"transit":false,"i_lat":-6.159876,"time":2,"station_name":"Bojongindah","distance":2334,"line":5,"i_long":106.737035,"station_id":"BOI"},{"i_lat":-6.162758,"line":5,"distance":1152,"transit":false,"station_id":"RW","is_transit":false,"i_long":106.723064,"time":4,"station_name":"Rawa Buaya"},{"i_long":106.701612,"time":3,"distance":2504,"transit":false,"is_transit":false,"station_id":"KDS","station_name":"Kalideres","i_lat":-6.166068,"line":5},{"is_transit":false,"station_name":"Poris","distance":2548,"line":5,"transit":false,"time":3,"i_lat":-6.169933,"i_long":106.679458,"station_id":"PI"},{"is_transit":false,"time":3,"i_long":106.665036,"station_name":"Batuceper","station_id":"BPR","transit":false,"distance":1834,"i_lat":-6.171811,"line":5}],[{"station_id":"CBN","transit":false,"i_lat":-6.46424,"i_long":106.851978,"station_name":"Cibinong","time":0,"line":21,"distance":0,"is_transit":false},{"i_long":106.824374,"distance":0,"i_lat":-6.460735,"line":21,"station_name":"Pondok Rajeg","is_transit":false,"time":0,"station_id":"PDRG","transit":false},{"line":2,"is_transit":true,"station_name":"Citayam","i_lat":-6.448811,"time":0,"i_long":106.800298,"station_id":"CTA","transit":true,"distance":0},{"is_transit":false,"i_long":106.816926,"time":6,"i_lat":-6.405256,"station_id":"DP","line":2,"transit":false,"station_name":"Depok","distance":5084},{"i_lat":-6.391065,"i_long":106.819451,"distance":1584,"is_transit":false,"line":2,"station_id":"DPB","station_name":"Depokbaru","time":3,"transit":false},{"is_transit":false,"line":2,"i_lat":-6.369073,"station_id":"POC","i_long":106.831114,"time":4,"transit":false,"station_name":"Pondok Cina","distance":2727},{"is_transit":false,"transit":false,"i_lat":-6.360749,"i_long":106.831474,"station_id":"UI","time":2,"distance":1109,"line":2,"station_name":"Univ. Indonesia"},{"station_id":"UP","is_transit":false,"i_long":106.834175,"line":2,"station_name":"Univ. Pancasila","time":3,"distance":2264,"i_lat":-6.339291,"transit":false},{"line":2,"distance":1029,"i_long":106.832616,"transit":false,"is_transit":false,"station_id":"LNA","time":2,"i_lat":-6.330363,"station_name":"Lenteng Agung"},{"distance":2671,"transit":false,"i_lat":-6.3080680000000005,"i_long":106.838896,"time":3,"station_id":"TNT","is_transit":false,"line":2,"station_name":"Tanjung Barat"},{"station_name":"Pasar Minggu","time":4,"i_lat":-6.2842400000000005,"station_id":"PSM","is_transit":false,"distance":2820,"i_long":106.843999,"line":2,"transit":false},{"line":2,"distance":2380,"station_id":"PSMB","transit":false,"i_long":106.851577,"i_lat":-6.263214,"is_transit":false,"station_name":"Pasar Minggu Baru","time":2},{"distance":824,"station_id":"DRN","i_lat":-6.255332,"time":2,"station_name":"Duren Kalibata","is_transit":false,"i_long":106.85449,"line":2,"transit":false},{"station_name":"Cawang","time":3,"line":2,"distance":1546,"is_transit":false,"i_lat":-6.242512,"i_long":106.856607,"transit":false,"station_id":"CW"},{"line":2,"is_transit":false,"i_long":106.857948,"distance":1230,"transit":false,"time":2,"station_name":"Tebet","station_id":"TEB","i_lat":-6.226659},{"i_long":106.84912,"time":4,"station_id":"MRI","i_lat":-6.209883,"line":2,"transit":true,"station_name":"Manggarai","distance":2610,"is_transit":true},{"is_transit":false,"station_id":"MTR","time":2,"distance":1275,"transit":false,"i_long":106.858896,"line":1,"station_name":"Matraman","i_lat":-6.212485},{"transit":true,"i_long":106.86807400000001,"distance":1377,"station_name":"Jatinegara","station_id":"JNG","i_lat":-6.215091,"line":1,"is_transit":true,"time":8},{"i_lat":-6.209188,"line":11,"station_id":"POK","transit":false,"is_transit":false,"time":2,"i_long":106.861737,"station_name":"Pondok Jati","distance":1236},{"station_id":"KMT","station_name":"Kramat","is_transit":false,"distance":1829,"transit":false,"time":2,"i_lat":-6.193792,"i_long":106.855437,"line":11},{"line":11,"station_id":"GST","is_transit":false,"i_lat":-6.185975,"time":1,"distance":973,"i_long":106.850107,"station_name":"Gang Sentiong","transit":false},{"i_long":106.84368,"distance":1567,"line":11,"transit":false,"i_lat":-6.174784,"time":8,"station_name":"Pasar Senen","is_transit":false,"station_id":"PSE"},{"time":4,"line":11,"i_long":106.839204,"distance":1436,"station_id":"KMO","transit":false,"i_lat":-6.161728,"station_name":"Kemayoran","is_transit":false},{"station_name":"Rajawali","station_id":"RJW","time":5,"i_long":106.836569,"transit":false,"distance":1901,"i_lat":-6.14505,"line":11,"is_transit":false},{"is_transit":true,"i_long":106.826365,"i_lat":-6.132549,"transit":true,"station_name":"Kampung Bandan","time":3,"line":4,"distance":1444,"station_id":"KPB"},{"station_id":"AK","line":1,"time":9,"i_long":106.79867,"i_lat":-6.144674,"distance":4102,"is_transit":false,"station_name":"Angke","transit":false},{"i_lat":-6.155215,"station_id":"DU","is_transit":true,"time":4,"i_long":106.800832,"distance":1230,"station_name":"Duri","transit":true,"line":1},{"is_transit":false,"i_lat":-6.162021,"i_long":106.788277,"station_id":"GGL","time":3,"transit":false,"distance":1700,"station_name":"Grogol","line":5},{"distance":2036,"station_id":"PSG","i_lat":-6.161433,"is_transit":false,"i_long":106.771379,"station_name":"Pesing","transit":false,"time":2,"line":5},{"i_long":106.756522,"transit":false,"station_name":"Taman Kota","line":5,"i_lat":-6.1587309999999995,"distance":1614,"station_id":"TKO","time":2,"is_transit":false},{"time":2,"i_long":106.737035,"line":5,"i_lat":-6.159876,"distance":2334,"transit":false,"station_name":"Bojongindah","station_id":"BOI","is_transit":false},{"i_long":106.723064,"station_name":"Rawa Buaya","time":4,"station_id":"RW","distance":1152,"line":5,"is_transit":false,"transit":false,"i_lat":-6.162758},{"line":5,"station_name":"Kalideres","i_long":106.701612,"distance":2504,"station_id":"KDS","i_lat":-6.166068,"time":3,"transit":false,"is_transit":false},{"time":3,"i_lat":-6.169933,"i_long":106.679458,"line":5,"is_transit":false,"distance":2548,"station_name":"Poris","station_id":"PI","transit":false},{"station_id":"BPR","line":5,"distance":1834,"is_transit":false,"time":3,"transit":false,"station_name":"Batuceper","i_long":106.665036,"i_lat":-6.171811}]]}