{"data":[[{"i_long":106.851978,"transit":false,"time":0,"line":21,"station_id":"CBN","distance":0,"is_transit":false,"station_name":"Cibinong","i_lat":-6.46424},{"distance":0,"station_name":"Pondok Rajeg","transit":false,"i_lat":-6.460735,"i_long":106.824374,"line":21,"time":0,"is_transit":false,"station_id":"PDRG"},{"time":0,"transit":true,"distance":0,"line":2,"i_lat":-6.448811,"station_id":"CTA","i_long":106.800298,"is_transit":true,"station_name":"Citayam"},{"line":2,"time":6,"i_long":106.816926,"station_name":"Depok","transit":false,"is_transit":false,"i_lat":-6.405256,"distance":5084,"station_id":"DP"},{"station_id":"DPB","i_lat":-6.391065,"time":3,"transit":false,"is_transit":false,"distance":1584,"station_name":"Depokbaru","i_long":106.819451,"line":2},{"distance":2727,"i_lat":-6.369073,"station_name":"Pondok Cina","i_long":106.831114,"transit":false,"line":2,"station_id":"POC","time":4,"is_transit":false},{"i_lat":-6.360749,"distance":1109,"station_name":"Univ. Indonesia","transit":false,"station_id":"UI","i_long":106.831474,"time":2,"is_transit":false,"line":2},{"i_lat":-6.339291,"i_long":106.834175,"is_transit":false,"transit":false,"line":2,"station_id":"UP","station_name":"Univ. Pancasila","distance":2264,"time":3},{"transit":false,"distance":1029,"i_long":106.832616,"station_name":"Lenteng Agung","time":2,"i_lat":-6.330363,"line":2,"station_id":"LNA","is_transit":false},{"transit":false,"station_name":"Tanjung Barat","station_id":"TNT","is_transit":false,"i_lat":-6.3080680000000005,"i_long":106.838896,"line":2,"distance":2671,"time":3},{"transit":false,"station_id":"PSM","is_transit":false,"i_long":106.843999,"line":2,"i_lat":-6.2842400000000005,"distance":2820,"station_name":"Pasar Minggu","time":4},{"is_transit":false,"transit":false,"station_name":"Pasar Minggu Baru","i_lat":-6.263214,"station_id":"PSMB","time":2,"line":2,"i_long":106.851577,"distance":2380},{"time":2,"station_name":"Duren Kalibata","i_lat":-6.255332,"station_id":"DRN","is_transit":false,"transit":false,"i_long":106.85449,"line":2,"distance":824},{"time":3,"transit":false,"i_lat":-6.242512,"distance":1546,"is_transit":false,"station_name":"Cawang","i_long":106.856607,"line":2,"station_id":"CW"},{"transit":false,"i_lat":-6.226659,"i_long":106.857948,"line":2,"station_id":"TEB","time":2,"station_name":"Tebet","distance":1230,"is_transit":false},{"station_id":"MRI","i_lat":-6.209883,"i_long":106.84912,"line":2,"transit":true,"station_name":"Manggarai","distance":2610,"time":4,"is_transit":true},{"is_transit":false,"distance":1275,"station_name":"Matraman","station_id":"MTR","i_lat":-6.212485,"line":1,"transit":false,"i_long":106.858896,"time":2},{"i_lat":-6.215091,"is_transit":true,"i_long":106.86807400000001,"transit":true,"line":1,"station_name":"Jatinegara","station_id":"JNG","distance":1377,"time":8},{"station_id":"POK","is_transit":false,"distance":1236,"transit":false,"station_name":"Pondok Jati","line":11,"time":2,"i_long":106.861737,"i_lat":-6.209188},{"station_id":"KMT","line":11,"station_name":"Kramat","i_long":106.855437,"distance":1829,"transit":false,"i_lat":-6.193792,"is_transit":false,"time":2},{"i_lat":-6.185975,"transit":false,"time":1,"station_id":"GST","is_transit":false,"i_long":106.850107,"distance":973,"line":11,"station_name":"Gang Sentiong"},{"i_long":106.84368,"line":11,"station_name":"Pasar Senen","time":8,"station_id":"PSE","i_lat":-6.174784,"transit":false,"is_transit":false,"distance":1567},{"is_transit":false,"station_name":"Kemayoran","i_lat":-6.161728,"transit":false,"i_long":106.839204,"line":11,"time":4,"distance":1436,"station_id":"KMO"}],[{"line":21,"station_id":"CBN","i_lat":-6.46424,"i_long":106.851978,"station_name":"Cibinong","time":0,"transit":false,"distance":0,"is_transit":false},{"station_name":"Pondok Rajeg","is_transit":false,"time":0,"station_id":"PDRG","i_lat":-6.460735,"line":21,"i_long":106.824374,"transit":false,"distance":0},{"station_id":"CTA","transit":true,"line":2,"is_transit":true,"distance":0,"station_name":"Citayam","i_lat":-6.448811,"time":0,"i_long":106.800298},{"transit":false,"distance":5084,"station_name":"Depok","is_transit":false,"i_lat":-6.405256,"i_long":106.816926,"station_id":"DP","time":6,"line":2},{"station_id":"DPB","is_transit":false,"station_name":"Depokbaru","transit":false,"i_lat":-6.391065,"line":2,"time":3,"distance":1584,"i_long":106.819451},{"transit":false,"is_transit":false,"time":4,"station_id":"POC","distance":2727,"i_long":106.831114,"station_name":"Pondok Cina","i_lat":-6.369073,"line":2},{"station_name":"Univ. Indonesia","is_transit":false,"i_long":106.831474,"line":2,"station_id":"UI","transit":false,"distance":1109,"i_lat":-6.360749,"time":2},{"line":2,"time":3,"station_id":"UP","distance":2264,"is_transit":false,"station_name":"Univ. Pancasila","i_long":106.834175,"transit":false,"i_lat":-6.339291},{"station_id":"LNA","distance":1029,"time":2,"transit":false,"i_lat":-6.330363,"station_name":"Lenteng Agung","line":2,"is_transit":false,"i_long":106.832616},{"time":3,"station_id":"TNT","i_long":106.838896,"line":2,"distance":2671,"transit":false,"i_lat":-6.3080680000000005,"is_transit":false,"station_name":"Tanjung Barat"},{"station_name":"Pasar Minggu","line":2,"is_transit":false,"station_id":"PSM","i_lat":-6.2842400000000005,"distance":2820,"time":4,"transit":false,"i_long":106.843999},{"transit":false,"time":2,"station_id":"PSMB","is_transit":false,"station_name":"Pasar Minggu Baru","line":2,"i_lat":-6.263214,"distance":2380,"i_long":106.851577},{"transit":false,"distance":824,"i_lat":-6.255332,"time":2,"line":2,"station_name":"Duren Kalibata","i_long":106.85449,"is_transit":false,"station_id":"DRN"},{"i_long":106.856607,"line":2,"station_id":"CW","transit":false,"station_name":"Cawang","i_lat":-6.242512,"distance":1546,"time":3,"is_transit":false},{"i_lat":-6.226659,"distance":1230,"is_transit":false,"transit":false,"station_id":"TEB","i_long":106.857948,"line":2,"station_name":"Tebet","time":2},{"i_long":106.84912,"time":4,"distance":2610,"station_id":"MRI","station_name":"Manggarai","line":2,"is_transit":true,"i_lat":-6.209883,"transit":true},{"time":4,"distance":3186,"is_transit":false,"transit":false,"station_name":"Sudirman","i_long":106.822649,"line":1,"i_lat":-6.202263,"station_id":"SUD"},{"line":1,"is_transit":false,"station_id":"SUDB","transit":false,"i_lat":-6.201433,"distance":280,"time":1,"i_long":106.819881,"station_name":"Sudirman Baru"},{"i_long":106.816351,"station_id":"KAT","is_transit":false,"station_name":"Karet","transit":false,"i_lat":-6.20132,"line":1,"time":1,"distance":471},{"distance":2029,"time":5,"i_long":106.811091,"transit":false,"i_lat":-6.185545,"station_name":"Tanah Abang","is_transit":false,"line":1,"station_id":"THB"},{"time":8,"distance":3632,"station_name":"Duri","station_id":"DU","i_lat":-6.155215,"i_long":106.800832,"is_transit":false,"transit":false,"line":1},{"is_transit":false,"time":4,"station_id":"AK","distance":1230,"i_long":106.79867,"transit":false,"station_name":"Angke","i_lat":-6.144674,"line":1},{"distance":4102,"i_lat":-6.132549,"time":9,"station_id":"KPB","transit":true,"i_long":106.826365,"line":4,"station_name":"Kampung Bandan","is_transit":true},{"time":3,"line":11,"distance":1444,"i_long":106.836569,"station_id":"RJW","station_name":"Rajawali","i_lat":-6.14505,"transit":false,"is_transit":false},{"line":11,"distance":1901,"time":5,"station_id":"KMO","transit":false,"i_lat":-6.161728,"is_transit":false,"station_name":"Kemayoran","i_long":106.839204}],[{"transit":false,"distance":0,"i_long":106.851978,"line":21,"is_transit":false,"station_name":"Cibinong","station_id":"CBN","i_lat":-6.46424,"time":0},{"station_id":"PDRG","transit":false,"time":0,"i_long":106.824374,"line":21,"is_transit":false,"i_lat":-6.460735,"distance":0,"station_name":"Pondok Rajeg"},{"transit":true,"is_transit":true,"line":2,"station_id":"CTA","station_name":"Citayam","time":0,"distance":0,"i_lat":-6.448811,"i_long":106.800298},{"station_name":"Depok","line":2,"i_lat":-6.405256,"is_transit":false,"time":6,"station_id":"DP","transit":false,"distance":5084,"i_long":106.816926},{"station_name":"Depokbaru","transit":false,"station_id":"DPB","i_lat":-6.391065,"distance":1584,"is_transit":false,"i_long":106.819451,"time":3,"line":2},{"time":4,"distance":2727,"is_transit":false,"station_name":"Pondok Cina","transit":false,"i_long":106.831114,"station_id":"POC","i_lat":-6.369073,"line":2},{"line":2,"is_transit":false,"i_long":106.831474,"distance":1109,"i_lat":-6.360749,"station_id":"UI","transit":false,"station_name":"Univ. Indonesia","time":2},{"i_long":106.834175,"distance":2264,"station_id":"UP","line":2,"is_transit":false,"transit":false,"time":3,"i_lat":-6.339291,"station_name":"Univ. Pancasila"},{"transit":false,"is_transit":false,"i_lat":-6.330363,"i_long":106.832616,"distance":1029,"time":2,"station_name":"Lenteng Agung","line":2,"station_id":"LNA"},{"transit":false,"time":3,"line":2,"i_lat":-6.3080680000000005,"i_long":106.838896,"station_name":"Tanjung Barat","station_id":"TNT","is_transit":false,"distance":2671},{"time":4,"station_name":"Pasar Minggu","transit":false,"i_long":106.843999,"station_id":"PSM","is_transit":false,"i_lat":-6.2842400000000005,"line":2,"distance":2820},{"distance":2380,"line":2,"i_lat":-6.263214,"station_id":"PSMB","station_name":"Pasar Minggu Baru","time":2,"transit":false,"is_transit":false,"i_long":106.851577},{"station_name":"Duren Kalibata","i_lat":-6.255332,"station_id":"DRN","time":2,"line":2,"distance":824,"is_transit":false,"transit":false,"i_long":106.85449},{"i_lat":-6.242512,"station_name":"Cawang","is_transit":false,"time":3,"transit":false,"line":2,"i_long":106.856607,"distance":1546,"station_id":"CW"},{"line":2,"transit":false,"time":2,"station_id":"TEB","is_transit":false,"i_lat":-6.226659,"i_long":106.857948,"distance":1230,"station_name":"Tebet"},{"station_name":"Manggarai","transit":false,"i_long":106.84912,"station_id":"MRI","line":2,"distance":2610,"i_lat":-6.209883,"is_transit":false,"time":4},{"line":2,"station_id":"CKI","transit":false,"time":4,"distance":1590,"station_name":"Cikini","i_lat":-6.198556,"i_long":106.840169,"is_transit":false},{"station_id":"GDD","station_name":"Gondangdia","i_lat":-6.186295,"i_long":106.832183,"line":2,"is_transit":false,"distance":1750,"time":3,"transit":false},{"time":4,"station_name":"Juanda","is_transit":false,"line":2,"transit":false,"station_id":"JUA","i_lat":-6.166716,"distance":2015,"i_long":106.828284},{"distance":1149,"is_transit":false,"transit":false,"time":2,"i_long":106.827103,"line":2,"station_id":"SW","station_name":"Sawah Besar","i_lat":-6.160725},{"i_lat":-6.149769,"line":2,"station_id":"MGB","station_name":"Manggabesar","is_transit":false,"distance":906,"time":2,"transit":false,"i_long":106.82482},{"is_transit":false,"station_name":"Jayakarta","i_lat":-6.141205,"station_id":"JAY","distance":1080,"transit":false,"line":2,"time":2,"i_long":106.820901},{"station_name":"Jakarta Kota","distance":1264,"time":4,"transit":true,"i_long":106.812439,"i_lat":-6.137569,"station_id":"JAKK","is_transit":true,"line":2},{"transit":true,"i_long":106.826365,"line":4,"station_name":"Kampung Bandan","i_lat":-6.132549,"station_id":"KPB","time":3,"distance":1364,"is_transit":true},{"time":3,"line":11,"is_transit":false,"i_long":106.836569,"distance":1444,"station_id":"RJW","transit":false,"station_name":"Rajawali","i_lat":-6.14505},{"line":11,"station_name":"Kemayoran","station_id":"KMO","distance":1901,"is_transit":false,"i_lat":-6.161728,"transit":false,"i_long":106.839204,"time":5}]]}