{"data":[[{"transit":false,"is_transit":false,"distance":0,"i_long":106.851978,"line":0,"i_lat":-6.46424,"station_name":"Cibinong","station_id":"CBN","time":0},{"line":1,"i_lat":-6.448811,"is_transit":true,"time":10,"distance":6740,"i_long":106.800298,"station_id":"CTA","transit":false,"station_name":"Citayam"},{"line":0,"station_name":"Depok","i_lat":-6.405256,"i_long":106.816926,"time":6,"is_transit":false,"station_id":"DP","distance":5084,"transit":false},{"i_lat":-6.391065,"is_transit":false,"station_name":"Depokbaru","time":3,"line":0,"station_id":"DPB","transit":false,"distance":1584,"i_long":106.819451},{"is_transit":false,"i_lat":-6.369073,"line":2,"transit":false,"time":4,"station_id":"POC","distance":2727,"station_name":"Pondok Cina","i_long":106.831114},{"time":2,"is_transit":false,"distance":1109,"transit":false,"i_long":106.831474,"line":2,"station_id":"UI","station_name":"Univ. Indonesia","i_lat":-6.360749},{"station_id":"UP","station_name":"Univ. Pancasila","is_transit":false,"distance":2264,"transit":false,"i_lat":-6.339291,"time":3,"i_long":106.834175,"line":2},{"i_long":106.832616,"transit":false,"distance":1029,"i_lat":-6.330363,"is_transit":false,"time":2,"station_id":"LNA","station_name":"Lenteng Agung","line":2},{"is_transit":false,"distance":2671,"transit":false,"i_lat":-6.3080680000000005,"i_long":106.838896,"time":3,"station_id":"TNT","line":2,"station_name":"Tanjung Barat"},{"station_name":"Pasar Minggu","transit":false,"i_lat":-6.2842400000000005,"station_id":"PSM","line":2,"time":4,"i_long":106.843999,"distance":2820,"is_transit":false},{"distance":2380,"i_lat":-6.263214,"time":2,"is_transit":false,"station_name":"Pasar Minggu Baru","transit":false,"station_id":"PSMB","i_long":106.851577,"line":2},{"distance":824,"station_id":"DRN","station_name":"Duren Kalibata","transit":false,"i_lat":-6.255332,"i_long":106.85449,"line":0,"is_transit":false,"time":2},{"transit":false,"i_lat":-6.242512,"station_id":"CW","is_transit":false,"time":3,"station_name":"Cawang","line":0,"distance":1546,"i_long":106.856607},{"station_name":"Tebet","time":2,"line":2,"station_id":"TEB","i_long":106.857948,"distance":1230,"transit":false,"i_lat":-6.226659,"is_transit":false},{"line":0,"time":4,"i_long":106.84912,"station_id":"MRI","distance":2610,"station_name":"Manggarai","is_transit":true,"transit":true,"i_lat":-6.209883},{"station_name":"Sudirman","is_transit":false,"station_id":"SUD","transit":false,"line":1,"i_long":106.822649,"time":4,"distance":3186,"i_lat":-6.202263},{"is_transit":false,"line":1,"station_name":"Sudirman Baru","transit":false,"distance":280,"i_lat":-6.201433,"i_long":106.819881,"station_id":"SUDB","time":1},{"time":1,"station_name":"Karet","is_transit":false,"line":1,"distance":471,"i_long":106.816351,"station_id":"KAT","transit":false,"i_lat":-6.20132},{"i_long":106.811091,"station_name":"Tanah Abang","line":1,"station_id":"THB","is_transit":true,"transit":false,"i_lat":-6.185545,"time":5,"distance":2029},{"station_id":"DU","station_name":"Duri","distance":3632,"transit":true,"i_long":106.800832,"i_lat":-6.155215,"is_transit":true,"time":8,"line":1},{"i_lat":-6.162021,"station_id":"GGL","i_long":106.788277,"station_name":"Grogol","distance":1700,"time":3,"transit":false,"line":5,"is_transit":false},{"line":5,"transit":false,"station_id":"PSG","is_transit":false,"station_name":"Pesing","i_lat":-6.161433,"i_long":106.771379,"time":2,"distance":2036},{"station_id":"TKO","station_name":"Taman Kota","i_lat":-6.1587309999999995,"line":5,"is_transit":false,"i_long":106.756522,"transit":false,"distance":1614,"time":2},{"station_id":"BOI","i_lat":-6.159876,"line":0,"distance":2334,"i_long":106.737035,"station_name":"Bojongindah","time":2,"is_transit":false,"transit":false},{"station_name":"Rawa Buaya","line":5,"transit":false,"is_transit":false,"distance":1152,"i_lat":-6.162758,"station_id":"RW","time":4,"i_long":106.723064},{"i_long":106.701612,"station_name":"Kalideres","is_transit":false,"time":3,"distance":2504,"station_id":"KDS","transit":false,"i_lat":-6.166068,"line":5},{"transit":false,"station_name":"Poris","i_lat":-6.169933,"time":3,"i_long":106.679458,"distance":2548,"is_transit":false,"station_id":"PI","line":5},{"station_name":"Batuceper","time":3,"i_lat":-6.171811,"station_id":"BPR","transit":false,"distance":1834,"is_transit":false,"i_long":106.665036,"line":0},{"time":3,"distance":2028,"transit":false,"is_transit":false,"station_name":"Tanah Tinggi","i_lat":-6.17331,"i_long":106.64657,"line":5,"station_id":"TTI"}],[{"distance":0,"line":0,"is_transit":false,"time":0,"i_long":106.851978,"station_name":"Cibinong","transit":false,"i_lat":-6.46424,"station_id":"CBN"},{"station_name":"Citayam","time":10,"station_id":"CTA","is_transit":true,"transit":false,"distance":6740,"line":1,"i_lat":-6.448811,"i_long":106.800298},{"time":6,"transit":false,"station_name":"Depok","is_transit":false,"i_long":106.816926,"i_lat":-6.405256,"line":0,"station_id":"DP","distance":5084},{"distance":1584,"transit":false,"is_transit":false,"i_lat":-6.391065,"time":3,"station_name":"Depokbaru","station_id":"DPB","line":0,"i_long":106.819451},{"i_long":106.831114,"is_transit":false,"time":4,"station_id":"POC","transit":false,"i_lat":-6.369073,"station_name":"Pondok Cina","line":2,"distance":2727},{"time":2,"station_name":"Univ. Indonesia","i_long":106.831474,"line":2,"i_lat":-6.360749,"transit":false,"station_id":"UI","distance":1109,"is_transit":false},{"time":3,"station_id":"UP","is_transit":false,"transit":false,"i_long":106.834175,"station_name":"Univ. Pancasila","line":2,"distance":2264,"i_lat":-6.339291},{"line":2,"i_lat":-6.330363,"i_long":106.832616,"distance":1029,"transit":false,"station_id":"LNA","is_transit":false,"station_name":"Lenteng Agung","time":2},{"i_lat":-6.3080680000000005,"time":3,"station_name":"Tanjung Barat","line":2,"transit":false,"station_id":"TNT","i_long":106.838896,"is_transit":false,"distance":2671},{"transit":false,"distance":2820,"i_lat":-6.2842400000000005,"time":4,"station_name":"Pasar Minggu","i_long":106.843999,"line":2,"station_id":"PSM","is_transit":false},{"is_transit":false,"station_id":"PSMB","i_lat":-6.263214,"line":2,"transit":false,"time":2,"i_long":106.851577,"distance":2380,"station_name":"Pasar Minggu Baru"},{"station_id":"DRN","distance":824,"i_lat":-6.255332,"transit":false,"time":2,"i_long":106.85449,"line":0,"is_transit":false,"station_name":"Duren Kalibata"},{"i_lat":-6.242512,"distance":1546,"time":3,"station_name":"Cawang","transit":false,"station_id":"CW","is_transit":false,"line":0,"i_long":106.856607},{"is_transit":false,"station_name":"Tebet","distance":1230,"transit":false,"line":2,"station_id":"TEB","i_long":106.857948,"time":2,"i_lat":-6.226659},{"station_id":"MRI","i_lat":-6.209883,"i_long":106.84912,"distance":2610,"transit":true,"line":0,"time":4,"is_transit":true,"station_name":"Manggarai"},{"station_name":"Cikini","distance":1590,"i_lat":-6.198556,"station_id":"CKI","transit":false,"line":0,"is_transit":false,"time":4,"i_long":106.840169},{"i_long":106.832183,"station_id":"GDD","time":3,"i_lat":-6.186295,"is_transit":false,"distance":1750,"station_name":"Gondangdia","line":2,"transit":false},{"time":4,"line":2,"transit":false,"is_transit":false,"distance":2015,"station_id":"JUA","station_name":"Juanda","i_long":106.828284,"i_lat":-6.166716},{"station_id":"SW","i_lat":-6.160725,"line":2,"station_name":"Sawah Besar","distance":1149,"transit":false,"i_long":106.827103,"is_transit":false,"time":2},{"is_transit":false,"distance":906,"transit":false,"i_lat":-6.149769,"station_id":"MGB","line":2,"station_name":"Manggabesar","i_long":106.82482,"time":2},{"is_transit":false,"transit":false,"time":2,"station_id":"JAY","i_lat":-6.141205,"i_long":106.820901,"line":7,"station_name":"Jayakarta","distance":1080},{"i_long":106.812439,"i_lat":-6.137569,"transit":true,"line":0,"is_transit":true,"distance":1264,"time":4,"station_id":"JAKK","station_name":"Jakarta Kota"},{"time":3,"station_name":"Kampung Bandan","distance":1364,"i_lat":-6.132549,"is_transit":true,"transit":false,"i_long":106.826365,"station_id":"KPB","line":0},{"line":0,"transit":false,"i_long":106.79867,"is_transit":false,"time":9,"station_id":"AK","distance":4102,"station_name":"Angke","i_lat":-6.144674},{"station_id":"DU","time":4,"is_transit":true,"station_name":"Duri","i_lat":-6.155215,"distance":1230,"i_long":106.800832,"line":1,"transit":true},{"line":5,"station_id":"GGL","i_lat":-6.162021,"distance":1700,"station_name":"Grogol","i_long":106.788277,"transit":false,"is_transit":false,"time":3},{"distance":2036,"i_long":106.771379,"i_lat":-6.161433,"station_name":"Pesing","is_transit":false,"line":5,"transit":false,"station_id":"PSG","time":2},{"is_transit":false,"transit":false,"time":2,"i_lat":-6.1587309999999995,"line":5,"station_name":"Taman Kota","station_id":"TKO","distance":1614,"i_long":106.756522},{"distance":2334,"i_lat":-6.159876,"station_id":"BOI","is_transit":false,"time":2,"station_name":"Bojongindah","line":0,"i_long":106.737035,"transit":false},{"station_name":"Rawa Buaya","distance":1152,"is_transit":false,"line":5,"i_long":106.723064,"station_id":"RW","transit":false,"time":4,"i_lat":-6.162758},{"time":3,"station_name":"Kalideres","line":5,"i_lat":-6.166068,"distance":2504,"i_long":106.701612,"is_transit":false,"transit":false,"station_id":"KDS"},{"line":5,"distance":2548,"i_lat":-6.169933,"station_id":"PI","time":3,"station_name":"Poris","is_transit":false,"transit":false,"i_long":106.679458},{"i_lat":-6.171811,"i_long":106.665036,"station_name":"Batuceper","is_transit":false,"line":0,"time":3,"station_id":"BPR","distance":1834,"transit":false},{"time":3,"transit":false,"line":5,"is_transit":false,"station_id":"TTI","i_lat":-6.17331,"station_name":"Tanah Tinggi","distance":2028,"i_long":106.64657}],[{"distance":0,"transit":false,"station_id":"CBN","line":0,"i_long":106.851978,"i_lat":-6.46424,"station_name":"Cibinong","is_transit":false,"time":0},{"is_transit":true,"time":10,"i_lat":-6.448811,"line":1,"distance":6740,"station_name":"Citayam","i_long":106.800298,"station_id":"CTA","transit":false},{"station_id":"DP","transit":false,"i_lat":-6.405256,"i_long":106.816926,"station_name":"Depok","is_transit":false,"distance":5084,"line":0,"time":6},{"i_lat":-6.391065,"transit":false,"i_long":106.819451,"time":3,"line":0,"is_transit":false,"station_id":"DPB","station_name":"Depokbaru","distance":1584},{"i_lat":-6.369073,"station_id":"POC","station_name":"Pondok Cina","transit":false,"is_transit":false,"line":2,"distance":2727,"i_long":106.831114,"time":4},{"i_lat":-6.360749,"transit":false,"i_long":106.831474,"time":2,"line":2,"station_name":"Univ. Indonesia","is_transit":false,"station_id":"UI","distance":1109},{"transit":false,"station_name":"Univ. Pancasila","i_lat":-6.339291,"is_transit":false,"line":2,"station_id":"UP","time":3,"i_long":106.834175,"distance":2264},{"transit":false,"i_lat":-6.330363,"i_long":106.832616,"station_id":"LNA","is_transit":false,"station_name":"Lenteng Agung","time":2,"line":2,"distance":1029},{"line":2,"i_lat":-6.3080680000000005,"station_name":"Tanjung Barat","i_long":106.838896,"time":3,"station_id":"TNT","is_transit":false,"distance":2671,"transit":false},{"distance":2820,"station_id":"PSM","time":4,"is_transit":false,"i_long":106.843999,"line":2,"i_lat":-6.2842400000000005,"transit":false,"station_name":"Pasar Minggu"},{"line":2,"i_lat":-6.263214,"is_transit":false,"distance":2380,"station_name":"Pasar Minggu Baru","transit":false,"i_long":106.851577,"time":2,"station_id":"PSMB"},{"station_id":"DRN","i_lat":-6.255332,"is_transit":false,"station_name":"Duren Kalibata","distance":824,"transit":false,"time":2,"i_long":106.85449,"line":0},{"station_name":"Cawang","distance":1546,"i_long":106.856607,"transit":false,"line":0,"station_id":"CW","is_transit":false,"i_lat":-6.242512,"time":3},{"time":2,"station_id":"TEB","i_long":106.857948,"transit":false,"line":2,"is_transit":false,"station_name":"Tebet","distance":1230,"i_lat":-6.226659},{"transit":true,"is_transit":true,"station_name":"Manggarai","i_lat":-6.209883,"station_id":"MRI","line":0,"time":4,"distance":2610,"i_long":106.84912},{"line":1,"station_id":"MTR","i_lat":-6.212485,"is_transit":false,"distance":1275,"station_name":"Matraman","time":2,"i_long":106.858896,"transit":false},{"is_transit":true,"station_id":"JNG","distance":1377,"station_name":"Jatinegara","line":0,"i_lat":-6.215091,"time":8,"transit":true,"i_long":106.86807400000001},{"transit":false,"i_lat":-6.209188,"i_long":106.861737,"line":11,"is_transit":false,"distance":1236,"time":2,"station_id":"POK","station_name":"Pondok Jati"},{"i_lat":-6.193792,"time":2,"is_transit":false,"line":11,"station_name":"Kramat","distance":1829,"station_id":"KMT","transit":false,"i_long":106.855437},{"station_id":"GST","line":11,"is_transit":false,"transit":false,"i_long":106.850107,"station_name":"Gang Sentiong","distance":973,"time":1,"i_lat":-6.185975},{"time":8,"i_long":106.84368,"distance":1567,"station_id":"PSE","is_transit":false,"line":11,"i_lat":-6.174784,"station_name":"Pasar Senen","transit":false},{"i_long":106.839204,"station_id":"KMO","station_name":"Kemayoran","line":11,"distance":1436,"time":4,"transit":false,"i_lat":-6.161728,"is_transit":false},{"station_name":"Rajawali","transit":false,"line":11,"station_id":"RJW","time":5,"distance":1901,"i_lat":-6.14505,"i_long":106.836569,"is_transit":false},{"is_transit":true,"time":3,"station_id":"KPB","distance":1444,"i_long":106.826365,"i_lat":-6.132549,"station_name":"Kampung Bandan","transit":true,"line":0},{"transit":false,"line":0,"station_name":"Angke","station_id":"AK","distance":4102,"is_transit":false,"i_long":106.79867,"i_lat":-6.144674,"time":9},{"is_transit":true,"station_id":"DU","distance":1230,"i_lat":-6.155215,"transit":true,"i_long":106.800832,"line":1,"time":4,"station_name":"Duri"},{"station_id":"GGL","distance":1700,"transit":false,"line":5,"is_transit":false,"station_name":"Grogol","i_lat":-6.162021,"time":3,"i_long":106.788277},{"is_transit":false,"transit":false,"distance":2036,"i_long":106.771379,"station_name":"Pesing","i_lat":-6.161433,"time":2,"line":5,"station_id":"PSG"},{"station_name":"Taman Kota","station_id":"TKO","is_transit":false,"i_long":106.756522,"line":5,"distance":1614,"i_lat":-6.1587309999999995,"transit":false,"time":2},{"station_id":"BOI","time":2,"distance":2334,"station_name":"Bojongindah","transit":false,"i_long":106.737035,"is_transit":false,"i_lat":-6.159876,"line":0},{"i_long":106.723064,"transit":false,"line":5,"station_id":"RW","distance":1152,"is_transit":false,"time":4,"station_name":"Rawa Buaya","i_lat":-6.162758},{"distance":2504,"time":3,"station_name":"Kalideres","i_lat":-6.166068,"station_id":"KDS","is_transit":false,"i_long":106.701612,"line":5,"transit":false},{"station_name":"Poris","i_lat":-6.169933,"is_transit":false,"i_long":106.679458,"time":3,"transit":false,"station_id":"PI","distance":2548,"line":5},{"is_transit":false,"time":3,"line":0,"station_name":"Batuceper","i_long":106.665036,"station_id":"BPR","transit":false,"i_lat":-6.171811,"distance":1834},{"time":3,"is_transit":false,"distance":2028,"i_lat":-6.17331,"transit":false,"i_long":106.64657,"station_name":"Tanah Tinggi","line":5,"station_id":"TTI"}]]}