{"data":[[{"is_transit":false,"station_id":"CBN","distance":0,"i_long":106.851978,"line":0,"time":0,"station_name":"Cibinong","transit":false,"i_lat":-6.46424},{"transit":false,"i_lat":-6.448811,"i_long":106.800298,"is_transit":true,"line":1,"time":10,"station_id":"CTA","station_name":"Citayam","distance":6740},{"station_id":"DP","i_long":106.816926,"station_name":"Depok","transit":false,"i_lat":-6.405256,"time":6,"distance":5084,"is_transit":false,"line":0},{"time":3,"transit":false,"i_lat":-6.391065,"i_long":106.819451,"line":0,"station_id":"DPB","station_name":"Depokbaru","is_transit":false,"distance":1584},{"time":4,"line":2,"transit":false,"distance":2727,"station_id":"POC","i_lat":-6.369073,"i_long":106.831114,"station_name":"Pondok Cina","is_transit":false},{"station_id":"UI","station_name":"Univ. Indonesia","transit":false,"i_lat":-6.360749,"i_long":106.831474,"time":2,"distance":1109,"is_transit":false,"line":2},{"distance":2264,"transit":false,"station_id":"UP","i_long":106.834175,"is_transit":false,"station_name":"Univ. Pancasila","time":3,"i_lat":-6.339291,"line":2},{"i_long":106.832616,"distance":1029,"is_transit":false,"i_lat":-6.330363,"time":2,"line":2,"transit":false,"station_name":"Lenteng Agung","station_id":"LNA"},{"is_transit":false,"transit":false,"i_long":106.838896,"station_id":"TNT","distance":2671,"i_lat":-6.3080680000000005,"station_name":"Tanjung Barat","line":2,"time":3},{"time":4,"i_lat":-6.2842400000000005,"station_name":"Pasar Minggu","distance":2820,"is_transit":false,"line":2,"transit":false,"i_long":106.843999,"station_id":"PSM"},{"station_name":"Pasar Minggu Baru","transit":false,"time":2,"line":2,"is_transit":false,"station_id":"PSMB","i_lat":-6.263214,"distance":2380,"i_long":106.851577},{"station_id":"DRN","is_transit":false,"transit":false,"i_lat":-6.255332,"station_name":"Duren Kalibata","line":0,"distance":824,"i_long":106.85449,"time":2},{"transit":false,"time":3,"station_name":"Cawang","i_long":106.856607,"distance":1546,"station_id":"CW","i_lat":-6.242512,"line":0,"is_transit":false},{"i_long":106.857948,"time":2,"distance":1230,"transit":false,"line":2,"i_lat":-6.226659,"is_transit":false,"station_name":"Tebet","station_id":"TEB"},{"transit":true,"time":4,"station_id":"MRI","distance":2610,"i_long":106.84912,"is_transit":true,"i_lat":-6.209883,"station_name":"Manggarai","line":0},{"time":4,"i_lat":-6.202263,"distance":3186,"line":1,"is_transit":false,"i_long":106.822649,"transit":false,"station_name":"Sudirman","station_id":"SUD"},{"transit":false,"distance":280,"i_long":106.819881,"line":1,"time":1,"is_transit":false,"i_lat":-6.201433,"station_name":"Sudirman Baru","station_id":"SUDB"},{"i_lat":-6.20132,"time":1,"station_id":"KAT","is_transit":false,"station_name":"Karet","i_long":106.816351,"line":1,"transit":false,"distance":471},{"distance":2029,"station_id":"THB","transit":false,"time":5,"i_lat":-6.185545,"line":1,"station_name":"Tanah Abang","i_long":106.811091,"is_transit":true},{"station_name":"Duri","time":8,"distance":3632,"is_transit":true,"i_long":106.800832,"line":1,"i_lat":-6.155215,"station_id":"DU","transit":true},{"time":3,"station_name":"Grogol","station_id":"GGL","distance":1700,"i_lat":-6.162021,"i_long":106.788277,"is_transit":false,"transit":false,"line":5},{"is_transit":false,"line":5,"time":2,"i_long":106.771379,"i_lat":-6.161433,"distance":2036,"transit":false,"station_id":"PSG","station_name":"Pesing"},{"station_name":"Taman Kota","transit":false,"line":5,"time":2,"distance":1614,"i_long":106.756522,"station_id":"TKO","is_transit":false,"i_lat":-6.1587309999999995},{"i_long":106.737035,"distance":2334,"time":2,"is_transit":false,"i_lat":-6.159876,"line":0,"station_id":"BOI","transit":false,"station_name":"Bojongindah"},{"transit":false,"time":4,"distance":1152,"i_lat":-6.162758,"station_id":"RW","i_long":106.723064,"line":5,"station_name":"Rawa Buaya","is_transit":false},{"distance":2504,"time":3,"i_lat":-6.166068,"station_name":"Kalideres","is_transit":false,"transit":false,"station_id":"KDS","i_long":106.701612,"line":5},{"distance":2548,"station_id":"PI","is_transit":false,"station_name":"Poris","i_lat":-6.169933,"i_long":106.679458,"time":3,"line":5,"transit":false},{"i_lat":-6.171811,"time":3,"station_name":"Batuceper","i_long":106.665036,"distance":1834,"is_transit":false,"station_id":"BPR","transit":false,"line":0},{"station_id":"TTI","i_lat":-6.17331,"i_long":106.64657,"transit":false,"distance":2028,"time":3,"is_transit":false,"station_name":"Tanah Tinggi","line":5},{"station_name":"Tangerang","station_id":"TNG","distance":1547,"transit":false,"i_lat":-6.176583,"i_long":106.632761,"time":3,"is_transit":false,"line":5}],[{"i_long":106.851978,"station_name":"Cibinong","station_id":"CBN","distance":0,"i_lat":-6.46424,"line":0,"transit":false,"time":0,"is_transit":false},{"line":1,"station_id":"CTA","time":10,"distance":6740,"is_transit":true,"i_lat":-6.448811,"i_long":106.800298,"transit":false,"station_name":"Citayam"},{"station_id":"DP","is_transit":false,"transit":false,"station_name":"Depok","distance":5084,"time":6,"i_lat":-6.405256,"i_long":106.816926,"line":0},{"station_id":"DPB","station_name":"Depokbaru","i_long":106.819451,"line":0,"transit":false,"time":3,"distance":1584,"i_lat":-6.391065,"is_transit":false},{"distance":2727,"is_transit":false,"i_long":106.831114,"line":2,"station_id":"POC","time":4,"transit":false,"station_name":"Pondok Cina","i_lat":-6.369073},{"i_lat":-6.360749,"time":2,"i_long":106.831474,"distance":1109,"line":2,"is_transit":false,"station_name":"Univ. Indonesia","transit":false,"station_id":"UI"},{"station_id":"UP","time":3,"i_lat":-6.339291,"i_long":106.834175,"line":2,"is_transit":false,"transit":false,"distance":2264,"station_name":"Univ. Pancasila"},{"i_lat":-6.330363,"station_name":"Lenteng Agung","station_id":"LNA","line":2,"distance":1029,"i_long":106.832616,"transit":false,"is_transit":false,"time":2},{"line":2,"i_lat":-6.3080680000000005,"transit":false,"station_name":"Tanjung Barat","distance":2671,"time":3,"i_long":106.838896,"station_id":"TNT","is_transit":false},{"is_transit":false,"time":4,"i_lat":-6.2842400000000005,"station_id":"PSM","distance":2820,"i_long":106.843999,"line":2,"station_name":"Pasar Minggu","transit":false},{"station_id":"PSMB","transit":false,"i_lat":-6.263214,"line":2,"i_long":106.851577,"time":2,"is_transit":false,"distance":2380,"station_name":"Pasar Minggu Baru"},{"is_transit":false,"line":0,"station_name":"Duren Kalibata","i_lat":-6.255332,"time":2,"transit":false,"station_id":"DRN","distance":824,"i_long":106.85449},{"line":0,"distance":1546,"i_lat":-6.242512,"is_transit":false,"i_long":106.856607,"time":3,"station_name":"Cawang","station_id":"CW","transit":false},{"line":2,"distance":1230,"station_name":"Tebet","station_id":"TEB","is_transit":false,"transit":false,"time":2,"i_long":106.857948,"i_lat":-6.226659},{"i_lat":-6.209883,"time":4,"distance":2610,"is_transit":true,"i_long":106.84912,"station_name":"Manggarai","line":0,"transit":true,"station_id":"MRI"},{"distance":1590,"station_id":"CKI","transit":false,"i_lat":-6.198556,"station_name":"Cikini","time":4,"is_transit":false,"i_long":106.840169,"line":0},{"station_id":"GDD","is_transit":false,"i_lat":-6.186295,"time":3,"i_long":106.832183,"distance":1750,"station_name":"Gondangdia","transit":false,"line":2},{"time":4,"i_lat":-6.166716,"station_id":"JUA","is_transit":false,"station_name":"Juanda","i_long":106.828284,"distance":2015,"transit":false,"line":2},{"station_name":"Sawah Besar","time":2,"i_long":106.827103,"line":2,"transit":false,"station_id":"SW","is_transit":false,"distance":1149,"i_lat":-6.160725},{"distance":906,"i_lat":-6.149769,"time":2,"line":2,"i_long":106.82482,"station_id":"MGB","is_transit":false,"station_name":"Manggabesar","transit":false},{"station_id":"JAY","transit":false,"is_transit":false,"i_long":106.820901,"line":7,"i_lat":-6.141205,"station_name":"Jayakarta","time":2,"distance":1080},{"time":4,"i_long":106.812439,"distance":1264,"transit":true,"is_transit":true,"line":0,"station_id":"JAKK","i_lat":-6.137569,"station_name":"Jakarta Kota"},{"i_long":106.826365,"is_transit":true,"i_lat":-6.132549,"line":0,"transit":false,"time":3,"distance":1364,"station_name":"Kampung Bandan","station_id":"KPB"},{"distance":4102,"line":0,"station_id":"AK","transit":false,"i_lat":-6.144674,"i_long":106.79867,"is_transit":false,"station_name":"Angke","time":9},{"line":1,"station_name":"Duri","time":4,"distance":1230,"station_id":"DU","transit":true,"is_transit":true,"i_lat":-6.155215,"i_long":106.800832},{"station_name":"Grogol","distance":1700,"is_transit":false,"transit":false,"time":3,"i_lat":-6.162021,"i_long":106.788277,"line":5,"station_id":"GGL"},{"transit":false,"distance":2036,"i_long":106.771379,"time":2,"line":5,"i_lat":-6.161433,"station_id":"PSG","station_name":"Pesing","is_transit":false},{"station_id":"TKO","station_name":"Taman Kota","i_lat":-6.1587309999999995,"time":2,"line":5,"transit":false,"is_transit":false,"i_long":106.756522,"distance":1614},{"is_transit":false,"line":0,"station_id":"BOI","i_lat":-6.159876,"station_name":"Bojongindah","transit":false,"i_long":106.737035,"time":2,"distance":2334},{"station_name":"Rawa Buaya","is_transit":false,"i_long":106.723064,"line":5,"i_lat":-6.162758,"time":4,"distance":1152,"station_id":"RW","transit":false},{"i_long":106.701612,"station_id":"KDS","transit":false,"station_name":"Kalideres","distance":2504,"is_transit":false,"i_lat":-6.166068,"time":3,"line":5},{"transit":false,"distance":2548,"i_long":106.679458,"station_name":"Poris","station_id":"PI","time":3,"i_lat":-6.169933,"line":5,"is_transit":false},{"i_lat":-6.171811,"time":3,"transit":false,"line":0,"i_long":106.665036,"distance":1834,"station_id":"BPR","is_transit":false,"station_name":"Batuceper"},{"time":3,"i_long":106.64657,"station_id":"TTI","line":5,"distance":2028,"transit":false,"i_lat":-6.17331,"station_name":"Tanah Tinggi","is_transit":false},{"distance":1547,"transit":false,"i_lat":-6.176583,"line":5,"station_name":"Tangerang","station_id":"TNG","is_transit":false,"i_long":106.632761,"time":3}],[{"transit":false,"time":0,"distance":0,"i_lat":-6.46424,"station_id":"CBN","line":0,"is_transit":false,"i_long":106.851978,"station_name":"Cibinong"},{"station_name":"Citayam","transit":false,"i_long":106.800298,"line":1,"time":10,"station_id":"CTA","distance":6740,"is_transit":true,"i_lat":-6.448811},{"transit":false,"station_name":"Depok","distance":5084,"i_lat":-6.405256,"line":0,"i_long":106.816926,"time":6,"is_transit":false,"station_id":"DP"},{"line":0,"time":3,"i_lat":-6.391065,"station_id":"DPB","is_transit":false,"i_long":106.819451,"transit":false,"distance":1584,"station_name":"Depokbaru"},{"is_transit":false,"i_lat":-6.369073,"transit":false,"station_name":"Pondok Cina","distance":2727,"i_long":106.831114,"line":2,"station_id":"POC","time":4},{"station_name":"Univ. Indonesia","i_lat":-6.360749,"line":2,"station_id":"UI","transit":false,"time":2,"is_transit":false,"distance":1109,"i_long":106.831474},{"i_lat":-6.339291,"is_transit":false,"station_id":"UP","time":3,"i_long":106.834175,"distance":2264,"station_name":"Univ. Pancasila","line":2,"transit":false},{"transit":false,"distance":1029,"is_transit":false,"i_long":106.832616,"line":2,"station_name":"Lenteng Agung","time":2,"i_lat":-6.330363,"station_id":"LNA"},{"i_long":106.838896,"transit":false,"station_name":"Tanjung Barat","is_transit":false,"distance":2671,"station_id":"TNT","time":3,"i_lat":-6.3080680000000005,"line":2},{"is_transit":false,"station_name":"Pasar Minggu","i_long":106.843999,"i_lat":-6.2842400000000005,"transit":false,"distance":2820,"line":2,"time":4,"station_id":"PSM"},{"i_lat":-6.263214,"station_name":"Pasar Minggu Baru","station_id":"PSMB","distance":2380,"is_transit":false,"i_long":106.851577,"transit":false,"line":2,"time":2},{"time":2,"distance":824,"is_transit":false,"station_id":"DRN","i_lat":-6.255332,"line":0,"i_long":106.85449,"station_name":"Duren Kalibata","transit":false},{"station_name":"Cawang","i_lat":-6.242512,"i_long":106.856607,"time":3,"transit":false,"is_transit":false,"station_id":"CW","distance":1546,"line":0},{"station_id":"TEB","i_long":106.857948,"station_name":"Tebet","time":2,"i_lat":-6.226659,"is_transit":false,"line":2,"distance":1230,"transit":false},{"station_id":"MRI","station_name":"Manggarai","is_transit":true,"time":4,"i_lat":-6.209883,"i_long":106.84912,"transit":true,"line":0,"distance":2610},{"station_name":"Matraman","is_transit":false,"i_lat":-6.212485,"station_id":"MTR","i_long":106.858896,"distance":1275,"line":1,"transit":false,"time":2},{"transit":true,"station_id":"JNG","time":8,"i_long":106.86807400000001,"i_lat":-6.215091,"line":0,"station_name":"Jatinegara","distance":1377,"is_transit":true},{"is_transit":false,"i_long":106.861737,"distance":1236,"station_name":"Pondok Jati","station_id":"POK","time":2,"line":11,"transit":false,"i_lat":-6.209188},{"i_long":106.855437,"transit":false,"i_lat":-6.193792,"time":2,"is_transit":false,"line":11,"station_id":"KMT","station_name":"Kramat","distance":1829},{"is_transit":false,"i_long":106.850107,"transit":false,"station_id":"GST","i_lat":-6.185975,"line":11,"time":1,"distance":973,"station_name":"Gang Sentiong"},{"transit":false,"is_transit":false,"station_id":"PSE","i_long":106.84368,"station_name":"Pasar Senen","time":8,"i_lat":-6.174784,"line":11,"distance":1567},{"i_long":106.839204,"time":4,"distance":1436,"station_id":"KMO","station_name":"Kemayoran","transit":false,"line":11,"i_lat":-6.161728,"is_transit":false},{"station_id":"RJW","line":11,"time":5,"is_transit":false,"i_lat":-6.14505,"distance":1901,"station_name":"Rajawali","transit":false,"i_long":106.836569},{"time":3,"distance":1444,"i_lat":-6.132549,"i_long":106.826365,"station_id":"KPB","station_name":"Kampung Bandan","transit":true,"is_transit":true,"line":0},{"distance":4102,"time":9,"is_transit":false,"i_lat":-6.144674,"i_long":106.79867,"line":0,"station_name":"Angke","transit":false,"station_id":"AK"},{"i_long":106.800832,"distance":1230,"is_transit":true,"time":4,"station_name":"Duri","station_id":"DU","line":1,"transit":true,"i_lat":-6.155215},{"time":3,"is_transit":false,"transit":false,"i_lat":-6.162021,"i_long":106.788277,"line":5,"distance":1700,"station_name":"Grogol","station_id":"GGL"},{"station_id":"PSG","line":5,"is_transit":false,"station_name":"Pesing","transit":false,"time":2,"distance":2036,"i_long":106.771379,"i_lat":-6.161433},{"i_long":106.756522,"line":5,"is_transit":false,"i_lat":-6.1587309999999995,"distance":1614,"station_name":"Taman Kota","time":2,"transit":false,"station_id":"TKO"},{"line":0,"transit":false,"time":2,"distance":2334,"station_id":"BOI","station_name":"Bojongindah","is_transit":false,"i_long":106.737035,"i_lat":-6.159876},{"station_id":"RW","i_long":106.723064,"i_lat":-6.162758,"distance":1152,"is_transit":false,"station_name":"Rawa Buaya","transit":false,"line":5,"time":4},{"distance":2504,"station_id":"KDS","is_transit":false,"i_lat":-6.166068,"line":5,"station_name":"Kalideres","transit":false,"time":3,"i_long":106.701612},{"i_lat":-6.169933,"distance":2548,"station_name":"Poris","i_long":106.679458,"time":3,"station_id":"PI","transit":false,"line":5,"is_transit":false},{"station_name":"Batuceper","transit":false,"distance":1834,"i_long":106.665036,"station_id":"BPR","line":0,"is_transit":false,"time":3,"i_lat":-6.171811},{"distance":2028,"i_long":106.64657,"is_transit":false,"time":3,"station_id":"TTI","transit":false,"i_lat":-6.17331,"station_name":"Tanah Tinggi","line":5},{"is_transit":false,"time":3,"i_long":106.632761,"station_id":"TNG","transit":false,"line":5,"station_name":"Tangerang","distance":1547,"i_lat":-6.176583}]]}