{"data":[[{"transit":false,"i_long":106.851978,"i_lat":-6.46424,"is_transit":false,"station_name":"Cibinong","station_id":"CBN","time":0,"distance":0,"line":21},{"line":21,"station_name":"Pondok Rajeg","distance":0,"transit":false,"i_long":106.824374,"is_transit":false,"i_lat":-6.460735,"time":0,"station_id":"PDRG"},{"station_name":"Citayam","distance":0,"is_transit":true,"time":0,"i_long":106.800298,"i_lat":-6.448811,"station_id":"CTA","line":2,"transit":true},{"i_lat":-6.405256,"i_long":106.816926,"transit":false,"station_id":"DP","is_transit":false,"distance":5084,"line":2,"station_name":"Depok","time":6},{"i_lat":-6.391065,"line":2,"station_name":"Depokbaru","transit":false,"station_id":"DPB","time":3,"is_transit":false,"distance":1584,"i_long":106.819451},{"time":4,"station_id":"POC","distance":2727,"i_lat":-6.369073,"i_long":106.831114,"line":2,"is_transit":false,"transit":false,"station_name":"Pondok Cina"},{"transit":false,"is_transit":false,"time":2,"i_long":106.831474,"station_name":"Univ. Indonesia","line":2,"station_id":"UI","distance":1109,"i_lat":-6.360749},{"station_name":"Univ. Pancasila","line":2,"is_transit":false,"station_id":"UP","time":3,"i_lat":-6.339291,"i_long":106.834175,"distance":2264,"transit":false},{"line":2,"station_id":"LNA","is_transit":false,"time":2,"transit":false,"distance":1029,"i_long":106.832616,"station_name":"Lenteng Agung","i_lat":-6.330363},{"time":3,"is_transit":false,"station_name":"Tanjung Barat","i_long":106.838896,"line":2,"station_id":"TNT","i_lat":-6.3080680000000005,"transit":false,"distance":2671},{"i_lat":-6.2842400000000005,"station_name":"Pasar Minggu","is_transit":false,"time":4,"transit":false,"line":2,"distance":2820,"i_long":106.843999,"station_id":"PSM"},{"i_long":106.851577,"distance":2380,"time":2,"is_transit":false,"station_name":"Pasar Minggu Baru","station_id":"PSMB","i_lat":-6.263214,"transit":false,"line":2},{"i_lat":-6.255332,"transit":false,"station_name":"Duren Kalibata","is_transit":false,"time":2,"distance":824,"line":2,"station_id":"DRN","i_long":106.85449},{"station_id":"CW","transit":false,"station_name":"Cawang","time":3,"i_lat":-6.242512,"i_long":106.856607,"line":2,"distance":1546,"is_transit":false},{"line":2,"i_lat":-6.226659,"is_transit":false,"transit":false,"time":2,"distance":1230,"station_id":"TEB","station_name":"Tebet","i_long":106.857948},{"is_transit":true,"i_lat":-6.209883,"distance":2610,"station_id":"MRI","line":2,"time":4,"i_long":106.84912,"station_name":"Manggarai","transit":true},{"is_transit":false,"station_id":"SUD","time":4,"line":1,"i_lat":-6.202263,"station_name":"Sudirman","distance":3186,"transit":false,"i_long":106.822649},{"station_name":"Sudirman Baru","i_lat":-6.201433,"time":1,"i_long":106.819881,"station_id":"SUDB","transit":false,"line":1,"distance":280,"is_transit":false},{"line":1,"time":1,"station_id":"KAT","i_long":106.816351,"is_transit":false,"i_lat":-6.20132,"distance":471,"transit":false,"station_name":"Karet"},{"is_transit":false,"transit":false,"time":5,"distance":2029,"line":1,"i_lat":-6.185545,"i_long":106.811091,"station_name":"Tanah Abang","station_id":"THB"},{"station_name":"Duri","is_transit":true,"transit":true,"i_long":106.800832,"i_lat":-6.155215,"time":8,"distance":3632,"station_id":"DU","line":1},{"transit":false,"i_lat":-6.162021,"time":3,"line":5,"station_name":"Grogol","station_id":"GGL","distance":1700,"i_long":106.788277,"is_transit":false},{"is_transit":false,"line":5,"distance":2036,"station_id":"PSG","transit":false,"station_name":"Pesing","time":2,"i_lat":-6.161433,"i_long":106.771379},{"distance":1614,"station_id":"TKO","i_long":106.756522,"transit":false,"i_lat":-6.1587309999999995,"is_transit":false,"line":5,"station_name":"Taman Kota","time":2},{"i_long":106.737035,"line":5,"station_name":"Bojongindah","station_id":"BOI","is_transit":false,"time":2,"distance":2334,"transit":false,"i_lat":-6.159876},{"i_lat":-6.162758,"station_id":"RW","is_transit":false,"transit":false,"distance":1152,"i_long":106.723064,"station_name":"Rawa Buaya","line":5,"time":4},{"time":3,"is_transit":false,"distance":2504,"line":5,"i_lat":-6.166068,"station_name":"Kalideres","station_id":"KDS","transit":false,"i_long":106.701612},{"i_lat":-6.169933,"is_transit":false,"station_id":"PI","line":5,"time":3,"station_name":"Poris","distance":2548,"transit":false,"i_long":106.679458},{"is_transit":false,"distance":1834,"i_lat":-6.171811,"i_long":106.665036,"line":5,"station_id":"BPR","transit":false,"time":3,"station_name":"Batuceper"},{"i_lat":-6.17331,"distance":2028,"station_id":"TTI","station_name":"Tanah Tinggi","i_long":106.64657,"transit":false,"is_transit":false,"time":3,"line":5},{"station_name":"Tangerang","time":3,"station_id":"TNG","i_lat":-6.176583,"is_transit":false,"distance":1547,"line":5,"transit":false,"i_long":106.632761}],[{"time":0,"i_long":106.851978,"line":21,"distance":0,"station_id":"CBN","i_lat":-6.46424,"is_transit":false,"station_name":"Cibinong","transit":false},{"i_long":106.824374,"station_id":"PDRG","distance":0,"is_transit":false,"time":0,"i_lat":-6.460735,"line":21,"station_name":"Pondok Rajeg","transit":false},{"transit":true,"line":2,"station_name":"Citayam","i_long":106.800298,"distance":0,"station_id":"CTA","time":0,"i_lat":-6.448811,"is_transit":true},{"station_name":"Depok","time":6,"distance":5084,"i_lat":-6.405256,"i_long":106.816926,"transit":false,"is_transit":false,"line":2,"station_id":"DP"},{"distance":1584,"i_long":106.819451,"transit":false,"line":2,"i_lat":-6.391065,"station_name":"Depokbaru","station_id":"DPB","time":3,"is_transit":false},{"i_lat":-6.369073,"i_long":106.831114,"distance":2727,"transit":false,"station_name":"Pondok Cina","time":4,"is_transit":false,"line":2,"station_id":"POC"},{"i_lat":-6.360749,"station_id":"UI","distance":1109,"time":2,"station_name":"Univ. Indonesia","i_long":106.831474,"is_transit":false,"line":2,"transit":false},{"station_name":"Univ. Pancasila","distance":2264,"station_id":"UP","transit":false,"is_transit":false,"time":3,"line":2,"i_long":106.834175,"i_lat":-6.339291},{"i_long":106.832616,"distance":1029,"station_id":"LNA","line":2,"station_name":"Lenteng Agung","time":2,"is_transit":false,"transit":false,"i_lat":-6.330363},{"transit":false,"is_transit":false,"time":3,"station_name":"Tanjung Barat","i_long":106.838896,"station_id":"TNT","i_lat":-6.3080680000000005,"line":2,"distance":2671},{"i_long":106.843999,"time":4,"distance":2820,"station_id":"PSM","is_transit":false,"transit":false,"i_lat":-6.2842400000000005,"line":2,"station_name":"Pasar Minggu"},{"station_id":"PSMB","is_transit":false,"distance":2380,"i_long":106.851577,"time":2,"line":2,"i_lat":-6.263214,"transit":false,"station_name":"Pasar Minggu Baru"},{"is_transit":false,"station_name":"Duren Kalibata","station_id":"DRN","time":2,"i_lat":-6.255332,"line":2,"distance":824,"transit":false,"i_long":106.85449},{"distance":1546,"station_id":"CW","station_name":"Cawang","time":3,"transit":false,"i_lat":-6.242512,"i_long":106.856607,"line":2,"is_transit":false},{"station_id":"TEB","transit":false,"time":2,"station_name":"Tebet","distance":1230,"line":2,"i_long":106.857948,"is_transit":false,"i_lat":-6.226659},{"distance":2610,"station_name":"Manggarai","transit":false,"i_lat":-6.209883,"line":2,"is_transit":false,"i_long":106.84912,"station_id":"MRI","time":4},{"i_lat":-6.198556,"station_name":"Cikini","distance":1590,"i_long":106.840169,"line":2,"transit":false,"time":4,"station_id":"CKI","is_transit":false},{"i_lat":-6.186295,"station_name":"Gondangdia","transit":false,"station_id":"GDD","time":3,"is_transit":false,"i_long":106.832183,"line":2,"distance":1750},{"distance":2015,"station_id":"JUA","line":2,"transit":false,"station_name":"Juanda","time":4,"i_lat":-6.166716,"is_transit":false,"i_long":106.828284},{"time":2,"i_long":106.827103,"i_lat":-6.160725,"station_id":"SW","station_name":"Sawah Besar","line":2,"is_transit":false,"transit":false,"distance":1149},{"station_name":"Manggabesar","distance":906,"station_id":"MGB","is_transit":false,"transit":false,"i_long":106.82482,"line":2,"i_lat":-6.149769,"time":2},{"is_transit":false,"i_lat":-6.141205,"station_name":"Jayakarta","line":2,"distance":1080,"time":2,"transit":false,"station_id":"JAY","i_long":106.820901},{"i_lat":-6.137569,"station_name":"Jakarta Kota","time":4,"station_id":"JAKK","line":2,"is_transit":true,"transit":true,"distance":1264,"i_long":106.812439},{"time":3,"distance":1364,"line":4,"transit":true,"station_name":"Kampung Bandan","station_id":"KPB","is_transit":true,"i_lat":-6.132549,"i_long":106.826365},{"i_lat":-6.144674,"transit":false,"station_name":"Angke","line":1,"distance":4102,"i_long":106.79867,"is_transit":false,"station_id":"AK","time":9},{"is_transit":true,"station_id":"DU","i_lat":-6.155215,"station_name":"Duri","time":4,"transit":true,"i_long":106.800832,"line":1,"distance":1230},{"station_name":"Grogol","transit":false,"is_transit":false,"distance":1700,"i_lat":-6.162021,"time":3,"i_long":106.788277,"line":5,"station_id":"GGL"},{"line":5,"time":2,"is_transit":false,"station_name":"Pesing","station_id":"PSG","i_long":106.771379,"i_lat":-6.161433,"transit":false,"distance":2036},{"i_long":106.756522,"i_lat":-6.1587309999999995,"station_name":"Taman Kota","is_transit":false,"transit":false,"line":5,"time":2,"station_id":"TKO","distance":1614},{"line":5,"i_long":106.737035,"station_name":"Bojongindah","is_transit":false,"distance":2334,"transit":false,"station_id":"BOI","time":2,"i_lat":-6.159876},{"time":4,"is_transit":false,"station_id":"RW","i_lat":-6.162758,"station_name":"Rawa Buaya","transit":false,"i_long":106.723064,"line":5,"distance":1152},{"transit":false,"i_long":106.701612,"station_id":"KDS","time":3,"i_lat":-6.166068,"station_name":"Kalideres","distance":2504,"is_transit":false,"line":5},{"line":5,"transit":false,"distance":2548,"station_name":"Poris","time":3,"i_lat":-6.169933,"is_transit":false,"i_long":106.679458,"station_id":"PI"},{"transit":false,"station_id":"BPR","is_transit":false,"time":3,"station_name":"Batuceper","i_lat":-6.171811,"i_long":106.665036,"distance":1834,"line":5},{"station_id":"TTI","distance":2028,"is_transit":false,"station_name":"Tanah Tinggi","i_long":106.64657,"i_lat":-6.17331,"time":3,"transit":false,"line":5},{"transit":false,"station_name":"Tangerang","i_long":106.632761,"distance":1547,"i_lat":-6.176583,"station_id":"TNG","line":5,"is_transit":false,"time":3}],[{"station_id":"CBN","time":0,"i_lat":-6.46424,"line":21,"i_long":106.851978,"transit":false,"distance":0,"station_name":"Cibinong","is_transit":false},{"distance":0,"line":21,"i_long":106.824374,"transit":false,"station_name":"Pondok Rajeg","is_transit":false,"time":0,"station_id":"PDRG","i_lat":-6.460735},{"transit":true,"i_lat":-6.448811,"i_long":106.800298,"line":2,"distance":0,"station_id":"CTA","is_transit":true,"time":0,"station_name":"Citayam"},{"line":2,"is_transit":false,"transit":false,"station_id":"DP","distance":5084,"station_name":"Depok","time":6,"i_long":106.816926,"i_lat":-6.405256},{"station_name":"Depokbaru","transit":false,"line":2,"time":3,"distance":1584,"i_lat":-6.391065,"is_transit":false,"station_id":"DPB","i_long":106.819451},{"station_name":"Pondok Cina","transit":false,"time":4,"i_long":106.831114,"line":2,"i_lat":-6.369073,"is_transit":false,"station_id":"POC","distance":2727},{"i_long":106.831474,"station_name":"Univ. Indonesia","line":2,"distance":1109,"i_lat":-6.360749,"transit":false,"station_id":"UI","is_transit":false,"time":2},{"distance":2264,"i_lat":-6.339291,"is_transit":false,"i_long":106.834175,"line":2,"transit":false,"station_name":"Univ. Pancasila","station_id":"UP","time":3},{"line":2,"station_name":"Lenteng Agung","station_id":"LNA","i_long":106.832616,"time":2,"i_lat":-6.330363,"is_transit":false,"distance":1029,"transit":false},{"i_long":106.838896,"time":3,"is_transit":false,"station_id":"TNT","line":2,"station_name":"Tanjung Barat","transit":false,"distance":2671,"i_lat":-6.3080680000000005},{"line":2,"transit":false,"i_lat":-6.2842400000000005,"time":4,"i_long":106.843999,"is_transit":false,"distance":2820,"station_id":"PSM","station_name":"Pasar Minggu"},{"is_transit":false,"station_name":"Pasar Minggu Baru","station_id":"PSMB","time":2,"i_long":106.851577,"transit":false,"i_lat":-6.263214,"distance":2380,"line":2},{"station_name":"Duren Kalibata","i_long":106.85449,"line":2,"i_lat":-6.255332,"is_transit":false,"distance":824,"transit":false,"station_id":"DRN","time":2},{"time":3,"distance":1546,"is_transit":false,"station_id":"CW","transit":false,"i_long":106.856607,"station_name":"Cawang","i_lat":-6.242512,"line":2},{"station_name":"Tebet","is_transit":false,"distance":1230,"time":2,"i_lat":-6.226659,"line":2,"i_long":106.857948,"transit":false,"station_id":"TEB"},{"line":2,"time":4,"station_name":"Manggarai","transit":true,"station_id":"MRI","is_transit":true,"i_lat":-6.209883,"i_long":106.84912,"distance":2610},{"station_name":"Matraman","i_long":106.858896,"distance":1275,"line":1,"is_transit":false,"transit":false,"time":2,"i_lat":-6.212485,"station_id":"MTR"},{"i_long":106.86807400000001,"line":1,"station_name":"Jatinegara","is_transit":true,"transit":true,"i_lat":-6.215091,"distance":1377,"station_id":"JNG","time":8},{"station_id":"POK","station_name":"Pondok Jati","is_transit":false,"i_lat":-6.209188,"i_long":106.861737,"line":11,"distance":1236,"time":2,"transit":false},{"station_id":"KMT","distance":1829,"i_lat":-6.193792,"line":11,"station_name":"Kramat","i_long":106.855437,"time":2,"transit":false,"is_transit":false},{"is_transit":false,"line":11,"transit":false,"time":1,"i_lat":-6.185975,"station_name":"Gang Sentiong","station_id":"GST","distance":973,"i_long":106.850107},{"line":11,"transit":false,"station_id":"PSE","is_transit":false,"distance":1567,"i_lat":-6.174784,"i_long":106.84368,"time":8,"station_name":"Pasar Senen"},{"line":11,"station_name":"Kemayoran","distance":1436,"station_id":"KMO","i_lat":-6.161728,"transit":false,"time":4,"i_long":106.839204,"is_transit":false},{"is_transit":false,"transit":false,"i_long":106.836569,"station_id":"RJW","line":11,"i_lat":-6.14505,"time":5,"distance":1901,"station_name":"Rajawali"},{"line":4,"station_name":"Kampung Bandan","is_transit":true,"i_lat":-6.132549,"station_id":"KPB","time":3,"transit":true,"distance":1444,"i_long":106.826365},{"time":9,"distance":4102,"i_long":106.79867,"transit":false,"line":1,"station_name":"Angke","i_lat":-6.144674,"is_transit":false,"station_id":"AK"},{"distance":1230,"station_name":"Duri","station_id":"DU","transit":true,"i_lat":-6.155215,"i_long":106.800832,"line":1,"time":4,"is_transit":true},{"station_id":"GGL","station_name":"Grogol","distance":1700,"transit":false,"i_lat":-6.162021,"i_long":106.788277,"time":3,"line":5,"is_transit":false},{"station_id":"PSG","distance":2036,"is_transit":false,"i_lat":-6.161433,"station_name":"Pesing","time":2,"line":5,"i_long":106.771379,"transit":false},{"line":5,"is_transit":false,"transit":false,"i_long":106.756522,"station_name":"Taman Kota","time":2,"distance":1614,"station_id":"TKO","i_lat":-6.1587309999999995},{"i_lat":-6.159876,"time":2,"is_transit":false,"transit":false,"distance":2334,"line":5,"station_name":"Bojongindah","i_long":106.737035,"station_id":"BOI"},{"transit":false,"station_id":"RW","distance":1152,"i_long":106.723064,"is_transit":false,"i_lat":-6.162758,"line":5,"station_name":"Rawa Buaya","time":4},{"station_id":"KDS","is_transit":false,"time":3,"distance":2504,"i_long":106.701612,"line":5,"transit":false,"i_lat":-6.166068,"station_name":"Kalideres"},{"i_long":106.679458,"station_name":"Poris","station_id":"PI","time":3,"transit":false,"is_transit":false,"distance":2548,"i_lat":-6.169933,"line":5},{"transit":false,"station_name":"Batuceper","time":3,"i_long":106.665036,"i_lat":-6.171811,"distance":1834,"station_id":"BPR","is_transit":false,"line":5},{"station_name":"Tanah Tinggi","is_transit":false,"i_lat":-6.17331,"line":5,"station_id":"TTI","distance":2028,"time":3,"transit":false,"i_long":106.64657},{"station_name":"Tangerang","is_transit":false,"i_lat":-6.176583,"line":5,"transit":false,"distance":1547,"i_long":106.632761,"station_id":"TNG","time":3}]]}