{"data":[[{"i_long":106.851978,"is_transit":false,"station_name":"Cibinong","distance":0,"i_lat":-6.46424,"line":0,"station_id":"CBN","time":0,"transit":false},{"i_long":106.800298,"is_transit":true,"time":10,"line":1,"station_id":"CTA","i_lat":-6.448811,"distance":6740,"transit":false,"station_name":"Citayam"},{"i_long":106.816926,"is_transit":false,"station_id":"DP","time":6,"i_lat":-6.405256,"transit":false,"distance":5084,"line":0,"station_name":"Depok"},{"line":0,"station_name":"Depokbaru","transit":false,"distance":1584,"time":3,"station_id":"DPB","is_transit":false,"i_long":106.819451,"i_lat":-6.391065},{"distance":2727,"station_name":"Pondok Cina","time":4,"station_id":"POC","transit":false,"i_lat":-6.369073,"i_long":106.831114,"line":2,"is_transit":false},{"i_long":106.831474,"line":2,"distance":1109,"station_id":"UI","transit":false,"is_transit":false,"station_name":"Univ. Indonesia","i_lat":-6.360749,"time":2},{"station_id":"UP","station_name":"Univ. Pancasila","time":3,"distance":2264,"transit":false,"i_lat":-6.339291,"i_long":106.834175,"is_transit":false,"line":2},{"station_id":"LNA","distance":1029,"line":2,"is_transit":false,"station_name":"Lenteng Agung","i_lat":-6.330363,"time":2,"i_long":106.832616,"transit":false},{"transit":false,"station_name":"Tanjung Barat","i_lat":-6.3080680000000005,"line":2,"station_id":"TNT","time":3,"is_transit":false,"distance":2671,"i_long":106.838896},{"time":4,"is_transit":false,"station_name":"Pasar Minggu","line":2,"station_id":"PSM","transit":false,"i_lat":-6.2842400000000005,"distance":2820,"i_long":106.843999},{"station_id":"PSMB","line":2,"i_lat":-6.263214,"i_long":106.851577,"station_name":"Pasar Minggu Baru","is_transit":false,"time":2,"distance":2380,"transit":false},{"time":2,"station_name":"Duren Kalibata","transit":false,"station_id":"DRN","i_lat":-6.255332,"is_transit":false,"distance":824,"i_long":106.85449,"line":0},{"station_id":"CW","station_name":"Cawang","transit":false,"i_lat":-6.242512,"line":0,"is_transit":false,"time":3,"distance":1546,"i_long":106.856607},{"station_name":"Tebet","distance":1230,"is_transit":false,"i_lat":-6.226659,"station_id":"TEB","time":2,"transit":false,"i_long":106.857948,"line":2},{"is_transit":true,"time":4,"station_id":"MRI","station_name":"Manggarai","distance":2610,"i_lat":-6.209883,"line":0,"i_long":106.84912,"transit":true},{"distance":3186,"time":4,"line":1,"is_transit":false,"i_lat":-6.202263,"station_id":"SUD","transit":false,"i_long":106.822649,"station_name":"Sudirman"},{"station_id":"SUDB","station_name":"Sudirman Baru","is_transit":false,"i_long":106.819881,"line":1,"distance":280,"time":1,"i_lat":-6.201433,"transit":false},{"i_lat":-6.20132,"line":1,"distance":471,"i_long":106.816351,"station_name":"Karet","station_id":"KAT","time":1,"is_transit":false,"transit":false},{"time":5,"line":1,"transit":true,"distance":2029,"station_id":"THB","station_name":"Tanah Abang","i_lat":-6.185545,"i_long":106.811091,"is_transit":true},{"line":6,"transit":false,"station_id":"PLM","i_lat":-6.207404,"distance":3191,"station_name":"Palmerah","is_transit":false,"time":6,"i_long":106.79689},{"i_lat":-6.237242,"i_long":106.780334,"time":7,"station_name":"Kebayoran","transit":false,"line":6,"station_id":"KBY","is_transit":false,"distance":3737},{"station_name":"Pondokranji","transit":false,"i_lat":-6.276362,"is_transit":false,"time":8,"station_id":"PDJ","distance":6218,"line":6,"i_long":106.74273},{"transit":false,"i_lat":-6.288927,"line":6,"distance":2179,"station_name":"Jurangmangu","time":3,"station_id":"JMU","i_long":106.728916,"is_transit":false},{"station_id":"SDM","i_lat":-6.296963,"line":6,"distance":1994,"i_long":106.712277,"time":4,"station_name":"Sudimara","transit":false,"is_transit":false},{"i_lat":-6.314823,"is_transit":false,"time":6,"station_name":"Rawa Buntu","line":6,"station_id":"RU","distance":4566,"transit":false,"i_long":106.675475},{"is_transit":false,"distance":2413,"station_name":"Serpong","transit":false,"line":6,"time":4,"i_lat":-6.319871,"i_long":106.66566,"station_id":"SRP"},{"i_lat":-6.32484,"station_id":"CSK","is_transit":false,"line":0,"distance":1784,"station_name":"Cisauk","transit":false,"time":4,"i_long":106.640411},{"transit":false,"time":4,"is_transit":false,"distance":2519,"station_id":"CC","i_lat":-6.329547,"i_long":106.617853,"station_name":"Cicayur","line":0}],[{"i_lat":-6.46424,"is_transit":false,"transit":false,"station_name":"Cibinong","time":0,"station_id":"CBN","distance":0,"line":0,"i_long":106.851978},{"i_lat":-6.448811,"i_long":106.800298,"time":10,"line":1,"distance":6740,"station_name":"Citayam","is_transit":true,"station_id":"CTA","transit":false},{"is_transit":false,"transit":false,"distance":5084,"i_lat":-6.405256,"i_long":106.816926,"station_id":"DP","line":0,"time":6,"station_name":"Depok"},{"station_name":"Depokbaru","i_long":106.819451,"time":3,"i_lat":-6.391065,"station_id":"DPB","distance":1584,"transit":false,"is_transit":false,"line":0},{"station_id":"POC","i_long":106.831114,"line":2,"time":4,"i_lat":-6.369073,"station_name":"Pondok Cina","is_transit":false,"distance":2727,"transit":false},{"line":2,"i_lat":-6.360749,"distance":1109,"station_id":"UI","time":2,"transit":false,"i_long":106.831474,"is_transit":false,"station_name":"Univ. Indonesia"},{"line":2,"transit":false,"station_id":"UP","i_lat":-6.339291,"station_name":"Univ. Pancasila","is_transit":false,"time":3,"distance":2264,"i_long":106.834175},{"station_name":"Lenteng Agung","station_id":"LNA","i_long":106.832616,"is_transit":false,"time":2,"line":2,"distance":1029,"i_lat":-6.330363,"transit":false},{"line":2,"is_transit":false,"distance":2671,"time":3,"transit":false,"station_name":"Tanjung Barat","station_id":"TNT","i_long":106.838896,"i_lat":-6.3080680000000005},{"is_transit":false,"transit":false,"distance":2820,"station_name":"Pasar Minggu","time":4,"line":2,"i_lat":-6.2842400000000005,"i_long":106.843999,"station_id":"PSM"},{"is_transit":false,"transit":false,"distance":2380,"station_name":"Pasar Minggu Baru","line":2,"time":2,"i_lat":-6.263214,"station_id":"PSMB","i_long":106.851577},{"station_id":"DRN","transit":false,"distance":824,"is_transit":false,"station_name":"Duren Kalibata","i_lat":-6.255332,"time":2,"i_long":106.85449,"line":0},{"line":0,"time":3,"distance":1546,"i_long":106.856607,"is_transit":false,"transit":false,"station_id":"CW","i_lat":-6.242512,"station_name":"Cawang"},{"transit":false,"i_long":106.857948,"line":2,"station_name":"Tebet","i_lat":-6.226659,"time":2,"station_id":"TEB","is_transit":false,"distance":1230},{"is_transit":true,"station_name":"Manggarai","station_id":"MRI","i_lat":-6.209883,"transit":true,"time":4,"line":0,"distance":2610,"i_long":106.84912},{"line":0,"station_id":"CKI","distance":1590,"station_name":"Cikini","time":4,"transit":false,"is_transit":false,"i_long":106.840169,"i_lat":-6.198556},{"transit":false,"time":3,"station_id":"GDD","distance":1750,"i_lat":-6.186295,"line":2,"i_long":106.832183,"station_name":"Gondangdia","is_transit":false},{"time":4,"line":2,"i_long":106.828284,"station_name":"Juanda","transit":false,"distance":2015,"i_lat":-6.166716,"station_id":"JUA","is_transit":false},{"distance":1149,"is_transit":false,"transit":false,"station_id":"SW","line":2,"i_long":106.827103,"time":2,"i_lat":-6.160725,"station_name":"Sawah Besar"},{"distance":906,"line":2,"i_long":106.82482,"station_id":"MGB","time":2,"station_name":"Manggabesar","transit":false,"i_lat":-6.149769,"is_transit":false},{"i_long":106.820901,"station_id":"JAY","time":2,"is_transit":false,"station_name":"Jayakarta","transit":false,"i_lat":-6.141205,"distance":1080,"line":7},{"line":0,"is_transit":true,"station_name":"Jakarta Kota","distance":1264,"transit":true,"time":4,"i_long":106.812439,"i_lat":-6.137569,"station_id":"JAKK"},{"i_long":106.826365,"i_lat":-6.132549,"station_name":"Kampung Bandan","time":3,"line":0,"is_transit":true,"distance":1364,"station_id":"KPB","transit":false},{"transit":false,"i_lat":-6.144674,"is_transit":false,"i_long":106.79867,"station_id":"AK","line":0,"station_name":"Angke","time":9,"distance":4102},{"line":1,"time":4,"transit":true,"i_lat":-6.155215,"station_id":"DU","is_transit":true,"i_long":106.800832,"distance":1230,"station_name":"Duri"},{"transit":true,"line":1,"is_transit":true,"distance":3632,"time":8,"i_long":106.811091,"station_id":"THB","station_name":"Tanah Abang","i_lat":-6.185545},{"distance":3191,"line":6,"time":6,"transit":false,"i_long":106.79689,"station_name":"Palmerah","is_transit":false,"i_lat":-6.207404,"station_id":"PLM"},{"station_name":"Kebayoran","time":7,"is_transit":false,"line":6,"i_lat":-6.237242,"station_id":"KBY","transit":false,"distance":3737,"i_long":106.780334},{"station_id":"PDJ","line":6,"time":8,"distance":6218,"i_lat":-6.276362,"is_transit":false,"station_name":"Pondokranji","transit":false,"i_long":106.74273},{"time":3,"is_transit":false,"i_long":106.728916,"distance":2179,"line":6,"transit":false,"station_name":"Jurangmangu","station_id":"JMU","i_lat":-6.288927},{"i_long":106.712277,"i_lat":-6.296963,"distance":1994,"is_transit":false,"line":6,"station_name":"Sudimara","station_id":"SDM","time":4,"transit":false},{"transit":false,"is_transit":false,"time":6,"i_long":106.675475,"line":6,"i_lat":-6.314823,"station_id":"RU","distance":4566,"station_name":"Rawa Buntu"},{"i_lat":-6.319871,"is_transit":false,"station_name":"Serpong","i_long":106.66566,"distance":2413,"station_id":"SRP","line":6,"time":4,"transit":false},{"transit":false,"i_lat":-6.32484,"line":0,"i_long":106.640411,"distance":1784,"time":4,"station_id":"CSK","station_name":"Cisauk","is_transit":false},{"station_id":"CC","time":4,"is_transit":false,"distance":2519,"station_name":"Cicayur","transit":false,"i_long":106.617853,"i_lat":-6.329547,"line":0}],[{"time":0,"i_long":106.851978,"line":0,"distance":0,"station_name":"Cibinong","station_id":"CBN","i_lat":-6.46424,"transit":false,"is_transit":false},{"line":1,"station_name":"Citayam","is_transit":true,"time":10,"station_id":"CTA","i_long":106.800298,"transit":false,"distance":6740,"i_lat":-6.448811},{"transit":false,"time":6,"station_id":"DP","station_name":"Depok","i_lat":-6.405256,"distance":5084,"is_transit":false,"i_long":106.816926,"line":0},{"time":3,"transit":false,"is_transit":false,"i_lat":-6.391065,"line":0,"station_id":"DPB","i_long":106.819451,"distance":1584,"station_name":"Depokbaru"},{"distance":2727,"station_id":"POC","station_name":"Pondok Cina","transit":false,"is_transit":false,"i_long":106.831114,"i_lat":-6.369073,"time":4,"line":2},{"distance":1109,"is_transit":false,"time":2,"station_name":"Univ. Indonesia","line":2,"i_lat":-6.360749,"transit":false,"i_long":106.831474,"station_id":"UI"},{"is_transit":false,"transit":false,"line":2,"distance":2264,"i_lat":-6.339291,"time":3,"station_name":"Univ. Pancasila","station_id":"UP","i_long":106.834175},{"transit":false,"station_id":"LNA","is_transit":false,"line":2,"station_name":"Lenteng Agung","time":2,"i_long":106.832616,"i_lat":-6.330363,"distance":1029},{"time":3,"distance":2671,"transit":false,"station_id":"TNT","i_long":106.838896,"is_transit":false,"station_name":"Tanjung Barat","i_lat":-6.3080680000000005,"line":2},{"time":4,"i_long":106.843999,"distance":2820,"station_name":"Pasar Minggu","station_id":"PSM","i_lat":-6.2842400000000005,"is_transit":false,"line":2,"transit":false},{"station_id":"PSMB","i_long":106.851577,"time":2,"distance":2380,"station_name":"Pasar Minggu Baru","line":2,"is_transit":false,"transit":false,"i_lat":-6.263214},{"distance":824,"i_lat":-6.255332,"station_name":"Duren Kalibata","time":2,"line":0,"station_id":"DRN","is_transit":false,"transit":false,"i_long":106.85449},{"distance":1546,"transit":false,"is_transit":false,"time":3,"station_name":"Cawang","i_long":106.856607,"station_id":"CW","i_lat":-6.242512,"line":0},{"station_name":"Tebet","transit":false,"i_long":106.857948,"station_id":"TEB","time":2,"distance":1230,"i_lat":-6.226659,"line":2,"is_transit":false},{"distance":2610,"transit":true,"line":0,"i_long":106.84912,"is_transit":true,"station_id":"MRI","i_lat":-6.209883,"station_name":"Manggarai","time":4},{"i_lat":-6.212485,"line":1,"transit":false,"i_long":106.858896,"is_transit":false,"station_id":"MTR","distance":1275,"station_name":"Matraman","time":2},{"line":0,"time":8,"distance":1377,"station_name":"Jatinegara","transit":true,"i_long":106.86807400000001,"is_transit":true,"i_lat":-6.215091,"station_id":"JNG"},{"time":2,"station_name":"Pondok Jati","transit":false,"is_transit":false,"distance":1236,"station_id":"POK","line":11,"i_lat":-6.209188,"i_long":106.861737},{"i_long":106.855437,"station_id":"KMT","distance":1829,"time":2,"line":11,"transit":false,"is_transit":false,"station_name":"Kramat","i_lat":-6.193792},{"i_lat":-6.185975,"distance":973,"line":11,"time":1,"is_transit":false,"station_name":"Gang Sentiong","i_long":106.850107,"transit":false,"station_id":"GST"},{"station_name":"Pasar Senen","time":8,"i_lat":-6.174784,"distance":1567,"transit":false,"station_id":"PSE","i_long":106.84368,"is_transit":false,"line":11},{"time":4,"station_id":"KMO","station_name":"Kemayoran","i_long":106.839204,"transit":false,"line":11,"i_lat":-6.161728,"is_transit":false,"distance":1436},{"distance":1901,"line":11,"transit":false,"time":5,"is_transit":false,"i_long":106.836569,"station_name":"Rajawali","i_lat":-6.14505,"station_id":"RJW"},{"transit":true,"time":3,"distance":1444,"line":0,"station_name":"Kampung Bandan","i_lat":-6.132549,"station_id":"KPB","is_transit":true,"i_long":106.826365},{"line":0,"station_name":"Angke","transit":false,"i_long":106.79867,"is_transit":false,"time":9,"i_lat":-6.144674,"station_id":"AK","distance":4102},{"is_transit":true,"transit":true,"time":4,"i_lat":-6.155215,"station_id":"DU","line":1,"distance":1230,"i_long":106.800832,"station_name":"Duri"},{"i_long":106.811091,"line":1,"station_id":"THB","is_transit":true,"distance":3632,"transit":true,"time":8,"i_lat":-6.185545,"station_name":"Tanah Abang"},{"is_transit":false,"time":6,"i_lat":-6.207404,"transit":false,"line":6,"station_id":"PLM","station_name":"Palmerah","distance":3191,"i_long":106.79689},{"line":6,"is_transit":false,"time":7,"station_id":"KBY","station_name":"Kebayoran","distance":3737,"transit":false,"i_lat":-6.237242,"i_long":106.780334},{"i_long":106.74273,"time":8,"station_name":"Pondokranji","is_transit":false,"i_lat":-6.276362,"transit":false,"station_id":"PDJ","line":6,"distance":6218},{"station_name":"Jurangmangu","station_id":"JMU","distance":2179,"line":6,"time":3,"i_lat":-6.288927,"is_transit":false,"transit":false,"i_long":106.728916},{"transit":false,"i_lat":-6.296963,"station_id":"SDM","is_transit":false,"i_long":106.712277,"time":4,"distance":1994,"station_name":"Sudimara","line":6},{"station_id":"RU","time":6,"station_name":"Rawa Buntu","line":6,"i_long":106.675475,"distance":4566,"is_transit":false,"transit":false,"i_lat":-6.314823},{"distance":2413,"line":6,"time":4,"is_transit":false,"station_id":"SRP","i_lat":-6.319871,"station_name":"Serpong","transit":false,"i_long":106.66566},{"station_name":"Cisauk","is_transit":false,"transit":false,"station_id":"CSK","distance":1784,"i_lat":-6.32484,"line":0,"time":4,"i_long":106.640411},{"station_id":"CC","i_lat":-6.329547,"line":0,"is_transit":false,"time":4,"distance":2519,"station_name":"Cicayur","transit":false,"i_long":106.617853}]]}