{"data":[[{"time":0,"distance":0,"is_transit":false,"line":21,"station_name":"Cibinong","station_id":"CBN","transit":false,"i_long":106.851978,"i_lat":-6.46424},{"distance":0,"station_id":"PDRG","line":21,"i_long":106.824374,"i_lat":-6.460735,"is_transit":false,"time":0,"station_name":"Pondok Rajeg","transit":false},{"i_long":106.800298,"distance":0,"time":0,"line":2,"is_transit":true,"station_id":"CTA","i_lat":-6.448811,"station_name":"Citayam","transit":true},{"time":6,"line":2,"transit":false,"station_id":"DP","station_name":"Depok","is_transit":false,"i_long":106.816926,"distance":5084,"i_lat":-6.405256},{"distance":1584,"i_long":106.819451,"time":3,"i_lat":-6.391065,"station_id":"DPB","line":2,"station_name":"Depokbaru","is_transit":false,"transit":false},{"time":4,"station_id":"POC","distance":2727,"i_long":106.831114,"transit":false,"i_lat":-6.369073,"line":2,"is_transit":false,"station_name":"Pondok Cina"},{"station_name":"Univ. Indonesia","i_long":106.831474,"station_id":"UI","time":2,"line":2,"i_lat":-6.360749,"distance":1109,"is_transit":false,"transit":false},{"is_transit":false,"station_id":"UP","station_name":"Univ. Pancasila","i_long":106.834175,"i_lat":-6.339291,"transit":false,"line":2,"distance":2264,"time":3},{"i_lat":-6.330363,"distance":1029,"i_long":106.832616,"transit":false,"is_transit":false,"time":2,"station_name":"Lenteng Agung","line":2,"station_id":"LNA"},{"distance":2671,"station_name":"Tanjung Barat","i_long":106.838896,"is_transit":false,"line":2,"station_id":"TNT","time":3,"transit":false,"i_lat":-6.3080680000000005},{"time":4,"i_lat":-6.2842400000000005,"station_name":"Pasar Minggu","station_id":"PSM","is_transit":false,"i_long":106.843999,"line":2,"distance":2820,"transit":false},{"transit":false,"i_lat":-6.263214,"line":2,"i_long":106.851577,"time":2,"station_id":"PSMB","distance":2380,"is_transit":false,"station_name":"Pasar Minggu Baru"},{"time":2,"station_name":"Duren Kalibata","i_lat":-6.255332,"distance":824,"is_transit":false,"transit":false,"station_id":"DRN","i_long":106.85449,"line":2},{"distance":1546,"i_lat":-6.242512,"station_name":"Cawang","station_id":"CW","is_transit":false,"time":3,"transit":false,"i_long":106.856607,"line":2},{"line":2,"station_id":"TEB","time":2,"i_long":106.857948,"station_name":"Tebet","i_lat":-6.226659,"transit":false,"distance":1230,"is_transit":false},{"i_long":106.84912,"station_name":"Manggarai","station_id":"MRI","distance":2610,"transit":true,"line":2,"is_transit":true,"i_lat":-6.209883,"time":4},{"i_lat":-6.212485,"distance":1275,"station_id":"MTR","time":2,"transit":false,"station_name":"Matraman","i_long":106.858896,"line":1,"is_transit":false},{"i_long":106.86807400000001,"station_name":"Jatinegara","transit":false,"is_transit":false,"distance":1377,"line":1,"time":8,"station_id":"JNG","i_lat":-6.215091},{"distance":3395,"i_lat":-6.2135,"station_id":"KLD","transit":false,"i_long":106.899548,"time":3,"is_transit":false,"station_name":"Klender","line":1},{"i_lat":-6.215568,"time":2,"i_long":106.922662,"line":1,"is_transit":false,"transit":false,"station_id":"BUA","distance":3100,"station_name":"Buaran"},{"station_id":"KLDB","time":1,"distance":1305,"i_lat":-6.217455,"transit":false,"is_transit":false,"station_name":"Klenderbaru","i_long":106.939679,"line":1},{"i_long":106.951283,"i_lat":-6.219053,"station_name":"Cakung","is_transit":false,"line":1,"distance":1385,"station_id":"CUK","transit":false,"time":8},{"i_long":106.977657,"time":3,"is_transit":false,"station_id":"KRI","transit":false,"line":1,"i_lat":-6.224515,"station_name":"Kranji","distance":3097},{"i_long":106.997013,"is_transit":false,"distance":2520,"line":1,"transit":false,"time":4,"station_id":"BKS","i_lat":-6.236616,"station_name":"Bekasi"}],[{"transit":false,"station_id":"CBN","i_lat":-6.46424,"time":0,"station_name":"Cibinong","distance":0,"line":21,"is_transit":false,"i_long":106.851978},{"i_long":106.824374,"is_transit":false,"i_lat":-6.460735,"time":0,"station_name":"Pondok Rajeg","distance":0,"station_id":"PDRG","line":21,"transit":false},{"transit":true,"i_long":106.800298,"is_transit":true,"station_id":"CTA","time":0,"distance":0,"i_lat":-6.448811,"line":2,"station_name":"Citayam"},{"i_lat":-6.405256,"time":6,"i_long":106.816926,"distance":5084,"transit":false,"station_id":"DP","is_transit":false,"line":2,"station_name":"Depok"},{"i_lat":-6.391065,"i_long":106.819451,"station_name":"Depokbaru","line":2,"time":3,"is_transit":false,"distance":1584,"station_id":"DPB","transit":false},{"distance":2727,"is_transit":false,"time":4,"i_lat":-6.369073,"i_long":106.831114,"station_id":"POC","line":2,"transit":false,"station_name":"Pondok Cina"},{"is_transit":false,"i_long":106.831474,"distance":1109,"station_name":"Univ. Indonesia","line":2,"i_lat":-6.360749,"station_id":"UI","time":2,"transit":false},{"transit":false,"station_name":"Univ. Pancasila","time":3,"i_lat":-6.339291,"is_transit":false,"i_long":106.834175,"line":2,"station_id":"UP","distance":2264},{"station_name":"Lenteng Agung","time":2,"transit":false,"is_transit":false,"line":2,"station_id":"LNA","distance":1029,"i_lat":-6.330363,"i_long":106.832616},{"station_name":"Tanjung Barat","distance":2671,"transit":false,"i_long":106.838896,"line":2,"is_transit":false,"time":3,"station_id":"TNT","i_lat":-6.3080680000000005},{"station_id":"PSM","i_long":106.843999,"time":4,"station_name":"Pasar Minggu","transit":false,"distance":2820,"i_lat":-6.2842400000000005,"line":2,"is_transit":false},{"time":2,"distance":2380,"transit":false,"line":2,"is_transit":false,"i_lat":-6.263214,"station_id":"PSMB","station_name":"Pasar Minggu Baru","i_long":106.851577},{"station_name":"Duren Kalibata","is_transit":false,"distance":824,"i_lat":-6.255332,"i_long":106.85449,"station_id":"DRN","line":2,"time":2,"transit":false},{"station_name":"Cawang","distance":1546,"i_lat":-6.242512,"i_long":106.856607,"line":2,"time":3,"station_id":"CW","is_transit":false,"transit":false},{"is_transit":false,"station_name":"Tebet","line":2,"station_id":"TEB","time":2,"transit":false,"distance":1230,"i_lat":-6.226659,"i_long":106.857948},{"distance":2610,"station_id":"MRI","station_name":"Manggarai","is_transit":true,"i_long":106.84912,"line":2,"time":4,"transit":true,"i_lat":-6.209883},{"distance":3186,"transit":false,"station_id":"SUD","time":4,"i_long":106.822649,"line":1,"station_name":"Sudirman","i_lat":-6.202263,"is_transit":false},{"distance":280,"i_lat":-6.201433,"i_long":106.819881,"line":1,"station_name":"Sudirman Baru","transit":false,"is_transit":false,"time":1,"station_id":"SUDB"},{"transit":false,"time":1,"is_transit":false,"distance":471,"i_lat":-6.20132,"station_id":"KAT","station_name":"Karet","i_long":106.816351,"line":1},{"distance":2029,"i_long":106.811091,"station_id":"THB","i_lat":-6.185545,"is_transit":false,"time":5,"transit":false,"line":1,"station_name":"Tanah Abang"},{"distance":3632,"station_name":"Duri","i_lat":-6.155215,"i_long":106.800832,"time":8,"line":1,"is_transit":false,"station_id":"DU","transit":false},{"line":1,"is_transit":false,"station_id":"AK","time":4,"transit":false,"i_long":106.79867,"i_lat":-6.144674,"station_name":"Angke","distance":1230},{"distance":4102,"line":4,"transit":true,"time":9,"is_transit":true,"station_id":"KPB","i_lat":-6.132549,"i_long":106.826365,"station_name":"Kampung Bandan"},{"i_long":106.836569,"time":3,"station_name":"Rajawali","line":11,"transit":false,"distance":1444,"i_lat":-6.14505,"station_id":"RJW","is_transit":false},{"time":5,"line":11,"transit":false,"distance":1901,"i_long":106.839204,"station_name":"Kemayoran","station_id":"KMO","is_transit":false,"i_lat":-6.161728},{"station_id":"PSE","distance":1436,"is_transit":false,"line":11,"transit":false,"i_long":106.84368,"time":4,"station_name":"Pasar Senen","i_lat":-6.174784},{"is_transit":false,"distance":1567,"time":8,"i_long":106.850107,"line":11,"station_id":"GST","transit":false,"i_lat":-6.185975,"station_name":"Gang Sentiong"},{"time":1,"i_long":106.855437,"station_name":"Kramat","distance":973,"is_transit":false,"line":11,"station_id":"KMT","transit":false,"i_lat":-6.193792},{"i_long":106.861737,"time":2,"station_id":"POK","station_name":"Pondok Jati","is_transit":false,"line":11,"distance":1829,"transit":false,"i_lat":-6.209188},{"station_name":"Jatinegara","line":1,"station_id":"JNG","time":9,"transit":true,"distance":1236,"i_long":106.86807400000001,"i_lat":-6.215091,"is_transit":true},{"station_id":"KLD","station_name":"Klender","transit":false,"time":3,"i_lat":-6.2135,"i_long":106.899548,"line":1,"is_transit":false,"distance":3395},{"station_name":"Buaran","is_transit":false,"i_lat":-6.215568,"transit":false,"distance":3100,"i_long":106.922662,"line":1,"station_id":"BUA","time":2},{"i_lat":-6.217455,"line":1,"distance":1305,"i_long":106.939679,"transit":false,"time":1,"station_name":"Klenderbaru","is_transit":false,"station_id":"KLDB"},{"is_transit":false,"time":8,"distance":1385,"line":1,"i_long":106.951283,"station_name":"Cakung","station_id":"CUK","transit":false,"i_lat":-6.219053},{"line":1,"station_id":"KRI","time":3,"distance":3097,"station_name":"Kranji","is_transit":false,"i_lat":-6.224515,"i_long":106.977657,"transit":false},{"i_lat":-6.236616,"i_long":106.997013,"is_transit":false,"distance":2520,"line":1,"station_id":"BKS","time":4,"transit":false,"station_name":"Bekasi"}],[{"station_id":"CBN","is_transit":false,"distance":0,"station_name":"Cibinong","time":0,"i_lat":-6.46424,"transit":false,"i_long":106.851978,"line":21},{"station_name":"Pondok Rajeg","i_long":106.824374,"distance":0,"line":21,"transit":false,"station_id":"PDRG","is_transit":false,"time":0,"i_lat":-6.460735},{"distance":0,"station_id":"CTA","i_lat":-6.448811,"line":2,"i_long":106.800298,"time":0,"transit":true,"station_name":"Citayam","is_transit":true},{"time":6,"i_long":106.816926,"station_id":"DP","transit":false,"station_name":"Depok","is_transit":false,"i_lat":-6.405256,"distance":5084,"line":2},{"station_id":"DPB","i_lat":-6.391065,"time":3,"i_long":106.819451,"is_transit":false,"line":2,"distance":1584,"station_name":"Depokbaru","transit":false},{"station_id":"POC","i_lat":-6.369073,"i_long":106.831114,"is_transit":false,"transit":false,"distance":2727,"station_name":"Pondok Cina","time":4,"line":2},{"is_transit":false,"distance":1109,"line":2,"i_long":106.831474,"station_id":"UI","transit":false,"i_lat":-6.360749,"time":2,"station_name":"Univ. Indonesia"},{"station_name":"Univ. Pancasila","i_lat":-6.339291,"distance":2264,"station_id":"UP","i_long":106.834175,"line":2,"is_transit":false,"transit":false,"time":3},{"station_name":"Lenteng Agung","distance":1029,"time":2,"transit":false,"line":2,"is_transit":false,"i_lat":-6.330363,"i_long":106.832616,"station_id":"LNA"},{"i_lat":-6.3080680000000005,"line":2,"station_name":"Tanjung Barat","station_id":"TNT","transit":false,"i_long":106.838896,"is_transit":false,"distance":2671,"time":3},{"distance":2820,"station_name":"Pasar Minggu","line":2,"i_long":106.843999,"time":4,"transit":false,"is_transit":false,"i_lat":-6.2842400000000005,"station_id":"PSM"},{"i_lat":-6.263214,"time":2,"transit":false,"station_name":"Pasar Minggu Baru","line":2,"station_id":"PSMB","is_transit":false,"i_long":106.851577,"distance":2380},{"line":2,"time":2,"station_name":"Duren Kalibata","is_transit":false,"station_id":"DRN","transit":false,"i_lat":-6.255332,"distance":824,"i_long":106.85449},{"time":3,"transit":false,"station_name":"Cawang","is_transit":false,"station_id":"CW","distance":1546,"line":2,"i_long":106.856607,"i_lat":-6.242512},{"transit":false,"is_transit":false,"station_name":"Tebet","i_long":106.857948,"line":2,"time":2,"distance":1230,"station_id":"TEB","i_lat":-6.226659},{"line":2,"i_lat":-6.209883,"station_name":"Manggarai","time":4,"station_id":"MRI","distance":2610,"transit":false,"is_transit":false,"i_long":106.84912},{"is_transit":false,"i_lat":-6.198556,"line":2,"i_long":106.840169,"time":4,"station_name":"Cikini","distance":1590,"transit":false,"station_id":"CKI"},{"time":3,"i_long":106.832183,"is_transit":false,"station_name":"Gondangdia","i_lat":-6.186295,"line":2,"distance":1750,"station_id":"GDD","transit":false},{"transit":false,"i_lat":-6.166716,"i_long":106.828284,"distance":2015,"time":4,"line":2,"station_name":"Juanda","station_id":"JUA","is_transit":false},{"is_transit":false,"distance":1149,"i_long":106.827103,"i_lat":-6.160725,"station_id":"SW","transit":false,"station_name":"Sawah Besar","line":2,"time":2},{"station_id":"MGB","transit":false,"distance":906,"is_transit":false,"i_lat":-6.149769,"i_long":106.82482,"line":2,"time":2,"station_name":"Manggabesar"},{"distance":1080,"transit":false,"station_id":"JAY","station_name":"Jayakarta","i_lat":-6.141205,"i_long":106.820901,"line":2,"is_transit":false,"time":2},{"station_id":"JAKK","transit":true,"distance":1264,"i_lat":-6.137569,"station_name":"Jakarta Kota","line":2,"time":4,"is_transit":true,"i_long":106.812439},{"line":4,"time":3,"i_lat":-6.132549,"station_id":"KPB","distance":1364,"station_name":"Kampung Bandan","i_long":106.826365,"transit":true,"is_transit":true},{"i_lat":-6.14505,"transit":false,"is_transit":false,"station_id":"RJW","station_name":"Rajawali","time":3,"line":11,"distance":1444,"i_long":106.836569},{"time":5,"station_name":"Kemayoran","is_transit":false,"i_long":106.839204,"transit":false,"station_id":"KMO","i_lat":-6.161728,"distance":1901,"line":11},{"transit":false,"time":4,"line":11,"i_long":106.84368,"station_name":"Pasar Senen","station_id":"PSE","is_transit":false,"i_lat":-6.174784,"distance":1436},{"i_lat":-6.185975,"i_long":106.850107,"transit":false,"station_name":"Gang Sentiong","distance":1567,"time":8,"line":11,"station_id":"GST","is_transit":false},{"distance":973,"i_long":106.855437,"line":11,"transit":false,"is_transit":false,"i_lat":-6.193792,"station_id":"KMT","station_name":"Kramat","time":1},{"transit":false,"station_name":"Pondok Jati","i_long":106.861737,"line":11,"distance":1829,"i_lat":-6.209188,"station_id":"POK","is_transit":false,"time":2},{"transit":true,"distance":1236,"line":1,"time":9,"i_long":106.86807400000001,"station_name":"Jatinegara","i_lat":-6.215091,"station_id":"JNG","is_transit":true},{"station_name":"Klender","time":3,"i_long":106.899548,"is_transit":false,"i_lat":-6.2135,"distance":3395,"transit":false,"line":1,"station_id":"KLD"},{"is_transit":false,"distance":3100,"line":1,"time":2,"station_id":"BUA","i_long":106.922662,"i_lat":-6.215568,"transit":false,"station_name":"Buaran"},{"line":1,"station_name":"Klenderbaru","station_id":"KLDB","is_transit":false,"distance":1305,"time":1,"i_lat":-6.217455,"i_long":106.939679,"transit":false},{"time":8,"transit":false,"station_name":"Cakung","station_id":"CUK","is_transit":false,"distance":1385,"i_lat":-6.219053,"i_long":106.951283,"line":1},{"i_lat":-6.224515,"i_long":106.977657,"time":3,"station_name":"Kranji","line":1,"distance":3097,"station_id":"KRI","transit":false,"is_transit":false},{"i_lat":-6.236616,"station_id":"BKS","i_long":106.997013,"time":4,"is_transit":false,"transit":false,"station_name":"Bekasi","distance":2520,"line":1}]]}