{"data":[[{"station_id":"CBN","is_transit":false,"time":0,"i_lat":-6.46424,"distance":0,"line":21,"i_long":106.851978,"station_name":"Cibinong","transit":false},{"station_id":"PDRG","station_name":"Pondok Rajeg","is_transit":false,"transit":false,"time":0,"i_lat":-6.460735,"line":21,"i_long":106.824374,"distance":0},{"station_id":"CTA","is_transit":true,"i_long":106.800298,"distance":0,"transit":true,"time":0,"line":2,"i_lat":-6.448811,"station_name":"Citayam"},{"station_id":"DP","transit":false,"distance":5084,"is_transit":false,"station_name":"Depok","i_long":106.816926,"line":2,"time":6,"i_lat":-6.405256},{"time":3,"distance":1584,"station_id":"DPB","is_transit":false,"i_long":106.819451,"i_lat":-6.391065,"line":2,"transit":false,"station_name":"Depokbaru"},{"i_long":106.831114,"distance":2727,"line":2,"transit":false,"is_transit":false,"time":4,"i_lat":-6.369073,"station_name":"Pondok Cina","station_id":"POC"},{"station_name":"Univ. Indonesia","station_id":"UI","line":2,"is_transit":false,"transit":false,"time":2,"distance":1109,"i_lat":-6.360749,"i_long":106.831474},{"is_transit":false,"transit":false,"station_id":"UP","station_name":"Univ. Pancasila","line":2,"time":3,"i_lat":-6.339291,"i_long":106.834175,"distance":2264},{"line":2,"station_id":"LNA","is_transit":false,"transit":false,"time":2,"station_name":"Lenteng Agung","i_long":106.832616,"distance":1029,"i_lat":-6.330363},{"i_lat":-6.3080680000000005,"distance":2671,"is_transit":false,"transit":false,"i_long":106.838896,"line":2,"time":3,"station_name":"Tanjung Barat","station_id":"TNT"},{"line":2,"station_name":"Pasar Minggu","i_long":106.843999,"i_lat":-6.2842400000000005,"distance":2820,"is_transit":false,"transit":false,"station_id":"PSM","time":4},{"is_transit":false,"distance":2380,"time":2,"line":2,"i_lat":-6.263214,"i_long":106.851577,"station_name":"Pasar Minggu Baru","station_id":"PSMB","transit":false},{"i_lat":-6.255332,"distance":824,"line":2,"i_long":106.85449,"transit":false,"station_id":"DRN","is_transit":false,"time":2,"station_name":"Duren Kalibata"},{"is_transit":false,"time":3,"station_name":"Cawang","station_id":"CW","i_long":106.856607,"transit":false,"line":2,"i_lat":-6.242512,"distance":1546},{"i_lat":-6.226659,"is_transit":false,"time":2,"i_long":106.857948,"line":2,"transit":false,"distance":1230,"station_name":"Tebet","station_id":"TEB"},{"line":2,"station_id":"MRI","i_lat":-6.209883,"transit":true,"time":4,"distance":2610,"i_long":106.84912,"is_transit":true,"station_name":"Manggarai"},{"station_id":"SUD","transit":false,"distance":3186,"time":4,"station_name":"Sudirman","i_lat":-6.202263,"i_long":106.822649,"line":1,"is_transit":false},{"is_transit":false,"transit":false,"time":1,"station_name":"Sudirman Baru","i_lat":-6.201433,"station_id":"SUDB","i_long":106.819881,"distance":280,"line":1},{"station_id":"KAT","distance":471,"i_lat":-6.20132,"time":1,"i_long":106.816351,"is_transit":false,"transit":false,"station_name":"Karet","line":1},{"distance":2029,"transit":true,"time":5,"i_long":106.811091,"line":1,"station_id":"THB","is_transit":true,"station_name":"Tanah Abang","i_lat":-6.185545},{"distance":3191,"transit":false,"time":6,"station_name":"Palmerah","i_lat":-6.207404,"i_long":106.79689,"is_transit":false,"line":6,"station_id":"PLM"}],[{"transit":false,"line":21,"i_lat":-6.46424,"station_name":"Cibinong","is_transit":false,"station_id":"CBN","time":0,"i_long":106.851978,"distance":0},{"transit":false,"i_long":106.824374,"line":21,"distance":0,"i_lat":-6.460735,"is_transit":false,"station_id":"PDRG","time":0,"station_name":"Pondok Rajeg"},{"is_transit":true,"station_id":"CTA","distance":0,"transit":true,"i_lat":-6.448811,"line":2,"time":0,"i_long":106.800298,"station_name":"Citayam"},{"i_long":106.816926,"time":6,"distance":5084,"is_transit":false,"station_id":"DP","i_lat":-6.405256,"transit":false,"station_name":"Depok","line":2},{"line":2,"distance":1584,"i_lat":-6.391065,"transit":false,"station_name":"Depokbaru","time":3,"i_long":106.819451,"is_transit":false,"station_id":"DPB"},{"station_id":"POC","station_name":"Pondok Cina","is_transit":false,"line":2,"i_lat":-6.369073,"distance":2727,"transit":false,"time":4,"i_long":106.831114},{"distance":1109,"time":2,"station_id":"UI","is_transit":false,"transit":false,"station_name":"Univ. Indonesia","i_lat":-6.360749,"line":2,"i_long":106.831474},{"station_name":"Univ. Pancasila","transit":false,"i_lat":-6.339291,"time":3,"station_id":"UP","line":2,"distance":2264,"is_transit":false,"i_long":106.834175},{"distance":1029,"station_id":"LNA","i_long":106.832616,"is_transit":false,"time":2,"station_name":"Lenteng Agung","transit":false,"i_lat":-6.330363,"line":2},{"time":3,"station_name":"Tanjung Barat","line":2,"distance":2671,"i_lat":-6.3080680000000005,"transit":false,"station_id":"TNT","is_transit":false,"i_long":106.838896},{"station_id":"PSM","i_lat":-6.2842400000000005,"station_name":"Pasar Minggu","distance":2820,"is_transit":false,"time":4,"i_long":106.843999,"line":2,"transit":false},{"station_id":"PSMB","time":2,"distance":2380,"transit":false,"is_transit":false,"i_lat":-6.263214,"i_long":106.851577,"line":2,"station_name":"Pasar Minggu Baru"},{"line":2,"is_transit":false,"station_name":"Duren Kalibata","i_lat":-6.255332,"distance":824,"station_id":"DRN","time":2,"transit":false,"i_long":106.85449},{"distance":1546,"station_name":"Cawang","station_id":"CW","transit":false,"i_lat":-6.242512,"i_long":106.856607,"time":3,"line":2,"is_transit":false},{"i_long":106.857948,"i_lat":-6.226659,"line":2,"time":2,"station_name":"Tebet","station_id":"TEB","is_transit":false,"distance":1230,"transit":false},{"transit":false,"distance":2610,"is_transit":false,"station_name":"Manggarai","station_id":"MRI","time":4,"i_lat":-6.209883,"line":2,"i_long":106.84912},{"station_id":"CKI","i_lat":-6.198556,"i_long":106.840169,"time":4,"line":2,"distance":1590,"is_transit":false,"transit":false,"station_name":"Cikini"},{"transit":false,"time":3,"station_id":"GDD","line":2,"is_transit":false,"station_name":"Gondangdia","i_long":106.832183,"distance":1750,"i_lat":-6.186295},{"station_name":"Juanda","i_lat":-6.166716,"station_id":"JUA","line":2,"is_transit":false,"i_long":106.828284,"distance":2015,"transit":false,"time":4},{"line":2,"time":2,"distance":1149,"is_transit":false,"station_name":"Sawah Besar","transit":false,"i_lat":-6.160725,"i_long":106.827103,"station_id":"SW"},{"i_lat":-6.149769,"transit":false,"station_name":"Manggabesar","station_id":"MGB","time":2,"is_transit":false,"i_long":106.82482,"distance":906,"line":2},{"station_id":"JAY","i_long":106.820901,"distance":1080,"i_lat":-6.141205,"time":2,"line":2,"station_name":"Jayakarta","is_transit":false,"transit":false},{"station_name":"Jakarta Kota","distance":1264,"i_lat":-6.137569,"is_transit":true,"line":2,"i_long":106.812439,"transit":true,"time":4,"station_id":"JAKK"},{"is_transit":true,"i_lat":-6.132549,"i_long":106.826365,"line":4,"station_id":"KPB","transit":true,"station_name":"Kampung Bandan","distance":1364,"time":3},{"line":1,"distance":4102,"i_lat":-6.144674,"station_id":"AK","station_name":"Angke","i_long":106.79867,"transit":false,"time":9,"is_transit":false},{"i_long":106.800832,"is_transit":false,"time":4,"i_lat":-6.155215,"line":1,"transit":false,"station_name":"Duri","station_id":"DU","distance":1230},{"i_long":106.811091,"station_name":"Tanah Abang","transit":true,"distance":3632,"is_transit":true,"time":8,"i_lat":-6.185545,"line":1,"station_id":"THB"},{"distance":3191,"i_lat":-6.207404,"station_name":"Palmerah","i_long":106.79689,"time":6,"is_transit":false,"transit":false,"line":6,"station_id":"PLM"}],[{"time":0,"distance":0,"station_id":"CBN","is_transit":false,"line":21,"i_lat":-6.46424,"transit":false,"station_name":"Cibinong","i_long":106.851978},{"time":0,"i_lat":-6.460735,"transit":false,"i_long":106.824374,"distance":0,"line":21,"station_id":"PDRG","is_transit":false,"station_name":"Pondok Rajeg"},{"i_long":106.800298,"time":0,"i_lat":-6.448811,"distance":0,"transit":true,"station_id":"CTA","is_transit":true,"line":2,"station_name":"Citayam"},{"station_name":"Depok","i_lat":-6.405256,"i_long":106.816926,"station_id":"DP","line":2,"transit":false,"distance":5084,"is_transit":false,"time":6},{"transit":false,"line":2,"station_name":"Depokbaru","i_lat":-6.391065,"time":3,"station_id":"DPB","distance":1584,"is_transit":false,"i_long":106.819451},{"i_long":106.831114,"is_transit":false,"station_id":"POC","i_lat":-6.369073,"distance":2727,"time":4,"station_name":"Pondok Cina","transit":false,"line":2},{"line":2,"distance":1109,"transit":false,"station_id":"UI","station_name":"Univ. Indonesia","time":2,"i_lat":-6.360749,"is_transit":false,"i_long":106.831474},{"time":3,"is_transit":false,"station_id":"UP","transit":false,"station_name":"Univ. Pancasila","i_lat":-6.339291,"i_long":106.834175,"line":2,"distance":2264},{"station_id":"LNA","is_transit":false,"distance":1029,"station_name":"Lenteng Agung","line":2,"time":2,"i_lat":-6.330363,"transit":false,"i_long":106.832616},{"distance":2671,"station_id":"TNT","is_transit":false,"transit":false,"time":3,"station_name":"Tanjung Barat","i_lat":-6.3080680000000005,"i_long":106.838896,"line":2},{"i_lat":-6.2842400000000005,"is_transit":false,"line":2,"i_long":106.843999,"station_name":"Pasar Minggu","transit":false,"station_id":"PSM","time":4,"distance":2820},{"station_id":"PSMB","transit":false,"i_lat":-6.263214,"i_long":106.851577,"time":2,"station_name":"Pasar Minggu Baru","distance":2380,"line":2,"is_transit":false},{"distance":824,"is_transit":false,"time":2,"i_lat":-6.255332,"i_long":106.85449,"station_id":"DRN","transit":false,"line":2,"station_name":"Duren Kalibata"},{"transit":false,"distance":1546,"time":3,"station_name":"Cawang","i_lat":-6.242512,"i_long":106.856607,"line":2,"station_id":"CW","is_transit":false},{"time":2,"station_name":"Tebet","line":2,"is_transit":false,"distance":1230,"i_lat":-6.226659,"transit":false,"station_id":"TEB","i_long":106.857948},{"distance":2610,"i_lat":-6.209883,"is_transit":true,"station_id":"MRI","time":4,"station_name":"Manggarai","line":2,"i_long":106.84912,"transit":true},{"station_id":"MTR","transit":false,"i_lat":-6.212485,"time":2,"i_long":106.858896,"line":1,"distance":1275,"station_name":"Matraman","is_transit":false},{"station_id":"JNG","i_lat":-6.215091,"station_name":"Jatinegara","distance":1377,"i_long":106.86807400000001,"line":1,"is_transit":true,"transit":true,"time":8},{"station_name":"Pondok Jati","distance":1236,"i_long":106.861737,"line":11,"time":2,"station_id":"POK","i_lat":-6.209188,"transit":false,"is_transit":false},{"i_long":106.855437,"line":11,"station_id":"KMT","i_lat":-6.193792,"is_transit":false,"distance":1829,"transit":false,"time":2,"station_name":"Kramat"},{"line":11,"i_lat":-6.185975,"station_id":"GST","time":1,"distance":973,"station_name":"Gang Sentiong","is_transit":false,"transit":false,"i_long":106.850107},{"line":11,"station_id":"PSE","transit":false,"is_transit":false,"distance":1567,"time":8,"station_name":"Pasar Senen","i_long":106.84368,"i_lat":-6.174784},{"distance":1436,"station_id":"KMO","is_transit":false,"time":4,"i_long":106.839204,"line":11,"transit":false,"station_name":"Kemayoran","i_lat":-6.161728},{"i_long":106.836569,"distance":1901,"i_lat":-6.14505,"station_id":"RJW","is_transit":false,"transit":false,"line":11,"time":5,"station_name":"Rajawali"},{"i_long":106.826365,"distance":1444,"is_transit":true,"station_id":"KPB","transit":true,"time":3,"i_lat":-6.132549,"station_name":"Kampung Bandan","line":4},{"i_long":106.79867,"i_lat":-6.144674,"line":1,"station_id":"AK","time":9,"station_name":"Angke","distance":4102,"transit":false,"is_transit":false},{"distance":1230,"i_lat":-6.155215,"time":4,"i_long":106.800832,"line":1,"station_name":"Duri","station_id":"DU","is_transit":false,"transit":false},{"line":1,"i_long":106.811091,"transit":true,"time":8,"distance":3632,"is_transit":true,"station_id":"THB","station_name":"Tanah Abang","i_lat":-6.185545},{"distance":3191,"time":6,"station_name":"Palmerah","station_id":"PLM","i_lat":-6.207404,"i_long":106.79689,"is_transit":false,"line":6,"transit":false}]]}