{"data":[[{"distance":0,"station_name":"Cibinong","i_lat":-6.46424,"is_transit":false,"transit":false,"line":21,"station_id":"CBN","i_long":106.851978,"time":0},{"i_long":106.824374,"line":21,"is_transit":false,"i_lat":-6.460735,"distance":0,"station_id":"PDRG","station_name":"Pondok Rajeg","time":0,"transit":false},{"i_long":106.800298,"time":0,"line":2,"transit":true,"station_id":"CTA","station_name":"Citayam","is_transit":true,"i_lat":-6.448811,"distance":0},{"line":2,"time":6,"station_id":"DP","station_name":"Depok","distance":5084,"transit":false,"is_transit":false,"i_lat":-6.405256,"i_long":106.816926},{"transit":false,"station_id":"DPB","i_long":106.819451,"i_lat":-6.391065,"line":2,"time":3,"distance":1584,"station_name":"Depokbaru","is_transit":false},{"station_id":"POC","time":4,"station_name":"Pondok Cina","distance":2727,"transit":false,"i_long":106.831114,"line":2,"i_lat":-6.369073,"is_transit":false},{"line":2,"station_name":"Univ. Indonesia","station_id":"UI","distance":1109,"time":2,"i_lat":-6.360749,"transit":false,"i_long":106.831474,"is_transit":false},{"i_lat":-6.339291,"is_transit":false,"distance":2264,"transit":false,"station_name":"Univ. Pancasila","line":2,"time":3,"station_id":"UP","i_long":106.834175},{"station_name":"Lenteng Agung","station_id":"LNA","transit":false,"is_transit":false,"distance":1029,"time":2,"i_lat":-6.330363,"i_long":106.832616,"line":2},{"i_lat":-6.3080680000000005,"distance":2671,"time":3,"line":2,"station_name":"Tanjung Barat","is_transit":false,"station_id":"TNT","i_long":106.838896,"transit":false},{"distance":2820,"transit":false,"i_long":106.843999,"line":2,"time":4,"station_name":"Pasar Minggu","station_id":"PSM","is_transit":false,"i_lat":-6.2842400000000005}]]}