{"data":[[{"i_long":106.851978,"station_name":"Cibinong","line":0,"distance":0,"is_transit":false,"station_id":"CBN","i_lat":-6.46424,"transit":false,"time":0},{"distance":6740,"i_long":106.800298,"time":10,"line":1,"station_name":"Citayam","transit":false,"i_lat":-6.448811,"station_id":"CTA","is_transit":true},{"station_name":"Depok","i_lat":-6.405256,"transit":false,"i_long":106.816926,"is_transit":false,"distance":5084,"time":6,"line":0,"station_id":"DP"},{"line":0,"distance":1584,"station_name":"Depokbaru","is_transit":false,"i_long":106.819451,"station_id":"DPB","i_lat":-6.391065,"time":3,"transit":false},{"is_transit":false,"station_name":"Pondok Cina","i_lat":-6.369073,"station_id":"POC","transit":false,"line":2,"i_long":106.831114,"distance":2727,"time":4},{"i_long":106.831474,"transit":false,"line":2,"time":2,"is_transit":false,"station_name":"Univ. Indonesia","i_lat":-6.360749,"distance":1109,"station_id":"UI"},{"i_long":106.834175,"line":2,"transit":false,"station_id":"UP","time":3,"is_transit":false,"distance":2264,"i_lat":-6.339291,"station_name":"Univ. Pancasila"},{"is_transit":false,"station_id":"LNA","i_lat":-6.330363,"i_long":106.832616,"time":2,"line":2,"station_name":"Lenteng Agung","distance":1029,"transit":false},{"distance":2671,"transit":false,"station_name":"Tanjung Barat","line":2,"i_lat":-6.3080680000000005,"i_long":106.838896,"is_transit":false,"station_id":"TNT","time":3},{"station_name":"Pasar Minggu","line":2,"i_lat":-6.2842400000000005,"transit":false,"i_long":106.843999,"station_id":"PSM","is_transit":false,"distance":2820,"time":4},{"station_name":"Pasar Minggu Baru","time":2,"distance":2380,"i_long":106.851577,"station_id":"PSMB","line":2,"i_lat":-6.263214,"transit":false,"is_transit":false},{"is_transit":false,"line":0,"station_name":"Duren Kalibata","transit":false,"i_lat":-6.255332,"station_id":"DRN","time":2,"i_long":106.85449,"distance":824},{"is_transit":false,"time":3,"station_name":"Cawang","line":0,"distance":1546,"i_lat":-6.242512,"station_id":"CW","i_long":106.856607,"transit":false},{"line":2,"time":2,"distance":1230,"transit":false,"i_lat":-6.226659,"i_long":106.857948,"is_transit":false,"station_name":"Tebet","station_id":"TEB"},{"is_transit":true,"distance":2610,"transit":true,"station_name":"Manggarai","station_id":"MRI","i_long":106.84912,"line":0,"time":4,"i_lat":-6.209883},{"station_name":"Sudirman","distance":3186,"i_lat":-6.202263,"i_long":106.822649,"line":1,"is_transit":false,"transit":false,"station_id":"SUD","time":4},{"station_id":"SUDB","transit":false,"time":1,"distance":280,"station_name":"Sudirman Baru","i_lat":-6.201433,"is_transit":false,"i_long":106.819881,"line":1},{"station_name":"Karet","time":1,"line":1,"i_lat":-6.20132,"i_long":106.816351,"distance":471,"transit":false,"station_id":"KAT","is_transit":false},{"line":1,"distance":2029,"station_id":"THB","station_name":"Tanah Abang","is_transit":true,"i_long":106.811091,"time":5,"transit":true,"i_lat":-6.185545},{"i_lat":-6.207404,"time":6,"station_id":"PLM","station_name":"Palmerah","line":6,"i_long":106.79689,"distance":3191,"transit":false,"is_transit":false},{"distance":3737,"is_transit":false,"i_lat":-6.237242,"station_name":"Kebayoran","line":6,"station_id":"KBY","time":7,"transit":false,"i_long":106.780334},{"transit":false,"station_name":"Pondokranji","distance":6218,"i_long":106.74273,"line":6,"is_transit":false,"i_lat":-6.276362,"station_id":"PDJ","time":8},{"i_long":106.728916,"is_transit":false,"station_name":"Jurangmangu","station_id":"JMU","distance":2179,"line":6,"i_lat":-6.288927,"transit":false,"time":3},{"station_id":"SDM","transit":false,"i_long":106.712277,"time":4,"distance":1994,"line":6,"i_lat":-6.296963,"is_transit":false,"station_name":"Sudimara"},{"station_name":"Rawa Buntu","distance":4566,"station_id":"RU","is_transit":false,"transit":false,"time":6,"i_long":106.675475,"line":6,"i_lat":-6.314823}],[{"transit":false,"line":0,"i_lat":-6.46424,"i_long":106.851978,"station_name":"Cibinong","is_transit":false,"time":0,"distance":0,"station_id":"CBN"},{"station_id":"CTA","time":10,"station_name":"Citayam","transit":false,"line":1,"distance":6740,"i_lat":-6.448811,"is_transit":true,"i_long":106.800298},{"i_lat":-6.405256,"station_id":"DP","transit":false,"i_long":106.816926,"time":6,"is_transit":false,"distance":5084,"line":0,"station_name":"Depok"},{"line":0,"station_name":"Depokbaru","transit":false,"i_lat":-6.391065,"i_long":106.819451,"time":3,"distance":1584,"station_id":"DPB","is_transit":false},{"line":2,"time":4,"station_id":"POC","i_long":106.831114,"station_name":"Pondok Cina","distance":2727,"transit":false,"i_lat":-6.369073,"is_transit":false},{"station_id":"UI","is_transit":false,"distance":1109,"transit":false,"i_lat":-6.360749,"i_long":106.831474,"time":2,"station_name":"Univ. Indonesia","line":2},{"station_name":"Univ. Pancasila","line":2,"station_id":"UP","is_transit":false,"distance":2264,"i_lat":-6.339291,"time":3,"transit":false,"i_long":106.834175},{"line":2,"station_name":"Lenteng Agung","time":2,"is_transit":false,"i_long":106.832616,"transit":false,"i_lat":-6.330363,"distance":1029,"station_id":"LNA"},{"line":2,"is_transit":false,"station_name":"Tanjung Barat","time":3,"transit":false,"i_long":106.838896,"i_lat":-6.3080680000000005,"station_id":"TNT","distance":2671},{"i_lat":-6.2842400000000005,"station_id":"PSM","time":4,"is_transit":false,"distance":2820,"transit":false,"line":2,"i_long":106.843999,"station_name":"Pasar Minggu"},{"i_lat":-6.263214,"distance":2380,"is_transit":false,"station_name":"Pasar Minggu Baru","station_id":"PSMB","time":2,"i_long":106.851577,"line":2,"transit":false},{"time":2,"line":0,"distance":824,"is_transit":false,"i_long":106.85449,"i_lat":-6.255332,"station_id":"DRN","station_name":"Duren Kalibata","transit":false},{"is_transit":false,"i_lat":-6.242512,"station_id":"CW","distance":1546,"transit":false,"i_long":106.856607,"station_name":"Cawang","time":3,"line":0},{"i_long":106.857948,"station_id":"TEB","time":2,"transit":false,"is_transit":false,"station_name":"Tebet","line":2,"distance":1230,"i_lat":-6.226659},{"distance":2610,"transit":true,"i_long":106.84912,"i_lat":-6.209883,"is_transit":true,"station_name":"Manggarai","time":4,"line":0,"station_id":"MRI"},{"line":0,"distance":1590,"i_long":106.840169,"station_name":"Cikini","is_transit":false,"time":4,"transit":false,"station_id":"CKI","i_lat":-6.198556},{"station_name":"Gondangdia","is_transit":false,"time":3,"transit":false,"station_id":"GDD","distance":1750,"i_lat":-6.186295,"line":2,"i_long":106.832183},{"time":4,"i_long":106.828284,"i_lat":-6.166716,"line":2,"station_name":"Juanda","transit":false,"is_transit":false,"distance":2015,"station_id":"JUA"},{"i_long":106.827103,"line":2,"time":2,"station_name":"Sawah Besar","transit":false,"i_lat":-6.160725,"distance":1149,"is_transit":false,"station_id":"SW"},{"time":2,"is_transit":false,"station_id":"MGB","distance":906,"transit":false,"line":2,"i_lat":-6.149769,"station_name":"Manggabesar","i_long":106.82482},{"station_id":"JAY","i_long":106.820901,"transit":false,"is_transit":false,"distance":1080,"time":2,"i_lat":-6.141205,"line":7,"station_name":"Jayakarta"},{"line":0,"station_name":"Jakarta Kota","distance":1264,"i_long":106.812439,"transit":true,"station_id":"JAKK","is_transit":true,"time":4,"i_lat":-6.137569},{"is_transit":true,"transit":false,"time":3,"distance":1364,"i_lat":-6.132549,"line":0,"station_id":"KPB","station_name":"Kampung Bandan","i_long":106.826365},{"distance":4102,"time":9,"station_id":"AK","transit":false,"is_transit":false,"line":0,"station_name":"Angke","i_long":106.79867,"i_lat":-6.144674},{"station_id":"DU","i_lat":-6.155215,"station_name":"Duri","is_transit":true,"i_long":106.800832,"distance":1230,"transit":true,"line":1,"time":4},{"station_name":"Tanah Abang","i_lat":-6.185545,"station_id":"THB","is_transit":true,"i_long":106.811091,"distance":3632,"transit":true,"line":1,"time":8},{"station_name":"Palmerah","i_long":106.79689,"time":6,"station_id":"PLM","i_lat":-6.207404,"transit":false,"line":6,"is_transit":false,"distance":3191},{"time":7,"i_long":106.780334,"station_name":"Kebayoran","transit":false,"i_lat":-6.237242,"distance":3737,"station_id":"KBY","is_transit":false,"line":6},{"transit":false,"i_lat":-6.276362,"line":6,"i_long":106.74273,"station_id":"PDJ","time":8,"is_transit":false,"distance":6218,"station_name":"Pondokranji"},{"line":6,"transit":false,"i_long":106.728916,"i_lat":-6.288927,"time":3,"station_name":"Jurangmangu","is_transit":false,"distance":2179,"station_id":"JMU"},{"i_lat":-6.296963,"time":4,"distance":1994,"station_id":"SDM","transit":false,"i_long":106.712277,"line":6,"is_transit":false,"station_name":"Sudimara"},{"line":6,"is_transit":false,"distance":4566,"station_id":"RU","time":6,"station_name":"Rawa Buntu","i_lat":-6.314823,"i_long":106.675475,"transit":false}],[{"is_transit":false,"line":0,"distance":0,"time":0,"station_id":"CBN","transit":false,"i_lat":-6.46424,"station_name":"Cibinong","i_long":106.851978},{"distance":6740,"i_lat":-6.448811,"line":1,"transit":false,"is_transit":true,"time":10,"i_long":106.800298,"station_name":"Citayam","station_id":"CTA"},{"transit":false,"time":6,"i_long":106.816926,"station_id":"DP","station_name":"Depok","i_lat":-6.405256,"is_transit":false,"line":0,"distance":5084},{"is_transit":false,"transit":false,"station_name":"Depokbaru","line":0,"distance":1584,"station_id":"DPB","time":3,"i_long":106.819451,"i_lat":-6.391065},{"station_id":"POC","distance":2727,"line":2,"is_transit":false,"i_lat":-6.369073,"time":4,"station_name":"Pondok Cina","transit":false,"i_long":106.831114},{"i_long":106.831474,"line":2,"time":2,"transit":false,"station_name":"Univ. Indonesia","distance":1109,"is_transit":false,"i_lat":-6.360749,"station_id":"UI"},{"transit":false,"time":3,"i_lat":-6.339291,"distance":2264,"line":2,"i_long":106.834175,"is_transit":false,"station_name":"Univ. Pancasila","station_id":"UP"},{"distance":1029,"line":2,"transit":false,"station_id":"LNA","is_transit":false,"i_long":106.832616,"time":2,"station_name":"Lenteng Agung","i_lat":-6.330363},{"i_lat":-6.3080680000000005,"is_transit":false,"transit":false,"i_long":106.838896,"distance":2671,"station_name":"Tanjung Barat","line":2,"time":3,"station_id":"TNT"},{"i_lat":-6.2842400000000005,"distance":2820,"is_transit":false,"station_id":"PSM","time":4,"station_name":"Pasar Minggu","transit":false,"line":2,"i_long":106.843999},{"is_transit":false,"distance":2380,"transit":false,"time":2,"i_lat":-6.263214,"i_long":106.851577,"line":2,"station_id":"PSMB","station_name":"Pasar Minggu Baru"},{"time":2,"is_transit":false,"distance":824,"station_name":"Duren Kalibata","line":0,"station_id":"DRN","i_lat":-6.255332,"i_long":106.85449,"transit":false},{"time":3,"i_lat":-6.242512,"line":0,"distance":1546,"i_long":106.856607,"is_transit":false,"station_id":"CW","transit":false,"station_name":"Cawang"},{"station_name":"Tebet","transit":false,"i_long":106.857948,"i_lat":-6.226659,"line":2,"station_id":"TEB","is_transit":false,"distance":1230,"time":2},{"transit":true,"time":4,"distance":2610,"line":0,"is_transit":true,"i_lat":-6.209883,"station_id":"MRI","station_name":"Manggarai","i_long":106.84912},{"distance":1275,"transit":false,"time":2,"line":1,"station_name":"Matraman","i_long":106.858896,"is_transit":false,"station_id":"MTR","i_lat":-6.212485},{"is_transit":true,"line":0,"i_long":106.86807400000001,"i_lat":-6.215091,"time":8,"station_name":"Jatinegara","transit":true,"station_id":"JNG","distance":1377},{"i_long":106.861737,"station_name":"Pondok Jati","i_lat":-6.209188,"transit":false,"is_transit":false,"line":11,"time":2,"distance":1236,"station_id":"POK"},{"i_long":106.855437,"i_lat":-6.193792,"line":11,"time":2,"station_id":"KMT","station_name":"Kramat","distance":1829,"transit":false,"is_transit":false},{"station_id":"GST","distance":973,"transit":false,"line":11,"station_name":"Gang Sentiong","i_long":106.850107,"is_transit":false,"i_lat":-6.185975,"time":1},{"i_long":106.84368,"time":8,"is_transit":false,"i_lat":-6.174784,"line":11,"station_id":"PSE","station_name":"Pasar Senen","distance":1567,"transit":false},{"transit":false,"i_lat":-6.161728,"i_long":106.839204,"distance":1436,"station_name":"Kemayoran","line":11,"station_id":"KMO","time":4,"is_transit":false},{"station_id":"RJW","line":11,"transit":false,"i_long":106.836569,"is_transit":false,"distance":1901,"station_name":"Rajawali","i_lat":-6.14505,"time":5},{"line":0,"i_lat":-6.132549,"transit":true,"time":3,"is_transit":true,"station_name":"Kampung Bandan","station_id":"KPB","distance":1444,"i_long":106.826365},{"station_id":"AK","transit":false,"distance":4102,"time":9,"station_name":"Angke","i_lat":-6.144674,"i_long":106.79867,"line":0,"is_transit":false},{"i_long":106.800832,"line":1,"transit":true,"distance":1230,"time":4,"i_lat":-6.155215,"station_name":"Duri","station_id":"DU","is_transit":true},{"line":1,"i_long":106.811091,"station_name":"Tanah Abang","distance":3632,"station_id":"THB","time":8,"transit":true,"i_lat":-6.185545,"is_transit":true},{"station_id":"PLM","is_transit":false,"distance":3191,"transit":false,"i_lat":-6.207404,"line":6,"time":6,"station_name":"Palmerah","i_long":106.79689},{"time":7,"is_transit":false,"distance":3737,"transit":false,"i_long":106.780334,"line":6,"station_name":"Kebayoran","i_lat":-6.237242,"station_id":"KBY"},{"is_transit":false,"line":6,"station_id":"PDJ","i_lat":-6.276362,"distance":6218,"transit":false,"time":8,"station_name":"Pondokranji","i_long":106.74273},{"i_long":106.728916,"time":3,"station_name":"Jurangmangu","station_id":"JMU","distance":2179,"line":6,"i_lat":-6.288927,"transit":false,"is_transit":false},{"station_name":"Sudimara","is_transit":false,"station_id":"SDM","i_long":106.712277,"i_lat":-6.296963,"distance":1994,"line":6,"time":4,"transit":false},{"i_long":106.675475,"line":6,"i_lat":-6.314823,"time":6,"distance":4566,"transit":false,"is_transit":false,"station_id":"RU","station_name":"Rawa Buntu"}]]}