{"data":[[{"transit":false,"station_name":"Cibinong","station_id":"CBN","i_lat":-6.46424,"time":0,"is_transit":false,"distance":0,"line":21,"i_long":106.851978},{"station_name":"Pondok Rajeg","distance":0,"is_transit":false,"time":0,"i_lat":-6.460735,"i_long":106.824374,"line":21,"transit":false,"station_id":"PDRG"},{"distance":0,"line":2,"i_lat":-6.448811,"transit":true,"is_transit":true,"station_id":"CTA","i_long":106.800298,"time":0,"station_name":"Citayam"},{"transit":false,"i_lat":-6.405256,"line":2,"station_name":"Depok","i_long":106.816926,"time":6,"distance":5084,"is_transit":false,"station_id":"DP"},{"transit":false,"station_id":"DPB","i_long":106.819451,"station_name":"Depokbaru","distance":1584,"is_transit":false,"i_lat":-6.391065,"line":2,"time":3},{"station_id":"POC","distance":2727,"is_transit":false,"transit":false,"line":2,"station_name":"Pondok Cina","time":4,"i_lat":-6.369073,"i_long":106.831114},{"i_long":106.831474,"line":2,"station_name":"Univ. Indonesia","station_id":"UI","is_transit":false,"i_lat":-6.360749,"time":2,"distance":1109,"transit":false},{"transit":false,"distance":2264,"i_long":106.834175,"time":3,"line":2,"is_transit":false,"station_name":"Univ. Pancasila","i_lat":-6.339291,"station_id":"UP"},{"station_name":"Lenteng Agung","is_transit":false,"distance":1029,"time":2,"i_lat":-6.330363,"line":2,"i_long":106.832616,"station_id":"LNA","transit":false},{"station_name":"Tanjung Barat","is_transit":false,"time":3,"i_lat":-6.3080680000000005,"station_id":"TNT","line":2,"i_long":106.838896,"transit":false,"distance":2671},{"time":4,"i_long":106.843999,"is_transit":false,"transit":false,"station_id":"PSM","i_lat":-6.2842400000000005,"distance":2820,"station_name":"Pasar Minggu","line":2},{"i_lat":-6.263214,"distance":2380,"line":2,"time":2,"i_long":106.851577,"transit":false,"is_transit":false,"station_name":"Pasar Minggu Baru","station_id":"PSMB"},{"i_lat":-6.255332,"time":2,"station_id":"DRN","transit":false,"station_name":"Duren Kalibata","i_long":106.85449,"line":2,"is_transit":false,"distance":824},{"time":3,"station_name":"Cawang","i_lat":-6.242512,"station_id":"CW","distance":1546,"transit":false,"is_transit":false,"i_long":106.856607,"line":2},{"transit":false,"is_transit":false,"line":2,"i_lat":-6.226659,"i_long":106.857948,"time":2,"station_name":"Tebet","distance":1230,"station_id":"TEB"},{"i_lat":-6.209883,"is_transit":true,"distance":2610,"time":4,"station_name":"Manggarai","station_id":"MRI","i_long":106.84912,"transit":true,"line":2},{"i_lat":-6.212485,"line":1,"is_transit":false,"distance":1275,"station_name":"Matraman","transit":false,"time":2,"station_id":"MTR","i_long":106.858896},{"i_lat":-6.215091,"distance":1377,"transit":true,"line":1,"time":8,"is_transit":true,"station_id":"JNG","station_name":"Jatinegara","i_long":106.86807400000001},{"station_name":"Pondok Jati","i_long":106.861737,"station_id":"POK","i_lat":-6.209188,"time":2,"transit":false,"is_transit":false,"distance":1236,"line":11},{"is_transit":false,"station_name":"Kramat","transit":false,"i_long":106.855437,"distance":1829,"time":2,"station_id":"KMT","i_lat":-6.193792,"line":11},{"station_name":"Gang Sentiong","distance":973,"time":1,"line":11,"is_transit":false,"station_id":"GST","i_lat":-6.185975,"transit":false,"i_long":106.850107},{"i_lat":-6.174784,"station_name":"Pasar Senen","transit":false,"distance":1567,"station_id":"PSE","is_transit":false,"time":8,"line":11,"i_long":106.84368},{"distance":1436,"line":11,"station_name":"Kemayoran","station_id":"KMO","time":4,"i_lat":-6.161728,"transit":false,"i_long":106.839204,"is_transit":false}],[{"i_lat":-6.46424,"line":21,"is_transit":false,"time":0,"distance":0,"i_long":106.851978,"station_name":"Cibinong","station_id":"CBN","transit":false},{"is_transit":false,"distance":0,"station_id":"PDRG","line":21,"station_name":"Pondok Rajeg","i_lat":-6.460735,"time":0,"i_long":106.824374,"transit":false},{"station_id":"CTA","i_lat":-6.448811,"i_long":106.800298,"transit":true,"line":2,"time":0,"station_name":"Citayam","is_transit":true,"distance":0},{"i_long":106.816926,"is_transit":false,"station_name":"Depok","distance":5084,"time":6,"i_lat":-6.405256,"line":2,"transit":false,"station_id":"DP"},{"i_lat":-6.391065,"time":3,"station_name":"Depokbaru","i_long":106.819451,"distance":1584,"is_transit":false,"transit":false,"line":2,"station_id":"DPB"},{"station_id":"POC","transit":false,"time":4,"i_lat":-6.369073,"distance":2727,"is_transit":false,"i_long":106.831114,"station_name":"Pondok Cina","line":2},{"is_transit":false,"station_name":"Univ. Indonesia","transit":false,"distance":1109,"i_long":106.831474,"time":2,"i_lat":-6.360749,"station_id":"UI","line":2},{"distance":2264,"i_lat":-6.339291,"station_id":"UP","station_name":"Univ. Pancasila","transit":false,"time":3,"i_long":106.834175,"line":2,"is_transit":false},{"i_lat":-6.330363,"i_long":106.832616,"station_id":"LNA","station_name":"Lenteng Agung","is_transit":false,"line":2,"transit":false,"distance":1029,"time":2},{"station_name":"Tanjung Barat","line":2,"distance":2671,"station_id":"TNT","is_transit":false,"time":3,"i_lat":-6.3080680000000005,"i_long":106.838896,"transit":false},{"line":2,"station_name":"Pasar Minggu","transit":false,"distance":2820,"i_lat":-6.2842400000000005,"is_transit":false,"time":4,"station_id":"PSM","i_long":106.843999},{"line":2,"time":2,"i_long":106.851577,"is_transit":false,"station_name":"Pasar Minggu Baru","i_lat":-6.263214,"transit":false,"station_id":"PSMB","distance":2380},{"station_id":"DRN","transit":false,"i_long":106.85449,"line":2,"station_name":"Duren Kalibata","is_transit":false,"i_lat":-6.255332,"time":2,"distance":824},{"i_lat":-6.242512,"i_long":106.856607,"transit":false,"time":3,"distance":1546,"line":2,"station_name":"Cawang","station_id":"CW","is_transit":false},{"transit":false,"station_id":"TEB","line":2,"i_lat":-6.226659,"time":2,"station_name":"Tebet","i_long":106.857948,"is_transit":false,"distance":1230},{"is_transit":true,"i_lat":-6.209883,"time":4,"distance":2610,"transit":true,"station_id":"MRI","station_name":"Manggarai","i_long":106.84912,"line":2},{"is_transit":false,"station_name":"Sudirman","line":1,"time":4,"station_id":"SUD","i_long":106.822649,"distance":3186,"transit":false,"i_lat":-6.202263},{"i_lat":-6.201433,"station_id":"SUDB","is_transit":false,"transit":false,"i_long":106.819881,"line":1,"station_name":"Sudirman Baru","time":1,"distance":280},{"station_id":"KAT","time":1,"i_long":106.816351,"line":1,"transit":false,"station_name":"Karet","distance":471,"i_lat":-6.20132,"is_transit":false},{"station_name":"Tanah Abang","i_long":106.811091,"distance":2029,"i_lat":-6.185545,"transit":false,"is_transit":false,"line":1,"station_id":"THB","time":5},{"station_id":"DU","line":1,"distance":3632,"station_name":"Duri","time":8,"transit":false,"i_lat":-6.155215,"i_long":106.800832,"is_transit":false},{"transit":false,"i_long":106.79867,"station_id":"AK","distance":1230,"line":1,"i_lat":-6.144674,"is_transit":false,"station_name":"Angke","time":4},{"transit":true,"station_name":"Kampung Bandan","station_id":"KPB","line":4,"distance":4102,"is_transit":true,"i_long":106.826365,"i_lat":-6.132549,"time":9},{"distance":1444,"station_id":"RJW","i_long":106.836569,"line":11,"transit":false,"time":3,"station_name":"Rajawali","is_transit":false,"i_lat":-6.14505},{"station_id":"KMO","is_transit":false,"i_long":106.839204,"i_lat":-6.161728,"line":11,"time":5,"transit":false,"station_name":"Kemayoran","distance":1901}],[{"station_id":"CBN","i_long":106.851978,"is_transit":false,"line":21,"transit":false,"station_name":"Cibinong","time":0,"distance":0,"i_lat":-6.46424},{"station_id":"PDRG","station_name":"Pondok Rajeg","line":21,"is_transit":false,"i_lat":-6.460735,"transit":false,"distance":0,"time":0,"i_long":106.824374},{"is_transit":true,"station_name":"Citayam","i_long":106.800298,"station_id":"CTA","time":0,"transit":true,"distance":0,"line":2,"i_lat":-6.448811},{"distance":5084,"line":2,"i_long":106.816926,"station_name":"Depok","station_id":"DP","transit":false,"is_transit":false,"time":6,"i_lat":-6.405256},{"time":3,"i_long":106.819451,"distance":1584,"transit":false,"i_lat":-6.391065,"line":2,"is_transit":false,"station_id":"DPB","station_name":"Depokbaru"},{"station_name":"Pondok Cina","time":4,"i_lat":-6.369073,"line":2,"i_long":106.831114,"station_id":"POC","distance":2727,"is_transit":false,"transit":false},{"i_lat":-6.360749,"distance":1109,"time":2,"transit":false,"i_long":106.831474,"station_name":"Univ. Indonesia","station_id":"UI","line":2,"is_transit":false},{"distance":2264,"is_transit":false,"time":3,"i_long":106.834175,"station_name":"Univ. Pancasila","station_id":"UP","i_lat":-6.339291,"line":2,"transit":false},{"station_name":"Lenteng Agung","i_lat":-6.330363,"line":2,"transit":false,"i_long":106.832616,"is_transit":false,"time":2,"distance":1029,"station_id":"LNA"},{"transit":false,"line":2,"distance":2671,"is_transit":false,"station_name":"Tanjung Barat","time":3,"i_long":106.838896,"station_id":"TNT","i_lat":-6.3080680000000005},{"transit":false,"station_name":"Pasar Minggu","distance":2820,"station_id":"PSM","i_long":106.843999,"i_lat":-6.2842400000000005,"is_transit":false,"line":2,"time":4},{"station_id":"PSMB","time":2,"i_lat":-6.263214,"i_long":106.851577,"line":2,"is_transit":false,"transit":false,"station_name":"Pasar Minggu Baru","distance":2380},{"station_name":"Duren Kalibata","time":2,"transit":false,"i_lat":-6.255332,"i_long":106.85449,"station_id":"DRN","line":2,"is_transit":false,"distance":824},{"station_id":"CW","time":3,"transit":false,"station_name":"Cawang","distance":1546,"is_transit":false,"i_long":106.856607,"line":2,"i_lat":-6.242512},{"time":2,"station_id":"TEB","is_transit":false,"distance":1230,"i_lat":-6.226659,"station_name":"Tebet","line":2,"i_long":106.857948,"transit":false},{"i_long":106.84912,"line":2,"time":4,"transit":false,"station_id":"MRI","distance":2610,"station_name":"Manggarai","i_lat":-6.209883,"is_transit":false},{"i_long":106.840169,"line":2,"station_id":"CKI","time":4,"is_transit":false,"transit":false,"station_name":"Cikini","distance":1590,"i_lat":-6.198556},{"i_long":106.832183,"transit":false,"station_id":"GDD","line":2,"is_transit":false,"station_name":"Gondangdia","i_lat":-6.186295,"distance":1750,"time":3},{"station_id":"JUA","time":4,"i_lat":-6.166716,"i_long":106.828284,"station_name":"Juanda","line":2,"transit":false,"is_transit":false,"distance":2015},{"station_name":"Sawah Besar","station_id":"SW","is_transit":false,"distance":1149,"time":2,"i_lat":-6.160725,"i_long":106.827103,"transit":false,"line":2},{"time":2,"distance":906,"line":2,"transit":false,"i_lat":-6.149769,"i_long":106.82482,"is_transit":false,"station_name":"Manggabesar","station_id":"MGB"},{"station_name":"Jayakarta","i_lat":-6.141205,"i_long":106.820901,"transit":false,"is_transit":false,"distance":1080,"station_id":"JAY","time":2,"line":2},{"distance":1264,"line":2,"station_name":"Jakarta Kota","is_transit":true,"station_id":"JAKK","time":4,"i_lat":-6.137569,"i_long":106.812439,"transit":true},{"station_name":"Kampung Bandan","is_transit":true,"distance":1364,"station_id":"KPB","time":3,"i_long":106.826365,"line":4,"i_lat":-6.132549,"transit":true},{"station_id":"RJW","i_lat":-6.14505,"time":3,"distance":1444,"i_long":106.836569,"transit":false,"station_name":"Rajawali","line":11,"is_transit":false},{"i_long":106.839204,"line":11,"is_transit":false,"distance":1901,"time":5,"transit":false,"i_lat":-6.161728,"station_name":"Kemayoran","station_id":"KMO"}]]}