{"data":[[{"distance":0,"station_name":"Cibinong","i_lat":-6.46424,"transit":false,"time":0,"station_id":"CBN","i_long":106.851978,"line":0,"is_transit":false},{"line":1,"distance":6740,"i_long":106.800298,"station_id":"CTA","station_name":"Citayam","time":10,"transit":false,"is_transit":true,"i_lat":-6.448811},{"i_long":106.816926,"i_lat":-6.405256,"station_id":"DP","station_name":"Depok","distance":5084,"is_transit":false,"transit":false,"line":0,"time":6},{"time":3,"is_transit":false,"distance":1584,"i_lat":-6.391065,"transit":false,"station_id":"DPB","line":0,"i_long":106.819451,"station_name":"Depokbaru"},{"is_transit":false,"time":4,"transit":false,"line":2,"i_long":106.831114,"i_lat":-6.369073,"station_id":"POC","distance":2727,"station_name":"Pondok Cina"},{"line":2,"is_transit":false,"distance":1109,"i_lat":-6.360749,"time":2,"station_name":"Univ. Indonesia","transit":false,"station_id":"UI","i_long":106.831474},{"i_long":106.834175,"distance":2264,"time":3,"line":2,"is_transit":false,"station_name":"Univ. Pancasila","i_lat":-6.339291,"transit":false,"station_id":"UP"},{"station_id":"LNA","transit":false,"i_long":106.832616,"time":2,"distance":1029,"i_lat":-6.330363,"line":2,"is_transit":false,"station_name":"Lenteng Agung"},{"distance":2671,"is_transit":false,"station_name":"Tanjung Barat","i_long":106.838896,"line":2,"time":3,"transit":false,"station_id":"TNT","i_lat":-6.3080680000000005},{"transit":false,"time":4,"i_lat":-6.2842400000000005,"line":2,"distance":2820,"station_name":"Pasar Minggu","is_transit":false,"i_long":106.843999,"station_id":"PSM"},{"i_lat":-6.263214,"station_id":"PSMB","station_name":"Pasar Minggu Baru","time":2,"i_long":106.851577,"is_transit":false,"distance":2380,"transit":false,"line":2},{"i_lat":-6.255332,"i_long":106.85449,"is_transit":false,"line":0,"station_id":"DRN","time":2,"station_name":"Duren Kalibata","distance":824,"transit":false},{"transit":false,"is_transit":false,"station_name":"Cawang","station_id":"CW","i_lat":-6.242512,"distance":1546,"i_long":106.856607,"line":0,"time":3},{"station_name":"Tebet","transit":false,"i_long":106.857948,"i_lat":-6.226659,"is_transit":false,"line":2,"distance":1230,"time":2,"station_id":"TEB"},{"transit":true,"time":4,"is_transit":true,"i_lat":-6.209883,"line":0,"station_id":"MRI","distance":2610,"i_long":106.84912,"station_name":"Manggarai"},{"station_id":"SUD","i_long":106.822649,"transit":false,"line":1,"station_name":"Sudirman","distance":3186,"i_lat":-6.202263,"is_transit":false,"time":4}],[{"time":0,"i_lat":-6.46424,"is_transit":false,"distance":0,"line":0,"transit":false,"i_long":106.851978,"station_id":"CBN","station_name":"Cibinong"},{"distance":6740,"time":10,"i_lat":-6.448811,"is_transit":true,"station_id":"CTA","line":1,"transit":false,"station_name":"Citayam","i_long":106.800298},{"station_name":"Depok","transit":false,"line":0,"is_transit":false,"i_lat":-6.405256,"distance":5084,"time":6,"station_id":"DP","i_long":106.816926},{"distance":1584,"station_name":"Depokbaru","station_id":"DPB","i_lat":-6.391065,"i_long":106.819451,"is_transit":false,"transit":false,"line":0,"time":3},{"transit":false,"i_lat":-6.369073,"distance":2727,"station_name":"Pondok Cina","i_long":106.831114,"line":2,"is_transit":false,"time":4,"station_id":"POC"},{"is_transit":false,"i_lat":-6.360749,"line":2,"distance":1109,"station_id":"UI","transit":false,"time":2,"station_name":"Univ. Indonesia","i_long":106.831474},{"station_name":"Univ. Pancasila","distance":2264,"line":2,"transit":false,"i_long":106.834175,"time":3,"i_lat":-6.339291,"is_transit":false,"station_id":"UP"},{"i_lat":-6.330363,"distance":1029,"i_long":106.832616,"line":2,"time":2,"station_id":"LNA","transit":false,"station_name":"Lenteng Agung","is_transit":false},{"transit":false,"station_id":"TNT","i_lat":-6.3080680000000005,"line":2,"time":3,"distance":2671,"station_name":"Tanjung Barat","i_long":106.838896,"is_transit":false},{"i_long":106.843999,"distance":2820,"is_transit":false,"transit":false,"time":4,"i_lat":-6.2842400000000005,"station_id":"PSM","line":2,"station_name":"Pasar Minggu"},{"is_transit":false,"i_lat":-6.263214,"station_id":"PSMB","i_long":106.851577,"distance":2380,"station_name":"Pasar Minggu Baru","transit":false,"time":2,"line":2},{"station_id":"DRN","is_transit":false,"transit":false,"i_lat":-6.255332,"line":0,"time":2,"distance":824,"i_long":106.85449,"station_name":"Duren Kalibata"},{"distance":1546,"i_long":106.856607,"i_lat":-6.242512,"line":0,"is_transit":false,"transit":false,"time":3,"station_name":"Cawang","station_id":"CW"},{"i_long":106.857948,"is_transit":false,"distance":1230,"line":2,"time":2,"station_name":"Tebet","station_id":"TEB","transit":false,"i_lat":-6.226659},{"station_name":"Manggarai","transit":true,"i_long":106.84912,"i_lat":-6.209883,"distance":2610,"line":0,"station_id":"MRI","is_transit":true,"time":4},{"i_lat":-6.198556,"time":4,"line":0,"transit":false,"i_long":106.840169,"station_name":"Cikini","is_transit":false,"station_id":"CKI","distance":1590},{"time":3,"is_transit":false,"i_lat":-6.186295,"transit":false,"distance":1750,"station_name":"Gondangdia","i_long":106.832183,"station_id":"GDD","line":2},{"time":4,"station_id":"JUA","transit":false,"i_lat":-6.166716,"distance":2015,"is_transit":false,"line":2,"station_name":"Juanda","i_long":106.828284},{"transit":false,"line":2,"distance":1149,"time":2,"is_transit":false,"i_long":106.827103,"station_id":"SW","i_lat":-6.160725,"station_name":"Sawah Besar"},{"line":2,"distance":906,"i_lat":-6.149769,"i_long":106.82482,"station_name":"Manggabesar","station_id":"MGB","is_transit":false,"time":2,"transit":false},{"line":7,"transit":false,"time":2,"i_long":106.820901,"is_transit":false,"station_id":"JAY","distance":1080,"station_name":"Jayakarta","i_lat":-6.141205},{"i_long":106.812439,"station_id":"JAKK","is_transit":true,"time":4,"distance":1264,"i_lat":-6.137569,"line":0,"station_name":"Jakarta Kota","transit":true},{"time":3,"station_name":"Kampung Bandan","i_long":106.826365,"is_transit":true,"transit":false,"distance":1364,"i_lat":-6.132549,"station_id":"KPB","line":0},{"line":0,"distance":4102,"station_id":"AK","i_long":106.79867,"i_lat":-6.144674,"time":9,"is_transit":false,"station_name":"Angke","transit":false},{"line":1,"station_name":"Duri","time":4,"distance":1230,"transit":true,"i_long":106.800832,"i_lat":-6.155215,"station_id":"DU","is_transit":true},{"line":1,"time":8,"station_name":"Tanah Abang","i_lat":-6.185545,"station_id":"THB","is_transit":true,"transit":false,"i_long":106.811091,"distance":3632},{"distance":2029,"station_name":"Karet","i_lat":-6.20132,"station_id":"KAT","i_long":106.816351,"is_transit":false,"time":5,"line":1,"transit":false},{"station_id":"SUDB","time":1,"station_name":"Sudirman Baru","distance":471,"i_lat":-6.201433,"line":1,"is_transit":false,"transit":false,"i_long":106.819881},{"station_name":"Sudirman","line":1,"is_transit":false,"distance":280,"transit":false,"time":1,"i_lat":-6.202263,"i_long":106.822649,"station_id":"SUD"}],[{"is_transit":false,"transit":false,"station_name":"Cibinong","i_lat":-6.46424,"i_long":106.851978,"time":0,"line":0,"distance":0,"station_id":"CBN"},{"station_id":"CTA","station_name":"Citayam","time":10,"distance":6740,"transit":false,"line":1,"is_transit":true,"i_long":106.800298,"i_lat":-6.448811},{"i_lat":-6.405256,"distance":5084,"time":6,"station_id":"DP","transit":false,"is_transit":false,"station_name":"Depok","i_long":106.816926,"line":0},{"station_id":"DPB","i_long":106.819451,"time":3,"line":0,"transit":false,"station_name":"Depokbaru","distance":1584,"is_transit":false,"i_lat":-6.391065},{"distance":2727,"line":2,"time":4,"station_id":"POC","is_transit":false,"station_name":"Pondok Cina","transit":false,"i_lat":-6.369073,"i_long":106.831114},{"station_id":"UI","is_transit":false,"station_name":"Univ. Indonesia","i_lat":-6.360749,"i_long":106.831474,"distance":1109,"time":2,"transit":false,"line":2},{"i_lat":-6.339291,"is_transit":false,"time":3,"station_name":"Univ. Pancasila","i_long":106.834175,"station_id":"UP","distance":2264,"transit":false,"line":2},{"station_name":"Lenteng Agung","transit":false,"distance":1029,"i_long":106.832616,"time":2,"is_transit":false,"line":2,"i_lat":-6.330363,"station_id":"LNA"},{"i_long":106.838896,"station_id":"TNT","time":3,"station_name":"Tanjung Barat","is_transit":false,"transit":false,"distance":2671,"i_lat":-6.3080680000000005,"line":2},{"station_id":"PSM","distance":2820,"i_long":106.843999,"transit":false,"time":4,"station_name":"Pasar Minggu","i_lat":-6.2842400000000005,"line":2,"is_transit":false},{"station_id":"PSMB","distance":2380,"station_name":"Pasar Minggu Baru","i_lat":-6.263214,"time":2,"line":2,"transit":false,"is_transit":false,"i_long":106.851577},{"time":2,"station_id":"DRN","transit":false,"station_name":"Duren Kalibata","i_lat":-6.255332,"i_long":106.85449,"line":0,"distance":824,"is_transit":false},{"distance":1546,"is_transit":false,"transit":false,"time":3,"i_long":106.856607,"line":0,"station_id":"CW","station_name":"Cawang","i_lat":-6.242512},{"is_transit":false,"station_name":"Tebet","transit":false,"i_long":106.857948,"distance":1230,"i_lat":-6.226659,"line":2,"station_id":"TEB","time":2},{"distance":2610,"transit":true,"time":4,"is_transit":true,"i_long":106.84912,"station_id":"MRI","i_lat":-6.209883,"station_name":"Manggarai","line":0},{"line":1,"i_long":106.858896,"time":2,"station_id":"MTR","is_transit":false,"station_name":"Matraman","transit":false,"i_lat":-6.212485,"distance":1275},{"i_lat":-6.215091,"line":0,"is_transit":true,"transit":true,"station_id":"JNG","distance":1377,"time":8,"i_long":106.86807400000001,"station_name":"Jatinegara"},{"station_name":"Pondok Jati","station_id":"POK","time":2,"transit":false,"line":11,"is_transit":false,"i_long":106.861737,"i_lat":-6.209188,"distance":1236},{"i_long":106.855437,"transit":false,"line":11,"station_id":"KMT","station_name":"Kramat","i_lat":-6.193792,"distance":1829,"is_transit":false,"time":2},{"station_name":"Gang Sentiong","i_lat":-6.185975,"i_long":106.850107,"distance":973,"transit":false,"time":1,"line":11,"station_id":"GST","is_transit":false},{"time":8,"line":11,"distance":1567,"is_transit":false,"transit":false,"station_id":"PSE","i_lat":-6.174784,"station_name":"Pasar Senen","i_long":106.84368},{"time":4,"is_transit":false,"station_name":"Kemayoran","i_long":106.839204,"transit":false,"station_id":"KMO","distance":1436,"line":11,"i_lat":-6.161728},{"time":5,"distance":1901,"station_name":"Rajawali","transit":false,"i_long":106.836569,"line":11,"station_id":"RJW","i_lat":-6.14505,"is_transit":false},{"station_name":"Kampung Bandan","i_lat":-6.132549,"station_id":"KPB","i_long":106.826365,"distance":1444,"is_transit":true,"line":0,"time":3,"transit":true},{"time":9,"station_name":"Angke","i_long":106.79867,"line":0,"transit":false,"station_id":"AK","distance":4102,"i_lat":-6.144674,"is_transit":false},{"i_long":106.800832,"is_transit":true,"distance":1230,"i_lat":-6.155215,"station_id":"DU","time":4,"station_name":"Duri","transit":true,"line":1},{"station_name":"Tanah Abang","time":8,"i_lat":-6.185545,"i_long":106.811091,"line":1,"transit":false,"distance":3632,"station_id":"THB","is_transit":true},{"station_id":"KAT","distance":2029,"i_long":106.816351,"line":1,"transit":false,"station_name":"Karet","i_lat":-6.20132,"is_transit":false,"time":5},{"is_transit":false,"station_id":"SUDB","time":1,"transit":false,"line":1,"i_lat":-6.201433,"station_name":"Sudirman Baru","distance":471,"i_long":106.819881},{"line":1,"is_transit":false,"time":1,"i_lat":-6.202263,"station_id":"SUD","station_name":"Sudirman","transit":false,"distance":280,"i_long":106.822649}]]}