{"data":[[{"station_id":"CBN","is_transit":false,"i_long":106.851978,"time":0,"transit":false,"station_name":"Cibinong","distance":0,"i_lat":-6.46424,"line":21},{"station_id":"PDRG","distance":0,"is_transit":false,"station_name":"Pondok Rajeg","transit":false,"line":21,"i_long":106.824374,"i_lat":-6.460735,"time":0},{"transit":true,"distance":0,"line":2,"station_name":"Citayam","station_id":"CTA","time":0,"is_transit":true,"i_long":106.800298,"i_lat":-6.448811},{"distance":5084,"station_id":"DP","time":6,"station_name":"Depok","i_lat":-6.405256,"is_transit":false,"i_long":106.816926,"line":2,"transit":false},{"station_name":"Depokbaru","station_id":"DPB","transit":false,"time":3,"is_transit":false,"i_lat":-6.391065,"i_long":106.819451,"distance":1584,"line":2},{"distance":2727,"is_transit":false,"transit":false,"i_long":106.831114,"station_id":"POC","line":2,"station_name":"Pondok Cina","time":4,"i_lat":-6.369073},{"distance":1109,"i_lat":-6.360749,"line":2,"i_long":106.831474,"station_name":"Univ. Indonesia","transit":false,"time":2,"station_id":"UI","is_transit":false},{"station_id":"UP","is_transit":false,"i_lat":-6.339291,"line":2,"time":3,"station_name":"Univ. Pancasila","i_long":106.834175,"transit":false,"distance":2264},{"transit":false,"i_lat":-6.330363,"distance":1029,"is_transit":false,"i_long":106.832616,"time":2,"line":2,"station_name":"Lenteng Agung","station_id":"LNA"},{"distance":2671,"is_transit":false,"station_id":"TNT","transit":false,"i_long":106.838896,"line":2,"time":3,"station_name":"Tanjung Barat","i_lat":-6.3080680000000005},{"transit":false,"i_long":106.843999,"distance":2820,"i_lat":-6.2842400000000005,"line":2,"time":4,"station_name":"Pasar Minggu","station_id":"PSM","is_transit":false},{"transit":false,"i_lat":-6.263214,"station_name":"Pasar Minggu Baru","is_transit":false,"i_long":106.851577,"line":2,"distance":2380,"station_id":"PSMB","time":2},{"line":2,"i_lat":-6.255332,"distance":824,"time":2,"i_long":106.85449,"is_transit":false,"station_id":"DRN","station_name":"Duren Kalibata","transit":false},{"station_name":"Cawang","is_transit":false,"i_long":106.856607,"i_lat":-6.242512,"distance":1546,"time":3,"line":2,"transit":false,"station_id":"CW"},{"time":2,"i_lat":-6.226659,"station_name":"Tebet","is_transit":false,"distance":1230,"station_id":"TEB","line":2,"i_long":106.857948,"transit":false},{"i_lat":-6.209883,"distance":2610,"line":2,"transit":false,"is_transit":false,"time":4,"station_name":"Manggarai","i_long":106.84912,"station_id":"MRI"},{"station_name":"Cikini","i_lat":-6.198556,"i_long":106.840169,"line":2,"is_transit":false,"time":4,"transit":false,"distance":1590,"station_id":"CKI"},{"is_transit":false,"station_id":"GDD","time":3,"i_lat":-6.186295,"station_name":"Gondangdia","transit":false,"distance":1750,"i_long":106.832183,"line":2},{"transit":false,"is_transit":false,"i_long":106.828284,"time":4,"distance":2015,"line":2,"i_lat":-6.166716,"station_name":"Juanda","station_id":"JUA"},{"i_long":106.827103,"station_name":"Sawah Besar","is_transit":false,"transit":false,"distance":1149,"i_lat":-6.160725,"station_id":"SW","time":2,"line":2},{"line":2,"station_id":"MGB","distance":906,"transit":false,"time":2,"i_lat":-6.149769,"station_name":"Manggabesar","is_transit":false,"i_long":106.82482},{"is_transit":false,"station_id":"JAY","i_long":106.820901,"line":2,"transit":false,"time":2,"i_lat":-6.141205,"station_name":"Jayakarta","distance":1080}],[{"station_id":"CBN","line":21,"transit":false,"station_name":"Cibinong","i_long":106.851978,"time":0,"distance":0,"is_transit":false,"i_lat":-6.46424},{"is_transit":false,"station_name":"Pondok Rajeg","line":21,"i_lat":-6.460735,"time":0,"distance":0,"station_id":"PDRG","transit":false,"i_long":106.824374},{"i_long":106.800298,"station_id":"CTA","time":0,"station_name":"Citayam","distance":0,"is_transit":true,"line":2,"transit":true,"i_lat":-6.448811},{"is_transit":false,"station_id":"DP","time":6,"transit":false,"distance":5084,"i_long":106.816926,"line":2,"i_lat":-6.405256,"station_name":"Depok"},{"time":3,"i_lat":-6.391065,"station_name":"Depokbaru","distance":1584,"transit":false,"i_long":106.819451,"station_id":"DPB","line":2,"is_transit":false},{"i_lat":-6.369073,"transit":false,"station_id":"POC","station_name":"Pondok Cina","line":2,"is_transit":false,"i_long":106.831114,"time":4,"distance":2727},{"transit":false,"i_lat":-6.360749,"station_id":"UI","line":2,"is_transit":false,"distance":1109,"i_long":106.831474,"station_name":"Univ. Indonesia","time":2},{"i_lat":-6.339291,"line":2,"i_long":106.834175,"station_id":"UP","time":3,"distance":2264,"station_name":"Univ. Pancasila","transit":false,"is_transit":false},{"is_transit":false,"line":2,"transit":false,"distance":1029,"station_name":"Lenteng Agung","station_id":"LNA","time":2,"i_lat":-6.330363,"i_long":106.832616},{"station_id":"TNT","distance":2671,"is_transit":false,"i_lat":-6.3080680000000005,"transit":false,"station_name":"Tanjung Barat","time":3,"i_long":106.838896,"line":2},{"line":2,"time":4,"transit":false,"distance":2820,"station_id":"PSM","i_lat":-6.2842400000000005,"station_name":"Pasar Minggu","i_long":106.843999,"is_transit":false},{"is_transit":false,"distance":2380,"transit":false,"station_id":"PSMB","time":2,"station_name":"Pasar Minggu Baru","i_lat":-6.263214,"line":2,"i_long":106.851577},{"is_transit":false,"station_name":"Duren Kalibata","distance":824,"transit":false,"line":2,"station_id":"DRN","i_long":106.85449,"time":2,"i_lat":-6.255332},{"i_lat":-6.242512,"station_name":"Cawang","station_id":"CW","is_transit":false,"time":3,"line":2,"transit":false,"i_long":106.856607,"distance":1546},{"transit":false,"time":2,"i_lat":-6.226659,"i_long":106.857948,"station_name":"Tebet","line":2,"is_transit":false,"station_id":"TEB","distance":1230},{"transit":true,"is_transit":true,"station_id":"MRI","station_name":"Manggarai","time":4,"distance":2610,"i_lat":-6.209883,"line":2,"i_long":106.84912},{"transit":false,"is_transit":false,"distance":3186,"i_lat":-6.202263,"time":4,"station_id":"SUD","line":1,"station_name":"Sudirman","i_long":106.822649},{"i_long":106.819881,"is_transit":false,"station_id":"SUDB","distance":280,"station_name":"Sudirman Baru","i_lat":-6.201433,"line":1,"transit":false,"time":1},{"station_id":"KAT","distance":471,"transit":false,"time":1,"is_transit":false,"i_lat":-6.20132,"i_long":106.816351,"line":1,"station_name":"Karet"},{"i_lat":-6.185545,"station_name":"Tanah Abang","time":5,"line":1,"i_long":106.811091,"station_id":"THB","distance":2029,"transit":false,"is_transit":false},{"i_long":106.800832,"station_name":"Duri","transit":false,"line":1,"station_id":"DU","time":8,"i_lat":-6.155215,"is_transit":false,"distance":3632},{"station_name":"Angke","is_transit":false,"time":4,"transit":false,"distance":1230,"i_lat":-6.144674,"line":1,"station_id":"AK","i_long":106.79867},{"i_lat":-6.132549,"i_long":106.826365,"station_id":"KPB","line":4,"transit":true,"station_name":"Kampung Bandan","is_transit":true,"time":9,"distance":4102},{"transit":true,"is_transit":true,"distance":1364,"time":3,"i_lat":-6.137569,"line":2,"station_id":"JAKK","station_name":"Jakarta Kota","i_long":106.812439},{"is_transit":false,"station_id":"JAY","distance":1264,"transit":false,"i_long":106.820901,"i_lat":-6.141205,"station_name":"Jayakarta","time":4,"line":2}],[{"i_lat":-6.46424,"station_name":"Cibinong","station_id":"CBN","distance":0,"time":0,"is_transit":false,"line":21,"transit":false,"i_long":106.851978},{"station_name":"Pondok Rajeg","distance":0,"i_lat":-6.460735,"line":21,"i_long":106.824374,"transit":false,"is_transit":false,"time":0,"station_id":"PDRG"},{"i_lat":-6.448811,"line":2,"i_long":106.800298,"is_transit":true,"station_id":"CTA","transit":true,"time":0,"distance":0,"station_name":"Citayam"},{"transit":false,"is_transit":false,"station_name":"Depok","distance":5084,"time":6,"station_id":"DP","i_long":106.816926,"i_lat":-6.405256,"line":2},{"transit":false,"time":3,"is_transit":false,"distance":1584,"i_lat":-6.391065,"i_long":106.819451,"station_id":"DPB","station_name":"Depokbaru","line":2},{"station_name":"Pondok Cina","transit":false,"time":4,"distance":2727,"station_id":"POC","is_transit":false,"i_long":106.831114,"line":2,"i_lat":-6.369073},{"time":2,"is_transit":false,"i_long":106.831474,"i_lat":-6.360749,"station_name":"Univ. Indonesia","distance":1109,"line":2,"transit":false,"station_id":"UI"},{"transit":false,"station_id":"UP","station_name":"Univ. Pancasila","is_transit":false,"time":3,"distance":2264,"i_long":106.834175,"i_lat":-6.339291,"line":2},{"station_name":"Lenteng Agung","i_long":106.832616,"is_transit":false,"transit":false,"station_id":"LNA","distance":1029,"time":2,"i_lat":-6.330363,"line":2},{"is_transit":false,"station_name":"Tanjung Barat","time":3,"transit":false,"distance":2671,"station_id":"TNT","line":2,"i_lat":-6.3080680000000005,"i_long":106.838896},{"transit":false,"line":2,"i_long":106.843999,"station_id":"PSM","station_name":"Pasar Minggu","time":4,"is_transit":false,"distance":2820,"i_lat":-6.2842400000000005},{"is_transit":false,"time":2,"i_long":106.851577,"distance":2380,"line":2,"transit":false,"station_name":"Pasar Minggu Baru","station_id":"PSMB","i_lat":-6.263214},{"line":2,"distance":824,"time":2,"is_transit":false,"station_name":"Duren Kalibata","station_id":"DRN","transit":false,"i_lat":-6.255332,"i_long":106.85449},{"distance":1546,"station_name":"Cawang","is_transit":false,"station_id":"CW","i_lat":-6.242512,"transit":false,"time":3,"line":2,"i_long":106.856607},{"i_lat":-6.226659,"station_name":"Tebet","distance":1230,"i_long":106.857948,"line":2,"transit":false,"is_transit":false,"time":2,"station_id":"TEB"},{"is_transit":true,"line":2,"distance":2610,"i_lat":-6.209883,"i_long":106.84912,"station_name":"Manggarai","station_id":"MRI","transit":true,"time":4},{"time":2,"line":1,"i_long":106.858896,"i_lat":-6.212485,"is_transit":false,"station_name":"Matraman","distance":1275,"transit":false,"station_id":"MTR"},{"station_name":"Jatinegara","is_transit":true,"transit":true,"i_lat":-6.215091,"distance":1377,"time":8,"line":1,"i_long":106.86807400000001,"station_id":"JNG"},{"station_name":"Pondok Jati","is_transit":false,"transit":false,"i_lat":-6.209188,"distance":1236,"i_long":106.861737,"station_id":"POK","time":2,"line":11},{"station_id":"KMT","time":2,"distance":1829,"i_long":106.855437,"line":11,"i_lat":-6.193792,"station_name":"Kramat","transit":false,"is_transit":false},{"i_long":106.850107,"transit":false,"is_transit":false,"i_lat":-6.185975,"line":11,"station_id":"GST","station_name":"Gang Sentiong","distance":973,"time":1},{"is_transit":false,"time":8,"transit":false,"i_lat":-6.174784,"station_name":"Pasar Senen","i_long":106.84368,"distance":1567,"station_id":"PSE","line":11},{"station_id":"KMO","is_transit":false,"station_name":"Kemayoran","i_long":106.839204,"i_lat":-6.161728,"distance":1436,"transit":false,"line":11,"time":4},{"distance":1901,"station_name":"Rajawali","time":5,"is_transit":false,"line":11,"station_id":"RJW","i_long":106.836569,"transit":false,"i_lat":-6.14505},{"station_id":"KPB","i_lat":-6.132549,"transit":true,"is_transit":true,"time":3,"station_name":"Kampung Bandan","distance":1444,"i_long":106.826365,"line":4},{"transit":true,"i_lat":-6.137569,"is_transit":true,"station_id":"JAKK","time":3,"i_long":106.812439,"line":2,"distance":1364,"station_name":"Jakarta Kota"},{"station_id":"JAY","i_long":106.820901,"line":2,"transit":false,"time":4,"i_lat":-6.141205,"station_name":"Jayakarta","is_transit":false,"distance":1264}]]}