{"data":[[{"station_name":"Cibinong","distance":0,"transit":false,"station_id":"CBN","i_long":106.851978,"time":0,"is_transit":false,"line":0,"i_lat":-6.46424},{"station_name":"Citayam","time":10,"station_id":"CTA","line":1,"transit":false,"i_lat":-6.448811,"i_long":106.800298,"distance":6740,"is_transit":true},{"transit":false,"distance":5084,"i_lat":-6.405256,"station_id":"DP","is_transit":false,"i_long":106.816926,"time":6,"station_name":"Depok","line":0},{"line":0,"is_transit":false,"i_long":106.819451,"distance":1584,"i_lat":-6.391065,"time":3,"station_id":"DPB","station_name":"Depokbaru","transit":false},{"time":4,"distance":2727,"transit":false,"is_transit":false,"i_lat":-6.369073,"station_id":"POC","line":2,"station_name":"Pondok Cina","i_long":106.831114},{"station_id":"UI","time":2,"is_transit":false,"transit":false,"line":2,"distance":1109,"station_name":"Univ. Indonesia","i_long":106.831474,"i_lat":-6.360749},{"station_name":"Univ. Pancasila","is_transit":false,"distance":2264,"i_long":106.834175,"time":3,"transit":false,"i_lat":-6.339291,"line":2,"station_id":"UP"},{"line":2,"i_lat":-6.330363,"station_name":"Lenteng Agung","is_transit":false,"transit":false,"distance":1029,"i_long":106.832616,"time":2,"station_id":"LNA"},{"i_lat":-6.3080680000000005,"station_id":"TNT","transit":false,"time":3,"i_long":106.838896,"is_transit":false,"line":2,"station_name":"Tanjung Barat","distance":2671},{"time":4,"station_id":"PSM","line":2,"transit":false,"i_lat":-6.2842400000000005,"i_long":106.843999,"station_name":"Pasar Minggu","is_transit":false,"distance":2820},{"station_name":"Pasar Minggu Baru","i_long":106.851577,"i_lat":-6.263214,"line":2,"transit":false,"is_transit":false,"distance":2380,"station_id":"PSMB","time":2},{"time":2,"distance":824,"transit":false,"station_id":"DRN","station_name":"Duren Kalibata","i_long":106.85449,"i_lat":-6.255332,"line":0,"is_transit":false},{"i_long":106.856607,"time":3,"is_transit":false,"distance":1546,"station_id":"CW","station_name":"Cawang","transit":false,"i_lat":-6.242512,"line":0},{"is_transit":false,"distance":1230,"station_id":"TEB","transit":false,"line":2,"time":2,"i_long":106.857948,"i_lat":-6.226659,"station_name":"Tebet"},{"time":4,"transit":true,"station_name":"Manggarai","line":0,"distance":2610,"is_transit":true,"i_long":106.84912,"i_lat":-6.209883,"station_id":"MRI"},{"station_id":"MTR","i_lat":-6.212485,"distance":1275,"time":2,"transit":false,"station_name":"Matraman","i_long":106.858896,"line":1,"is_transit":false},{"i_lat":-6.215091,"station_id":"JNG","distance":1377,"line":0,"time":8,"station_name":"Jatinegara","transit":false,"is_transit":true,"i_long":106.86807400000001},{"is_transit":false,"transit":false,"station_name":"Klender","time":3,"i_long":106.899548,"station_id":"KLD","line":1,"distance":3395,"i_lat":-6.2135},{"distance":3100,"station_name":"Buaran","time":2,"i_long":106.922662,"transit":false,"i_lat":-6.215568,"line":0,"station_id":"BUA","is_transit":false},{"station_name":"Klenderbaru","is_transit":false,"transit":false,"station_id":"KLDB","distance":1305,"i_lat":-6.217455,"time":1,"i_long":106.939679,"line":1},{"distance":1385,"is_transit":false,"i_long":106.951283,"station_id":"CUK","station_name":"Cakung","i_lat":-6.219053,"line":0,"transit":false,"time":8},{"line":1,"distance":3097,"is_transit":false,"station_id":"KRI","transit":false,"i_long":106.977657,"station_name":"Kranji","i_lat":-6.224515,"time":3},{"is_transit":false,"station_id":"BKS","i_lat":-6.236616,"distance":2520,"transit":false,"i_long":106.997013,"station_name":"Bekasi","line":0,"time":4}],[{"time":0,"station_name":"Cibinong","line":0,"is_transit":false,"station_id":"CBN","distance":0,"transit":false,"i_long":106.851978,"i_lat":-6.46424},{"is_transit":true,"transit":false,"station_id":"CTA","station_name":"Citayam","i_lat":-6.448811,"time":10,"i_long":106.800298,"line":1,"distance":6740},{"i_long":106.816926,"is_transit":false,"time":6,"station_id":"DP","transit":false,"distance":5084,"station_name":"Depok","i_lat":-6.405256,"line":0},{"transit":false,"i_long":106.819451,"is_transit":false,"line":0,"station_id":"DPB","time":3,"distance":1584,"i_lat":-6.391065,"station_name":"Depokbaru"},{"is_transit":false,"i_lat":-6.369073,"station_id":"POC","transit":false,"line":2,"station_name":"Pondok Cina","time":4,"i_long":106.831114,"distance":2727},{"transit":false,"i_lat":-6.360749,"time":2,"is_transit":false,"station_name":"Univ. Indonesia","station_id":"UI","i_long":106.831474,"line":2,"distance":1109},{"is_transit":false,"station_id":"UP","distance":2264,"station_name":"Univ. Pancasila","i_long":106.834175,"line":2,"time":3,"transit":false,"i_lat":-6.339291},{"distance":1029,"transit":false,"station_name":"Lenteng Agung","time":2,"i_lat":-6.330363,"is_transit":false,"station_id":"LNA","i_long":106.832616,"line":2},{"i_lat":-6.3080680000000005,"transit":false,"station_name":"Tanjung Barat","is_transit":false,"i_long":106.838896,"station_id":"TNT","time":3,"line":2,"distance":2671},{"is_transit":false,"i_long":106.843999,"distance":2820,"line":2,"i_lat":-6.2842400000000005,"station_id":"PSM","time":4,"transit":false,"station_name":"Pasar Minggu"},{"station_name":"Pasar Minggu Baru","station_id":"PSMB","transit":false,"i_long":106.851577,"time":2,"is_transit":false,"line":2,"distance":2380,"i_lat":-6.263214},{"is_transit":false,"transit":false,"i_lat":-6.255332,"line":0,"time":2,"distance":824,"station_id":"DRN","station_name":"Duren Kalibata","i_long":106.85449},{"i_lat":-6.242512,"transit":false,"line":0,"station_id":"CW","station_name":"Cawang","distance":1546,"i_long":106.856607,"is_transit":false,"time":3},{"i_long":106.857948,"station_id":"TEB","transit":false,"time":2,"distance":1230,"line":2,"station_name":"Tebet","is_transit":false,"i_lat":-6.226659},{"distance":2610,"station_name":"Manggarai","station_id":"MRI","time":4,"i_long":106.84912,"i_lat":-6.209883,"is_transit":true,"transit":true,"line":0},{"i_long":106.822649,"station_name":"Sudirman","station_id":"SUD","time":4,"transit":false,"distance":3186,"is_transit":false,"line":1,"i_lat":-6.202263},{"distance":280,"line":1,"station_id":"SUDB","station_name":"Sudirman Baru","transit":false,"i_lat":-6.201433,"time":1,"is_transit":false,"i_long":106.819881},{"station_id":"KAT","distance":471,"station_name":"Karet","time":1,"i_long":106.816351,"line":1,"transit":false,"i_lat":-6.20132,"is_transit":false},{"is_transit":true,"time":5,"station_id":"THB","distance":2029,"i_lat":-6.185545,"station_name":"Tanah Abang","transit":false,"line":1,"i_long":106.811091},{"time":8,"station_id":"DU","i_lat":-6.155215,"i_long":106.800832,"distance":3632,"is_transit":true,"line":1,"transit":true,"station_name":"Duri"},{"time":4,"i_long":106.79867,"station_name":"Angke","line":0,"transit":false,"i_lat":-6.144674,"station_id":"AK","is_transit":false,"distance":1230},{"i_lat":-6.132549,"distance":4102,"transit":true,"i_long":106.826365,"station_name":"Kampung Bandan","line":0,"station_id":"KPB","is_transit":true,"time":9},{"time":3,"i_lat":-6.14505,"i_long":106.836569,"transit":false,"is_transit":false,"line":11,"distance":1444,"station_id":"RJW","station_name":"Rajawali"},{"distance":1901,"station_name":"Kemayoran","station_id":"KMO","time":5,"i_lat":-6.161728,"transit":false,"i_long":106.839204,"line":11,"is_transit":false},{"station_name":"Pasar Senen","distance":1436,"station_id":"PSE","i_long":106.84368,"line":11,"time":4,"transit":false,"is_transit":false,"i_lat":-6.174784},{"transit":false,"line":11,"i_lat":-6.185975,"station_id":"GST","time":8,"distance":1567,"i_long":106.850107,"station_name":"Gang Sentiong","is_transit":false},{"station_name":"Kramat","time":1,"transit":false,"i_lat":-6.193792,"line":11,"is_transit":false,"i_long":106.855437,"station_id":"KMT","distance":973},{"transit":false,"i_long":106.861737,"station_name":"Pondok Jati","station_id":"POK","is_transit":false,"i_lat":-6.209188,"line":11,"time":2,"distance":1829},{"i_long":106.86807400000001,"time":9,"line":0,"is_transit":true,"distance":1236,"station_id":"JNG","station_name":"Jatinegara","transit":true,"i_lat":-6.215091},{"line":1,"i_long":106.899548,"distance":3395,"transit":false,"station_id":"KLD","is_transit":false,"time":3,"station_name":"Klender","i_lat":-6.2135},{"time":2,"i_long":106.922662,"station_id":"BUA","is_transit":false,"station_name":"Buaran","transit":false,"distance":3100,"line":0,"i_lat":-6.215568},{"is_transit":false,"i_lat":-6.217455,"time":1,"transit":false,"i_long":106.939679,"distance":1305,"station_name":"Klenderbaru","line":1,"station_id":"KLDB"},{"is_transit":false,"transit":false,"line":0,"station_id":"CUK","i_long":106.951283,"time":8,"distance":1385,"station_name":"Cakung","i_lat":-6.219053},{"station_name":"Kranji","station_id":"KRI","line":1,"distance":3097,"is_transit":false,"time":3,"i_long":106.977657,"transit":false,"i_lat":-6.224515},{"time":4,"i_lat":-6.236616,"distance":2520,"line":0,"is_transit":false,"station_id":"BKS","i_long":106.997013,"transit":false,"station_name":"Bekasi"}],[{"time":0,"station_name":"Cibinong","distance":0,"transit":false,"i_long":106.851978,"line":0,"station_id":"CBN","is_transit":false,"i_lat":-6.46424},{"line":1,"time":10,"i_lat":-6.448811,"distance":6740,"is_transit":true,"station_name":"Citayam","i_long":106.800298,"transit":false,"station_id":"CTA"},{"line":0,"transit":false,"time":6,"station_id":"DP","distance":5084,"is_transit":false,"station_name":"Depok","i_lat":-6.405256,"i_long":106.816926},{"transit":false,"time":3,"i_lat":-6.391065,"station_name":"Depokbaru","distance":1584,"line":0,"station_id":"DPB","is_transit":false,"i_long":106.819451},{"distance":2727,"transit":false,"station_name":"Pondok Cina","i_lat":-6.369073,"line":2,"is_transit":false,"station_id":"POC","time":4,"i_long":106.831114},{"i_long":106.831474,"is_transit":false,"i_lat":-6.360749,"line":2,"station_id":"UI","station_name":"Univ. Indonesia","time":2,"distance":1109,"transit":false},{"station_id":"UP","transit":false,"line":2,"is_transit":false,"distance":2264,"i_long":106.834175,"time":3,"i_lat":-6.339291,"station_name":"Univ. Pancasila"},{"i_lat":-6.330363,"distance":1029,"transit":false,"i_long":106.832616,"time":2,"line":2,"station_id":"LNA","is_transit":false,"station_name":"Lenteng Agung"},{"distance":2671,"is_transit":false,"i_lat":-6.3080680000000005,"line":2,"transit":false,"station_id":"TNT","time":3,"i_long":106.838896,"station_name":"Tanjung Barat"},{"line":2,"time":4,"is_transit":false,"distance":2820,"station_name":"Pasar Minggu","transit":false,"i_long":106.843999,"station_id":"PSM","i_lat":-6.2842400000000005},{"is_transit":false,"line":2,"transit":false,"time":2,"station_name":"Pasar Minggu Baru","i_long":106.851577,"distance":2380,"i_lat":-6.263214,"station_id":"PSMB"},{"is_transit":false,"station_id":"DRN","time":2,"station_name":"Duren Kalibata","distance":824,"line":0,"transit":false,"i_lat":-6.255332,"i_long":106.85449},{"station_name":"Cawang","i_long":106.856607,"line":0,"time":3,"transit":false,"station_id":"CW","i_lat":-6.242512,"is_transit":false,"distance":1546},{"is_transit":false,"transit":false,"i_long":106.857948,"time":2,"station_name":"Tebet","station_id":"TEB","i_lat":-6.226659,"line":2,"distance":1230},{"time":4,"station_name":"Manggarai","is_transit":true,"transit":true,"i_long":106.84912,"i_lat":-6.209883,"station_id":"MRI","distance":2610,"line":0},{"time":4,"distance":1590,"is_transit":false,"station_id":"CKI","transit":false,"i_long":106.840169,"line":0,"station_name":"Cikini","i_lat":-6.198556},{"is_transit":false,"line":2,"i_long":106.832183,"station_id":"GDD","transit":false,"station_name":"Gondangdia","time":3,"distance":1750,"i_lat":-6.186295},{"i_lat":-6.166716,"line":2,"station_name":"Juanda","station_id":"JUA","transit":false,"distance":2015,"is_transit":false,"i_long":106.828284,"time":4},{"transit":false,"line":2,"distance":1149,"i_lat":-6.160725,"i_long":106.827103,"is_transit":false,"station_id":"SW","time":2,"station_name":"Sawah Besar"},{"time":2,"distance":906,"station_name":"Manggabesar","i_lat":-6.149769,"line":2,"station_id":"MGB","i_long":106.82482,"is_transit":false,"transit":false},{"i_long":106.820901,"time":2,"distance":1080,"i_lat":-6.141205,"station_id":"JAY","is_transit":false,"station_name":"Jayakarta","transit":false,"line":7},{"is_transit":true,"transit":true,"distance":1264,"i_long":106.812439,"time":4,"station_name":"Jakarta Kota","i_lat":-6.137569,"line":0,"station_id":"JAKK"},{"distance":1364,"i_long":106.826365,"is_transit":true,"i_lat":-6.132549,"transit":true,"station_name":"Kampung Bandan","time":3,"line":0,"station_id":"KPB"},{"is_transit":false,"i_lat":-6.14505,"station_id":"RJW","station_name":"Rajawali","i_long":106.836569,"distance":1444,"time":3,"transit":false,"line":11},{"i_lat":-6.161728,"transit":false,"time":5,"line":11,"distance":1901,"station_id":"KMO","station_name":"Kemayoran","is_transit":false,"i_long":106.839204},{"station_id":"PSE","transit":false,"line":11,"station_name":"Pasar Senen","i_long":106.84368,"is_transit":false,"distance":1436,"time":4,"i_lat":-6.174784},{"time":8,"distance":1567,"line":11,"station_id":"GST","is_transit":false,"i_lat":-6.185975,"station_name":"Gang Sentiong","transit":false,"i_long":106.850107},{"time":1,"i_lat":-6.193792,"i_long":106.855437,"transit":false,"station_name":"Kramat","is_transit":false,"distance":973,"station_id":"KMT","line":11},{"is_transit":false,"transit":false,"i_long":106.861737,"station_id":"POK","station_name":"Pondok Jati","i_lat":-6.209188,"time":2,"line":11,"distance":1829},{"line":0,"i_long":106.86807400000001,"i_lat":-6.215091,"distance":1236,"time":9,"station_name":"Jatinegara","station_id":"JNG","transit":true,"is_transit":true},{"i_long":106.899548,"is_transit":false,"line":1,"station_name":"Klender","transit":false,"station_id":"KLD","distance":3395,"time":3,"i_lat":-6.2135},{"station_name":"Buaran","i_lat":-6.215568,"transit":false,"distance":3100,"station_id":"BUA","time":2,"i_long":106.922662,"is_transit":false,"line":0},{"distance":1305,"is_transit":false,"i_long":106.939679,"line":1,"station_name":"Klenderbaru","i_lat":-6.217455,"station_id":"KLDB","time":1,"transit":false},{"is_transit":false,"i_long":106.951283,"station_name":"Cakung","line":0,"station_id":"CUK","time":8,"transit":false,"distance":1385,"i_lat":-6.219053},{"station_name":"Kranji","i_lat":-6.224515,"i_long":106.977657,"time":3,"is_transit":false,"transit":false,"distance":3097,"line":1,"station_id":"KRI"},{"transit":false,"i_lat":-6.236616,"i_long":106.997013,"line":0,"station_name":"Bekasi","distance":2520,"station_id":"BKS","is_transit":false,"time":4}]]}