{"data":[[{"is_transit":false,"time":0,"transit":false,"distance":0,"i_lat":-6.46424,"i_long":106.851978,"station_id":"CBN","line":21,"station_name":"Cibinong"},{"station_id":"PDRG","transit":false,"time":0,"line":21,"i_lat":-6.460735,"distance":0,"is_transit":false,"i_long":106.824374,"station_name":"Pondok Rajeg"},{"transit":true,"line":2,"time":0,"station_name":"Citayam","distance":0,"is_transit":true,"i_lat":-6.448811,"i_long":106.800298,"station_id":"CTA"},{"line":2,"i_lat":-6.405256,"distance":5084,"station_id":"DP","i_long":106.816926,"transit":false,"time":6,"station_name":"Depok","is_transit":false},{"station_name":"Depokbaru","i_long":106.819451,"distance":1584,"line":2,"i_lat":-6.391065,"transit":false,"station_id":"DPB","is_transit":false,"time":3},{"transit":false,"i_long":106.831114,"line":2,"station_id":"POC","is_transit":false,"time":4,"station_name":"Pondok Cina","i_lat":-6.369073,"distance":2727},{"station_name":"Univ. Indonesia","is_transit":false,"i_long":106.831474,"distance":1109,"transit":false,"line":2,"i_lat":-6.360749,"station_id":"UI","time":2},{"station_id":"UP","station_name":"Univ. Pancasila","line":2,"i_lat":-6.339291,"time":3,"i_long":106.834175,"transit":false,"distance":2264,"is_transit":false},{"line":2,"station_name":"Lenteng Agung","is_transit":false,"transit":false,"station_id":"LNA","distance":1029,"time":2,"i_lat":-6.330363,"i_long":106.832616},{"time":3,"station_name":"Tanjung Barat","distance":2671,"station_id":"TNT","i_lat":-6.3080680000000005,"i_long":106.838896,"is_transit":false,"line":2,"transit":false},{"time":4,"distance":2820,"transit":false,"i_lat":-6.2842400000000005,"line":2,"i_long":106.843999,"station_name":"Pasar Minggu","is_transit":false,"station_id":"PSM"},{"is_transit":false,"i_lat":-6.263214,"station_name":"Pasar Minggu Baru","i_long":106.851577,"distance":2380,"transit":false,"station_id":"PSMB","time":2,"line":2},{"distance":824,"line":2,"station_id":"DRN","time":2,"i_lat":-6.255332,"i_long":106.85449,"station_name":"Duren Kalibata","is_transit":false,"transit":false},{"is_transit":false,"distance":1546,"i_long":106.856607,"i_lat":-6.242512,"station_id":"CW","station_name":"Cawang","line":2,"transit":false,"time":3},{"station_id":"TEB","transit":false,"is_transit":false,"time":2,"station_name":"Tebet","line":2,"distance":1230,"i_long":106.857948,"i_lat":-6.226659},{"is_transit":true,"transit":true,"station_id":"MRI","time":4,"distance":2610,"i_long":106.84912,"i_lat":-6.209883,"line":2,"station_name":"Manggarai"},{"i_long":106.858896,"i_lat":-6.212485,"distance":1275,"is_transit":false,"transit":false,"station_name":"Matraman","time":2,"line":1,"station_id":"MTR"},{"distance":1377,"i_long":106.86807400000001,"transit":false,"station_name":"Jatinegara","is_transit":false,"line":1,"time":8,"station_id":"JNG","i_lat":-6.215091},{"i_long":106.899548,"line":1,"transit":false,"is_transit":false,"station_id":"KLD","distance":3395,"station_name":"Klender","time":3,"i_lat":-6.2135},{"station_id":"BUA","station_name":"Buaran","distance":3100,"transit":false,"i_lat":-6.215568,"time":2,"line":1,"is_transit":false,"i_long":106.922662},{"station_id":"KLDB","distance":1305,"i_lat":-6.217455,"i_long":106.939679,"is_transit":false,"station_name":"Klenderbaru","transit":false,"time":1,"line":1},{"station_name":"Cakung","station_id":"CUK","time":8,"i_long":106.951283,"distance":1385,"line":1,"is_transit":false,"transit":false,"i_lat":-6.219053},{"transit":false,"station_id":"KRI","i_lat":-6.224515,"station_name":"Kranji","line":1,"distance":3097,"is_transit":false,"time":3,"i_long":106.977657},{"is_transit":false,"line":1,"station_name":"Bekasi","i_long":106.997013,"i_lat":-6.236616,"time":4,"distance":2520,"transit":false,"station_id":"BKS"}],[{"station_id":"CBN","time":0,"distance":0,"i_long":106.851978,"transit":false,"i_lat":-6.46424,"line":21,"is_transit":false,"station_name":"Cibinong"},{"time":0,"i_long":106.824374,"station_name":"Pondok Rajeg","is_transit":false,"distance":0,"line":21,"i_lat":-6.460735,"station_id":"PDRG","transit":false},{"distance":0,"i_long":106.800298,"i_lat":-6.448811,"time":0,"station_id":"CTA","is_transit":true,"line":2,"transit":true,"station_name":"Citayam"},{"i_long":106.816926,"station_name":"Depok","is_transit":false,"distance":5084,"line":2,"station_id":"DP","transit":false,"time":6,"i_lat":-6.405256},{"is_transit":false,"transit":false,"i_lat":-6.391065,"i_long":106.819451,"time":3,"line":2,"station_id":"DPB","station_name":"Depokbaru","distance":1584},{"i_lat":-6.369073,"station_name":"Pondok Cina","is_transit":false,"i_long":106.831114,"transit":false,"station_id":"POC","time":4,"line":2,"distance":2727},{"transit":false,"station_id":"UI","i_long":106.831474,"line":2,"time":2,"distance":1109,"station_name":"Univ. Indonesia","is_transit":false,"i_lat":-6.360749},{"station_name":"Univ. Pancasila","station_id":"UP","time":3,"transit":false,"line":2,"distance":2264,"is_transit":false,"i_lat":-6.339291,"i_long":106.834175},{"station_id":"LNA","station_name":"Lenteng Agung","i_long":106.832616,"i_lat":-6.330363,"time":2,"distance":1029,"line":2,"transit":false,"is_transit":false},{"line":2,"i_long":106.838896,"station_id":"TNT","time":3,"station_name":"Tanjung Barat","is_transit":false,"distance":2671,"i_lat":-6.3080680000000005,"transit":false},{"time":4,"distance":2820,"station_name":"Pasar Minggu","station_id":"PSM","line":2,"transit":false,"is_transit":false,"i_long":106.843999,"i_lat":-6.2842400000000005},{"transit":false,"time":2,"i_long":106.851577,"is_transit":false,"line":2,"station_id":"PSMB","distance":2380,"i_lat":-6.263214,"station_name":"Pasar Minggu Baru"},{"line":2,"transit":false,"is_transit":false,"i_lat":-6.255332,"time":2,"station_id":"DRN","station_name":"Duren Kalibata","i_long":106.85449,"distance":824},{"distance":1546,"i_long":106.856607,"line":2,"is_transit":false,"transit":false,"station_name":"Cawang","station_id":"CW","time":3,"i_lat":-6.242512},{"station_id":"TEB","is_transit":false,"distance":1230,"time":2,"line":2,"station_name":"Tebet","transit":false,"i_lat":-6.226659,"i_long":106.857948},{"distance":2610,"line":2,"transit":true,"i_long":106.84912,"station_name":"Manggarai","is_transit":true,"time":4,"station_id":"MRI","i_lat":-6.209883},{"transit":false,"time":4,"distance":3186,"i_long":106.822649,"station_id":"SUD","is_transit":false,"i_lat":-6.202263,"station_name":"Sudirman","line":1},{"line":1,"transit":false,"distance":280,"station_id":"SUDB","station_name":"Sudirman Baru","is_transit":false,"time":1,"i_lat":-6.201433,"i_long":106.819881},{"is_transit":false,"time":1,"distance":471,"i_lat":-6.20132,"transit":false,"station_id":"KAT","line":1,"i_long":106.816351,"station_name":"Karet"},{"station_name":"Tanah Abang","station_id":"THB","i_lat":-6.185545,"transit":false,"is_transit":false,"distance":2029,"i_long":106.811091,"line":1,"time":5},{"station_name":"Duri","time":8,"transit":false,"distance":3632,"is_transit":false,"station_id":"DU","i_lat":-6.155215,"i_long":106.800832,"line":1},{"station_name":"Angke","time":4,"i_long":106.79867,"is_transit":false,"i_lat":-6.144674,"line":1,"distance":1230,"transit":false,"station_id":"AK"},{"is_transit":true,"time":9,"station_name":"Kampung Bandan","distance":4102,"i_lat":-6.132549,"line":4,"transit":true,"i_long":106.826365,"station_id":"KPB"},{"station_name":"Rajawali","station_id":"RJW","is_transit":false,"i_lat":-6.14505,"i_long":106.836569,"transit":false,"distance":1444,"time":3,"line":11},{"i_long":106.839204,"i_lat":-6.161728,"station_id":"KMO","transit":false,"is_transit":false,"line":11,"station_name":"Kemayoran","distance":1901,"time":5},{"station_name":"Pasar Senen","time":4,"line":11,"i_lat":-6.174784,"distance":1436,"i_long":106.84368,"is_transit":false,"transit":false,"station_id":"PSE"},{"distance":1567,"line":11,"i_long":106.850107,"i_lat":-6.185975,"station_id":"GST","time":8,"is_transit":false,"station_name":"Gang Sentiong","transit":false},{"station_name":"Kramat","station_id":"KMT","transit":false,"distance":973,"i_lat":-6.193792,"time":1,"i_long":106.855437,"line":11,"is_transit":false},{"i_lat":-6.209188,"transit":false,"is_transit":false,"time":2,"station_id":"POK","i_long":106.861737,"line":11,"station_name":"Pondok Jati","distance":1829},{"line":1,"is_transit":true,"station_id":"JNG","time":9,"i_lat":-6.215091,"transit":true,"station_name":"Jatinegara","distance":1236,"i_long":106.86807400000001},{"is_transit":false,"line":1,"station_name":"Klender","distance":3395,"station_id":"KLD","time":3,"i_lat":-6.2135,"i_long":106.899548,"transit":false},{"i_long":106.922662,"time":2,"transit":false,"line":1,"station_id":"BUA","i_lat":-6.215568,"is_transit":false,"distance":3100,"station_name":"Buaran"},{"distance":1305,"is_transit":false,"time":1,"line":1,"transit":false,"station_name":"Klenderbaru","station_id":"KLDB","i_lat":-6.217455,"i_long":106.939679},{"station_name":"Cakung","transit":false,"time":8,"is_transit":false,"i_lat":-6.219053,"i_long":106.951283,"station_id":"CUK","line":1,"distance":1385},{"is_transit":false,"time":3,"i_lat":-6.224515,"i_long":106.977657,"transit":false,"station_name":"Kranji","line":1,"station_id":"KRI","distance":3097},{"station_id":"BKS","station_name":"Bekasi","line":1,"time":4,"transit":false,"is_transit":false,"i_long":106.997013,"distance":2520,"i_lat":-6.236616}],[{"transit":false,"distance":0,"is_transit":false,"i_lat":-6.46424,"line":21,"time":0,"station_id":"CBN","i_long":106.851978,"station_name":"Cibinong"},{"is_transit":false,"time":0,"distance":0,"transit":false,"station_id":"PDRG","i_lat":-6.460735,"line":21,"i_long":106.824374,"station_name":"Pondok Rajeg"},{"time":0,"distance":0,"is_transit":true,"i_lat":-6.448811,"station_id":"CTA","line":2,"transit":true,"station_name":"Citayam","i_long":106.800298},{"time":6,"transit":false,"station_name":"Depok","is_transit":false,"distance":5084,"i_lat":-6.405256,"i_long":106.816926,"line":2,"station_id":"DP"},{"station_id":"DPB","is_transit":false,"transit":false,"distance":1584,"time":3,"station_name":"Depokbaru","i_lat":-6.391065,"i_long":106.819451,"line":2},{"time":4,"distance":2727,"i_long":106.831114,"station_id":"POC","transit":false,"station_name":"Pondok Cina","is_transit":false,"i_lat":-6.369073,"line":2},{"transit":false,"station_id":"UI","is_transit":false,"distance":1109,"line":2,"time":2,"i_lat":-6.360749,"i_long":106.831474,"station_name":"Univ. Indonesia"},{"time":3,"i_lat":-6.339291,"transit":false,"is_transit":false,"station_id":"UP","distance":2264,"i_long":106.834175,"station_name":"Univ. Pancasila","line":2},{"station_name":"Lenteng Agung","station_id":"LNA","is_transit":false,"distance":1029,"i_long":106.832616,"transit":false,"time":2,"i_lat":-6.330363,"line":2},{"station_id":"TNT","station_name":"Tanjung Barat","is_transit":false,"i_long":106.838896,"line":2,"transit":false,"time":3,"i_lat":-6.3080680000000005,"distance":2671},{"time":4,"i_long":106.843999,"line":2,"station_id":"PSM","is_transit":false,"station_name":"Pasar Minggu","distance":2820,"i_lat":-6.2842400000000005,"transit":false},{"line":2,"station_id":"PSMB","distance":2380,"station_name":"Pasar Minggu Baru","i_long":106.851577,"time":2,"transit":false,"is_transit":false,"i_lat":-6.263214},{"i_lat":-6.255332,"station_id":"DRN","station_name":"Duren Kalibata","distance":824,"i_long":106.85449,"transit":false,"time":2,"is_transit":false,"line":2},{"transit":false,"distance":1546,"i_lat":-6.242512,"time":3,"station_name":"Cawang","is_transit":false,"i_long":106.856607,"station_id":"CW","line":2},{"i_lat":-6.226659,"i_long":106.857948,"line":2,"station_id":"TEB","transit":false,"is_transit":false,"time":2,"station_name":"Tebet","distance":1230},{"i_lat":-6.209883,"i_long":106.84912,"distance":2610,"line":2,"time":4,"station_name":"Manggarai","station_id":"MRI","is_transit":false,"transit":false},{"i_long":106.840169,"transit":false,"station_name":"Cikini","station_id":"CKI","distance":1590,"i_lat":-6.198556,"line":2,"is_transit":false,"time":4},{"time":3,"i_lat":-6.186295,"station_name":"Gondangdia","is_transit":false,"line":2,"transit":false,"station_id":"GDD","i_long":106.832183,"distance":1750},{"transit":false,"station_name":"Juanda","distance":2015,"i_long":106.828284,"time":4,"station_id":"JUA","line":2,"is_transit":false,"i_lat":-6.166716},{"time":2,"i_lat":-6.160725,"distance":1149,"is_transit":false,"station_id":"SW","station_name":"Sawah Besar","line":2,"transit":false,"i_long":106.827103},{"i_lat":-6.149769,"time":2,"i_long":106.82482,"station_name":"Manggabesar","transit":false,"station_id":"MGB","distance":906,"is_transit":false,"line":2},{"station_name":"Jayakarta","line":2,"is_transit":false,"i_long":106.820901,"time":2,"transit":false,"distance":1080,"station_id":"JAY","i_lat":-6.141205},{"i_lat":-6.137569,"station_name":"Jakarta Kota","distance":1264,"line":2,"time":4,"transit":true,"station_id":"JAKK","is_transit":true,"i_long":106.812439},{"station_name":"Kampung Bandan","i_long":106.826365,"station_id":"KPB","i_lat":-6.132549,"line":4,"time":3,"is_transit":true,"distance":1364,"transit":true},{"time":3,"i_long":106.836569,"i_lat":-6.14505,"station_id":"RJW","distance":1444,"line":11,"station_name":"Rajawali","is_transit":false,"transit":false},{"station_id":"KMO","i_long":106.839204,"time":5,"line":11,"is_transit":false,"i_lat":-6.161728,"station_name":"Kemayoran","transit":false,"distance":1901},{"distance":1436,"time":4,"i_long":106.84368,"i_lat":-6.174784,"is_transit":false,"station_id":"PSE","station_name":"Pasar Senen","transit":false,"line":11},{"station_id":"GST","station_name":"Gang Sentiong","distance":1567,"time":8,"line":11,"i_lat":-6.185975,"i_long":106.850107,"is_transit":false,"transit":false},{"time":1,"is_transit":false,"distance":973,"line":11,"station_name":"Kramat","i_lat":-6.193792,"station_id":"KMT","transit":false,"i_long":106.855437},{"distance":1829,"is_transit":false,"station_id":"POK","i_lat":-6.209188,"transit":false,"i_long":106.861737,"line":11,"time":2,"station_name":"Pondok Jati"},{"is_transit":true,"line":1,"station_name":"Jatinegara","transit":true,"i_lat":-6.215091,"time":9,"station_id":"JNG","i_long":106.86807400000001,"distance":1236},{"distance":3395,"i_lat":-6.2135,"i_long":106.899548,"is_transit":false,"line":1,"station_name":"Klender","transit":false,"time":3,"station_id":"KLD"},{"line":1,"is_transit":false,"i_long":106.922662,"i_lat":-6.215568,"station_name":"Buaran","station_id":"BUA","distance":3100,"transit":false,"time":2},{"distance":1305,"is_transit":false,"i_lat":-6.217455,"station_id":"KLDB","station_name":"Klenderbaru","line":1,"transit":false,"time":1,"i_long":106.939679},{"i_lat":-6.219053,"time":8,"station_name":"Cakung","transit":false,"station_id":"CUK","distance":1385,"is_transit":false,"line":1,"i_long":106.951283},{"is_transit":false,"i_long":106.977657,"line":1,"distance":3097,"transit":false,"time":3,"station_id":"KRI","i_lat":-6.224515,"station_name":"Kranji"},{"distance":2520,"i_long":106.997013,"transit":false,"station_id":"BKS","station_name":"Bekasi","time":4,"i_lat":-6.236616,"line":1,"is_transit":false}]]}