{"data":[[{"i_lat":-6.46424,"distance":0,"is_transit":false,"station_id":"CBN","station_name":"Cibinong","transit":false,"line":21,"i_long":106.851978,"time":0},{"is_transit":false,"transit":false,"i_lat":-6.460735,"time":0,"line":21,"station_name":"Pondok Rajeg","station_id":"PDRG","i_long":106.824374,"distance":0},{"time":0,"transit":true,"i_long":106.800298,"is_transit":true,"distance":0,"line":2,"station_id":"CTA","station_name":"Citayam","i_lat":-6.448811},{"station_id":"DP","i_lat":-6.405256,"line":2,"time":6,"distance":5084,"is_transit":false,"station_name":"Depok","transit":false,"i_long":106.816926},{"transit":false,"i_long":106.819451,"i_lat":-6.391065,"station_id":"DPB","station_name":"Depokbaru","line":2,"is_transit":false,"time":3,"distance":1584},{"time":4,"is_transit":false,"distance":2727,"i_long":106.831114,"line":2,"i_lat":-6.369073,"station_id":"POC","station_name":"Pondok Cina","transit":false},{"station_id":"UI","transit":false,"is_transit":false,"i_lat":-6.360749,"line":2,"station_name":"Univ. Indonesia","time":2,"i_long":106.831474,"distance":1109},{"transit":false,"station_id":"UP","i_lat":-6.339291,"distance":2264,"station_name":"Univ. Pancasila","is_transit":false,"i_long":106.834175,"line":2,"time":3},{"distance":1029,"station_id":"LNA","transit":false,"i_lat":-6.330363,"i_long":106.832616,"line":2,"time":2,"station_name":"Lenteng Agung","is_transit":false},{"distance":2671,"is_transit":false,"i_lat":-6.3080680000000005,"transit":false,"station_name":"Tanjung Barat","i_long":106.838896,"time":3,"line":2,"station_id":"TNT"},{"i_lat":-6.2842400000000005,"line":2,"time":4,"is_transit":false,"transit":false,"i_long":106.843999,"station_id":"PSM","distance":2820,"station_name":"Pasar Minggu"},{"time":2,"station_id":"PSMB","transit":false,"i_lat":-6.263214,"i_long":106.851577,"line":2,"station_name":"Pasar Minggu Baru","is_transit":false,"distance":2380},{"line":2,"is_transit":false,"i_long":106.85449,"station_id":"DRN","time":2,"station_name":"Duren Kalibata","distance":824,"i_lat":-6.255332,"transit":false},{"i_long":106.856607,"distance":1546,"station_name":"Cawang","transit":false,"line":2,"station_id":"CW","time":3,"i_lat":-6.242512,"is_transit":false},{"is_transit":false,"distance":1230,"station_id":"TEB","transit":false,"line":2,"time":2,"station_name":"Tebet","i_lat":-6.226659,"i_long":106.857948},{"line":2,"transit":true,"i_long":106.84912,"distance":2610,"is_transit":true,"i_lat":-6.209883,"station_name":"Manggarai","station_id":"MRI","time":4},{"station_id":"MTR","line":1,"transit":false,"i_lat":-6.212485,"station_name":"Matraman","time":2,"distance":1275,"i_long":106.858896,"is_transit":false},{"time":8,"i_long":106.86807400000001,"transit":false,"distance":1377,"i_lat":-6.215091,"line":1,"station_name":"Jatinegara","is_transit":false,"station_id":"JNG"},{"time":3,"distance":3395,"i_lat":-6.2135,"line":1,"transit":false,"is_transit":false,"i_long":106.899548,"station_name":"Klender","station_id":"KLD"},{"is_transit":false,"transit":false,"station_name":"Buaran","i_lat":-6.215568,"station_id":"BUA","distance":3100,"time":2,"line":1,"i_long":106.922662},{"time":1,"distance":1305,"station_name":"Klenderbaru","line":1,"transit":false,"i_long":106.939679,"i_lat":-6.217455,"station_id":"KLDB","is_transit":false},{"station_name":"Cakung","i_lat":-6.219053,"distance":1385,"transit":false,"line":1,"i_long":106.951283,"station_id":"CUK","time":8,"is_transit":false},{"is_transit":false,"station_name":"Kranji","station_id":"KRI","i_long":106.977657,"time":3,"distance":3097,"i_lat":-6.224515,"transit":false,"line":1},{"is_transit":false,"i_long":106.997013,"station_id":"BKS","time":4,"station_name":"Bekasi","transit":false,"line":1,"distance":2520,"i_lat":-6.236616},{"line":1,"time":2,"is_transit":false,"i_lat":-6.248029,"i_long":107.016735,"station_id":"BKST","distance":2368,"station_name":"Bekasi Timur","transit":false}],[{"line":21,"station_name":"Cibinong","i_long":106.851978,"i_lat":-6.46424,"time":0,"is_transit":false,"distance":0,"transit":false,"station_id":"CBN"},{"transit":false,"i_lat":-6.460735,"i_long":106.824374,"station_id":"PDRG","station_name":"Pondok Rajeg","is_transit":false,"time":0,"line":21,"distance":0},{"station_name":"Citayam","is_transit":true,"i_lat":-6.448811,"i_long":106.800298,"line":2,"station_id":"CTA","transit":true,"time":0,"distance":0},{"time":6,"i_lat":-6.405256,"transit":false,"is_transit":false,"station_name":"Depok","station_id":"DP","line":2,"distance":5084,"i_long":106.816926},{"time":3,"station_id":"DPB","i_long":106.819451,"line":2,"transit":false,"i_lat":-6.391065,"is_transit":false,"distance":1584,"station_name":"Depokbaru"},{"station_id":"POC","distance":2727,"transit":false,"i_lat":-6.369073,"line":2,"is_transit":false,"station_name":"Pondok Cina","i_long":106.831114,"time":4},{"transit":false,"distance":1109,"i_long":106.831474,"is_transit":false,"line":2,"i_lat":-6.360749,"time":2,"station_id":"UI","station_name":"Univ. Indonesia"},{"is_transit":false,"time":3,"i_long":106.834175,"line":2,"transit":false,"station_id":"UP","i_lat":-6.339291,"station_name":"Univ. Pancasila","distance":2264},{"station_id":"LNA","is_transit":false,"i_long":106.832616,"i_lat":-6.330363,"station_name":"Lenteng Agung","time":2,"transit":false,"distance":1029,"line":2},{"is_transit":false,"i_long":106.838896,"time":3,"station_name":"Tanjung Barat","transit":false,"i_lat":-6.3080680000000005,"station_id":"TNT","distance":2671,"line":2},{"station_id":"PSM","time":4,"i_long":106.843999,"i_lat":-6.2842400000000005,"transit":false,"line":2,"station_name":"Pasar Minggu","is_transit":false,"distance":2820},{"is_transit":false,"time":2,"i_long":106.851577,"distance":2380,"i_lat":-6.263214,"station_name":"Pasar Minggu Baru","transit":false,"station_id":"PSMB","line":2},{"line":2,"is_transit":false,"station_id":"DRN","i_lat":-6.255332,"station_name":"Duren Kalibata","distance":824,"i_long":106.85449,"time":2,"transit":false},{"i_lat":-6.242512,"line":2,"time":3,"is_transit":false,"transit":false,"i_long":106.856607,"station_name":"Cawang","distance":1546,"station_id":"CW"},{"station_id":"TEB","station_name":"Tebet","i_long":106.857948,"is_transit":false,"time":2,"distance":1230,"transit":false,"i_lat":-6.226659,"line":2},{"i_long":106.84912,"is_transit":true,"station_name":"Manggarai","transit":true,"distance":2610,"line":2,"time":4,"station_id":"MRI","i_lat":-6.209883},{"i_long":106.822649,"i_lat":-6.202263,"line":1,"is_transit":false,"station_id":"SUD","station_name":"Sudirman","time":4,"transit":false,"distance":3186},{"is_transit":false,"station_name":"Sudirman Baru","station_id":"SUDB","distance":280,"transit":false,"i_lat":-6.201433,"time":1,"i_long":106.819881,"line":1},{"time":1,"i_long":106.816351,"station_id":"KAT","station_name":"Karet","is_transit":false,"transit":false,"i_lat":-6.20132,"distance":471,"line":1},{"i_long":106.811091,"i_lat":-6.185545,"transit":false,"is_transit":false,"station_id":"THB","line":1,"time":5,"station_name":"Tanah Abang","distance":2029},{"i_long":106.800832,"i_lat":-6.155215,"is_transit":false,"line":1,"station_id":"DU","time":8,"station_name":"Duri","distance":3632,"transit":false},{"transit":false,"station_id":"AK","distance":1230,"i_lat":-6.144674,"time":4,"i_long":106.79867,"line":1,"is_transit":false,"station_name":"Angke"},{"line":4,"time":9,"i_long":106.826365,"distance":4102,"i_lat":-6.132549,"transit":true,"is_transit":true,"station_id":"KPB","station_name":"Kampung Bandan"},{"distance":1444,"line":11,"i_long":106.836569,"i_lat":-6.14505,"station_id":"RJW","is_transit":false,"transit":false,"time":3,"station_name":"Rajawali"},{"i_lat":-6.161728,"line":11,"station_id":"KMO","transit":false,"station_name":"Kemayoran","distance":1901,"i_long":106.839204,"time":5,"is_transit":false},{"i_lat":-6.174784,"station_name":"Pasar Senen","station_id":"PSE","transit":false,"distance":1436,"i_long":106.84368,"is_transit":false,"time":4,"line":11},{"is_transit":false,"station_id":"GST","i_long":106.850107,"line":11,"i_lat":-6.185975,"station_name":"Gang Sentiong","distance":1567,"time":8,"transit":false},{"time":1,"distance":973,"i_long":106.855437,"station_name":"Kramat","line":11,"transit":false,"station_id":"KMT","i_lat":-6.193792,"is_transit":false},{"transit":false,"line":11,"i_long":106.861737,"station_id":"POK","is_transit":false,"time":2,"distance":1829,"i_lat":-6.209188,"station_name":"Pondok Jati"},{"transit":true,"station_id":"JNG","station_name":"Jatinegara","distance":1236,"i_lat":-6.215091,"line":1,"time":9,"i_long":106.86807400000001,"is_transit":true},{"distance":3395,"i_long":106.899548,"station_id":"KLD","transit":false,"is_transit":false,"time":3,"line":1,"i_lat":-6.2135,"station_name":"Klender"},{"station_id":"BUA","distance":3100,"station_name":"Buaran","transit":false,"i_long":106.922662,"line":1,"time":2,"i_lat":-6.215568,"is_transit":false},{"station_name":"Klenderbaru","station_id":"KLDB","is_transit":false,"transit":false,"time":1,"line":1,"i_lat":-6.217455,"distance":1305,"i_long":106.939679},{"is_transit":false,"line":1,"i_long":106.951283,"distance":1385,"station_name":"Cakung","time":8,"station_id":"CUK","i_lat":-6.219053,"transit":false},{"distance":3097,"transit":false,"station_id":"KRI","station_name":"Kranji","i_long":106.977657,"line":1,"i_lat":-6.224515,"time":3,"is_transit":false},{"station_name":"Bekasi","i_lat":-6.236616,"is_transit":false,"i_long":106.997013,"transit":false,"distance":2520,"time":4,"line":1,"station_id":"BKS"},{"transit":false,"time":2,"station_name":"Bekasi Timur","line":1,"i_lat":-6.248029,"i_long":107.016735,"is_transit":false,"station_id":"BKST","distance":2368}],[{"is_transit":false,"transit":false,"i_lat":-6.46424,"time":0,"i_long":106.851978,"line":21,"distance":0,"station_id":"CBN","station_name":"Cibinong"},{"station_name":"Pondok Rajeg","distance":0,"time":0,"is_transit":false,"i_lat":-6.460735,"line":21,"transit":false,"i_long":106.824374,"station_id":"PDRG"},{"is_transit":true,"line":2,"transit":true,"station_id":"CTA","station_name":"Citayam","time":0,"distance":0,"i_lat":-6.448811,"i_long":106.800298},{"is_transit":false,"transit":false,"distance":5084,"station_name":"Depok","station_id":"DP","time":6,"line":2,"i_long":106.816926,"i_lat":-6.405256},{"distance":1584,"i_long":106.819451,"transit":false,"i_lat":-6.391065,"station_id":"DPB","station_name":"Depokbaru","is_transit":false,"time":3,"line":2},{"i_long":106.831114,"station_id":"POC","distance":2727,"station_name":"Pondok Cina","transit":false,"i_lat":-6.369073,"time":4,"line":2,"is_transit":false},{"station_id":"UI","time":2,"i_long":106.831474,"station_name":"Univ. Indonesia","is_transit":false,"i_lat":-6.360749,"transit":false,"distance":1109,"line":2},{"i_long":106.834175,"station_id":"UP","time":3,"distance":2264,"line":2,"transit":false,"station_name":"Univ. Pancasila","is_transit":false,"i_lat":-6.339291},{"distance":1029,"station_id":"LNA","i_lat":-6.330363,"station_name":"Lenteng Agung","time":2,"transit":false,"line":2,"i_long":106.832616,"is_transit":false},{"time":3,"i_lat":-6.3080680000000005,"station_name":"Tanjung Barat","is_transit":false,"distance":2671,"station_id":"TNT","i_long":106.838896,"line":2,"transit":false},{"station_id":"PSM","station_name":"Pasar Minggu","distance":2820,"i_long":106.843999,"i_lat":-6.2842400000000005,"line":2,"is_transit":false,"transit":false,"time":4},{"station_id":"PSMB","i_lat":-6.263214,"transit":false,"line":2,"station_name":"Pasar Minggu Baru","distance":2380,"is_transit":false,"time":2,"i_long":106.851577},{"distance":824,"line":2,"is_transit":false,"station_id":"DRN","transit":false,"station_name":"Duren Kalibata","i_lat":-6.255332,"time":2,"i_long":106.85449},{"transit":false,"i_long":106.856607,"time":3,"line":2,"i_lat":-6.242512,"station_name":"Cawang","is_transit":false,"distance":1546,"station_id":"CW"},{"distance":1230,"is_transit":false,"station_id":"TEB","i_long":106.857948,"line":2,"transit":false,"i_lat":-6.226659,"station_name":"Tebet","time":2},{"station_id":"MRI","station_name":"Manggarai","distance":2610,"transit":false,"time":4,"i_lat":-6.209883,"i_long":106.84912,"line":2,"is_transit":false},{"transit":false,"i_lat":-6.198556,"distance":1590,"i_long":106.840169,"line":2,"is_transit":false,"time":4,"station_id":"CKI","station_name":"Cikini"},{"is_transit":false,"transit":false,"i_lat":-6.186295,"station_name":"Gondangdia","time":3,"distance":1750,"i_long":106.832183,"line":2,"station_id":"GDD"},{"station_name":"Juanda","i_long":106.828284,"line":2,"station_id":"JUA","distance":2015,"time":4,"transit":false,"i_lat":-6.166716,"is_transit":false},{"transit":false,"is_transit":false,"distance":1149,"line":2,"i_lat":-6.160725,"time":2,"station_id":"SW","i_long":106.827103,"station_name":"Sawah Besar"},{"time":2,"i_lat":-6.149769,"i_long":106.82482,"distance":906,"station_name":"Manggabesar","line":2,"station_id":"MGB","transit":false,"is_transit":false},{"station_id":"JAY","line":2,"i_long":106.820901,"i_lat":-6.141205,"transit":false,"time":2,"is_transit":false,"distance":1080,"station_name":"Jayakarta"},{"station_id":"JAKK","distance":1264,"transit":true,"station_name":"Jakarta Kota","is_transit":true,"i_long":106.812439,"line":2,"time":4,"i_lat":-6.137569},{"time":3,"station_name":"Kampung Bandan","distance":1364,"i_lat":-6.132549,"transit":true,"line":4,"is_transit":true,"station_id":"KPB","i_long":106.826365},{"line":11,"transit":false,"distance":1444,"station_name":"Rajawali","time":3,"i_lat":-6.14505,"station_id":"RJW","i_long":106.836569,"is_transit":false},{"line":11,"station_name":"Kemayoran","transit":false,"time":5,"distance":1901,"i_long":106.839204,"station_id":"KMO","is_transit":false,"i_lat":-6.161728},{"distance":1436,"i_long":106.84368,"station_name":"Pasar Senen","line":11,"time":4,"i_lat":-6.174784,"station_id":"PSE","is_transit":false,"transit":false},{"line":11,"transit":false,"station_id":"GST","station_name":"Gang Sentiong","is_transit":false,"i_long":106.850107,"time":8,"distance":1567,"i_lat":-6.185975},{"line":11,"i_lat":-6.193792,"time":1,"i_long":106.855437,"station_id":"KMT","distance":973,"station_name":"Kramat","transit":false,"is_transit":false},{"distance":1829,"station_name":"Pondok Jati","line":11,"time":2,"i_lat":-6.209188,"station_id":"POK","i_long":106.861737,"transit":false,"is_transit":false},{"is_transit":true,"station_name":"Jatinegara","time":9,"line":1,"distance":1236,"station_id":"JNG","transit":true,"i_long":106.86807400000001,"i_lat":-6.215091},{"is_transit":false,"time":3,"station_name":"Klender","station_id":"KLD","transit":false,"i_lat":-6.2135,"i_long":106.899548,"line":1,"distance":3395},{"station_name":"Buaran","i_long":106.922662,"is_transit":false,"station_id":"BUA","distance":3100,"i_lat":-6.215568,"time":2,"transit":false,"line":1},{"line":1,"i_lat":-6.217455,"time":1,"distance":1305,"i_long":106.939679,"transit":false,"station_name":"Klenderbaru","station_id":"KLDB","is_transit":false},{"station_name":"Cakung","distance":1385,"line":1,"transit":false,"is_transit":false,"time":8,"i_lat":-6.219053,"i_long":106.951283,"station_id":"CUK"},{"i_lat":-6.224515,"time":3,"i_long":106.977657,"line":1,"station_name":"Kranji","station_id":"KRI","distance":3097,"transit":false,"is_transit":false},{"i_lat":-6.236616,"is_transit":false,"time":4,"i_long":106.997013,"station_name":"Bekasi","line":1,"distance":2520,"station_id":"BKS","transit":false},{"station_id":"BKST","line":1,"time":2,"i_long":107.016735,"is_transit":false,"distance":2368,"station_name":"Bekasi Timur","transit":false,"i_lat":-6.248029}]]}