{"data":[[{"time":0,"i_lat":-6.46424,"line":21,"transit":false,"station_id":"CBN","is_transit":false,"station_name":"Cibinong","i_long":106.851978,"distance":0},{"time":0,"station_name":"Pondok Rajeg","station_id":"PDRG","distance":0,"i_lat":-6.460735,"i_long":106.824374,"line":21,"transit":false,"is_transit":false},{"station_name":"Citayam","is_transit":true,"distance":0,"station_id":"CTA","time":0,"transit":true,"i_long":106.800298,"line":2,"i_lat":-6.448811},{"i_long":106.816926,"is_transit":false,"station_name":"Depok","time":6,"transit":false,"line":2,"i_lat":-6.405256,"station_id":"DP","distance":5084},{"is_transit":false,"distance":1584,"transit":false,"i_lat":-6.391065,"station_id":"DPB","line":2,"station_name":"Depokbaru","i_long":106.819451,"time":3},{"line":2,"time":4,"distance":2727,"i_long":106.831114,"i_lat":-6.369073,"station_id":"POC","transit":false,"station_name":"Pondok Cina","is_transit":false},{"station_name":"Univ. Indonesia","station_id":"UI","i_lat":-6.360749,"time":2,"distance":1109,"i_long":106.831474,"is_transit":false,"line":2,"transit":false},{"is_transit":false,"i_lat":-6.339291,"distance":2264,"station_id":"UP","time":3,"i_long":106.834175,"line":2,"transit":false,"station_name":"Univ. Pancasila"},{"station_id":"LNA","is_transit":false,"transit":false,"i_lat":-6.330363,"i_long":106.832616,"distance":1029,"time":2,"station_name":"Lenteng Agung","line":2},{"i_long":106.838896,"line":2,"transit":false,"i_lat":-6.3080680000000005,"station_name":"Tanjung Barat","station_id":"TNT","time":3,"distance":2671,"is_transit":false},{"station_name":"Pasar Minggu","transit":false,"is_transit":false,"time":4,"i_lat":-6.2842400000000005,"distance":2820,"station_id":"PSM","i_long":106.843999,"line":2},{"i_lat":-6.263214,"i_long":106.851577,"transit":false,"distance":2380,"is_transit":false,"station_name":"Pasar Minggu Baru","line":2,"time":2,"station_id":"PSMB"},{"distance":824,"is_transit":false,"station_id":"DRN","transit":false,"line":2,"station_name":"Duren Kalibata","i_long":106.85449,"i_lat":-6.255332,"time":2},{"transit":false,"station_id":"CW","distance":1546,"time":3,"i_lat":-6.242512,"station_name":"Cawang","line":2,"i_long":106.856607,"is_transit":false},{"station_name":"Tebet","i_long":106.857948,"distance":1230,"transit":false,"line":2,"station_id":"TEB","is_transit":false,"i_lat":-6.226659,"time":2},{"station_name":"Manggarai","time":4,"i_lat":-6.209883,"station_id":"MRI","line":2,"is_transit":true,"transit":true,"i_long":106.84912,"distance":2610},{"is_transit":false,"i_long":106.822649,"station_name":"Sudirman","line":1,"station_id":"SUD","transit":false,"distance":3186,"time":4,"i_lat":-6.202263}],[{"i_long":106.851978,"station_name":"Cibinong","time":0,"station_id":"CBN","line":21,"transit":false,"distance":0,"is_transit":false,"i_lat":-6.46424},{"is_transit":false,"transit":false,"station_name":"Pondok Rajeg","time":0,"station_id":"PDRG","i_lat":-6.460735,"distance":0,"i_long":106.824374,"line":21},{"transit":true,"i_long":106.800298,"is_transit":true,"station_id":"CTA","distance":0,"time":0,"line":2,"i_lat":-6.448811,"station_name":"Citayam"},{"is_transit":false,"station_id":"DP","time":6,"i_lat":-6.405256,"line":2,"i_long":106.816926,"distance":5084,"station_name":"Depok","transit":false},{"station_id":"DPB","is_transit":false,"station_name":"Depokbaru","time":3,"distance":1584,"line":2,"i_long":106.819451,"i_lat":-6.391065,"transit":false},{"distance":2727,"line":2,"i_lat":-6.369073,"station_id":"POC","transit":false,"is_transit":false,"time":4,"station_name":"Pondok Cina","i_long":106.831114},{"line":2,"distance":1109,"station_name":"Univ. Indonesia","is_transit":false,"i_lat":-6.360749,"transit":false,"station_id":"UI","time":2,"i_long":106.831474},{"station_name":"Univ. Pancasila","time":3,"line":2,"station_id":"UP","transit":false,"is_transit":false,"distance":2264,"i_lat":-6.339291,"i_long":106.834175},{"i_lat":-6.330363,"station_name":"Lenteng Agung","is_transit":false,"i_long":106.832616,"station_id":"LNA","line":2,"time":2,"distance":1029,"transit":false},{"i_long":106.838896,"transit":false,"time":3,"distance":2671,"i_lat":-6.3080680000000005,"station_name":"Tanjung Barat","is_transit":false,"station_id":"TNT","line":2},{"transit":false,"station_id":"PSM","time":4,"i_lat":-6.2842400000000005,"is_transit":false,"distance":2820,"i_long":106.843999,"line":2,"station_name":"Pasar Minggu"},{"line":2,"distance":2380,"station_id":"PSMB","transit":false,"i_lat":-6.263214,"is_transit":false,"time":2,"i_long":106.851577,"station_name":"Pasar Minggu Baru"},{"distance":824,"is_transit":false,"i_lat":-6.255332,"line":2,"time":2,"station_id":"DRN","transit":false,"i_long":106.85449,"station_name":"Duren Kalibata"},{"is_transit":false,"i_long":106.856607,"distance":1546,"time":3,"transit":false,"line":2,"station_id":"CW","station_name":"Cawang","i_lat":-6.242512},{"i_lat":-6.226659,"i_long":106.857948,"transit":false,"is_transit":false,"time":2,"station_id":"TEB","distance":1230,"station_name":"Tebet","line":2},{"station_name":"Manggarai","station_id":"MRI","transit":false,"i_lat":-6.209883,"is_transit":false,"distance":2610,"line":2,"time":4,"i_long":106.84912},{"transit":false,"distance":1590,"station_name":"Cikini","line":2,"is_transit":false,"i_long":106.840169,"time":4,"i_lat":-6.198556,"station_id":"CKI"},{"i_long":106.832183,"line":2,"station_id":"GDD","distance":1750,"station_name":"Gondangdia","time":3,"is_transit":false,"transit":false,"i_lat":-6.186295},{"station_name":"Juanda","is_transit":false,"time":4,"line":2,"i_long":106.828284,"station_id":"JUA","transit":false,"i_lat":-6.166716,"distance":2015},{"station_id":"SW","is_transit":false,"distance":1149,"line":2,"transit":false,"time":2,"i_lat":-6.160725,"i_long":106.827103,"station_name":"Sawah Besar"},{"station_name":"Manggabesar","is_transit":false,"line":2,"distance":906,"i_lat":-6.149769,"transit":false,"time":2,"station_id":"MGB","i_long":106.82482},{"distance":1080,"i_long":106.820901,"line":2,"transit":false,"station_name":"Jayakarta","i_lat":-6.141205,"time":2,"is_transit":false,"station_id":"JAY"},{"line":2,"time":4,"distance":1264,"station_id":"JAKK","i_lat":-6.137569,"transit":true,"station_name":"Jakarta Kota","is_transit":true,"i_long":106.812439},{"distance":1364,"time":3,"transit":true,"station_name":"Kampung Bandan","i_lat":-6.132549,"i_long":106.826365,"line":4,"station_id":"KPB","is_transit":true},{"line":1,"transit":false,"i_lat":-6.144674,"station_name":"Angke","station_id":"AK","time":9,"distance":4102,"is_transit":false,"i_long":106.79867},{"station_name":"Duri","i_long":106.800832,"line":1,"i_lat":-6.155215,"time":4,"station_id":"DU","is_transit":false,"distance":1230,"transit":false},{"i_long":106.811091,"transit":false,"distance":3632,"line":1,"i_lat":-6.185545,"station_name":"Tanah Abang","station_id":"THB","time":8,"is_transit":false},{"distance":2029,"i_long":106.816351,"is_transit":false,"station_id":"KAT","station_name":"Karet","time":5,"transit":false,"i_lat":-6.20132,"line":1},{"is_transit":false,"distance":471,"time":1,"i_lat":-6.201433,"i_long":106.819881,"line":1,"transit":false,"station_name":"Sudirman Baru","station_id":"SUDB"},{"is_transit":false,"i_lat":-6.202263,"i_long":106.822649,"time":1,"station_name":"Sudirman","distance":280,"line":1,"transit":false,"station_id":"SUD"}],[{"station_id":"CBN","line":21,"i_long":106.851978,"station_name":"Cibinong","is_transit":false,"i_lat":-6.46424,"time":0,"transit":false,"distance":0},{"line":21,"time":0,"distance":0,"i_lat":-6.460735,"i_long":106.824374,"station_id":"PDRG","transit":false,"station_name":"Pondok Rajeg","is_transit":false},{"distance":0,"i_lat":-6.448811,"is_transit":true,"station_id":"CTA","station_name":"Citayam","time":0,"transit":true,"i_long":106.800298,"line":2},{"line":2,"distance":5084,"station_name":"Depok","is_transit":false,"station_id":"DP","time":6,"i_lat":-6.405256,"transit":false,"i_long":106.816926},{"is_transit":false,"time":3,"distance":1584,"i_lat":-6.391065,"station_name":"Depokbaru","station_id":"DPB","line":2,"i_long":106.819451,"transit":false},{"station_name":"Pondok Cina","is_transit":false,"i_lat":-6.369073,"i_long":106.831114,"transit":false,"station_id":"POC","distance":2727,"line":2,"time":4},{"station_id":"UI","station_name":"Univ. Indonesia","time":2,"is_transit":false,"transit":false,"distance":1109,"i_long":106.831474,"line":2,"i_lat":-6.360749},{"distance":2264,"time":3,"i_long":106.834175,"station_name":"Univ. Pancasila","station_id":"UP","is_transit":false,"transit":false,"line":2,"i_lat":-6.339291},{"station_id":"LNA","line":2,"is_transit":false,"i_long":106.832616,"transit":false,"station_name":"Lenteng Agung","distance":1029,"time":2,"i_lat":-6.330363},{"distance":2671,"station_name":"Tanjung Barat","line":2,"station_id":"TNT","transit":false,"time":3,"i_lat":-6.3080680000000005,"is_transit":false,"i_long":106.838896},{"i_long":106.843999,"station_name":"Pasar Minggu","transit":false,"distance":2820,"i_lat":-6.2842400000000005,"is_transit":false,"time":4,"station_id":"PSM","line":2},{"transit":false,"station_id":"PSMB","is_transit":false,"station_name":"Pasar Minggu Baru","distance":2380,"i_lat":-6.263214,"time":2,"i_long":106.851577,"line":2},{"i_lat":-6.255332,"distance":824,"is_transit":false,"station_id":"DRN","time":2,"i_long":106.85449,"line":2,"transit":false,"station_name":"Duren Kalibata"},{"distance":1546,"station_id":"CW","transit":false,"i_lat":-6.242512,"i_long":106.856607,"line":2,"is_transit":false,"station_name":"Cawang","time":3},{"line":2,"station_name":"Tebet","station_id":"TEB","time":2,"distance":1230,"transit":false,"i_long":106.857948,"is_transit":false,"i_lat":-6.226659},{"i_lat":-6.209883,"station_id":"MRI","transit":true,"station_name":"Manggarai","i_long":106.84912,"line":2,"is_transit":true,"time":4,"distance":2610},{"transit":false,"station_id":"MTR","distance":1275,"station_name":"Matraman","is_transit":false,"i_lat":-6.212485,"time":2,"line":1,"i_long":106.858896},{"i_long":106.86807400000001,"transit":true,"station_name":"Jatinegara","line":1,"distance":1377,"is_transit":true,"time":8,"i_lat":-6.215091,"station_id":"JNG"},{"is_transit":false,"i_lat":-6.209188,"station_id":"POK","distance":1236,"time":2,"i_long":106.861737,"line":11,"transit":false,"station_name":"Pondok Jati"},{"line":11,"transit":false,"distance":1829,"i_long":106.855437,"time":2,"station_name":"Kramat","i_lat":-6.193792,"is_transit":false,"station_id":"KMT"},{"transit":false,"is_transit":false,"time":1,"i_lat":-6.185975,"station_id":"GST","distance":973,"i_long":106.850107,"station_name":"Gang Sentiong","line":11},{"distance":1567,"station_name":"Pasar Senen","transit":false,"is_transit":false,"i_lat":-6.174784,"station_id":"PSE","time":8,"i_long":106.84368,"line":11},{"is_transit":false,"i_long":106.839204,"time":4,"transit":false,"station_name":"Kemayoran","i_lat":-6.161728,"line":11,"station_id":"KMO","distance":1436},{"time":5,"transit":false,"is_transit":false,"distance":1901,"i_lat":-6.14505,"line":11,"station_name":"Rajawali","station_id":"RJW","i_long":106.836569},{"line":4,"station_id":"KPB","is_transit":true,"station_name":"Kampung Bandan","time":3,"i_long":106.826365,"distance":1444,"transit":true,"i_lat":-6.132549},{"i_lat":-6.144674,"is_transit":false,"time":9,"line":1,"i_long":106.79867,"transit":false,"station_id":"AK","station_name":"Angke","distance":4102},{"line":1,"station_name":"Duri","time":4,"is_transit":false,"station_id":"DU","distance":1230,"i_long":106.800832,"i_lat":-6.155215,"transit":false},{"distance":3632,"station_id":"THB","is_transit":false,"i_lat":-6.185545,"station_name":"Tanah Abang","i_long":106.811091,"time":8,"line":1,"transit":false},{"time":5,"i_lat":-6.20132,"line":1,"transit":false,"station_id":"KAT","i_long":106.816351,"distance":2029,"station_name":"Karet","is_transit":false},{"i_long":106.819881,"transit":false,"station_id":"SUDB","line":1,"station_name":"Sudirman Baru","i_lat":-6.201433,"is_transit":false,"time":1,"distance":471},{"i_long":106.822649,"line":1,"distance":280,"is_transit":false,"transit":false,"station_id":"SUD","time":1,"i_lat":-6.202263,"station_name":"Sudirman"}]]}