{"data":[[{"is_transit":false,"time":0,"transit":false,"distance":0,"i_lat":-6.46424,"i_long":106.851978,"station_id":"CBN","line":21,"station_name":"Cibinong"},{"station_id":"PDRG","transit":false,"time":0,"line":21,"i_lat":-6.460735,"distance":0,"is_transit":false,"i_long":106.824374,"station_name":"Pondok Rajeg"},{"transit":true,"line":2,"time":0,"station_name":"Citayam","distance":0,"is_transit":true,"i_lat":-6.448811,"i_long":106.800298,"station_id":"CTA"},{"line":2,"i_lat":-6.405256,"distance":5084,"station_id":"DP","i_long":106.816926,"transit":false,"time":6,"station_name":"Depok","is_transit":false},{"station_name":"Depokbaru","i_long":106.819451,"distance":1584,"line":2,"i_lat":-6.391065,"transit":false,"station_id":"DPB","is_transit":false,"time":3},{"transit":false,"i_long":106.831114,"line":2,"station_id":"POC","is_transit":false,"time":4,"station_name":"Pondok Cina","i_lat":-6.369073,"distance":2727},{"station_name":"Univ. Indonesia","is_transit":false,"i_long":106.831474,"distance":1109,"transit":false,"line":2,"i_lat":-6.360749,"station_id":"UI","time":2},{"station_id":"UP","station_name":"Univ. Pancasila","line":2,"i_lat":-6.339291,"time":3,"i_long":106.834175,"transit":false,"distance":2264,"is_transit":false},{"line":2,"station_name":"Lenteng Agung","is_transit":false,"transit":false,"station_id":"LNA","distance":1029,"time":2,"i_lat":-6.330363,"i_long":106.832616},{"time":3,"station_name":"Tanjung Barat","distance":2671,"station_id":"TNT","i_lat":-6.3080680000000005,"i_long":106.838896,"is_transit":false,"line":2,"transit":false},{"time":4,"distance":2820,"transit":false,"i_lat":-6.2842400000000005,"line":2,"i_long":106.843999,"station_name":"Pasar Minggu","is_transit":false,"station_id":"PSM"},{"is_transit":false,"i_lat":-6.263214,"station_name":"Pasar Minggu Baru","i_long":106.851577,"distance":2380,"transit":false,"station_id":"PSMB","time":2,"line":2},{"distance":824,"line":2,"station_id":"DRN","time":2,"i_lat":-6.255332,"i_long":106.85449,"station_name":"Duren Kalibata","is_transit":false,"transit":false},{"is_transit":false,"distance":1546,"i_long":106.856607,"i_lat":-6.242512,"station_id":"CW","station_name":"Cawang","line":2,"transit":false,"time":3},{"station_id":"TEB","transit":false,"is_transit":false,"time":2,"station_name":"Tebet","line":2,"distance":1230,"i_long":106.857948,"i_lat":-6.226659},{"is_transit":true,"transit":true,"station_id":"MRI","time":4,"distance":2610,"i_long":106.84912,"i_lat":-6.209883,"line":2,"station_name":"Manggarai"},{"i_long":106.822649,"i_lat":-6.202263,"distance":3186,"is_transit":false,"transit":false,"station_name":"Sudirman","time":4,"line":1,"station_id":"SUD"},{"distance":280,"i_long":106.819881,"transit":false,"station_name":"Sudirman Baru","is_transit":false,"line":1,"time":1,"station_id":"SUDB","i_lat":-6.201433},{"i_long":106.816351,"line":1,"transit":false,"is_transit":false,"station_id":"KAT","distance":471,"station_name":"Karet","time":1,"i_lat":-6.20132},{"station_id":"THB","station_name":"Tanah Abang","distance":2029,"transit":false,"i_lat":-6.185545,"time":5,"line":1,"is_transit":false,"i_long":106.811091},{"station_id":"DU","distance":3632,"i_lat":-6.155215,"i_long":106.800832,"is_transit":true,"station_name":"Duri","transit":true,"time":8,"line":1},{"station_name":"Grogol","station_id":"GGL","time":3,"i_long":106.788277,"distance":1700,"line":5,"is_transit":false,"transit":false,"i_lat":-6.162021},{"transit":false,"station_id":"PSG","i_lat":-6.161433,"station_name":"Pesing","line":5,"distance":2036,"is_transit":false,"time":2,"i_long":106.771379},{"is_transit":false,"line":5,"station_name":"Taman Kota","i_long":106.756522,"i_lat":-6.1587309999999995,"time":2,"distance":1614,"transit":false,"station_id":"TKO"},{"station_id":"BOI","time":2,"distance":2334,"i_long":106.737035,"transit":false,"i_lat":-6.159876,"line":5,"is_transit":false,"station_name":"Bojongindah"},{"time":4,"i_long":106.723064,"station_name":"Rawa Buaya","is_transit":false,"distance":1152,"line":5,"i_lat":-6.162758,"station_id":"RW","transit":false},{"distance":2504,"i_long":106.701612,"i_lat":-6.166068,"time":3,"station_id":"KDS","is_transit":false,"line":5,"transit":false,"station_name":"Kalideres"},{"i_long":106.679458,"station_name":"Poris","is_transit":false,"distance":2548,"line":5,"station_id":"PI","transit":false,"time":3,"i_lat":-6.169933},{"is_transit":false,"transit":false,"i_lat":-6.171811,"i_long":106.665036,"time":3,"line":5,"station_id":"BPR","station_name":"Batuceper","distance":1834}],[{"i_lat":-6.46424,"station_name":"Cibinong","is_transit":false,"i_long":106.851978,"transit":false,"station_id":"CBN","time":0,"line":21,"distance":0},{"transit":false,"station_id":"PDRG","i_long":106.824374,"line":21,"time":0,"distance":0,"station_name":"Pondok Rajeg","is_transit":false,"i_lat":-6.460735},{"station_name":"Citayam","station_id":"CTA","time":0,"transit":true,"line":2,"distance":0,"is_transit":true,"i_lat":-6.448811,"i_long":106.800298},{"station_id":"DP","station_name":"Depok","i_long":106.816926,"i_lat":-6.405256,"time":6,"distance":5084,"line":2,"transit":false,"is_transit":false},{"line":2,"i_long":106.819451,"station_id":"DPB","time":3,"station_name":"Depokbaru","is_transit":false,"distance":1584,"i_lat":-6.391065,"transit":false},{"time":4,"distance":2727,"station_name":"Pondok Cina","station_id":"POC","line":2,"transit":false,"is_transit":false,"i_long":106.831114,"i_lat":-6.369073},{"transit":false,"time":2,"i_long":106.831474,"is_transit":false,"line":2,"station_id":"UI","distance":1109,"i_lat":-6.360749,"station_name":"Univ. Indonesia"},{"line":2,"transit":false,"is_transit":false,"i_lat":-6.339291,"time":3,"station_id":"UP","station_name":"Univ. Pancasila","i_long":106.834175,"distance":2264},{"distance":1029,"i_long":106.832616,"line":2,"is_transit":false,"transit":false,"station_name":"Lenteng Agung","station_id":"LNA","time":2,"i_lat":-6.330363},{"station_id":"TNT","is_transit":false,"distance":2671,"time":3,"line":2,"station_name":"Tanjung Barat","transit":false,"i_lat":-6.3080680000000005,"i_long":106.838896},{"distance":2820,"line":2,"transit":false,"i_long":106.843999,"station_name":"Pasar Minggu","is_transit":false,"time":4,"station_id":"PSM","i_lat":-6.2842400000000005},{"transit":false,"time":2,"distance":2380,"i_long":106.851577,"station_id":"PSMB","is_transit":false,"i_lat":-6.263214,"station_name":"Pasar Minggu Baru","line":2},{"station_name":"Duren Kalibata","time":2,"line":2,"transit":false,"distance":824,"station_id":"DRN","i_lat":-6.255332,"is_transit":false,"i_long":106.85449},{"station_name":"Cawang","is_transit":false,"station_id":"CW","distance":1546,"i_long":106.856607,"i_lat":-6.242512,"transit":false,"time":3,"line":2},{"station_name":"Tebet","i_lat":-6.226659,"transit":false,"time":2,"line":2,"i_long":106.857948,"distance":1230,"station_id":"TEB","is_transit":false},{"line":2,"distance":2610,"station_name":"Manggarai","is_transit":false,"i_lat":-6.209883,"i_long":106.84912,"transit":false,"station_id":"MRI","time":4},{"i_lat":-6.198556,"is_transit":false,"distance":1590,"transit":false,"i_long":106.840169,"station_id":"CKI","time":4,"line":2,"station_name":"Cikini"},{"is_transit":false,"time":3,"station_name":"Gondangdia","distance":1750,"i_lat":-6.186295,"line":2,"transit":false,"i_long":106.832183,"station_id":"GDD"},{"station_name":"Juanda","station_id":"JUA","is_transit":false,"i_lat":-6.166716,"i_long":106.828284,"transit":false,"distance":2015,"time":4,"line":2},{"i_long":106.827103,"i_lat":-6.160725,"station_id":"SW","transit":false,"is_transit":false,"line":2,"station_name":"Sawah Besar","distance":1149,"time":2},{"station_name":"Manggabesar","time":2,"line":2,"i_lat":-6.149769,"distance":906,"i_long":106.82482,"is_transit":false,"transit":false,"station_id":"MGB"},{"distance":1080,"line":2,"i_long":106.820901,"i_lat":-6.141205,"station_id":"JAY","time":2,"is_transit":false,"station_name":"Jayakarta","transit":false},{"station_name":"Jakarta Kota","station_id":"JAKK","transit":true,"distance":1264,"i_lat":-6.137569,"time":4,"i_long":106.812439,"line":2,"is_transit":true},{"i_lat":-6.132549,"transit":true,"is_transit":true,"time":3,"station_id":"KPB","i_long":106.826365,"line":4,"station_name":"Kampung Bandan","distance":1364},{"line":1,"is_transit":false,"station_id":"AK","time":9,"i_lat":-6.144674,"transit":false,"station_name":"Angke","distance":4102,"i_long":106.79867},{"is_transit":true,"line":1,"station_name":"Duri","distance":1230,"station_id":"DU","time":4,"i_lat":-6.155215,"i_long":106.800832,"transit":true},{"i_long":106.788277,"time":3,"transit":false,"line":5,"station_id":"GGL","i_lat":-6.162021,"is_transit":false,"distance":1700,"station_name":"Grogol"},{"distance":2036,"is_transit":false,"time":2,"line":5,"transit":false,"station_name":"Pesing","station_id":"PSG","i_lat":-6.161433,"i_long":106.771379},{"station_id":"TKO","is_transit":false,"station_name":"Taman Kota","time":2,"distance":1614,"i_long":106.756522,"i_lat":-6.1587309999999995,"line":5,"transit":false},{"transit":false,"station_name":"Bojongindah","distance":2334,"station_id":"BOI","is_transit":false,"i_lat":-6.159876,"line":5,"i_long":106.737035,"time":2},{"line":5,"i_long":106.723064,"distance":1152,"transit":false,"i_lat":-6.162758,"time":4,"station_name":"Rawa Buaya","station_id":"RW","is_transit":false},{"i_lat":-6.166068,"station_name":"Kalideres","station_id":"KDS","i_long":106.701612,"distance":2504,"transit":false,"is_transit":false,"line":5,"time":3},{"transit":false,"i_long":106.679458,"line":5,"station_id":"PI","distance":2548,"i_lat":-6.169933,"is_transit":false,"time":3,"station_name":"Poris"},{"time":3,"distance":1834,"is_transit":false,"i_lat":-6.171811,"station_id":"BPR","line":5,"transit":false,"station_name":"Batuceper","i_long":106.665036}],[{"time":0,"transit":false,"station_name":"Cibinong","is_transit":false,"distance":0,"i_lat":-6.46424,"i_long":106.851978,"line":21,"station_id":"CBN"},{"station_id":"PDRG","is_transit":false,"transit":false,"distance":0,"time":0,"station_name":"Pondok Rajeg","i_lat":-6.460735,"i_long":106.824374,"line":21},{"time":0,"distance":0,"i_long":106.800298,"station_id":"CTA","transit":true,"station_name":"Citayam","is_transit":true,"i_lat":-6.448811,"line":2},{"transit":false,"station_id":"DP","is_transit":false,"distance":5084,"line":2,"time":6,"i_lat":-6.405256,"i_long":106.816926,"station_name":"Depok"},{"time":3,"i_lat":-6.391065,"transit":false,"is_transit":false,"station_id":"DPB","distance":1584,"i_long":106.819451,"station_name":"Depokbaru","line":2},{"station_name":"Pondok Cina","station_id":"POC","is_transit":false,"distance":2727,"i_long":106.831114,"transit":false,"time":4,"i_lat":-6.369073,"line":2},{"station_id":"UI","station_name":"Univ. Indonesia","is_transit":false,"i_long":106.831474,"line":2,"transit":false,"time":2,"i_lat":-6.360749,"distance":1109},{"time":3,"i_long":106.834175,"line":2,"station_id":"UP","is_transit":false,"station_name":"Univ. Pancasila","distance":2264,"i_lat":-6.339291,"transit":false},{"line":2,"station_id":"LNA","distance":1029,"station_name":"Lenteng Agung","i_long":106.832616,"time":2,"transit":false,"is_transit":false,"i_lat":-6.330363},{"distance":2671,"i_lat":-6.3080680000000005,"i_long":106.838896,"time":3,"transit":false,"line":2,"station_id":"TNT","is_transit":false,"station_name":"Tanjung Barat"},{"is_transit":false,"line":2,"time":4,"station_name":"Pasar Minggu","transit":false,"i_long":106.843999,"station_id":"PSM","i_lat":-6.2842400000000005,"distance":2820},{"station_id":"PSMB","line":2,"distance":2380,"time":2,"station_name":"Pasar Minggu Baru","transit":false,"i_lat":-6.263214,"is_transit":false,"i_long":106.851577},{"time":2,"distance":824,"is_transit":false,"i_lat":-6.255332,"transit":false,"station_id":"DRN","line":2,"i_long":106.85449,"station_name":"Duren Kalibata"},{"station_id":"CW","transit":false,"is_transit":false,"time":3,"distance":1546,"station_name":"Cawang","i_long":106.856607,"line":2,"i_lat":-6.242512},{"station_id":"TEB","i_long":106.857948,"distance":1230,"time":2,"i_lat":-6.226659,"line":2,"is_transit":false,"station_name":"Tebet","transit":false},{"i_long":106.84912,"line":2,"time":4,"i_lat":-6.209883,"transit":true,"station_name":"Manggarai","station_id":"MRI","is_transit":true,"distance":2610},{"time":2,"transit":false,"station_name":"Matraman","station_id":"MTR","is_transit":false,"i_lat":-6.212485,"i_long":106.858896,"line":1,"distance":1275},{"i_long":106.86807400000001,"time":8,"line":1,"transit":true,"i_lat":-6.215091,"station_name":"Jatinegara","station_id":"JNG","is_transit":true,"distance":1377},{"transit":false,"station_name":"Pondok Jati","line":11,"is_transit":false,"station_id":"POK","distance":1236,"i_lat":-6.209188,"i_long":106.861737,"time":2},{"distance":1829,"time":2,"station_id":"KMT","i_long":106.855437,"is_transit":false,"i_lat":-6.193792,"line":11,"transit":false,"station_name":"Kramat"},{"transit":false,"station_name":"Gang Sentiong","line":11,"distance":973,"time":1,"i_lat":-6.185975,"station_id":"GST","is_transit":false,"i_long":106.850107},{"station_name":"Pasar Senen","time":8,"i_lat":-6.174784,"i_long":106.84368,"is_transit":false,"line":11,"station_id":"PSE","distance":1567,"transit":false},{"station_name":"Kemayoran","time":4,"station_id":"KMO","i_long":106.839204,"line":11,"distance":1436,"transit":false,"i_lat":-6.161728,"is_transit":false},{"time":5,"i_long":106.836569,"line":11,"is_transit":false,"station_name":"Rajawali","i_lat":-6.14505,"distance":1901,"transit":false,"station_id":"RJW"},{"station_name":"Kampung Bandan","distance":1444,"i_lat":-6.132549,"line":4,"time":3,"i_long":106.826365,"transit":true,"station_id":"KPB","is_transit":true},{"time":9,"station_id":"AK","distance":4102,"line":1,"transit":false,"is_transit":false,"i_long":106.79867,"i_lat":-6.144674,"station_name":"Angke"},{"transit":true,"i_long":106.800832,"time":4,"i_lat":-6.155215,"station_id":"DU","distance":1230,"line":1,"station_name":"Duri","is_transit":true},{"i_lat":-6.162021,"station_id":"GGL","is_transit":false,"i_long":106.788277,"line":5,"distance":1700,"station_name":"Grogol","transit":false,"time":3},{"station_name":"Pesing","is_transit":false,"line":5,"station_id":"PSG","i_lat":-6.161433,"time":2,"distance":2036,"i_long":106.771379,"transit":false},{"i_long":106.756522,"station_name":"Taman Kota","time":2,"i_lat":-6.1587309999999995,"line":5,"station_id":"TKO","is_transit":false,"distance":1614,"transit":false},{"distance":2334,"station_name":"Bojongindah","station_id":"BOI","time":2,"is_transit":false,"i_long":106.737035,"line":5,"transit":false,"i_lat":-6.159876},{"is_transit":false,"time":4,"i_lat":-6.162758,"line":5,"station_name":"Rawa Buaya","distance":1152,"i_long":106.723064,"transit":false,"station_id":"RW"},{"station_id":"KDS","line":5,"station_name":"Kalideres","distance":2504,"time":3,"i_lat":-6.166068,"transit":false,"is_transit":false,"i_long":106.701612},{"i_lat":-6.169933,"station_id":"PI","distance":2548,"line":5,"i_long":106.679458,"station_name":"Poris","transit":false,"time":3,"is_transit":false},{"i_lat":-6.171811,"i_long":106.665036,"distance":1834,"station_id":"BPR","station_name":"Batuceper","is_transit":false,"time":3,"line":5,"transit":false}]]}