{"data":[[{"time":0,"is_transit":false,"transit":false,"line":21,"station_name":"Cibinong","i_lat":-6.46424,"distance":0,"station_id":"CBN","i_long":106.851978},{"time":0,"distance":0,"is_transit":false,"station_id":"PDRG","station_name":"Pondok Rajeg","i_lat":-6.460735,"line":21,"transit":false,"i_long":106.824374},{"time":0,"transit":true,"i_lat":-6.448811,"i_long":106.800298,"station_name":"Citayam","is_transit":true,"distance":0,"line":2,"station_id":"CTA"},{"time":6,"transit":false,"distance":5084,"station_id":"DP","line":2,"is_transit":false,"i_lat":-6.405256,"station_name":"Depok","i_long":106.816926},{"transit":false,"i_long":106.819451,"i_lat":-6.391065,"distance":1584,"time":3,"is_transit":false,"station_id":"DPB","line":2,"station_name":"Depokbaru"},{"station_id":"POC","time":4,"station_name":"Pondok Cina","is_transit":false,"distance":2727,"i_lat":-6.369073,"transit":false,"line":2,"i_long":106.831114},{"station_id":"UI","transit":false,"line":2,"i_long":106.831474,"distance":1109,"i_lat":-6.360749,"time":2,"station_name":"Univ. Indonesia","is_transit":false},{"transit":false,"distance":2264,"i_long":106.834175,"is_transit":false,"station_id":"UP","time":3,"line":2,"station_name":"Univ. Pancasila","i_lat":-6.339291},{"i_lat":-6.330363,"is_transit":false,"transit":false,"distance":1029,"station_id":"LNA","time":2,"station_name":"Lenteng Agung","line":2,"i_long":106.832616},{"station_name":"Tanjung Barat","is_transit":false,"i_long":106.838896,"transit":false,"distance":2671,"time":3,"station_id":"TNT","line":2,"i_lat":-6.3080680000000005},{"i_lat":-6.2842400000000005,"station_id":"PSM","time":4,"line":2,"is_transit":false,"transit":false,"i_long":106.843999,"distance":2820,"station_name":"Pasar Minggu"},{"station_name":"Pasar Minggu Baru","line":2,"i_lat":-6.263214,"transit":false,"i_long":106.851577,"station_id":"PSMB","is_transit":false,"time":2,"distance":2380},{"transit":false,"i_lat":-6.255332,"time":2,"line":2,"station_name":"Duren Kalibata","distance":824,"i_long":106.85449,"station_id":"DRN","is_transit":false},{"station_id":"CW","transit":false,"distance":1546,"line":2,"is_transit":false,"i_lat":-6.242512,"station_name":"Cawang","i_long":106.856607,"time":3},{"transit":false,"station_name":"Tebet","time":2,"station_id":"TEB","i_lat":-6.226659,"line":2,"is_transit":false,"i_long":106.857948,"distance":1230},{"line":2,"transit":true,"station_name":"Manggarai","is_transit":true,"i_long":106.84912,"distance":2610,"time":4,"station_id":"MRI","i_lat":-6.209883},{"distance":3186,"station_name":"Sudirman","station_id":"SUD","line":1,"time":4,"is_transit":false,"i_long":106.822649,"transit":false,"i_lat":-6.202263},{"station_id":"SUDB","is_transit":false,"distance":280,"line":1,"time":1,"station_name":"Sudirman Baru","transit":false,"i_lat":-6.201433,"i_long":106.819881},{"is_transit":false,"time":1,"i_lat":-6.20132,"i_long":106.816351,"station_name":"Karet","line":1,"distance":471,"transit":false,"station_id":"KAT"},{"is_transit":true,"time":5,"transit":true,"distance":2029,"station_id":"THB","i_lat":-6.185545,"line":1,"i_long":106.811091,"station_name":"Tanah Abang"},{"i_lat":-6.207404,"line":6,"transit":false,"time":6,"station_name":"Palmerah","is_transit":false,"i_long":106.79689,"station_id":"PLM","distance":3191},{"station_name":"Kebayoran","is_transit":false,"transit":false,"i_lat":-6.237242,"i_long":106.780334,"station_id":"KBY","line":6,"distance":3737,"time":7},{"station_name":"Pondokranji","is_transit":false,"i_lat":-6.276362,"time":8,"line":6,"station_id":"PDJ","transit":false,"distance":6218,"i_long":106.74273},{"station_id":"JMU","is_transit":false,"i_lat":-6.288927,"time":3,"i_long":106.728916,"station_name":"Jurangmangu","transit":false,"distance":2179,"line":6},{"is_transit":false,"distance":1994,"transit":false,"i_lat":-6.296963,"line":6,"station_name":"Sudimara","time":4,"i_long":106.712277,"station_id":"SDM"},{"time":6,"station_name":"Rawa Buntu","is_transit":false,"i_lat":-6.314823,"station_id":"RU","transit":false,"i_long":106.675475,"distance":4566,"line":6},{"distance":2413,"line":6,"transit":false,"time":4,"is_transit":false,"i_long":106.66566,"i_lat":-6.319871,"station_name":"Serpong","station_id":"SRP"},{"is_transit":false,"transit":false,"i_lat":-6.32484,"station_id":"CSK","i_long":106.640411,"distance":1784,"line":3,"time":4,"station_name":"Cisauk"},{"station_id":"CC","transit":false,"time":4,"line":3,"distance":2519,"station_name":"Cicayur","i_lat":-6.329547,"i_long":106.617853,"is_transit":false}],[{"i_long":106.851978,"time":0,"line":21,"is_transit":false,"transit":false,"i_lat":-6.46424,"station_id":"CBN","station_name":"Cibinong","distance":0},{"distance":0,"line":21,"time":0,"transit":false,"station_id":"PDRG","station_name":"Pondok Rajeg","is_transit":false,"i_lat":-6.460735,"i_long":106.824374},{"time":0,"distance":0,"station_name":"Citayam","line":2,"transit":true,"is_transit":true,"i_long":106.800298,"station_id":"CTA","i_lat":-6.448811},{"i_lat":-6.405256,"station_name":"Depok","station_id":"DP","i_long":106.816926,"transit":false,"line":2,"time":6,"distance":5084,"is_transit":false},{"is_transit":false,"line":2,"distance":1584,"i_long":106.819451,"station_id":"DPB","transit":false,"i_lat":-6.391065,"time":3,"station_name":"Depokbaru"},{"distance":2727,"line":2,"station_id":"POC","i_long":106.831114,"time":4,"transit":false,"station_name":"Pondok Cina","i_lat":-6.369073,"is_transit":false},{"is_transit":false,"i_long":106.831474,"time":2,"station_id":"UI","line":2,"transit":false,"distance":1109,"station_name":"Univ. Indonesia","i_lat":-6.360749},{"station_id":"UP","transit":false,"i_long":106.834175,"station_name":"Univ. Pancasila","is_transit":false,"line":2,"time":3,"i_lat":-6.339291,"distance":2264},{"is_transit":false,"line":2,"station_id":"LNA","i_long":106.832616,"station_name":"Lenteng Agung","distance":1029,"transit":false,"i_lat":-6.330363,"time":2},{"station_id":"TNT","time":3,"line":2,"is_transit":false,"transit":false,"i_lat":-6.3080680000000005,"i_long":106.838896,"distance":2671,"station_name":"Tanjung Barat"},{"i_long":106.843999,"is_transit":false,"transit":false,"station_name":"Pasar Minggu","station_id":"PSM","i_lat":-6.2842400000000005,"distance":2820,"time":4,"line":2},{"is_transit":false,"i_lat":-6.263214,"station_name":"Pasar Minggu Baru","line":2,"transit":false,"distance":2380,"i_long":106.851577,"station_id":"PSMB","time":2},{"distance":824,"line":2,"time":2,"station_id":"DRN","station_name":"Duren Kalibata","is_transit":false,"transit":false,"i_lat":-6.255332,"i_long":106.85449},{"transit":false,"distance":1546,"station_name":"Cawang","i_lat":-6.242512,"time":3,"is_transit":false,"i_long":106.856607,"station_id":"CW","line":2},{"station_id":"TEB","time":2,"is_transit":false,"station_name":"Tebet","transit":false,"distance":1230,"i_lat":-6.226659,"i_long":106.857948,"line":2},{"time":4,"station_name":"Manggarai","is_transit":false,"transit":false,"station_id":"MRI","distance":2610,"i_lat":-6.209883,"i_long":106.84912,"line":2},{"station_name":"Cikini","is_transit":false,"transit":false,"time":4,"station_id":"CKI","i_lat":-6.198556,"line":2,"distance":1590,"i_long":106.840169},{"i_long":106.832183,"line":2,"time":3,"transit":false,"station_id":"GDD","station_name":"Gondangdia","is_transit":false,"i_lat":-6.186295,"distance":1750},{"station_id":"JUA","station_name":"Juanda","is_transit":false,"i_long":106.828284,"line":2,"i_lat":-6.166716,"time":4,"distance":2015,"transit":false},{"station_name":"Sawah Besar","is_transit":false,"transit":false,"time":2,"i_lat":-6.160725,"line":2,"station_id":"SW","distance":1149,"i_long":106.827103},{"station_id":"MGB","time":2,"i_lat":-6.149769,"line":2,"station_name":"Manggabesar","distance":906,"i_long":106.82482,"transit":false,"is_transit":false},{"distance":1080,"line":2,"i_long":106.820901,"station_name":"Jayakarta","time":2,"i_lat":-6.141205,"transit":false,"station_id":"JAY","is_transit":false},{"transit":true,"time":4,"i_lat":-6.137569,"distance":1264,"station_name":"Jakarta Kota","i_long":106.812439,"station_id":"JAKK","is_transit":true,"line":2},{"time":3,"i_lat":-6.132549,"transit":true,"station_id":"KPB","i_long":106.826365,"station_name":"Kampung Bandan","distance":1364,"is_transit":true,"line":4},{"line":1,"time":9,"i_lat":-6.144674,"is_transit":false,"station_name":"Angke","station_id":"AK","i_long":106.79867,"transit":false,"distance":4102},{"i_lat":-6.155215,"station_name":"Duri","i_long":106.800832,"is_transit":false,"transit":false,"station_id":"DU","distance":1230,"time":4,"line":1},{"line":1,"transit":true,"station_name":"Tanah Abang","is_transit":true,"i_long":106.811091,"i_lat":-6.185545,"time":8,"distance":3632,"station_id":"THB"},{"station_name":"Palmerah","time":6,"station_id":"PLM","is_transit":false,"distance":3191,"i_lat":-6.207404,"line":6,"i_long":106.79689,"transit":false},{"i_lat":-6.237242,"i_long":106.780334,"is_transit":false,"line":6,"time":7,"station_id":"KBY","transit":false,"station_name":"Kebayoran","distance":3737},{"station_id":"PDJ","transit":false,"is_transit":false,"distance":6218,"i_lat":-6.276362,"time":8,"station_name":"Pondokranji","i_long":106.74273,"line":6},{"station_name":"Jurangmangu","distance":2179,"i_lat":-6.288927,"time":3,"transit":false,"i_long":106.728916,"is_transit":false,"line":6,"station_id":"JMU"},{"distance":1994,"line":6,"station_id":"SDM","transit":false,"station_name":"Sudimara","i_long":106.712277,"is_transit":false,"time":4,"i_lat":-6.296963},{"i_long":106.675475,"line":6,"is_transit":false,"distance":4566,"station_id":"RU","station_name":"Rawa Buntu","i_lat":-6.314823,"transit":false,"time":6},{"distance":2413,"time":4,"transit":false,"station_name":"Serpong","line":6,"station_id":"SRP","i_lat":-6.319871,"i_long":106.66566,"is_transit":false},{"transit":false,"i_lat":-6.32484,"distance":1784,"line":3,"station_id":"CSK","station_name":"Cisauk","is_transit":false,"time":4,"i_long":106.640411},{"time":4,"station_id":"CC","station_name":"Cicayur","distance":2519,"i_lat":-6.329547,"is_transit":false,"transit":false,"line":3,"i_long":106.617853}],[{"transit":false,"i_long":106.851978,"time":0,"line":21,"station_id":"CBN","is_transit":false,"i_lat":-6.46424,"distance":0,"station_name":"Cibinong"},{"i_lat":-6.460735,"i_long":106.824374,"station_id":"PDRG","station_name":"Pondok Rajeg","is_transit":false,"transit":false,"line":21,"time":0,"distance":0},{"station_name":"Citayam","i_lat":-6.448811,"time":0,"station_id":"CTA","transit":true,"i_long":106.800298,"is_transit":true,"distance":0,"line":2},{"is_transit":false,"station_id":"DP","i_long":106.816926,"line":2,"time":6,"station_name":"Depok","transit":false,"distance":5084,"i_lat":-6.405256},{"i_lat":-6.391065,"station_name":"Depokbaru","line":2,"distance":1584,"station_id":"DPB","time":3,"i_long":106.819451,"is_transit":false,"transit":false},{"time":4,"i_long":106.831114,"station_id":"POC","is_transit":false,"transit":false,"station_name":"Pondok Cina","i_lat":-6.369073,"line":2,"distance":2727},{"station_name":"Univ. Indonesia","transit":false,"distance":1109,"line":2,"is_transit":false,"time":2,"i_lat":-6.360749,"i_long":106.831474,"station_id":"UI"},{"distance":2264,"i_lat":-6.339291,"i_long":106.834175,"station_id":"UP","is_transit":false,"transit":false,"station_name":"Univ. Pancasila","line":2,"time":3},{"station_id":"LNA","is_transit":false,"distance":1029,"transit":false,"time":2,"station_name":"Lenteng Agung","i_long":106.832616,"line":2,"i_lat":-6.330363},{"i_lat":-6.3080680000000005,"station_id":"TNT","station_name":"Tanjung Barat","time":3,"transit":false,"is_transit":false,"distance":2671,"line":2,"i_long":106.838896},{"transit":false,"time":4,"is_transit":false,"station_id":"PSM","i_long":106.843999,"station_name":"Pasar Minggu","distance":2820,"i_lat":-6.2842400000000005,"line":2},{"station_name":"Pasar Minggu Baru","station_id":"PSMB","distance":2380,"i_long":106.851577,"line":2,"time":2,"is_transit":false,"transit":false,"i_lat":-6.263214},{"i_lat":-6.255332,"line":2,"transit":false,"i_long":106.85449,"time":2,"station_name":"Duren Kalibata","station_id":"DRN","is_transit":false,"distance":824},{"i_long":106.856607,"i_lat":-6.242512,"time":3,"line":2,"station_name":"Cawang","is_transit":false,"station_id":"CW","distance":1546,"transit":false},{"distance":1230,"time":2,"station_name":"Tebet","line":2,"is_transit":false,"transit":false,"station_id":"TEB","i_lat":-6.226659,"i_long":106.857948},{"time":4,"station_name":"Manggarai","i_lat":-6.209883,"is_transit":true,"station_id":"MRI","i_long":106.84912,"transit":true,"line":2,"distance":2610},{"station_id":"MTR","transit":false,"station_name":"Matraman","i_long":106.858896,"is_transit":false,"time":2,"i_lat":-6.212485,"distance":1275,"line":1},{"i_long":106.86807400000001,"transit":true,"distance":1377,"line":1,"is_transit":true,"station_name":"Jatinegara","i_lat":-6.215091,"time":8,"station_id":"JNG"},{"transit":false,"distance":1236,"i_long":106.861737,"line":11,"station_id":"POK","is_transit":false,"i_lat":-6.209188,"station_name":"Pondok Jati","time":2},{"station_id":"KMT","i_long":106.855437,"line":11,"distance":1829,"transit":false,"station_name":"Kramat","is_transit":false,"time":2,"i_lat":-6.193792},{"i_long":106.850107,"station_id":"GST","station_name":"Gang Sentiong","transit":false,"distance":973,"i_lat":-6.185975,"is_transit":false,"line":11,"time":1},{"station_id":"PSE","station_name":"Pasar Senen","line":11,"is_transit":false,"i_lat":-6.174784,"i_long":106.84368,"transit":false,"time":8,"distance":1567},{"line":11,"distance":1436,"station_id":"KMO","time":4,"station_name":"Kemayoran","is_transit":false,"i_lat":-6.161728,"i_long":106.839204,"transit":false},{"distance":1901,"i_lat":-6.14505,"time":5,"station_name":"Rajawali","transit":false,"is_transit":false,"line":11,"i_long":106.836569,"station_id":"RJW"},{"i_lat":-6.132549,"distance":1444,"is_transit":true,"station_name":"Kampung Bandan","line":4,"station_id":"KPB","i_long":106.826365,"transit":true,"time":3},{"line":1,"distance":4102,"i_lat":-6.144674,"time":9,"transit":false,"station_id":"AK","i_long":106.79867,"station_name":"Angke","is_transit":false},{"i_lat":-6.155215,"transit":false,"station_name":"Duri","line":1,"i_long":106.800832,"time":4,"station_id":"DU","is_transit":false,"distance":1230},{"station_name":"Tanah Abang","i_lat":-6.185545,"i_long":106.811091,"station_id":"THB","is_transit":true,"line":1,"distance":3632,"time":8,"transit":true},{"line":6,"i_lat":-6.207404,"station_name":"Palmerah","is_transit":false,"station_id":"PLM","distance":3191,"time":6,"transit":false,"i_long":106.79689},{"line":6,"is_transit":false,"i_lat":-6.237242,"station_id":"KBY","station_name":"Kebayoran","distance":3737,"i_long":106.780334,"transit":false,"time":7},{"i_long":106.74273,"transit":false,"station_name":"Pondokranji","is_transit":false,"distance":6218,"line":6,"station_id":"PDJ","time":8,"i_lat":-6.276362},{"i_lat":-6.288927,"is_transit":false,"time":3,"station_id":"JMU","transit":false,"distance":2179,"i_long":106.728916,"line":6,"station_name":"Jurangmangu"},{"transit":false,"station_id":"SDM","i_lat":-6.296963,"distance":1994,"i_long":106.712277,"line":6,"time":4,"is_transit":false,"station_name":"Sudimara"},{"i_lat":-6.314823,"station_id":"RU","i_long":106.675475,"line":6,"time":6,"station_name":"Rawa Buntu","transit":false,"is_transit":false,"distance":4566},{"i_long":106.66566,"line":6,"station_id":"SRP","time":4,"is_transit":false,"station_name":"Serpong","i_lat":-6.319871,"transit":false,"distance":2413},{"time":4,"distance":1784,"station_name":"Cisauk","transit":false,"line":3,"is_transit":false,"i_lat":-6.32484,"i_long":106.640411,"station_id":"CSK"},{"i_lat":-6.329547,"station_name":"Cicayur","transit":false,"station_id":"CC","time":4,"i_long":106.617853,"line":3,"distance":2519,"is_transit":false}]]}