{"data":[[{"station_name":"Cibinong","transit":false,"line":21,"i_long":106.851978,"time":0,"distance":0,"station_id":"CBN","i_lat":-6.46424,"is_transit":false},{"transit":false,"time":0,"line":21,"i_lat":-6.460735,"is_transit":false,"i_long":106.824374,"distance":0,"station_id":"PDRG","station_name":"Pondok Rajeg"},{"station_name":"Citayam","i_lat":-6.448811,"distance":0,"i_long":106.800298,"line":2,"time":0,"station_id":"CTA","transit":true,"is_transit":true},{"time":6,"distance":5084,"i_long":106.816926,"line":2,"station_id":"DP","station_name":"Depok","is_transit":false,"transit":false,"i_lat":-6.405256},{"distance":1584,"i_long":106.819451,"station_id":"DPB","is_transit":false,"transit":false,"time":3,"station_name":"Depokbaru","i_lat":-6.391065,"line":2},{"line":2,"i_long":106.831114,"is_transit":false,"station_id":"POC","transit":false,"distance":2727,"time":4,"station_name":"Pondok Cina","i_lat":-6.369073},{"transit":false,"station_id":"UI","time":2,"i_lat":-6.360749,"i_long":106.831474,"distance":1109,"station_name":"Univ. Indonesia","is_transit":false,"line":2},{"distance":2264,"is_transit":false,"transit":false,"station_name":"Univ. Pancasila","i_lat":-6.339291,"time":3,"i_long":106.834175,"station_id":"UP","line":2},{"station_id":"LNA","time":2,"transit":false,"i_lat":-6.330363,"is_transit":false,"line":2,"distance":1029,"i_long":106.832616,"station_name":"Lenteng Agung"},{"station_name":"Tanjung Barat","time":3,"i_lat":-6.3080680000000005,"i_long":106.838896,"station_id":"TNT","line":2,"is_transit":false,"distance":2671,"transit":false},{"distance":2820,"i_long":106.843999,"transit":false,"time":4,"station_id":"PSM","is_transit":false,"line":2,"i_lat":-6.2842400000000005,"station_name":"Pasar Minggu"}]]}