{"data":[[{"line":0,"time":0,"transit":false,"is_transit":false,"station_id":"CBN","i_lat":-6.46424,"i_long":106.851978,"distance":0,"station_name":"Cibinong"},{"station_id":"CTA","i_long":106.800298,"i_lat":-6.448811,"is_transit":true,"line":1,"distance":6740,"transit":false,"time":10,"station_name":"Citayam"},{"is_transit":false,"transit":false,"line":0,"station_name":"Depok","i_long":106.816926,"distance":5084,"i_lat":-6.405256,"station_id":"DP","time":6},{"i_lat":-6.391065,"i_long":106.819451,"station_name":"Depokbaru","transit":false,"distance":1584,"line":0,"time":3,"is_transit":false,"station_id":"DPB"},{"station_id":"POC","station_name":"Pondok Cina","transit":false,"is_transit":false,"time":4,"distance":2727,"i_long":106.831114,"line":2,"i_lat":-6.369073},{"time":2,"i_lat":-6.360749,"distance":1109,"line":2,"station_name":"Univ. Indonesia","transit":false,"station_id":"UI","is_transit":false,"i_long":106.831474},{"is_transit":false,"time":3,"i_lat":-6.339291,"station_name":"Univ. Pancasila","line":2,"i_long":106.834175,"distance":2264,"transit":false,"station_id":"UP"},{"station_name":"Lenteng Agung","i_long":106.832616,"transit":false,"is_transit":false,"station_id":"LNA","line":2,"i_lat":-6.330363,"distance":1029,"time":2},{"line":2,"time":3,"distance":2671,"i_long":106.838896,"transit":false,"is_transit":false,"station_name":"Tanjung Barat","i_lat":-6.3080680000000005,"station_id":"TNT"},{"station_id":"PSM","i_lat":-6.2842400000000005,"distance":2820,"transit":false,"line":2,"i_long":106.843999,"time":4,"station_name":"Pasar Minggu","is_transit":false},{"line":2,"station_id":"PSMB","distance":2380,"station_name":"Pasar Minggu Baru","is_transit":false,"i_long":106.851577,"time":2,"transit":false,"i_lat":-6.263214},{"i_lat":-6.255332,"distance":824,"station_id":"DRN","line":0,"i_long":106.85449,"transit":false,"is_transit":false,"time":2,"station_name":"Duren Kalibata"},{"i_long":106.856607,"line":0,"transit":false,"is_transit":false,"i_lat":-6.242512,"time":3,"station_name":"Cawang","station_id":"CW","distance":1546},{"distance":1230,"station_name":"Tebet","i_lat":-6.226659,"station_id":"TEB","is_transit":false,"time":2,"transit":false,"line":2,"i_long":106.857948},{"i_lat":-6.209883,"is_transit":true,"station_id":"MRI","i_long":106.84912,"time":4,"transit":true,"station_name":"Manggarai","line":0,"distance":2610},{"i_long":106.822649,"is_transit":false,"i_lat":-6.202263,"transit":false,"station_id":"SUD","time":4,"distance":3186,"line":1,"station_name":"Sudirman"},{"distance":280,"i_long":106.819881,"line":1,"station_name":"Sudirman Baru","i_lat":-6.201433,"transit":false,"station_id":"SUDB","is_transit":false,"time":1},{"station_name":"Karet","is_transit":false,"distance":471,"time":1,"transit":false,"station_id":"KAT","i_lat":-6.20132,"i_long":106.816351,"line":1},{"distance":2029,"i_lat":-6.185545,"station_id":"THB","transit":false,"time":5,"is_transit":true,"station_name":"Tanah Abang","i_long":106.811091,"line":1}],[{"time":0,"distance":0,"i_long":106.851978,"station_id":"CBN","i_lat":-6.46424,"is_transit":false,"transit":false,"station_name":"Cibinong","line":0},{"i_long":106.800298,"station_name":"Citayam","station_id":"CTA","distance":6740,"line":1,"is_transit":true,"time":10,"transit":false,"i_lat":-6.448811},{"time":6,"distance":5084,"i_lat":-6.405256,"station_name":"Depok","station_id":"DP","line":0,"is_transit":false,"i_long":106.816926,"transit":false},{"i_lat":-6.391065,"line":0,"station_name":"Depokbaru","time":3,"distance":1584,"transit":false,"i_long":106.819451,"is_transit":false,"station_id":"DPB"},{"distance":2727,"station_id":"POC","station_name":"Pondok Cina","is_transit":false,"i_lat":-6.369073,"transit":false,"time":4,"i_long":106.831114,"line":2},{"is_transit":false,"transit":false,"station_name":"Univ. Indonesia","time":2,"i_lat":-6.360749,"i_long":106.831474,"station_id":"UI","distance":1109,"line":2},{"transit":false,"is_transit":false,"station_id":"UP","i_long":106.834175,"line":2,"station_name":"Univ. Pancasila","i_lat":-6.339291,"distance":2264,"time":3},{"i_lat":-6.330363,"transit":false,"distance":1029,"station_id":"LNA","station_name":"Lenteng Agung","time":2,"is_transit":false,"i_long":106.832616,"line":2},{"i_long":106.838896,"station_id":"TNT","transit":false,"i_lat":-6.3080680000000005,"is_transit":false,"station_name":"Tanjung Barat","time":3,"line":2,"distance":2671},{"transit":false,"line":2,"i_lat":-6.2842400000000005,"distance":2820,"is_transit":false,"station_id":"PSM","i_long":106.843999,"time":4,"station_name":"Pasar Minggu"},{"line":2,"station_name":"Pasar Minggu Baru","time":2,"station_id":"PSMB","distance":2380,"is_transit":false,"transit":false,"i_lat":-6.263214,"i_long":106.851577},{"transit":false,"i_lat":-6.255332,"station_name":"Duren Kalibata","distance":824,"time":2,"i_long":106.85449,"is_transit":false,"line":0,"station_id":"DRN"},{"i_lat":-6.242512,"transit":false,"is_transit":false,"station_name":"Cawang","station_id":"CW","distance":1546,"line":0,"time":3,"i_long":106.856607},{"is_transit":false,"distance":1230,"station_name":"Tebet","i_lat":-6.226659,"station_id":"TEB","i_long":106.857948,"transit":false,"time":2,"line":2},{"is_transit":true,"distance":2610,"station_id":"MRI","station_name":"Manggarai","line":0,"time":4,"i_long":106.84912,"i_lat":-6.209883,"transit":true},{"station_id":"CKI","line":0,"station_name":"Cikini","time":4,"i_long":106.840169,"i_lat":-6.198556,"distance":1590,"is_transit":false,"transit":false},{"is_transit":false,"line":2,"transit":false,"distance":1750,"i_long":106.832183,"station_id":"GDD","time":3,"i_lat":-6.186295,"station_name":"Gondangdia"},{"time":4,"station_id":"JUA","distance":2015,"transit":false,"i_long":106.828284,"is_transit":false,"line":2,"station_name":"Juanda","i_lat":-6.166716},{"i_lat":-6.160725,"i_long":106.827103,"station_name":"Sawah Besar","time":2,"transit":false,"distance":1149,"is_transit":false,"line":2,"station_id":"SW"},{"time":2,"station_id":"MGB","i_long":106.82482,"line":2,"station_name":"Manggabesar","transit":false,"is_transit":false,"i_lat":-6.149769,"distance":906},{"transit":false,"station_name":"Jayakarta","i_lat":-6.141205,"is_transit":false,"time":2,"station_id":"JAY","i_long":106.820901,"line":7,"distance":1080},{"is_transit":true,"time":4,"i_lat":-6.137569,"station_name":"Jakarta Kota","transit":true,"i_long":106.812439,"distance":1264,"line":0,"station_id":"JAKK"},{"transit":false,"is_transit":true,"time":3,"station_id":"KPB","line":0,"distance":1364,"station_name":"Kampung Bandan","i_long":106.826365,"i_lat":-6.132549},{"station_name":"Angke","time":9,"transit":false,"is_transit":false,"distance":4102,"i_lat":-6.144674,"i_long":106.79867,"line":0,"station_id":"AK"},{"station_name":"Duri","is_transit":true,"i_lat":-6.155215,"transit":true,"time":4,"line":1,"station_id":"DU","i_long":106.800832,"distance":1230},{"is_transit":true,"i_long":106.811091,"time":8,"i_lat":-6.185545,"station_name":"Tanah Abang","distance":3632,"station_id":"THB","line":1,"transit":false}],[{"line":0,"time":0,"distance":0,"transit":false,"station_id":"CBN","station_name":"Cibinong","i_long":106.851978,"is_transit":false,"i_lat":-6.46424},{"distance":6740,"is_transit":true,"transit":false,"station_name":"Citayam","time":10,"station_id":"CTA","i_lat":-6.448811,"line":1,"i_long":106.800298},{"transit":false,"i_long":106.816926,"line":0,"i_lat":-6.405256,"time":6,"station_id":"DP","distance":5084,"is_transit":false,"station_name":"Depok"},{"distance":1584,"i_lat":-6.391065,"station_id":"DPB","i_long":106.819451,"line":0,"station_name":"Depokbaru","is_transit":false,"time":3,"transit":false},{"is_transit":false,"station_name":"Pondok Cina","transit":false,"i_lat":-6.369073,"line":2,"station_id":"POC","time":4,"distance":2727,"i_long":106.831114},{"line":2,"station_name":"Univ. Indonesia","is_transit":false,"transit":false,"i_lat":-6.360749,"time":2,"distance":1109,"station_id":"UI","i_long":106.831474},{"time":3,"station_id":"UP","transit":false,"station_name":"Univ. Pancasila","distance":2264,"i_long":106.834175,"line":2,"is_transit":false,"i_lat":-6.339291},{"i_long":106.832616,"time":2,"transit":false,"i_lat":-6.330363,"distance":1029,"station_id":"LNA","line":2,"station_name":"Lenteng Agung","is_transit":false},{"transit":false,"i_long":106.838896,"is_transit":false,"station_name":"Tanjung Barat","distance":2671,"station_id":"TNT","i_lat":-6.3080680000000005,"line":2,"time":3},{"time":4,"line":2,"distance":2820,"i_long":106.843999,"station_id":"PSM","transit":false,"station_name":"Pasar Minggu","is_transit":false,"i_lat":-6.2842400000000005},{"transit":false,"station_name":"Pasar Minggu Baru","time":2,"i_lat":-6.263214,"line":2,"is_transit":false,"station_id":"PSMB","distance":2380,"i_long":106.851577},{"transit":false,"station_name":"Duren Kalibata","station_id":"DRN","line":0,"time":2,"distance":824,"is_transit":false,"i_lat":-6.255332,"i_long":106.85449},{"is_transit":false,"station_id":"CW","i_lat":-6.242512,"distance":1546,"station_name":"Cawang","transit":false,"i_long":106.856607,"line":0,"time":3},{"line":2,"transit":false,"station_id":"TEB","time":2,"i_long":106.857948,"station_name":"Tebet","is_transit":false,"distance":1230,"i_lat":-6.226659},{"distance":2610,"i_lat":-6.209883,"transit":true,"is_transit":true,"time":4,"station_name":"Manggarai","station_id":"MRI","i_long":106.84912,"line":0},{"station_name":"Matraman","line":1,"is_transit":false,"transit":false,"station_id":"MTR","i_lat":-6.212485,"i_long":106.858896,"distance":1275,"time":2},{"i_lat":-6.215091,"station_name":"Jatinegara","time":8,"i_long":106.86807400000001,"distance":1377,"station_id":"JNG","is_transit":true,"transit":true,"line":0},{"i_lat":-6.209188,"i_long":106.861737,"line":11,"time":2,"distance":1236,"station_name":"Pondok Jati","transit":false,"is_transit":false,"station_id":"POK"},{"time":2,"i_long":106.855437,"transit":false,"station_id":"KMT","is_transit":false,"i_lat":-6.193792,"line":11,"distance":1829,"station_name":"Kramat"},{"i_long":106.850107,"transit":false,"station_id":"GST","station_name":"Gang Sentiong","is_transit":false,"time":1,"i_lat":-6.185975,"line":11,"distance":973},{"distance":1567,"line":11,"i_long":106.84368,"time":8,"station_id":"PSE","station_name":"Pasar Senen","transit":false,"is_transit":false,"i_lat":-6.174784},{"time":4,"i_long":106.839204,"line":11,"station_name":"Kemayoran","is_transit":false,"transit":false,"station_id":"KMO","distance":1436,"i_lat":-6.161728},{"is_transit":false,"time":5,"i_lat":-6.14505,"distance":1901,"line":11,"i_long":106.836569,"station_id":"RJW","transit":false,"station_name":"Rajawali"},{"station_name":"Kampung Bandan","i_long":106.826365,"is_transit":true,"transit":true,"station_id":"KPB","distance":1444,"line":0,"time":3,"i_lat":-6.132549},{"distance":4102,"line":0,"station_name":"Angke","transit":false,"i_lat":-6.144674,"i_long":106.79867,"time":9,"station_id":"AK","is_transit":false},{"station_name":"Duri","transit":true,"distance":1230,"is_transit":true,"i_lat":-6.155215,"i_long":106.800832,"station_id":"DU","line":1,"time":4},{"station_name":"Tanah Abang","distance":3632,"transit":false,"i_long":106.811091,"i_lat":-6.185545,"time":8,"is_transit":true,"line":1,"station_id":"THB"}]]}