{"data":[[{"distance":0,"line":21,"i_long":106.851978,"station_id":"CBN","is_transit":false,"station_name":"Cibinong","transit":false,"time":0,"i_lat":-6.46424},{"is_transit":false,"station_id":"PDRG","i_lat":-6.460735,"i_long":106.824374,"line":21,"time":0,"distance":0,"station_name":"Pondok Rajeg","transit":false},{"station_id":"CTA","i_lat":-6.448811,"line":2,"time":0,"transit":true,"distance":0,"i_long":106.800298,"station_name":"Citayam","is_transit":true},{"time":6,"distance":5084,"transit":false,"is_transit":false,"station_id":"DP","line":2,"i_lat":-6.405256,"i_long":106.816926,"station_name":"Depok"},{"is_transit":false,"i_long":106.819451,"line":2,"i_lat":-6.391065,"distance":1584,"station_name":"Depokbaru","transit":false,"time":3,"station_id":"DPB"},{"is_transit":false,"station_id":"POC","i_lat":-6.369073,"transit":false,"distance":2727,"time":4,"station_name":"Pondok Cina","i_long":106.831114,"line":2},{"line":2,"station_name":"Univ. Indonesia","transit":false,"time":2,"distance":1109,"station_id":"UI","i_lat":-6.360749,"i_long":106.831474,"is_transit":false},{"station_id":"UP","transit":false,"station_name":"Univ. Pancasila","i_lat":-6.339291,"is_transit":false,"i_long":106.834175,"line":2,"time":3,"distance":2264},{"time":2,"i_long":106.832616,"is_transit":false,"line":2,"transit":false,"station_name":"Lenteng Agung","station_id":"LNA","i_lat":-6.330363,"distance":1029},{"station_name":"Tanjung Barat","line":2,"distance":2671,"is_transit":false,"i_lat":-6.3080680000000005,"transit":false,"i_long":106.838896,"time":3,"station_id":"TNT"},{"time":4,"is_transit":false,"station_id":"PSM","i_lat":-6.2842400000000005,"line":2,"i_long":106.843999,"distance":2820,"transit":false,"station_name":"Pasar Minggu"},{"is_transit":false,"i_long":106.851577,"station_id":"PSMB","transit":false,"line":2,"i_lat":-6.263214,"station_name":"Pasar Minggu Baru","time":2,"distance":2380},{"i_long":106.85449,"transit":false,"station_name":"Duren Kalibata","time":2,"distance":824,"line":2,"i_lat":-6.255332,"is_transit":false,"station_id":"DRN"},{"station_name":"Cawang","i_long":106.856607,"time":3,"i_lat":-6.242512,"distance":1546,"transit":false,"line":2,"station_id":"CW","is_transit":false},{"i_long":106.857948,"station_id":"TEB","transit":false,"time":2,"is_transit":false,"station_name":"Tebet","i_lat":-6.226659,"distance":1230,"line":2},{"line":2,"station_id":"MRI","distance":2610,"is_transit":true,"transit":true,"i_lat":-6.209883,"station_name":"Manggarai","i_long":106.84912,"time":4},{"i_long":106.858896,"transit":false,"distance":1275,"is_transit":false,"time":2,"i_lat":-6.212485,"station_id":"MTR","station_name":"Matraman","line":1},{"station_name":"Jatinegara","is_transit":false,"i_lat":-6.215091,"i_long":106.86807400000001,"line":1,"transit":false,"time":8,"station_id":"JNG","distance":1377},{"i_long":106.899548,"station_name":"Klender","transit":false,"distance":3395,"time":3,"is_transit":false,"station_id":"KLD","i_lat":-6.2135,"line":1}],[{"station_name":"Cibinong","i_lat":-6.46424,"i_long":106.851978,"station_id":"CBN","time":0,"distance":0,"is_transit":false,"line":21,"transit":false},{"time":0,"station_name":"Pondok Rajeg","distance":0,"line":21,"station_id":"PDRG","is_transit":false,"i_lat":-6.460735,"transit":false,"i_long":106.824374},{"transit":true,"distance":0,"i_lat":-6.448811,"station_name":"Citayam","is_transit":true,"i_long":106.800298,"time":0,"line":2,"station_id":"CTA"},{"i_lat":-6.405256,"i_long":106.816926,"time":6,"transit":false,"station_id":"DP","station_name":"Depok","line":2,"is_transit":false,"distance":5084},{"i_lat":-6.391065,"i_long":106.819451,"is_transit":false,"time":3,"station_name":"Depokbaru","station_id":"DPB","transit":false,"distance":1584,"line":2},{"time":4,"line":2,"transit":false,"station_id":"POC","i_lat":-6.369073,"distance":2727,"is_transit":false,"station_name":"Pondok Cina","i_long":106.831114},{"station_name":"Univ. Indonesia","station_id":"UI","i_lat":-6.360749,"is_transit":false,"time":2,"i_long":106.831474,"line":2,"distance":1109,"transit":false},{"time":3,"i_lat":-6.339291,"station_id":"UP","i_long":106.834175,"distance":2264,"transit":false,"is_transit":false,"line":2,"station_name":"Univ. Pancasila"},{"i_lat":-6.330363,"is_transit":false,"station_id":"LNA","line":2,"station_name":"Lenteng Agung","transit":false,"distance":1029,"i_long":106.832616,"time":2},{"time":3,"transit":false,"station_name":"Tanjung Barat","is_transit":false,"i_lat":-6.3080680000000005,"i_long":106.838896,"distance":2671,"line":2,"station_id":"TNT"},{"i_lat":-6.2842400000000005,"distance":2820,"is_transit":false,"station_id":"PSM","line":2,"transit":false,"station_name":"Pasar Minggu","time":4,"i_long":106.843999},{"i_lat":-6.263214,"line":2,"transit":false,"distance":2380,"i_long":106.851577,"is_transit":false,"station_id":"PSMB","station_name":"Pasar Minggu Baru","time":2},{"line":2,"station_id":"DRN","distance":824,"i_lat":-6.255332,"time":2,"i_long":106.85449,"station_name":"Duren Kalibata","is_transit":false,"transit":false},{"distance":1546,"i_lat":-6.242512,"time":3,"i_long":106.856607,"station_name":"Cawang","line":2,"transit":false,"is_transit":false,"station_id":"CW"},{"time":2,"is_transit":false,"station_id":"TEB","i_long":106.857948,"transit":false,"station_name":"Tebet","i_lat":-6.226659,"line":2,"distance":1230},{"i_long":106.84912,"i_lat":-6.209883,"station_id":"MRI","line":2,"distance":2610,"is_transit":true,"station_name":"Manggarai","transit":true,"time":4},{"station_name":"Sudirman","station_id":"SUD","i_long":106.822649,"time":4,"line":1,"distance":3186,"i_lat":-6.202263,"is_transit":false,"transit":false},{"transit":false,"is_transit":false,"i_lat":-6.201433,"time":1,"line":1,"station_name":"Sudirman Baru","i_long":106.819881,"distance":280,"station_id":"SUDB"},{"i_long":106.816351,"line":1,"is_transit":false,"station_name":"Karet","distance":471,"time":1,"transit":false,"station_id":"KAT","i_lat":-6.20132},{"is_transit":false,"station_id":"THB","distance":2029,"i_long":106.811091,"line":1,"i_lat":-6.185545,"time":5,"station_name":"Tanah Abang","transit":false},{"i_long":106.800832,"distance":3632,"time":8,"station_name":"Duri","is_transit":false,"line":1,"i_lat":-6.155215,"station_id":"DU","transit":false},{"is_transit":false,"station_name":"Angke","distance":1230,"i_lat":-6.144674,"station_id":"AK","i_long":106.79867,"line":1,"transit":false,"time":4},{"distance":4102,"i_lat":-6.132549,"transit":true,"station_name":"Kampung Bandan","station_id":"KPB","i_long":106.826365,"line":4,"time":9,"is_transit":true},{"is_transit":false,"transit":false,"time":3,"station_id":"RJW","station_name":"Rajawali","i_lat":-6.14505,"i_long":106.836569,"line":11,"distance":1444},{"distance":1901,"i_lat":-6.161728,"transit":false,"station_id":"KMO","station_name":"Kemayoran","i_long":106.839204,"is_transit":false,"time":5,"line":11},{"line":11,"station_id":"PSE","time":4,"i_lat":-6.174784,"transit":false,"distance":1436,"station_name":"Pasar Senen","is_transit":false,"i_long":106.84368},{"i_long":106.850107,"line":11,"is_transit":false,"transit":false,"time":8,"distance":1567,"station_name":"Gang Sentiong","i_lat":-6.185975,"station_id":"GST"},{"station_name":"Kramat","transit":false,"is_transit":false,"distance":973,"time":1,"i_lat":-6.193792,"i_long":106.855437,"line":11,"station_id":"KMT"},{"distance":1829,"is_transit":false,"station_name":"Pondok Jati","i_long":106.861737,"station_id":"POK","i_lat":-6.209188,"transit":false,"time":2,"line":11},{"station_id":"JNG","i_lat":-6.215091,"transit":true,"line":1,"time":9,"i_long":106.86807400000001,"distance":1236,"station_name":"Jatinegara","is_transit":true},{"is_transit":false,"station_id":"KLD","transit":false,"line":1,"station_name":"Klender","i_lat":-6.2135,"i_long":106.899548,"time":3,"distance":3395}],[{"station_name":"Cibinong","transit":false,"i_long":106.851978,"time":0,"line":21,"is_transit":false,"station_id":"CBN","distance":0,"i_lat":-6.46424},{"line":21,"time":0,"is_transit":false,"i_lat":-6.460735,"station_name":"Pondok Rajeg","i_long":106.824374,"station_id":"PDRG","distance":0,"transit":false},{"i_long":106.800298,"i_lat":-6.448811,"transit":true,"is_transit":true,"station_name":"Citayam","distance":0,"station_id":"CTA","time":0,"line":2},{"distance":5084,"i_long":106.816926,"station_name":"Depok","transit":false,"station_id":"DP","i_lat":-6.405256,"is_transit":false,"line":2,"time":6},{"transit":false,"i_long":106.819451,"distance":1584,"is_transit":false,"line":2,"i_lat":-6.391065,"station_id":"DPB","station_name":"Depokbaru","time":3},{"is_transit":false,"transit":false,"station_name":"Pondok Cina","station_id":"POC","i_lat":-6.369073,"time":4,"distance":2727,"i_long":106.831114,"line":2},{"i_long":106.831474,"station_name":"Univ. Indonesia","line":2,"distance":1109,"station_id":"UI","time":2,"transit":false,"i_lat":-6.360749,"is_transit":false},{"distance":2264,"is_transit":false,"transit":false,"station_name":"Univ. Pancasila","station_id":"UP","line":2,"i_long":106.834175,"i_lat":-6.339291,"time":3},{"distance":1029,"i_lat":-6.330363,"time":2,"is_transit":false,"station_name":"Lenteng Agung","i_long":106.832616,"transit":false,"station_id":"LNA","line":2},{"i_lat":-6.3080680000000005,"is_transit":false,"i_long":106.838896,"distance":2671,"time":3,"station_name":"Tanjung Barat","station_id":"TNT","line":2,"transit":false},{"i_lat":-6.2842400000000005,"is_transit":false,"transit":false,"line":2,"station_id":"PSM","distance":2820,"i_long":106.843999,"station_name":"Pasar Minggu","time":4},{"station_name":"Pasar Minggu Baru","transit":false,"i_long":106.851577,"i_lat":-6.263214,"station_id":"PSMB","distance":2380,"line":2,"time":2,"is_transit":false},{"is_transit":false,"station_name":"Duren Kalibata","station_id":"DRN","i_lat":-6.255332,"i_long":106.85449,"time":2,"distance":824,"line":2,"transit":false},{"is_transit":false,"i_long":106.856607,"distance":1546,"i_lat":-6.242512,"time":3,"transit":false,"station_id":"CW","station_name":"Cawang","line":2},{"i_lat":-6.226659,"i_long":106.857948,"time":2,"station_name":"Tebet","transit":false,"distance":1230,"line":2,"is_transit":false,"station_id":"TEB"},{"line":2,"station_id":"MRI","station_name":"Manggarai","i_lat":-6.209883,"transit":false,"distance":2610,"time":4,"is_transit":false,"i_long":106.84912},{"i_long":106.840169,"time":4,"distance":1590,"station_name":"Cikini","station_id":"CKI","line":2,"i_lat":-6.198556,"transit":false,"is_transit":false},{"station_id":"GDD","i_long":106.832183,"transit":false,"distance":1750,"is_transit":false,"station_name":"Gondangdia","i_lat":-6.186295,"time":3,"line":2},{"line":2,"transit":false,"time":4,"station_id":"JUA","is_transit":false,"i_long":106.828284,"distance":2015,"i_lat":-6.166716,"station_name":"Juanda"},{"transit":false,"time":2,"station_name":"Sawah Besar","is_transit":false,"i_long":106.827103,"line":2,"distance":1149,"station_id":"SW","i_lat":-6.160725},{"is_transit":false,"i_long":106.82482,"i_lat":-6.149769,"time":2,"line":2,"station_name":"Manggabesar","distance":906,"station_id":"MGB","transit":false},{"is_transit":false,"station_name":"Jayakarta","line":2,"time":2,"i_lat":-6.141205,"distance":1080,"station_id":"JAY","i_long":106.820901,"transit":false},{"transit":true,"station_id":"JAKK","i_long":106.812439,"distance":1264,"line":2,"i_lat":-6.137569,"time":4,"station_name":"Jakarta Kota","is_transit":true},{"time":3,"transit":true,"i_lat":-6.132549,"station_name":"Kampung Bandan","i_long":106.826365,"line":4,"is_transit":true,"distance":1364,"station_id":"KPB"},{"is_transit":false,"transit":false,"station_id":"RJW","station_name":"Rajawali","distance":1444,"i_long":106.836569,"i_lat":-6.14505,"time":3,"line":11},{"station_name":"Kemayoran","time":5,"line":11,"station_id":"KMO","transit":false,"distance":1901,"i_lat":-6.161728,"is_transit":false,"i_long":106.839204},{"is_transit":false,"transit":false,"station_id":"PSE","station_name":"Pasar Senen","i_long":106.84368,"line":11,"time":4,"distance":1436,"i_lat":-6.174784},{"line":11,"transit":false,"time":8,"is_transit":false,"station_name":"Gang Sentiong","station_id":"GST","i_long":106.850107,"i_lat":-6.185975,"distance":1567},{"line":11,"distance":973,"transit":false,"station_name":"Kramat","i_long":106.855437,"is_transit":false,"station_id":"KMT","i_lat":-6.193792,"time":1},{"i_lat":-6.209188,"station_name":"Pondok Jati","time":2,"transit":false,"station_id":"POK","i_long":106.861737,"line":11,"distance":1829,"is_transit":false},{"time":9,"station_name":"Jatinegara","is_transit":true,"distance":1236,"transit":true,"line":1,"i_lat":-6.215091,"i_long":106.86807400000001,"station_id":"JNG"},{"i_long":106.899548,"time":3,"transit":false,"distance":3395,"i_lat":-6.2135,"station_id":"KLD","station_name":"Klender","is_transit":false,"line":1}]]}