{"data":[[{"i_long":106.851978,"station_id":"CBN","transit":false,"distance":0,"is_transit":false,"time":0,"i_lat":-6.46424,"station_name":"Cibinong","line":21},{"station_name":"Pondok Rajeg","time":0,"distance":0,"station_id":"PDRG","i_lat":-6.460735,"line":21,"i_long":106.824374,"transit":false,"is_transit":false},{"station_id":"CTA","i_long":106.800298,"station_name":"Citayam","is_transit":true,"i_lat":-6.448811,"line":2,"time":0,"transit":true,"distance":0},{"i_lat":-6.405256,"is_transit":false,"station_id":"DP","i_long":106.816926,"station_name":"Depok","transit":false,"line":2,"time":6,"distance":5084},{"i_lat":-6.391065,"transit":false,"distance":1584,"station_name":"Depokbaru","i_long":106.819451,"is_transit":false,"station_id":"DPB","line":2,"time":3},{"station_name":"Pondok Cina","line":2,"distance":2727,"i_lat":-6.369073,"time":4,"i_long":106.831114,"station_id":"POC","is_transit":false,"transit":false},{"distance":1109,"i_lat":-6.360749,"station_name":"Univ. Indonesia","i_long":106.831474,"transit":false,"time":2,"station_id":"UI","is_transit":false,"line":2},{"distance":2264,"i_lat":-6.339291,"transit":false,"station_name":"Univ. Pancasila","i_long":106.834175,"line":2,"time":3,"station_id":"UP","is_transit":false},{"i_lat":-6.330363,"i_long":106.832616,"distance":1029,"station_id":"LNA","line":2,"transit":false,"station_name":"Lenteng Agung","is_transit":false,"time":2},{"time":3,"station_id":"TNT","is_transit":false,"line":2,"transit":false,"i_lat":-6.3080680000000005,"i_long":106.838896,"distance":2671,"station_name":"Tanjung Barat"},{"line":2,"is_transit":false,"distance":2820,"transit":false,"i_long":106.843999,"time":4,"station_id":"PSM","station_name":"Pasar Minggu","i_lat":-6.2842400000000005},{"is_transit":false,"line":2,"time":2,"transit":false,"station_name":"Pasar Minggu Baru","i_lat":-6.263214,"station_id":"PSMB","i_long":106.851577,"distance":2380},{"time":2,"station_name":"Duren Kalibata","is_transit":false,"i_lat":-6.255332,"i_long":106.85449,"line":2,"distance":824,"transit":false,"station_id":"DRN"},{"transit":false,"i_long":106.856607,"is_transit":false,"time":3,"station_name":"Cawang","i_lat":-6.242512,"line":2,"distance":1546,"station_id":"CW"},{"time":2,"station_id":"TEB","line":2,"transit":false,"distance":1230,"i_lat":-6.226659,"station_name":"Tebet","is_transit":false,"i_long":106.857948},{"station_name":"Manggarai","is_transit":true,"time":4,"transit":true,"i_lat":-6.209883,"line":2,"station_id":"MRI","distance":2610,"i_long":106.84912},{"station_id":"MTR","time":2,"distance":1275,"transit":false,"station_name":"Matraman","is_transit":false,"i_long":106.858896,"line":1,"i_lat":-6.212485},{"i_long":106.86807400000001,"line":1,"distance":1377,"station_id":"JNG","time":8,"station_name":"Jatinegara","is_transit":true,"i_lat":-6.215091,"transit":true},{"distance":1236,"is_transit":false,"station_name":"Pondok Jati","time":2,"transit":false,"station_id":"POK","i_long":106.861737,"i_lat":-6.209188,"line":11},{"is_transit":false,"distance":1829,"station_name":"Kramat","i_long":106.855437,"line":11,"i_lat":-6.193792,"time":2,"transit":false,"station_id":"KMT"}],[{"time":0,"i_long":106.851978,"i_lat":-6.46424,"transit":false,"station_id":"CBN","is_transit":false,"line":21,"distance":0,"station_name":"Cibinong"},{"station_name":"Pondok Rajeg","line":21,"transit":false,"station_id":"PDRG","distance":0,"time":0,"is_transit":false,"i_long":106.824374,"i_lat":-6.460735},{"station_id":"CTA","line":2,"time":0,"station_name":"Citayam","is_transit":true,"transit":true,"i_long":106.800298,"i_lat":-6.448811,"distance":0},{"i_long":106.816926,"station_id":"DP","transit":false,"time":6,"station_name":"Depok","is_transit":false,"distance":5084,"i_lat":-6.405256,"line":2},{"i_lat":-6.391065,"i_long":106.819451,"line":2,"transit":false,"distance":1584,"is_transit":false,"station_name":"Depokbaru","time":3,"station_id":"DPB"},{"is_transit":false,"distance":2727,"station_name":"Pondok Cina","time":4,"i_lat":-6.369073,"station_id":"POC","line":2,"transit":false,"i_long":106.831114},{"is_transit":false,"station_name":"Univ. Indonesia","i_lat":-6.360749,"line":2,"time":2,"distance":1109,"i_long":106.831474,"transit":false,"station_id":"UI"},{"i_long":106.834175,"i_lat":-6.339291,"line":2,"transit":false,"station_id":"UP","time":3,"station_name":"Univ. Pancasila","is_transit":false,"distance":2264},{"is_transit":false,"distance":1029,"transit":false,"i_long":106.832616,"line":2,"i_lat":-6.330363,"time":2,"station_name":"Lenteng Agung","station_id":"LNA"},{"line":2,"transit":false,"i_long":106.838896,"time":3,"distance":2671,"station_name":"Tanjung Barat","station_id":"TNT","is_transit":false,"i_lat":-6.3080680000000005},{"transit":false,"i_long":106.843999,"line":2,"station_name":"Pasar Minggu","time":4,"distance":2820,"station_id":"PSM","is_transit":false,"i_lat":-6.2842400000000005},{"distance":2380,"is_transit":false,"time":2,"i_lat":-6.263214,"station_id":"PSMB","i_long":106.851577,"line":2,"station_name":"Pasar Minggu Baru","transit":false},{"time":2,"transit":false,"station_name":"Duren Kalibata","i_lat":-6.255332,"i_long":106.85449,"is_transit":false,"distance":824,"line":2,"station_id":"DRN"},{"time":3,"line":2,"transit":false,"i_lat":-6.242512,"is_transit":false,"i_long":106.856607,"distance":1546,"station_id":"CW","station_name":"Cawang"},{"line":2,"is_transit":false,"transit":false,"station_name":"Tebet","i_lat":-6.226659,"time":2,"distance":1230,"station_id":"TEB","i_long":106.857948},{"i_long":106.84912,"line":2,"transit":true,"time":4,"distance":2610,"station_name":"Manggarai","station_id":"MRI","is_transit":true,"i_lat":-6.209883},{"station_name":"Sudirman","is_transit":false,"station_id":"SUD","i_lat":-6.202263,"i_long":106.822649,"transit":false,"time":4,"line":1,"distance":3186},{"i_lat":-6.201433,"station_name":"Sudirman Baru","distance":280,"i_long":106.819881,"line":1,"time":1,"station_id":"SUDB","transit":false,"is_transit":false},{"transit":false,"time":1,"distance":471,"i_lat":-6.20132,"station_id":"KAT","station_name":"Karet","line":1,"i_long":106.816351,"is_transit":false},{"station_name":"Tanah Abang","is_transit":false,"i_lat":-6.185545,"i_long":106.811091,"line":1,"time":5,"transit":false,"distance":2029,"station_id":"THB"},{"station_id":"DU","station_name":"Duri","is_transit":false,"time":8,"i_lat":-6.155215,"distance":3632,"transit":false,"line":1,"i_long":106.800832},{"station_id":"AK","line":1,"is_transit":false,"i_long":106.79867,"i_lat":-6.144674,"distance":1230,"transit":false,"station_name":"Angke","time":4},{"transit":true,"is_transit":true,"distance":4102,"station_id":"KPB","time":9,"station_name":"Kampung Bandan","i_long":106.826365,"line":4,"i_lat":-6.132549},{"i_lat":-6.14505,"time":3,"distance":1444,"transit":false,"station_id":"RJW","is_transit":false,"station_name":"Rajawali","i_long":106.836569,"line":11},{"i_lat":-6.161728,"station_name":"Kemayoran","distance":1901,"station_id":"KMO","i_long":106.839204,"transit":false,"time":5,"is_transit":false,"line":11},{"is_transit":false,"i_long":106.84368,"line":11,"distance":1436,"station_id":"PSE","transit":false,"i_lat":-6.174784,"time":4,"station_name":"Pasar Senen"},{"line":11,"i_long":106.850107,"is_transit":false,"time":8,"i_lat":-6.185975,"distance":1567,"transit":false,"station_id":"GST","station_name":"Gang Sentiong"},{"i_long":106.855437,"station_name":"Kramat","i_lat":-6.193792,"station_id":"KMT","line":11,"is_transit":false,"time":1,"transit":false,"distance":973}],[{"transit":false,"time":0,"station_id":"CBN","i_lat":-6.46424,"is_transit":false,"station_name":"Cibinong","line":21,"distance":0,"i_long":106.851978},{"station_id":"PDRG","i_lat":-6.460735,"time":0,"transit":false,"is_transit":false,"line":21,"station_name":"Pondok Rajeg","i_long":106.824374,"distance":0},{"is_transit":true,"line":2,"station_id":"CTA","distance":0,"time":0,"i_long":106.800298,"station_name":"Citayam","i_lat":-6.448811,"transit":true},{"transit":false,"is_transit":false,"i_lat":-6.405256,"time":6,"station_id":"DP","i_long":106.816926,"line":2,"distance":5084,"station_name":"Depok"},{"distance":1584,"station_id":"DPB","station_name":"Depokbaru","i_long":106.819451,"i_lat":-6.391065,"line":2,"transit":false,"time":3,"is_transit":false},{"distance":2727,"i_long":106.831114,"station_name":"Pondok Cina","is_transit":false,"line":2,"time":4,"transit":false,"station_id":"POC","i_lat":-6.369073},{"i_lat":-6.360749,"is_transit":false,"time":2,"line":2,"distance":1109,"station_id":"UI","transit":false,"i_long":106.831474,"station_name":"Univ. Indonesia"},{"i_lat":-6.339291,"distance":2264,"is_transit":false,"line":2,"transit":false,"station_id":"UP","i_long":106.834175,"time":3,"station_name":"Univ. Pancasila"},{"station_name":"Lenteng Agung","is_transit":false,"line":2,"distance":1029,"time":2,"station_id":"LNA","i_lat":-6.330363,"i_long":106.832616,"transit":false},{"time":3,"station_id":"TNT","distance":2671,"is_transit":false,"i_lat":-6.3080680000000005,"transit":false,"station_name":"Tanjung Barat","i_long":106.838896,"line":2},{"time":4,"transit":false,"station_id":"PSM","i_long":106.843999,"i_lat":-6.2842400000000005,"is_transit":false,"line":2,"station_name":"Pasar Minggu","distance":2820},{"distance":2380,"station_id":"PSMB","is_transit":false,"time":2,"transit":false,"i_lat":-6.263214,"line":2,"i_long":106.851577,"station_name":"Pasar Minggu Baru"},{"time":2,"transit":false,"station_id":"DRN","distance":824,"station_name":"Duren Kalibata","i_lat":-6.255332,"is_transit":false,"i_long":106.85449,"line":2},{"station_id":"CW","distance":1546,"i_lat":-6.242512,"i_long":106.856607,"line":2,"station_name":"Cawang","time":3,"transit":false,"is_transit":false},{"i_lat":-6.226659,"line":2,"transit":false,"distance":1230,"time":2,"station_id":"TEB","i_long":106.857948,"station_name":"Tebet","is_transit":false},{"station_name":"Manggarai","i_lat":-6.209883,"time":4,"station_id":"MRI","is_transit":false,"i_long":106.84912,"line":2,"transit":false,"distance":2610},{"i_lat":-6.198556,"station_name":"Cikini","time":4,"distance":1590,"transit":false,"is_transit":false,"station_id":"CKI","line":2,"i_long":106.840169},{"i_long":106.832183,"transit":false,"station_id":"GDD","line":2,"distance":1750,"i_lat":-6.186295,"station_name":"Gondangdia","time":3,"is_transit":false},{"time":4,"is_transit":false,"i_long":106.828284,"station_id":"JUA","line":2,"i_lat":-6.166716,"distance":2015,"transit":false,"station_name":"Juanda"},{"i_lat":-6.160725,"transit":false,"time":2,"i_long":106.827103,"station_id":"SW","line":2,"station_name":"Sawah Besar","distance":1149,"is_transit":false},{"station_id":"MGB","station_name":"Manggabesar","distance":906,"is_transit":false,"i_long":106.82482,"line":2,"transit":false,"time":2,"i_lat":-6.149769},{"distance":1080,"station_id":"JAY","station_name":"Jayakarta","i_lat":-6.141205,"line":2,"transit":false,"time":2,"is_transit":false,"i_long":106.820901},{"i_lat":-6.137569,"is_transit":true,"transit":true,"line":2,"i_long":106.812439,"station_id":"JAKK","time":4,"distance":1264,"station_name":"Jakarta Kota"},{"station_name":"Kampung Bandan","station_id":"KPB","distance":1364,"line":4,"i_lat":-6.132549,"time":3,"i_long":106.826365,"transit":true,"is_transit":true},{"distance":1444,"i_long":106.836569,"transit":false,"station_name":"Rajawali","time":3,"station_id":"RJW","is_transit":false,"i_lat":-6.14505,"line":11},{"time":5,"is_transit":false,"distance":1901,"station_id":"KMO","transit":false,"i_lat":-6.161728,"station_name":"Kemayoran","line":11,"i_long":106.839204},{"station_id":"PSE","line":11,"station_name":"Pasar Senen","is_transit":false,"i_lat":-6.174784,"i_long":106.84368,"transit":false,"distance":1436,"time":4},{"time":8,"i_lat":-6.185975,"i_long":106.850107,"transit":false,"distance":1567,"is_transit":false,"station_id":"GST","station_name":"Gang Sentiong","line":11},{"time":1,"station_name":"Kramat","i_long":106.855437,"transit":false,"distance":973,"station_id":"KMT","i_lat":-6.193792,"line":11,"is_transit":false}]]}