{"data":[[{"station_name":"Cibinong","time":0,"transit":false,"distance":0,"is_transit":false,"line":21,"station_id":"CBN","i_lat":-6.46424,"i_long":106.851978},{"distance":0,"time":0,"i_long":106.824374,"is_transit":false,"transit":false,"station_id":"PDRG","line":21,"station_name":"Pondok Rajeg","i_lat":-6.460735},{"line":2,"time":0,"transit":true,"station_name":"Citayam","station_id":"CTA","distance":0,"i_lat":-6.448811,"is_transit":true,"i_long":106.800298},{"line":2,"transit":false,"distance":5084,"i_lat":-6.405256,"station_id":"DP","i_long":106.816926,"is_transit":false,"time":6,"station_name":"Depok"},{"time":3,"i_long":106.819451,"transit":false,"is_transit":false,"line":2,"station_id":"DPB","distance":1584,"station_name":"Depokbaru","i_lat":-6.391065},{"station_id":"POC","line":2,"time":4,"i_lat":-6.369073,"station_name":"Pondok Cina","transit":false,"i_long":106.831114,"is_transit":false,"distance":2727},{"time":2,"i_lat":-6.360749,"station_id":"UI","distance":1109,"is_transit":false,"line":2,"station_name":"Univ. Indonesia","i_long":106.831474,"transit":false},{"time":3,"is_transit":false,"station_id":"UP","i_long":106.834175,"i_lat":-6.339291,"distance":2264,"line":2,"station_name":"Univ. Pancasila","transit":false},{"i_long":106.832616,"transit":false,"is_transit":false,"distance":1029,"line":2,"time":2,"station_id":"LNA","station_name":"Lenteng Agung","i_lat":-6.330363},{"time":3,"i_lat":-6.3080680000000005,"transit":false,"station_name":"Tanjung Barat","i_long":106.838896,"line":2,"distance":2671,"station_id":"TNT","is_transit":false},{"line":2,"i_lat":-6.2842400000000005,"station_name":"Pasar Minggu","time":4,"is_transit":false,"station_id":"PSM","transit":false,"i_long":106.843999,"distance":2820},{"is_transit":false,"time":2,"line":2,"station_id":"PSMB","i_long":106.851577,"station_name":"Pasar Minggu Baru","i_lat":-6.263214,"distance":2380,"transit":false},{"time":2,"i_lat":-6.255332,"station_name":"Duren Kalibata","transit":false,"distance":824,"i_long":106.85449,"station_id":"DRN","line":2,"is_transit":false},{"station_name":"Cawang","is_transit":false,"time":3,"i_lat":-6.242512,"distance":1546,"transit":false,"i_long":106.856607,"station_id":"CW","line":2},{"i_long":106.857948,"distance":1230,"station_id":"TEB","transit":false,"line":2,"station_name":"Tebet","time":2,"i_lat":-6.226659,"is_transit":false},{"transit":false,"station_id":"MRI","time":4,"is_transit":false,"line":2,"station_name":"Manggarai","i_lat":-6.209883,"distance":2610,"i_long":106.84912}]]}