{"data":[[{"i_long":106.851978,"station_name":"Cibinong","line":21,"transit":false,"station_id":"CBN","is_transit":false,"distance":0,"i_lat":-6.46424,"time":0},{"station_id":"PDRG","is_transit":false,"distance":0,"i_long":106.824374,"time":0,"station_name":"Pondok Rajeg","transit":false,"i_lat":-6.460735,"line":21},{"time":0,"i_lat":-6.448811,"distance":0,"transit":true,"i_long":106.800298,"is_transit":true,"line":2,"station_name":"Citayam","station_id":"CTA"},{"time":6,"station_name":"Depok","is_transit":false,"transit":false,"station_id":"DP","i_lat":-6.405256,"i_long":106.816926,"distance":5084,"line":2},{"station_id":"DPB","station_name":"Depokbaru","distance":1584,"transit":false,"is_transit":false,"time":3,"i_lat":-6.391065,"i_long":106.819451,"line":2},{"time":4,"station_id":"POC","station_name":"Pondok Cina","i_lat":-6.369073,"i_long":106.831114,"line":2,"distance":2727,"is_transit":false,"transit":false},{"is_transit":false,"line":2,"time":2,"distance":1109,"i_long":106.831474,"station_id":"UI","transit":false,"station_name":"Univ. Indonesia","i_lat":-6.360749},{"distance":2264,"line":2,"is_transit":false,"station_id":"UP","time":3,"station_name":"Univ. Pancasila","i_lat":-6.339291,"i_long":106.834175,"transit":false},{"station_id":"LNA","i_lat":-6.330363,"transit":false,"station_name":"Lenteng Agung","is_transit":false,"time":2,"i_long":106.832616,"line":2,"distance":1029},{"time":3,"line":2,"station_id":"TNT","i_long":106.838896,"transit":false,"is_transit":false,"station_name":"Tanjung Barat","distance":2671,"i_lat":-6.3080680000000005},{"transit":false,"i_long":106.843999,"distance":2820,"time":4,"i_lat":-6.2842400000000005,"station_id":"PSM","station_name":"Pasar Minggu","line":2,"is_transit":false},{"station_id":"PSMB","station_name":"Pasar Minggu Baru","i_lat":-6.263214,"i_long":106.851577,"line":2,"transit":false,"distance":2380,"time":2,"is_transit":false},{"is_transit":false,"line":2,"time":2,"i_lat":-6.255332,"i_long":106.85449,"distance":824,"station_id":"DRN","station_name":"Duren Kalibata","transit":false},{"station_name":"Cawang","distance":1546,"time":3,"line":2,"station_id":"CW","i_lat":-6.242512,"transit":false,"i_long":106.856607,"is_transit":false},{"i_lat":-6.226659,"line":2,"distance":1230,"station_id":"TEB","i_long":106.857948,"station_name":"Tebet","time":2,"transit":false,"is_transit":false},{"i_lat":-6.209883,"time":4,"transit":true,"distance":2610,"station_id":"MRI","station_name":"Manggarai","line":2,"is_transit":true,"i_long":106.84912},{"distance":1275,"station_id":"MTR","i_long":106.858896,"transit":false,"is_transit":false,"station_name":"Matraman","i_lat":-6.212485,"time":2,"line":1},{"time":8,"i_long":106.86807400000001,"distance":1377,"is_transit":false,"line":1,"station_name":"Jatinegara","station_id":"JNG","i_lat":-6.215091,"transit":false},{"station_name":"Klender","transit":false,"i_long":106.899548,"time":3,"station_id":"KLD","line":1,"distance":3395,"is_transit":false,"i_lat":-6.2135},{"i_long":106.922662,"line":1,"station_name":"Buaran","station_id":"BUA","transit":false,"is_transit":false,"distance":3100,"time":2,"i_lat":-6.215568},{"distance":1305,"transit":false,"time":1,"i_long":106.939679,"station_name":"Klenderbaru","is_transit":false,"line":1,"i_lat":-6.217455,"station_id":"KLDB"},{"i_lat":-6.219053,"i_long":106.951283,"time":8,"line":1,"is_transit":false,"distance":1385,"transit":false,"station_name":"Cakung","station_id":"CUK"},{"station_name":"Kranji","distance":3097,"transit":false,"i_long":106.977657,"is_transit":false,"line":1,"station_id":"KRI","time":3,"i_lat":-6.224515},{"i_lat":-6.236616,"distance":2520,"station_name":"Bekasi","station_id":"BKS","time":4,"is_transit":false,"i_long":106.997013,"line":1,"transit":false},{"i_long":107.016735,"time":2,"station_id":"BKST","i_lat":-6.248029,"is_transit":false,"distance":2368,"station_name":"Bekasi Timur","transit":false,"line":1}],[{"i_lat":-6.46424,"line":21,"is_transit":false,"station_name":"Cibinong","i_long":106.851978,"distance":0,"station_id":"CBN","transit":false,"time":0},{"i_lat":-6.460735,"time":0,"station_id":"PDRG","line":21,"is_transit":false,"distance":0,"station_name":"Pondok Rajeg","transit":false,"i_long":106.824374},{"station_name":"Citayam","time":0,"is_transit":true,"i_lat":-6.448811,"i_long":106.800298,"line":2,"transit":true,"distance":0,"station_id":"CTA"},{"i_long":106.816926,"is_transit":false,"distance":5084,"station_name":"Depok","station_id":"DP","time":6,"transit":false,"line":2,"i_lat":-6.405256},{"is_transit":false,"transit":false,"station_id":"DPB","line":2,"distance":1584,"time":3,"i_long":106.819451,"station_name":"Depokbaru","i_lat":-6.391065},{"distance":2727,"time":4,"i_lat":-6.369073,"station_id":"POC","i_long":106.831114,"line":2,"is_transit":false,"station_name":"Pondok Cina","transit":false},{"is_transit":false,"distance":1109,"i_lat":-6.360749,"time":2,"i_long":106.831474,"station_id":"UI","transit":false,"line":2,"station_name":"Univ. Indonesia"},{"station_id":"UP","station_name":"Univ. Pancasila","i_long":106.834175,"line":2,"time":3,"i_lat":-6.339291,"is_transit":false,"transit":false,"distance":2264},{"station_id":"LNA","i_long":106.832616,"transit":false,"i_lat":-6.330363,"is_transit":false,"distance":1029,"line":2,"station_name":"Lenteng Agung","time":2},{"i_long":106.838896,"time":3,"line":2,"is_transit":false,"i_lat":-6.3080680000000005,"distance":2671,"station_id":"TNT","station_name":"Tanjung Barat","transit":false},{"is_transit":false,"i_lat":-6.2842400000000005,"time":4,"station_name":"Pasar Minggu","distance":2820,"i_long":106.843999,"station_id":"PSM","line":2,"transit":false},{"line":2,"i_long":106.851577,"is_transit":false,"station_name":"Pasar Minggu Baru","i_lat":-6.263214,"transit":false,"time":2,"station_id":"PSMB","distance":2380},{"station_id":"DRN","is_transit":false,"station_name":"Duren Kalibata","i_long":106.85449,"time":2,"i_lat":-6.255332,"distance":824,"line":2,"transit":false},{"station_id":"CW","station_name":"Cawang","time":3,"i_lat":-6.242512,"transit":false,"distance":1546,"i_long":106.856607,"line":2,"is_transit":false},{"distance":1230,"station_name":"Tebet","transit":false,"is_transit":false,"i_long":106.857948,"i_lat":-6.226659,"station_id":"TEB","time":2,"line":2},{"line":2,"station_id":"MRI","is_transit":true,"distance":2610,"i_long":106.84912,"station_name":"Manggarai","transit":true,"time":4,"i_lat":-6.209883},{"line":1,"i_lat":-6.202263,"distance":3186,"station_name":"Sudirman","station_id":"SUD","transit":false,"time":4,"i_long":106.822649,"is_transit":false},{"transit":false,"i_long":106.819881,"station_id":"SUDB","time":1,"i_lat":-6.201433,"distance":280,"line":1,"station_name":"Sudirman Baru","is_transit":false},{"distance":471,"transit":false,"i_lat":-6.20132,"station_name":"Karet","is_transit":false,"time":1,"i_long":106.816351,"station_id":"KAT","line":1},{"station_id":"THB","distance":2029,"is_transit":false,"station_name":"Tanah Abang","i_lat":-6.185545,"time":5,"i_long":106.811091,"line":1,"transit":false},{"station_id":"DU","is_transit":false,"transit":false,"station_name":"Duri","i_lat":-6.155215,"i_long":106.800832,"line":1,"time":8,"distance":3632},{"line":1,"time":4,"i_long":106.79867,"distance":1230,"transit":false,"station_id":"AK","station_name":"Angke","is_transit":false,"i_lat":-6.144674},{"transit":true,"distance":4102,"is_transit":true,"time":9,"station_name":"Kampung Bandan","i_lat":-6.132549,"line":4,"i_long":106.826365,"station_id":"KPB"},{"i_long":106.836569,"is_transit":false,"station_name":"Rajawali","time":3,"transit":false,"line":11,"i_lat":-6.14505,"station_id":"RJW","distance":1444},{"time":5,"transit":false,"i_long":106.839204,"is_transit":false,"line":11,"i_lat":-6.161728,"station_id":"KMO","station_name":"Kemayoran","distance":1901},{"distance":1436,"i_long":106.84368,"station_name":"Pasar Senen","is_transit":false,"time":4,"transit":false,"i_lat":-6.174784,"line":11,"station_id":"PSE"},{"line":11,"station_name":"Gang Sentiong","station_id":"GST","distance":1567,"time":8,"i_long":106.850107,"transit":false,"i_lat":-6.185975,"is_transit":false},{"station_id":"KMT","i_lat":-6.193792,"is_transit":false,"transit":false,"time":1,"station_name":"Kramat","distance":973,"line":11,"i_long":106.855437},{"distance":1829,"transit":false,"is_transit":false,"i_lat":-6.209188,"i_long":106.861737,"station_name":"Pondok Jati","station_id":"POK","time":2,"line":11},{"is_transit":true,"line":1,"i_lat":-6.215091,"station_name":"Jatinegara","station_id":"JNG","distance":1236,"transit":true,"time":9,"i_long":106.86807400000001},{"transit":false,"is_transit":false,"distance":3395,"i_lat":-6.2135,"station_id":"KLD","time":3,"station_name":"Klender","line":1,"i_long":106.899548},{"time":2,"transit":false,"distance":3100,"station_name":"Buaran","is_transit":false,"station_id":"BUA","i_long":106.922662,"line":1,"i_lat":-6.215568},{"transit":false,"i_long":106.939679,"time":1,"line":1,"station_id":"KLDB","is_transit":false,"distance":1305,"i_lat":-6.217455,"station_name":"Klenderbaru"},{"station_name":"Cakung","i_lat":-6.219053,"i_long":106.951283,"time":8,"is_transit":false,"transit":false,"line":1,"distance":1385,"station_id":"CUK"},{"i_lat":-6.224515,"i_long":106.977657,"station_name":"Kranji","is_transit":false,"distance":3097,"station_id":"KRI","time":3,"transit":false,"line":1},{"station_name":"Bekasi","i_lat":-6.236616,"distance":2520,"line":1,"transit":false,"is_transit":false,"time":4,"i_long":106.997013,"station_id":"BKS"},{"line":1,"transit":false,"distance":2368,"i_lat":-6.248029,"station_name":"Bekasi Timur","i_long":107.016735,"is_transit":false,"station_id":"BKST","time":2}],[{"i_lat":-6.46424,"i_long":106.851978,"is_transit":false,"time":0,"station_id":"CBN","station_name":"Cibinong","transit":false,"line":21,"distance":0},{"time":0,"is_transit":false,"distance":0,"line":21,"i_lat":-6.460735,"station_id":"PDRG","station_name":"Pondok Rajeg","transit":false,"i_long":106.824374},{"i_lat":-6.448811,"distance":0,"time":0,"line":2,"is_transit":true,"station_name":"Citayam","station_id":"CTA","transit":true,"i_long":106.800298},{"line":2,"distance":5084,"is_transit":false,"i_long":106.816926,"time":6,"station_name":"Depok","i_lat":-6.405256,"transit":false,"station_id":"DP"},{"transit":false,"time":3,"line":2,"station_id":"DPB","is_transit":false,"i_lat":-6.391065,"station_name":"Depokbaru","i_long":106.819451,"distance":1584},{"transit":false,"distance":2727,"station_name":"Pondok Cina","station_id":"POC","is_transit":false,"time":4,"i_lat":-6.369073,"i_long":106.831114,"line":2},{"is_transit":false,"i_long":106.831474,"transit":false,"line":2,"distance":1109,"station_id":"UI","time":2,"i_lat":-6.360749,"station_name":"Univ. Indonesia"},{"station_id":"UP","distance":2264,"station_name":"Univ. Pancasila","time":3,"transit":false,"i_long":106.834175,"line":2,"is_transit":false,"i_lat":-6.339291},{"station_id":"LNA","distance":1029,"i_lat":-6.330363,"transit":false,"i_long":106.832616,"time":2,"line":2,"station_name":"Lenteng Agung","is_transit":false},{"transit":false,"is_transit":false,"line":2,"station_name":"Tanjung Barat","station_id":"TNT","time":3,"distance":2671,"i_long":106.838896,"i_lat":-6.3080680000000005},{"is_transit":false,"i_long":106.843999,"station_id":"PSM","time":4,"i_lat":-6.2842400000000005,"line":2,"transit":false,"station_name":"Pasar Minggu","distance":2820},{"distance":2380,"station_id":"PSMB","station_name":"Pasar Minggu Baru","is_transit":false,"time":2,"i_lat":-6.263214,"line":2,"transit":false,"i_long":106.851577},{"is_transit":false,"station_name":"Duren Kalibata","i_lat":-6.255332,"station_id":"DRN","line":2,"transit":false,"i_long":106.85449,"distance":824,"time":2},{"distance":1546,"transit":false,"station_id":"CW","station_name":"Cawang","line":2,"time":3,"is_transit":false,"i_lat":-6.242512,"i_long":106.856607},{"time":2,"station_id":"TEB","i_lat":-6.226659,"station_name":"Tebet","transit":false,"i_long":106.857948,"distance":1230,"line":2,"is_transit":false},{"transit":false,"distance":2610,"station_id":"MRI","is_transit":false,"time":4,"station_name":"Manggarai","i_long":106.84912,"i_lat":-6.209883,"line":2},{"is_transit":false,"station_id":"CKI","i_lat":-6.198556,"line":2,"station_name":"Cikini","i_long":106.840169,"transit":false,"time":4,"distance":1590},{"is_transit":false,"time":3,"distance":1750,"line":2,"i_lat":-6.186295,"station_id":"GDD","station_name":"Gondangdia","i_long":106.832183,"transit":false},{"station_id":"JUA","is_transit":false,"time":4,"distance":2015,"line":2,"i_lat":-6.166716,"station_name":"Juanda","transit":false,"i_long":106.828284},{"distance":1149,"station_name":"Sawah Besar","line":2,"station_id":"SW","transit":false,"i_long":106.827103,"i_lat":-6.160725,"time":2,"is_transit":false},{"time":2,"station_id":"MGB","station_name":"Manggabesar","i_long":106.82482,"is_transit":false,"line":2,"i_lat":-6.149769,"distance":906,"transit":false},{"distance":1080,"time":2,"line":2,"transit":false,"is_transit":false,"station_name":"Jayakarta","i_lat":-6.141205,"i_long":106.820901,"station_id":"JAY"},{"transit":true,"station_name":"Jakarta Kota","i_long":106.812439,"line":2,"time":4,"is_transit":true,"distance":1264,"i_lat":-6.137569,"station_id":"JAKK"},{"station_id":"KPB","distance":1364,"station_name":"Kampung Bandan","transit":true,"i_lat":-6.132549,"i_long":106.826365,"line":4,"is_transit":true,"time":3},{"station_id":"RJW","station_name":"Rajawali","line":11,"is_transit":false,"time":3,"i_lat":-6.14505,"i_long":106.836569,"distance":1444,"transit":false},{"i_long":106.839204,"station_name":"Kemayoran","distance":1901,"is_transit":false,"transit":false,"i_lat":-6.161728,"station_id":"KMO","time":5,"line":11},{"station_name":"Pasar Senen","i_long":106.84368,"station_id":"PSE","is_transit":false,"i_lat":-6.174784,"line":11,"transit":false,"time":4,"distance":1436},{"is_transit":false,"line":11,"transit":false,"station_id":"GST","station_name":"Gang Sentiong","i_lat":-6.185975,"distance":1567,"time":8,"i_long":106.850107},{"transit":false,"time":1,"station_id":"KMT","is_transit":false,"i_lat":-6.193792,"i_long":106.855437,"station_name":"Kramat","line":11,"distance":973},{"line":11,"distance":1829,"station_name":"Pondok Jati","i_lat":-6.209188,"time":2,"station_id":"POK","transit":false,"is_transit":false,"i_long":106.861737},{"station_name":"Jatinegara","transit":true,"is_transit":true,"i_lat":-6.215091,"time":9,"i_long":106.86807400000001,"distance":1236,"line":1,"station_id":"JNG"},{"time":3,"station_id":"KLD","station_name":"Klender","distance":3395,"line":1,"transit":false,"is_transit":false,"i_lat":-6.2135,"i_long":106.899548},{"i_long":106.922662,"time":2,"is_transit":false,"i_lat":-6.215568,"distance":3100,"station_name":"Buaran","station_id":"BUA","transit":false,"line":1},{"station_name":"Klenderbaru","transit":false,"is_transit":false,"line":1,"time":1,"station_id":"KLDB","i_long":106.939679,"i_lat":-6.217455,"distance":1305},{"i_lat":-6.219053,"is_transit":false,"line":1,"distance":1385,"transit":false,"time":8,"station_name":"Cakung","i_long":106.951283,"station_id":"CUK"},{"distance":3097,"station_name":"Kranji","is_transit":false,"i_long":106.977657,"line":1,"transit":false,"i_lat":-6.224515,"station_id":"KRI","time":3},{"distance":2520,"transit":false,"i_long":106.997013,"time":4,"is_transit":false,"line":1,"station_id":"BKS","i_lat":-6.236616,"station_name":"Bekasi"},{"transit":false,"line":1,"distance":2368,"station_id":"BKST","station_name":"Bekasi Timur","is_transit":false,"time":2,"i_long":107.016735,"i_lat":-6.248029}]]}