{"data":[[{"station_id":"CBN","station_name":"Cibinong","line":21,"is_transit":false,"i_long":106.851978,"time":0,"transit":false,"i_lat":-6.46424,"distance":0},{"i_long":106.824374,"station_name":"Pondok Rajeg","distance":0,"is_transit":false,"time":0,"transit":false,"station_id":"PDRG","i_lat":-6.460735,"line":21},{"distance":0,"station_name":"Citayam","station_id":"CTA","transit":true,"time":0,"line":2,"is_transit":true,"i_lat":-6.448811,"i_long":106.800298},{"time":6,"line":2,"i_long":106.816926,"station_name":"Depok","is_transit":false,"transit":false,"i_lat":-6.405256,"distance":5084,"station_id":"DP"},{"station_name":"Depokbaru","station_id":"DPB","is_transit":false,"i_lat":-6.391065,"time":3,"transit":false,"i_long":106.819451,"line":2,"distance":1584},{"station_id":"POC","transit":false,"time":4,"i_lat":-6.369073,"distance":2727,"line":2,"is_transit":false,"station_name":"Pondok Cina","i_long":106.831114},{"distance":1109,"station_name":"Univ. Indonesia","is_transit":false,"station_id":"UI","i_lat":-6.360749,"time":2,"line":2,"i_long":106.831474,"transit":false},{"line":2,"station_id":"UP","is_transit":false,"i_long":106.834175,"distance":2264,"transit":false,"i_lat":-6.339291,"time":3,"station_name":"Univ. Pancasila"},{"station_name":"Lenteng Agung","is_transit":false,"time":2,"distance":1029,"transit":false,"i_long":106.832616,"station_id":"LNA","line":2,"i_lat":-6.330363},{"station_id":"TNT","transit":false,"station_name":"Tanjung Barat","line":2,"i_lat":-6.3080680000000005,"distance":2671,"is_transit":false,"i_long":106.838896,"time":3},{"is_transit":false,"station_name":"Pasar Minggu","i_long":106.843999,"transit":false,"time":4,"distance":2820,"station_id":"PSM","line":2,"i_lat":-6.2842400000000005},{"i_long":106.851577,"distance":2380,"i_lat":-6.263214,"is_transit":false,"station_name":"Pasar Minggu Baru","line":2,"time":2,"station_id":"PSMB","transit":false},{"station_id":"DRN","time":2,"transit":false,"distance":824,"i_lat":-6.255332,"is_transit":false,"i_long":106.85449,"line":2,"station_name":"Duren Kalibata"},{"time":3,"line":2,"transit":false,"station_id":"CW","is_transit":false,"distance":1546,"i_long":106.856607,"station_name":"Cawang","i_lat":-6.242512},{"time":2,"is_transit":false,"distance":1230,"i_lat":-6.226659,"line":2,"station_id":"TEB","station_name":"Tebet","i_long":106.857948,"transit":false},{"transit":true,"station_id":"MRI","distance":2610,"line":2,"station_name":"Manggarai","i_lat":-6.209883,"i_long":106.84912,"time":4,"is_transit":true},{"time":4,"line":1,"i_long":106.822649,"distance":3186,"is_transit":false,"station_name":"Sudirman","i_lat":-6.202263,"transit":false,"station_id":"SUD"},{"distance":280,"station_id":"SUDB","is_transit":false,"station_name":"Sudirman Baru","line":1,"transit":false,"i_lat":-6.201433,"time":1,"i_long":106.819881},{"station_id":"KAT","i_long":106.816351,"station_name":"Karet","i_lat":-6.20132,"distance":471,"is_transit":false,"time":1,"line":1,"transit":false},{"line":1,"i_long":106.811091,"station_name":"Tanah Abang","transit":false,"station_id":"THB","i_lat":-6.185545,"distance":2029,"time":5,"is_transit":false},{"i_long":106.800832,"time":8,"distance":3632,"station_id":"DU","is_transit":true,"line":1,"station_name":"Duri","i_lat":-6.155215,"transit":true},{"is_transit":false,"transit":false,"i_long":106.788277,"i_lat":-6.162021,"line":5,"time":3,"station_name":"Grogol","station_id":"GGL","distance":1700},{"station_id":"PSG","line":5,"transit":false,"i_lat":-6.161433,"is_transit":false,"station_name":"Pesing","distance":2036,"i_long":106.771379,"time":2},{"time":2,"i_long":106.756522,"station_id":"TKO","line":5,"transit":false,"i_lat":-6.1587309999999995,"distance":1614,"station_name":"Taman Kota","is_transit":false},{"i_lat":-6.159876,"distance":2334,"is_transit":false,"transit":false,"station_id":"BOI","i_long":106.737035,"time":2,"station_name":"Bojongindah","line":5}],[{"i_lat":-6.46424,"time":0,"station_id":"CBN","station_name":"Cibinong","line":21,"i_long":106.851978,"transit":false,"distance":0,"is_transit":false},{"line":21,"station_name":"Pondok Rajeg","transit":false,"distance":0,"station_id":"PDRG","i_long":106.824374,"time":0,"is_transit":false,"i_lat":-6.460735},{"station_id":"CTA","i_long":106.800298,"time":0,"transit":true,"distance":0,"line":2,"i_lat":-6.448811,"station_name":"Citayam","is_transit":true},{"distance":5084,"transit":false,"station_id":"DP","i_lat":-6.405256,"station_name":"Depok","line":2,"time":6,"is_transit":false,"i_long":106.816926},{"distance":1584,"i_lat":-6.391065,"i_long":106.819451,"station_id":"DPB","line":2,"is_transit":false,"time":3,"transit":false,"station_name":"Depokbaru"},{"is_transit":false,"i_lat":-6.369073,"station_name":"Pondok Cina","time":4,"transit":false,"distance":2727,"station_id":"POC","i_long":106.831114,"line":2},{"station_name":"Univ. Indonesia","station_id":"UI","i_long":106.831474,"distance":1109,"transit":false,"i_lat":-6.360749,"is_transit":false,"line":2,"time":2},{"transit":false,"is_transit":false,"i_lat":-6.339291,"time":3,"distance":2264,"station_name":"Univ. Pancasila","station_id":"UP","i_long":106.834175,"line":2},{"distance":1029,"transit":false,"time":2,"station_id":"LNA","is_transit":false,"i_lat":-6.330363,"i_long":106.832616,"line":2,"station_name":"Lenteng Agung"},{"transit":false,"station_name":"Tanjung Barat","station_id":"TNT","line":2,"i_long":106.838896,"time":3,"distance":2671,"is_transit":false,"i_lat":-6.3080680000000005},{"station_id":"PSM","station_name":"Pasar Minggu","transit":false,"time":4,"distance":2820,"is_transit":false,"i_lat":-6.2842400000000005,"i_long":106.843999,"line":2},{"station_name":"Pasar Minggu Baru","i_long":106.851577,"is_transit":false,"i_lat":-6.263214,"transit":false,"station_id":"PSMB","line":2,"time":2,"distance":2380},{"time":2,"transit":false,"station_name":"Duren Kalibata","i_long":106.85449,"i_lat":-6.255332,"line":2,"is_transit":false,"distance":824,"station_id":"DRN"},{"station_id":"CW","line":2,"i_lat":-6.242512,"time":3,"is_transit":false,"distance":1546,"transit":false,"station_name":"Cawang","i_long":106.856607},{"i_long":106.857948,"line":2,"time":2,"station_name":"Tebet","is_transit":false,"distance":1230,"station_id":"TEB","i_lat":-6.226659,"transit":false},{"station_id":"MRI","is_transit":false,"time":4,"line":2,"i_long":106.84912,"transit":false,"station_name":"Manggarai","i_lat":-6.209883,"distance":2610},{"i_lat":-6.198556,"is_transit":false,"time":4,"transit":false,"line":2,"distance":1590,"station_id":"CKI","i_long":106.840169,"station_name":"Cikini"},{"time":3,"i_lat":-6.186295,"line":2,"is_transit":false,"station_id":"GDD","station_name":"Gondangdia","i_long":106.832183,"transit":false,"distance":1750},{"station_name":"Juanda","is_transit":false,"line":2,"time":4,"transit":false,"station_id":"JUA","i_lat":-6.166716,"distance":2015,"i_long":106.828284},{"i_lat":-6.160725,"station_name":"Sawah Besar","i_long":106.827103,"is_transit":false,"line":2,"time":2,"distance":1149,"station_id":"SW","transit":false},{"time":2,"station_name":"Manggabesar","i_long":106.82482,"i_lat":-6.149769,"line":2,"transit":false,"station_id":"MGB","is_transit":false,"distance":906},{"distance":1080,"i_long":106.820901,"station_id":"JAY","time":2,"transit":false,"is_transit":false,"station_name":"Jayakarta","line":2,"i_lat":-6.141205},{"i_long":106.812439,"transit":true,"distance":1264,"line":2,"time":4,"i_lat":-6.137569,"is_transit":true,"station_name":"Jakarta Kota","station_id":"JAKK"},{"station_name":"Kampung Bandan","distance":1364,"station_id":"KPB","time":3,"is_transit":true,"i_long":106.826365,"transit":true,"line":4,"i_lat":-6.132549},{"transit":false,"i_long":106.79867,"time":9,"station_id":"AK","is_transit":false,"i_lat":-6.144674,"station_name":"Angke","line":1,"distance":4102},{"station_id":"DU","line":1,"transit":true,"time":4,"i_lat":-6.155215,"is_transit":true,"station_name":"Duri","distance":1230,"i_long":106.800832},{"line":5,"station_id":"GGL","i_long":106.788277,"time":3,"station_name":"Grogol","transit":false,"distance":1700,"is_transit":false,"i_lat":-6.162021},{"line":5,"i_long":106.771379,"transit":false,"station_name":"Pesing","distance":2036,"time":2,"station_id":"PSG","is_transit":false,"i_lat":-6.161433},{"station_name":"Taman Kota","station_id":"TKO","is_transit":false,"time":2,"i_long":106.756522,"i_lat":-6.1587309999999995,"line":5,"transit":false,"distance":1614},{"is_transit":false,"distance":2334,"station_id":"BOI","i_long":106.737035,"time":2,"transit":false,"line":5,"station_name":"Bojongindah","i_lat":-6.159876}],[{"time":0,"transit":false,"i_long":106.851978,"distance":0,"i_lat":-6.46424,"station_name":"Cibinong","line":21,"station_id":"CBN","is_transit":false},{"i_lat":-6.460735,"time":0,"transit":false,"station_name":"Pondok Rajeg","i_long":106.824374,"distance":0,"station_id":"PDRG","line":21,"is_transit":false},{"distance":0,"is_transit":true,"i_long":106.800298,"transit":true,"i_lat":-6.448811,"station_id":"CTA","station_name":"Citayam","line":2,"time":0},{"i_long":106.816926,"station_id":"DP","station_name":"Depok","time":6,"distance":5084,"line":2,"transit":false,"is_transit":false,"i_lat":-6.405256},{"i_long":106.819451,"line":2,"time":3,"distance":1584,"is_transit":false,"station_name":"Depokbaru","i_lat":-6.391065,"transit":false,"station_id":"DPB"},{"time":4,"distance":2727,"is_transit":false,"i_lat":-6.369073,"line":2,"station_id":"POC","transit":false,"station_name":"Pondok Cina","i_long":106.831114},{"station_id":"UI","is_transit":false,"station_name":"Univ. Indonesia","distance":1109,"transit":false,"line":2,"time":2,"i_lat":-6.360749,"i_long":106.831474},{"transit":false,"is_transit":false,"distance":2264,"station_name":"Univ. Pancasila","station_id":"UP","i_lat":-6.339291,"i_long":106.834175,"time":3,"line":2},{"station_name":"Lenteng Agung","transit":false,"is_transit":false,"station_id":"LNA","i_lat":-6.330363,"i_long":106.832616,"distance":1029,"line":2,"time":2},{"distance":2671,"station_name":"Tanjung Barat","i_long":106.838896,"time":3,"transit":false,"line":2,"i_lat":-6.3080680000000005,"station_id":"TNT","is_transit":false},{"station_id":"PSM","i_lat":-6.2842400000000005,"is_transit":false,"time":4,"transit":false,"i_long":106.843999,"line":2,"distance":2820,"station_name":"Pasar Minggu"},{"i_lat":-6.263214,"transit":false,"distance":2380,"i_long":106.851577,"station_name":"Pasar Minggu Baru","station_id":"PSMB","is_transit":false,"time":2,"line":2},{"i_lat":-6.255332,"station_id":"DRN","i_long":106.85449,"time":2,"transit":false,"is_transit":false,"line":2,"station_name":"Duren Kalibata","distance":824},{"line":2,"i_lat":-6.242512,"time":3,"distance":1546,"i_long":106.856607,"station_name":"Cawang","transit":false,"is_transit":false,"station_id":"CW"},{"station_id":"TEB","line":2,"is_transit":false,"i_lat":-6.226659,"time":2,"distance":1230,"transit":false,"station_name":"Tebet","i_long":106.857948},{"station_name":"Manggarai","i_lat":-6.209883,"distance":2610,"station_id":"MRI","time":4,"is_transit":true,"i_long":106.84912,"transit":true,"line":2},{"transit":false,"is_transit":false,"i_lat":-6.212485,"time":2,"station_id":"MTR","i_long":106.858896,"line":1,"station_name":"Matraman","distance":1275},{"distance":1377,"station_name":"Jatinegara","is_transit":true,"i_lat":-6.215091,"i_long":106.86807400000001,"station_id":"JNG","time":8,"transit":true,"line":1},{"distance":1236,"station_name":"Pondok Jati","time":2,"is_transit":false,"i_long":106.861737,"line":11,"i_lat":-6.209188,"station_id":"POK","transit":false},{"station_name":"Kramat","transit":false,"distance":1829,"is_transit":false,"i_long":106.855437,"station_id":"KMT","i_lat":-6.193792,"time":2,"line":11},{"time":1,"line":11,"i_long":106.850107,"station_id":"GST","is_transit":false,"distance":973,"transit":false,"station_name":"Gang Sentiong","i_lat":-6.185975},{"i_lat":-6.174784,"is_transit":false,"distance":1567,"transit":false,"time":8,"line":11,"station_name":"Pasar Senen","i_long":106.84368,"station_id":"PSE"},{"time":4,"transit":false,"station_name":"Kemayoran","line":11,"station_id":"KMO","i_long":106.839204,"distance":1436,"i_lat":-6.161728,"is_transit":false},{"distance":1901,"station_name":"Rajawali","i_long":106.836569,"line":11,"i_lat":-6.14505,"transit":false,"time":5,"station_id":"RJW","is_transit":false},{"distance":1444,"i_long":106.826365,"is_transit":true,"i_lat":-6.132549,"transit":true,"line":4,"time":3,"station_id":"KPB","station_name":"Kampung Bandan"},{"i_long":106.79867,"time":9,"station_name":"Angke","line":1,"is_transit":false,"transit":false,"station_id":"AK","distance":4102,"i_lat":-6.144674},{"distance":1230,"station_id":"DU","is_transit":true,"i_long":106.800832,"i_lat":-6.155215,"station_name":"Duri","time":4,"line":1,"transit":true},{"is_transit":false,"distance":1700,"i_long":106.788277,"time":3,"transit":false,"station_name":"Grogol","station_id":"GGL","line":5,"i_lat":-6.162021},{"time":2,"distance":2036,"is_transit":false,"i_lat":-6.161433,"station_name":"Pesing","station_id":"PSG","i_long":106.771379,"transit":false,"line":5},{"station_name":"Taman Kota","line":5,"distance":1614,"time":2,"station_id":"TKO","is_transit":false,"i_lat":-6.1587309999999995,"i_long":106.756522,"transit":false},{"distance":2334,"time":2,"station_id":"BOI","i_long":106.737035,"line":5,"station_name":"Bojongindah","is_transit":false,"i_lat":-6.159876,"transit":false}]]}