{"data":[[{"transit":false,"distance":0,"i_long":106.851978,"time":0,"station_id":"CBN","i_lat":-6.46424,"station_name":"Cibinong","line":21,"is_transit":false},{"time":0,"station_name":"Pondok Rajeg","station_id":"PDRG","i_lat":-6.460735,"line":21,"transit":false,"distance":0,"is_transit":false,"i_long":106.824374},{"distance":0,"i_lat":-6.448811,"time":0,"is_transit":true,"station_name":"Citayam","station_id":"CTA","transit":true,"line":2,"i_long":106.800298},{"distance":5084,"time":6,"station_name":"Depok","i_long":106.816926,"transit":false,"station_id":"DP","i_lat":-6.405256,"is_transit":false,"line":2},{"time":3,"line":2,"distance":1584,"is_transit":false,"transit":false,"i_lat":-6.391065,"station_id":"DPB","station_name":"Depokbaru","i_long":106.819451},{"i_lat":-6.369073,"line":2,"distance":2727,"station_name":"Pondok Cina","transit":false,"i_long":106.831114,"station_id":"POC","is_transit":false,"time":4},{"is_transit":false,"i_long":106.831474,"time":2,"distance":1109,"station_id":"UI","transit":false,"line":2,"i_lat":-6.360749,"station_name":"Univ. Indonesia"},{"distance":2264,"is_transit":false,"i_long":106.834175,"transit":false,"line":2,"station_name":"Univ. Pancasila","station_id":"UP","i_lat":-6.339291,"time":3},{"station_name":"Lenteng Agung","is_transit":false,"i_long":106.832616,"transit":false,"distance":1029,"station_id":"LNA","i_lat":-6.330363,"line":2,"time":2},{"station_id":"TNT","i_lat":-6.3080680000000005,"time":3,"line":2,"is_transit":false,"station_name":"Tanjung Barat","distance":2671,"transit":false,"i_long":106.838896},{"time":4,"station_id":"PSM","distance":2820,"transit":false,"i_long":106.843999,"is_transit":false,"line":2,"i_lat":-6.2842400000000005,"station_name":"Pasar Minggu"},{"transit":false,"station_name":"Pasar Minggu Baru","is_transit":false,"distance":2380,"line":2,"time":2,"i_lat":-6.263214,"station_id":"PSMB","i_long":106.851577},{"line":2,"i_lat":-6.255332,"i_long":106.85449,"station_id":"DRN","distance":824,"is_transit":false,"transit":false,"time":2,"station_name":"Duren Kalibata"},{"station_id":"CW","is_transit":false,"transit":false,"i_lat":-6.242512,"time":3,"station_name":"Cawang","i_long":106.856607,"distance":1546,"line":2},{"time":2,"station_id":"TEB","transit":false,"i_lat":-6.226659,"is_transit":false,"i_long":106.857948,"line":2,"distance":1230,"station_name":"Tebet"},{"time":4,"distance":2610,"station_name":"Manggarai","transit":true,"i_long":106.84912,"line":2,"i_lat":-6.209883,"is_transit":true,"station_id":"MRI"},{"is_transit":false,"i_long":106.858896,"time":2,"station_id":"MTR","station_name":"Matraman","distance":1275,"line":1,"i_lat":-6.212485,"transit":false},{"distance":1377,"i_lat":-6.215091,"line":1,"is_transit":false,"station_name":"Jatinegara","i_long":106.86807400000001,"station_id":"JNG","time":8,"transit":false},{"station_id":"KLD","i_long":106.899548,"is_transit":false,"transit":false,"station_name":"Klender","i_lat":-6.2135,"line":1,"distance":3395,"time":3}],[{"station_name":"Cibinong","distance":0,"transit":false,"i_long":106.851978,"station_id":"CBN","line":21,"time":0,"is_transit":false,"i_lat":-6.46424},{"i_long":106.824374,"line":21,"station_id":"PDRG","i_lat":-6.460735,"distance":0,"is_transit":false,"time":0,"station_name":"Pondok Rajeg","transit":false},{"i_long":106.800298,"time":0,"transit":true,"station_id":"CTA","i_lat":-6.448811,"line":2,"station_name":"Citayam","is_transit":true,"distance":0},{"station_name":"Depok","transit":false,"line":2,"is_transit":false,"i_long":106.816926,"station_id":"DP","time":6,"distance":5084,"i_lat":-6.405256},{"transit":false,"is_transit":false,"i_long":106.819451,"station_name":"Depokbaru","distance":1584,"station_id":"DPB","i_lat":-6.391065,"line":2,"time":3},{"transit":false,"distance":2727,"time":4,"station_id":"POC","station_name":"Pondok Cina","i_lat":-6.369073,"line":2,"is_transit":false,"i_long":106.831114},{"time":2,"line":2,"i_lat":-6.360749,"distance":1109,"i_long":106.831474,"is_transit":false,"station_name":"Univ. Indonesia","transit":false,"station_id":"UI"},{"station_id":"UP","i_lat":-6.339291,"time":3,"station_name":"Univ. Pancasila","line":2,"is_transit":false,"transit":false,"distance":2264,"i_long":106.834175},{"station_id":"LNA","distance":1029,"i_lat":-6.330363,"station_name":"Lenteng Agung","transit":false,"i_long":106.832616,"time":2,"line":2,"is_transit":false},{"i_lat":-6.3080680000000005,"i_long":106.838896,"is_transit":false,"transit":false,"distance":2671,"station_name":"Tanjung Barat","line":2,"time":3,"station_id":"TNT"},{"station_id":"PSM","time":4,"transit":false,"i_lat":-6.2842400000000005,"line":2,"is_transit":false,"i_long":106.843999,"station_name":"Pasar Minggu","distance":2820},{"is_transit":false,"station_name":"Pasar Minggu Baru","distance":2380,"transit":false,"station_id":"PSMB","i_long":106.851577,"line":2,"i_lat":-6.263214,"time":2},{"i_long":106.85449,"distance":824,"line":2,"transit":false,"i_lat":-6.255332,"station_name":"Duren Kalibata","station_id":"DRN","time":2,"is_transit":false},{"is_transit":false,"station_name":"Cawang","transit":false,"i_long":106.856607,"distance":1546,"station_id":"CW","time":3,"i_lat":-6.242512,"line":2},{"distance":1230,"time":2,"i_lat":-6.226659,"line":2,"station_name":"Tebet","is_transit":false,"station_id":"TEB","i_long":106.857948,"transit":false},{"i_lat":-6.209883,"is_transit":true,"station_name":"Manggarai","distance":2610,"time":4,"line":2,"transit":true,"i_long":106.84912,"station_id":"MRI"},{"transit":false,"station_name":"Sudirman","distance":3186,"station_id":"SUD","time":4,"line":1,"i_long":106.822649,"i_lat":-6.202263,"is_transit":false},{"station_name":"Sudirman Baru","transit":false,"time":1,"station_id":"SUDB","distance":280,"is_transit":false,"i_long":106.819881,"i_lat":-6.201433,"line":1},{"is_transit":false,"station_id":"KAT","i_lat":-6.20132,"time":1,"transit":false,"station_name":"Karet","i_long":106.816351,"line":1,"distance":471},{"i_lat":-6.185545,"is_transit":false,"time":5,"i_long":106.811091,"transit":false,"line":1,"station_name":"Tanah Abang","station_id":"THB","distance":2029},{"station_id":"DU","i_lat":-6.155215,"transit":false,"line":1,"station_name":"Duri","is_transit":false,"time":8,"distance":3632,"i_long":106.800832},{"i_long":106.79867,"is_transit":false,"station_name":"Angke","distance":1230,"transit":false,"station_id":"AK","time":4,"i_lat":-6.144674,"line":1},{"time":9,"station_name":"Kampung Bandan","line":4,"transit":true,"i_long":106.826365,"is_transit":true,"i_lat":-6.132549,"distance":4102,"station_id":"KPB"},{"time":3,"is_transit":false,"line":11,"station_name":"Rajawali","distance":1444,"transit":false,"i_lat":-6.14505,"i_long":106.836569,"station_id":"RJW"},{"station_name":"Kemayoran","distance":1901,"station_id":"KMO","i_long":106.839204,"transit":false,"time":5,"is_transit":false,"line":11,"i_lat":-6.161728},{"i_long":106.84368,"line":11,"station_name":"Pasar Senen","distance":1436,"i_lat":-6.174784,"transit":false,"station_id":"PSE","is_transit":false,"time":4},{"i_long":106.850107,"i_lat":-6.185975,"distance":1567,"transit":false,"time":8,"station_id":"GST","line":11,"is_transit":false,"station_name":"Gang Sentiong"},{"station_name":"Kramat","distance":973,"time":1,"transit":false,"i_long":106.855437,"is_transit":false,"i_lat":-6.193792,"line":11,"station_id":"KMT"},{"transit":false,"station_id":"POK","i_lat":-6.209188,"line":11,"is_transit":false,"station_name":"Pondok Jati","distance":1829,"i_long":106.861737,"time":2},{"station_id":"JNG","distance":1236,"i_long":106.86807400000001,"i_lat":-6.215091,"is_transit":true,"time":9,"station_name":"Jatinegara","line":1,"transit":true},{"station_id":"KLD","line":1,"station_name":"Klender","distance":3395,"i_long":106.899548,"transit":false,"i_lat":-6.2135,"time":3,"is_transit":false}],[{"i_long":106.851978,"i_lat":-6.46424,"station_id":"CBN","line":21,"is_transit":false,"time":0,"transit":false,"station_name":"Cibinong","distance":0},{"i_lat":-6.460735,"i_long":106.824374,"station_name":"Pondok Rajeg","station_id":"PDRG","distance":0,"line":21,"is_transit":false,"time":0,"transit":false},{"station_id":"CTA","i_long":106.800298,"is_transit":true,"line":2,"distance":0,"time":0,"station_name":"Citayam","i_lat":-6.448811,"transit":true},{"station_id":"DP","i_lat":-6.405256,"distance":5084,"is_transit":false,"time":6,"line":2,"station_name":"Depok","transit":false,"i_long":106.816926},{"line":2,"transit":false,"i_lat":-6.391065,"i_long":106.819451,"distance":1584,"station_name":"Depokbaru","is_transit":false,"station_id":"DPB","time":3},{"station_id":"POC","is_transit":false,"time":4,"i_lat":-6.369073,"i_long":106.831114,"distance":2727,"transit":false,"line":2,"station_name":"Pondok Cina"},{"station_id":"UI","is_transit":false,"station_name":"Univ. Indonesia","line":2,"transit":false,"time":2,"i_lat":-6.360749,"distance":1109,"i_long":106.831474},{"i_lat":-6.339291,"i_long":106.834175,"station_id":"UP","is_transit":false,"transit":false,"distance":2264,"time":3,"line":2,"station_name":"Univ. Pancasila"},{"time":2,"i_lat":-6.330363,"i_long":106.832616,"is_transit":false,"station_id":"LNA","line":2,"distance":1029,"station_name":"Lenteng Agung","transit":false},{"is_transit":false,"station_id":"TNT","i_long":106.838896,"distance":2671,"station_name":"Tanjung Barat","transit":false,"time":3,"i_lat":-6.3080680000000005,"line":2},{"i_long":106.843999,"distance":2820,"line":2,"transit":false,"is_transit":false,"station_id":"PSM","time":4,"i_lat":-6.2842400000000005,"station_name":"Pasar Minggu"},{"i_long":106.851577,"i_lat":-6.263214,"transit":false,"time":2,"station_name":"Pasar Minggu Baru","distance":2380,"is_transit":false,"line":2,"station_id":"PSMB"},{"time":2,"i_lat":-6.255332,"station_id":"DRN","transit":false,"line":2,"distance":824,"station_name":"Duren Kalibata","is_transit":false,"i_long":106.85449},{"is_transit":false,"station_id":"CW","i_lat":-6.242512,"transit":false,"station_name":"Cawang","time":3,"line":2,"distance":1546,"i_long":106.856607},{"station_name":"Tebet","line":2,"distance":1230,"is_transit":false,"station_id":"TEB","i_long":106.857948,"transit":false,"time":2,"i_lat":-6.226659},{"is_transit":false,"time":4,"i_lat":-6.209883,"transit":false,"station_id":"MRI","station_name":"Manggarai","line":2,"i_long":106.84912,"distance":2610},{"distance":1590,"is_transit":false,"station_id":"CKI","transit":false,"i_lat":-6.198556,"time":4,"i_long":106.840169,"station_name":"Cikini","line":2},{"is_transit":false,"distance":1750,"i_lat":-6.186295,"station_name":"Gondangdia","transit":false,"i_long":106.832183,"station_id":"GDD","line":2,"time":3},{"station_name":"Juanda","station_id":"JUA","i_long":106.828284,"transit":false,"i_lat":-6.166716,"line":2,"distance":2015,"is_transit":false,"time":4},{"distance":1149,"i_lat":-6.160725,"line":2,"station_id":"SW","i_long":106.827103,"time":2,"transit":false,"is_transit":false,"station_name":"Sawah Besar"},{"i_lat":-6.149769,"station_id":"MGB","time":2,"distance":906,"transit":false,"i_long":106.82482,"station_name":"Manggabesar","line":2,"is_transit":false},{"is_transit":false,"i_lat":-6.141205,"line":2,"station_name":"Jayakarta","distance":1080,"station_id":"JAY","i_long":106.820901,"transit":false,"time":2},{"distance":1264,"station_id":"JAKK","is_transit":true,"i_lat":-6.137569,"time":4,"station_name":"Jakarta Kota","i_long":106.812439,"transit":true,"line":2},{"station_name":"Kampung Bandan","line":4,"i_long":106.826365,"station_id":"KPB","i_lat":-6.132549,"time":3,"distance":1364,"is_transit":true,"transit":true},{"station_id":"RJW","i_lat":-6.14505,"is_transit":false,"line":11,"distance":1444,"station_name":"Rajawali","time":3,"i_long":106.836569,"transit":false},{"time":5,"i_lat":-6.161728,"i_long":106.839204,"distance":1901,"is_transit":false,"station_name":"Kemayoran","transit":false,"station_id":"KMO","line":11},{"time":4,"station_name":"Pasar Senen","transit":false,"i_long":106.84368,"line":11,"is_transit":false,"distance":1436,"station_id":"PSE","i_lat":-6.174784},{"station_name":"Gang Sentiong","i_long":106.850107,"line":11,"distance":1567,"is_transit":false,"transit":false,"station_id":"GST","time":8,"i_lat":-6.185975},{"distance":973,"time":1,"is_transit":false,"transit":false,"station_id":"KMT","line":11,"i_lat":-6.193792,"station_name":"Kramat","i_long":106.855437},{"distance":1829,"time":2,"station_id":"POK","i_lat":-6.209188,"transit":false,"i_long":106.861737,"station_name":"Pondok Jati","line":11,"is_transit":false},{"station_id":"JNG","distance":1236,"time":9,"transit":true,"i_lat":-6.215091,"i_long":106.86807400000001,"station_name":"Jatinegara","line":1,"is_transit":true},{"i_lat":-6.2135,"i_long":106.899548,"is_transit":false,"transit":false,"station_id":"KLD","station_name":"Klender","distance":3395,"line":1,"time":3}]]}