{"data":[[{"transit":false,"station_id":"CBN","i_lat":-6.46424,"time":0,"is_transit":false,"station_name":"Cibinong","distance":0,"i_long":106.851978,"line":21},{"distance":0,"i_long":106.824374,"line":21,"i_lat":-6.460735,"station_name":"Pondok Rajeg","station_id":"PDRG","is_transit":false,"transit":false,"time":0},{"i_long":106.800298,"station_id":"CTA","line":2,"distance":0,"station_name":"Citayam","is_transit":true,"transit":true,"time":0,"i_lat":-6.448811},{"line":2,"i_long":106.816926,"i_lat":-6.405256,"distance":5084,"transit":false,"is_transit":false,"time":6,"station_id":"DP","station_name":"Depok"},{"station_id":"DPB","is_transit":false,"time":3,"i_lat":-6.391065,"i_long":106.819451,"distance":1584,"station_name":"Depokbaru","line":2,"transit":false},{"i_lat":-6.369073,"line":2,"transit":false,"time":4,"distance":2727,"i_long":106.831114,"station_name":"Pondok Cina","station_id":"POC","is_transit":false},{"i_lat":-6.360749,"station_name":"Univ. Indonesia","line":2,"is_transit":false,"i_long":106.831474,"station_id":"UI","distance":1109,"transit":false,"time":2},{"i_long":106.834175,"transit":false,"station_name":"Univ. Pancasila","station_id":"UP","is_transit":false,"time":3,"i_lat":-6.339291,"line":2,"distance":2264},{"station_id":"LNA","line":2,"time":2,"i_lat":-6.330363,"is_transit":false,"i_long":106.832616,"distance":1029,"station_name":"Lenteng Agung","transit":false},{"station_id":"TNT","distance":2671,"i_long":106.838896,"transit":false,"station_name":"Tanjung Barat","is_transit":false,"time":3,"i_lat":-6.3080680000000005,"line":2},{"i_lat":-6.2842400000000005,"distance":2820,"station_id":"PSM","i_long":106.843999,"station_name":"Pasar Minggu","is_transit":false,"transit":false,"time":4,"line":2},{"station_id":"PSMB","i_long":106.851577,"line":2,"transit":false,"station_name":"Pasar Minggu Baru","is_transit":false,"i_lat":-6.263214,"time":2,"distance":2380},{"transit":false,"is_transit":false,"i_lat":-6.255332,"line":2,"distance":824,"i_long":106.85449,"time":2,"station_name":"Duren Kalibata","station_id":"DRN"},{"station_name":"Cawang","station_id":"CW","transit":false,"line":2,"time":3,"is_transit":false,"i_long":106.856607,"distance":1546,"i_lat":-6.242512},{"transit":false,"distance":1230,"i_lat":-6.226659,"time":2,"station_id":"TEB","station_name":"Tebet","line":2,"i_long":106.857948,"is_transit":false},{"station_id":"MRI","line":2,"transit":true,"is_transit":true,"distance":2610,"i_lat":-6.209883,"i_long":106.84912,"time":4,"station_name":"Manggarai"},{"station_id":"SUD","i_lat":-6.202263,"station_name":"Sudirman","time":4,"transit":false,"distance":3186,"is_transit":false,"i_long":106.822649,"line":1},{"transit":false,"i_lat":-6.201433,"i_long":106.819881,"time":1,"station_name":"Sudirman Baru","distance":280,"line":1,"station_id":"SUDB","is_transit":false},{"transit":false,"i_long":106.816351,"i_lat":-6.20132,"is_transit":false,"station_name":"Karet","station_id":"KAT","time":1,"distance":471,"line":1},{"line":1,"station_name":"Tanah Abang","distance":2029,"transit":true,"i_long":106.811091,"is_transit":true,"i_lat":-6.185545,"time":5,"station_id":"THB"},{"station_name":"Palmerah","distance":3191,"is_transit":false,"time":6,"i_long":106.79689,"i_lat":-6.207404,"station_id":"PLM","line":6,"transit":false},{"i_lat":-6.237242,"i_long":106.780334,"transit":false,"station_id":"KBY","is_transit":false,"distance":3737,"line":6,"station_name":"Kebayoran","time":7},{"i_lat":-6.276362,"line":6,"station_name":"Pondokranji","transit":false,"station_id":"PDJ","time":8,"is_transit":false,"distance":6218,"i_long":106.74273},{"time":3,"station_id":"JMU","distance":2179,"i_lat":-6.288927,"i_long":106.728916,"line":6,"is_transit":false,"transit":false,"station_name":"Jurangmangu"},{"transit":false,"is_transit":false,"time":4,"i_long":106.712277,"station_name":"Sudimara","line":6,"station_id":"SDM","distance":1994,"i_lat":-6.296963},{"station_name":"Rawa Buntu","line":6,"is_transit":false,"station_id":"RU","time":6,"i_lat":-6.314823,"i_long":106.675475,"distance":4566,"transit":false}],[{"line":21,"station_id":"CBN","is_transit":false,"time":0,"transit":false,"distance":0,"i_long":106.851978,"station_name":"Cibinong","i_lat":-6.46424},{"time":0,"is_transit":false,"station_name":"Pondok Rajeg","i_long":106.824374,"line":21,"station_id":"PDRG","i_lat":-6.460735,"transit":false,"distance":0},{"i_lat":-6.448811,"station_name":"Citayam","is_transit":true,"time":0,"transit":true,"line":2,"distance":0,"i_long":106.800298,"station_id":"CTA"},{"i_long":106.816926,"distance":5084,"time":6,"is_transit":false,"station_name":"Depok","station_id":"DP","i_lat":-6.405256,"transit":false,"line":2},{"i_lat":-6.391065,"transit":false,"station_name":"Depokbaru","is_transit":false,"time":3,"distance":1584,"line":2,"station_id":"DPB","i_long":106.819451},{"station_id":"POC","transit":false,"station_name":"Pondok Cina","time":4,"i_lat":-6.369073,"i_long":106.831114,"line":2,"distance":2727,"is_transit":false},{"line":2,"i_lat":-6.360749,"is_transit":false,"transit":false,"time":2,"distance":1109,"station_id":"UI","station_name":"Univ. Indonesia","i_long":106.831474},{"is_transit":false,"i_lat":-6.339291,"distance":2264,"station_id":"UP","line":2,"time":3,"i_long":106.834175,"station_name":"Univ. Pancasila","transit":false},{"is_transit":false,"station_id":"LNA","time":2,"line":2,"i_lat":-6.330363,"station_name":"Lenteng Agung","distance":1029,"transit":false,"i_long":106.832616},{"transit":false,"station_name":"Tanjung Barat","i_long":106.838896,"line":2,"is_transit":false,"distance":2671,"i_lat":-6.3080680000000005,"station_id":"TNT","time":3},{"time":4,"distance":2820,"i_lat":-6.2842400000000005,"transit":false,"i_long":106.843999,"station_name":"Pasar Minggu","line":2,"station_id":"PSM","is_transit":false},{"station_id":"PSMB","line":2,"time":2,"transit":false,"station_name":"Pasar Minggu Baru","is_transit":false,"i_lat":-6.263214,"i_long":106.851577,"distance":2380},{"i_long":106.85449,"line":2,"station_id":"DRN","i_lat":-6.255332,"time":2,"distance":824,"transit":false,"station_name":"Duren Kalibata","is_transit":false},{"time":3,"station_id":"CW","distance":1546,"line":2,"station_name":"Cawang","i_long":106.856607,"is_transit":false,"transit":false,"i_lat":-6.242512},{"time":2,"distance":1230,"line":2,"i_long":106.857948,"transit":false,"station_name":"Tebet","is_transit":false,"i_lat":-6.226659,"station_id":"TEB"},{"i_long":106.84912,"station_id":"MRI","i_lat":-6.209883,"transit":false,"time":4,"distance":2610,"station_name":"Manggarai","is_transit":false,"line":2},{"is_transit":false,"time":4,"distance":1590,"transit":false,"i_lat":-6.198556,"i_long":106.840169,"line":2,"station_name":"Cikini","station_id":"CKI"},{"i_lat":-6.186295,"station_id":"GDD","is_transit":false,"transit":false,"distance":1750,"i_long":106.832183,"station_name":"Gondangdia","line":2,"time":3},{"time":4,"is_transit":false,"distance":2015,"line":2,"i_lat":-6.166716,"station_name":"Juanda","station_id":"JUA","transit":false,"i_long":106.828284},{"i_lat":-6.160725,"is_transit":false,"station_id":"SW","line":2,"time":2,"station_name":"Sawah Besar","distance":1149,"transit":false,"i_long":106.827103},{"is_transit":false,"distance":906,"i_lat":-6.149769,"i_long":106.82482,"line":2,"station_id":"MGB","transit":false,"time":2,"station_name":"Manggabesar"},{"i_lat":-6.141205,"distance":1080,"station_id":"JAY","station_name":"Jayakarta","i_long":106.820901,"transit":false,"is_transit":false,"time":2,"line":2},{"station_name":"Jakarta Kota","time":4,"station_id":"JAKK","i_lat":-6.137569,"is_transit":true,"distance":1264,"line":2,"transit":true,"i_long":106.812439},{"time":3,"i_long":106.826365,"line":4,"distance":1364,"station_id":"KPB","i_lat":-6.132549,"is_transit":true,"station_name":"Kampung Bandan","transit":true},{"i_long":106.79867,"station_id":"AK","distance":4102,"is_transit":false,"time":9,"i_lat":-6.144674,"line":1,"station_name":"Angke","transit":false},{"transit":false,"line":1,"station_name":"Duri","i_long":106.800832,"distance":1230,"station_id":"DU","time":4,"i_lat":-6.155215,"is_transit":false},{"station_name":"Tanah Abang","time":8,"distance":3632,"i_lat":-6.185545,"i_long":106.811091,"transit":true,"is_transit":true,"line":1,"station_id":"THB"},{"distance":3191,"i_long":106.79689,"transit":false,"line":6,"i_lat":-6.207404,"station_name":"Palmerah","station_id":"PLM","time":6,"is_transit":false},{"i_lat":-6.237242,"i_long":106.780334,"distance":3737,"transit":false,"station_name":"Kebayoran","time":7,"is_transit":false,"line":6,"station_id":"KBY"},{"i_lat":-6.276362,"station_id":"PDJ","distance":6218,"time":8,"station_name":"Pondokranji","i_long":106.74273,"is_transit":false,"line":6,"transit":false},{"station_name":"Jurangmangu","distance":2179,"station_id":"JMU","transit":false,"is_transit":false,"time":3,"line":6,"i_long":106.728916,"i_lat":-6.288927},{"i_long":106.712277,"distance":1994,"station_id":"SDM","line":6,"station_name":"Sudimara","time":4,"is_transit":false,"transit":false,"i_lat":-6.296963},{"transit":false,"is_transit":false,"time":6,"station_name":"Rawa Buntu","i_long":106.675475,"station_id":"RU","i_lat":-6.314823,"line":6,"distance":4566}],[{"is_transit":false,"station_id":"CBN","time":0,"i_long":106.851978,"transit":false,"station_name":"Cibinong","distance":0,"line":21,"i_lat":-6.46424},{"station_id":"PDRG","distance":0,"time":0,"transit":false,"i_lat":-6.460735,"station_name":"Pondok Rajeg","is_transit":false,"i_long":106.824374,"line":21},{"distance":0,"transit":true,"station_id":"CTA","is_transit":true,"time":0,"i_lat":-6.448811,"line":2,"station_name":"Citayam","i_long":106.800298},{"line":2,"transit":false,"is_transit":false,"distance":5084,"i_long":106.816926,"i_lat":-6.405256,"station_name":"Depok","station_id":"DP","time":6},{"i_lat":-6.391065,"line":2,"i_long":106.819451,"is_transit":false,"station_name":"Depokbaru","station_id":"DPB","distance":1584,"time":3,"transit":false},{"station_id":"POC","distance":2727,"is_transit":false,"time":4,"i_long":106.831114,"line":2,"i_lat":-6.369073,"station_name":"Pondok Cina","transit":false},{"i_lat":-6.360749,"time":2,"station_name":"Univ. Indonesia","i_long":106.831474,"transit":false,"is_transit":false,"line":2,"distance":1109,"station_id":"UI"},{"distance":2264,"transit":false,"i_lat":-6.339291,"i_long":106.834175,"station_id":"UP","station_name":"Univ. Pancasila","line":2,"is_transit":false,"time":3},{"distance":1029,"line":2,"station_id":"LNA","station_name":"Lenteng Agung","i_lat":-6.330363,"is_transit":false,"time":2,"transit":false,"i_long":106.832616},{"i_lat":-6.3080680000000005,"transit":false,"station_id":"TNT","time":3,"i_long":106.838896,"is_transit":false,"distance":2671,"station_name":"Tanjung Barat","line":2},{"distance":2820,"line":2,"is_transit":false,"i_lat":-6.2842400000000005,"i_long":106.843999,"station_id":"PSM","station_name":"Pasar Minggu","transit":false,"time":4},{"time":2,"transit":false,"station_name":"Pasar Minggu Baru","distance":2380,"line":2,"i_long":106.851577,"i_lat":-6.263214,"station_id":"PSMB","is_transit":false},{"station_id":"DRN","transit":false,"is_transit":false,"line":2,"station_name":"Duren Kalibata","time":2,"distance":824,"i_lat":-6.255332,"i_long":106.85449},{"time":3,"line":2,"station_name":"Cawang","distance":1546,"station_id":"CW","is_transit":false,"i_long":106.856607,"i_lat":-6.242512,"transit":false},{"time":2,"i_lat":-6.226659,"i_long":106.857948,"line":2,"transit":false,"station_id":"TEB","distance":1230,"is_transit":false,"station_name":"Tebet"},{"i_lat":-6.209883,"i_long":106.84912,"is_transit":true,"time":4,"transit":true,"station_name":"Manggarai","distance":2610,"station_id":"MRI","line":2},{"transit":false,"station_name":"Matraman","line":1,"station_id":"MTR","is_transit":false,"time":2,"distance":1275,"i_lat":-6.212485,"i_long":106.858896},{"time":8,"station_id":"JNG","is_transit":true,"distance":1377,"line":1,"station_name":"Jatinegara","i_lat":-6.215091,"i_long":106.86807400000001,"transit":true},{"i_long":106.861737,"time":2,"station_id":"POK","transit":false,"line":11,"station_name":"Pondok Jati","distance":1236,"i_lat":-6.209188,"is_transit":false},{"time":2,"distance":1829,"transit":false,"i_long":106.855437,"station_id":"KMT","station_name":"Kramat","line":11,"is_transit":false,"i_lat":-6.193792},{"station_name":"Gang Sentiong","transit":false,"is_transit":false,"time":1,"distance":973,"i_lat":-6.185975,"i_long":106.850107,"line":11,"station_id":"GST"},{"station_name":"Pasar Senen","line":11,"time":8,"is_transit":false,"distance":1567,"i_lat":-6.174784,"station_id":"PSE","transit":false,"i_long":106.84368},{"i_long":106.839204,"distance":1436,"line":11,"station_name":"Kemayoran","station_id":"KMO","transit":false,"is_transit":false,"time":4,"i_lat":-6.161728},{"station_name":"Rajawali","is_transit":false,"transit":false,"time":5,"i_lat":-6.14505,"i_long":106.836569,"line":11,"station_id":"RJW","distance":1901},{"transit":true,"i_long":106.826365,"station_name":"Kampung Bandan","line":4,"station_id":"KPB","time":3,"distance":1444,"i_lat":-6.132549,"is_transit":true},{"i_lat":-6.144674,"i_long":106.79867,"station_name":"Angke","time":9,"line":1,"station_id":"AK","transit":false,"distance":4102,"is_transit":false},{"distance":1230,"transit":false,"i_lat":-6.155215,"time":4,"line":1,"station_name":"Duri","station_id":"DU","i_long":106.800832,"is_transit":false},{"i_lat":-6.185545,"station_name":"Tanah Abang","time":8,"line":1,"i_long":106.811091,"station_id":"THB","transit":true,"distance":3632,"is_transit":true},{"time":6,"transit":false,"i_long":106.79689,"i_lat":-6.207404,"station_id":"PLM","distance":3191,"line":6,"is_transit":false,"station_name":"Palmerah"},{"i_long":106.780334,"station_id":"KBY","transit":false,"station_name":"Kebayoran","is_transit":false,"time":7,"i_lat":-6.237242,"line":6,"distance":3737},{"station_name":"Pondokranji","time":8,"i_lat":-6.276362,"is_transit":false,"distance":6218,"i_long":106.74273,"station_id":"PDJ","transit":false,"line":6},{"transit":false,"distance":2179,"is_transit":false,"station_id":"JMU","time":3,"station_name":"Jurangmangu","i_lat":-6.288927,"i_long":106.728916,"line":6},{"time":4,"line":6,"is_transit":false,"i_long":106.712277,"station_name":"Sudimara","distance":1994,"i_lat":-6.296963,"station_id":"SDM","transit":false},{"is_transit":false,"time":6,"station_name":"Rawa Buntu","station_id":"RU","i_long":106.675475,"distance":4566,"line":6,"i_lat":-6.314823,"transit":false}]]}