{"data":[[{"is_transit":false,"time":0,"distance":0,"line":21,"station_id":"CBN","station_name":"Cibinong","i_long":106.851978,"transit":false,"i_lat":-6.46424},{"transit":false,"line":21,"distance":0,"is_transit":false,"i_lat":-6.460735,"i_long":106.824374,"station_id":"PDRG","time":0,"station_name":"Pondok Rajeg"},{"i_long":106.800298,"line":2,"time":0,"distance":0,"is_transit":true,"transit":true,"i_lat":-6.448811,"station_id":"CTA","station_name":"Citayam"},{"is_transit":false,"i_lat":-6.405256,"time":6,"station_name":"Depok","transit":false,"distance":5084,"station_id":"DP","i_long":106.816926,"line":2},{"station_name":"Depokbaru","transit":false,"i_lat":-6.391065,"i_long":106.819451,"line":2,"time":3,"is_transit":false,"distance":1584,"station_id":"DPB"},{"is_transit":false,"i_lat":-6.369073,"distance":2727,"line":2,"i_long":106.831114,"time":4,"station_name":"Pondok Cina","transit":false,"station_id":"POC"},{"distance":1109,"transit":false,"time":2,"station_id":"UI","i_lat":-6.360749,"i_long":106.831474,"line":2,"is_transit":false,"station_name":"Univ. Indonesia"},{"i_lat":-6.339291,"i_long":106.834175,"station_name":"Univ. Pancasila","is_transit":false,"time":3,"line":2,"distance":2264,"station_id":"UP","transit":false},{"time":2,"station_id":"LNA","distance":1029,"i_long":106.832616,"transit":false,"station_name":"Lenteng Agung","line":2,"is_transit":false,"i_lat":-6.330363},{"station_id":"TNT","is_transit":false,"line":2,"i_long":106.838896,"time":3,"distance":2671,"i_lat":-6.3080680000000005,"station_name":"Tanjung Barat","transit":false},{"i_lat":-6.2842400000000005,"time":4,"station_id":"PSM","is_transit":false,"transit":false,"distance":2820,"station_name":"Pasar Minggu","line":2,"i_long":106.843999},{"line":2,"distance":2380,"time":2,"transit":false,"i_long":106.851577,"i_lat":-6.263214,"station_id":"PSMB","station_name":"Pasar Minggu Baru","is_transit":false},{"distance":824,"time":2,"i_lat":-6.255332,"station_id":"DRN","station_name":"Duren Kalibata","is_transit":false,"i_long":106.85449,"transit":false,"line":2},{"i_lat":-6.242512,"station_id":"CW","i_long":106.856607,"station_name":"Cawang","time":3,"distance":1546,"line":2,"is_transit":false,"transit":false},{"i_long":106.857948,"station_name":"Tebet","time":2,"distance":1230,"is_transit":false,"transit":false,"station_id":"TEB","i_lat":-6.226659,"line":2},{"line":2,"transit":false,"i_long":106.84912,"is_transit":false,"station_id":"MRI","time":4,"i_lat":-6.209883,"distance":2610,"station_name":"Manggarai"}]]}