{"data":[[{"distance":0,"line":0,"i_lat":-6.46424,"i_long":106.851978,"station_id":"CBN","is_transit":false,"transit":false,"station_name":"Cibinong","time":0},{"distance":6740,"station_name":"Citayam","transit":false,"station_id":"CTA","is_transit":true,"i_lat":-6.448811,"i_long":106.800298,"time":10,"line":1},{"station_id":"DP","i_lat":-6.405256,"station_name":"Depok","i_long":106.816926,"time":6,"is_transit":false,"line":0,"distance":5084,"transit":false},{"i_lat":-6.391065,"station_id":"DPB","station_name":"Depokbaru","transit":false,"time":3,"distance":1584,"line":0,"i_long":106.819451,"is_transit":false},{"station_name":"Pondok Cina","i_long":106.831114,"distance":2727,"station_id":"POC","transit":false,"line":2,"time":4,"is_transit":false,"i_lat":-6.369073},{"i_long":106.831474,"line":2,"is_transit":false,"time":2,"distance":1109,"station_name":"Univ. Indonesia","station_id":"UI","transit":false,"i_lat":-6.360749},{"time":3,"distance":2264,"i_long":106.834175,"is_transit":false,"transit":false,"i_lat":-6.339291,"station_id":"UP","line":2,"station_name":"Univ. Pancasila"},{"i_lat":-6.330363,"line":2,"transit":false,"time":2,"station_name":"Lenteng Agung","station_id":"LNA","i_long":106.832616,"is_transit":false,"distance":1029},{"transit":false,"i_long":106.838896,"line":2,"i_lat":-6.3080680000000005,"time":3,"is_transit":false,"station_id":"TNT","distance":2671,"station_name":"Tanjung Barat"},{"i_long":106.843999,"line":2,"station_name":"Pasar Minggu","time":4,"transit":false,"i_lat":-6.2842400000000005,"distance":2820,"is_transit":false,"station_id":"PSM"},{"i_long":106.851577,"i_lat":-6.263214,"distance":2380,"line":2,"transit":false,"is_transit":false,"time":2,"station_name":"Pasar Minggu Baru","station_id":"PSMB"},{"station_id":"DRN","i_long":106.85449,"station_name":"Duren Kalibata","time":2,"is_transit":false,"distance":824,"transit":false,"i_lat":-6.255332,"line":0},{"line":0,"station_id":"CW","i_long":106.856607,"time":3,"i_lat":-6.242512,"is_transit":false,"distance":1546,"transit":false,"station_name":"Cawang"},{"station_id":"TEB","is_transit":false,"station_name":"Tebet","i_lat":-6.226659,"time":2,"distance":1230,"line":2,"i_long":106.857948,"transit":false},{"i_lat":-6.209883,"station_id":"MRI","is_transit":true,"distance":2610,"time":4,"transit":true,"line":0,"station_name":"Manggarai","i_long":106.84912},{"distance":1275,"transit":false,"i_long":106.858896,"station_id":"MTR","is_transit":false,"station_name":"Matraman","time":2,"i_lat":-6.212485,"line":1},{"i_long":106.86807400000001,"station_id":"JNG","time":8,"distance":1377,"transit":false,"line":0,"station_name":"Jatinegara","is_transit":true,"i_lat":-6.215091},{"station_id":"KLD","is_transit":false,"time":3,"i_long":106.899548,"distance":3395,"station_name":"Klender","i_lat":-6.2135,"line":1,"transit":false},{"distance":3100,"station_id":"BUA","transit":false,"station_name":"Buaran","time":2,"is_transit":false,"i_lat":-6.215568,"i_long":106.922662,"line":0},{"is_transit":false,"time":1,"i_lat":-6.217455,"distance":1305,"i_long":106.939679,"line":1,"station_id":"KLDB","transit":false,"station_name":"Klenderbaru"},{"line":0,"time":8,"distance":1385,"transit":false,"i_lat":-6.219053,"is_transit":false,"station_id":"CUK","station_name":"Cakung","i_long":106.951283},{"station_name":"Kranji","i_long":106.977657,"station_id":"KRI","distance":3097,"time":3,"is_transit":false,"line":1,"transit":false,"i_lat":-6.224515},{"transit":false,"station_id":"BKS","i_lat":-6.236616,"i_long":106.997013,"is_transit":false,"time":4,"line":0,"distance":2520,"station_name":"Bekasi"},{"is_transit":false,"station_name":"Bekasi Timur","line":0,"i_lat":-6.248029,"i_long":107.016735,"distance":2368,"transit":false,"station_id":"BKST","time":2}],[{"line":0,"distance":0,"i_lat":-6.46424,"transit":false,"station_name":"Cibinong","i_long":106.851978,"is_transit":false,"time":0,"station_id":"CBN"},{"station_id":"CTA","station_name":"Citayam","distance":6740,"i_long":106.800298,"line":1,"time":10,"is_transit":true,"transit":false,"i_lat":-6.448811},{"time":6,"station_name":"Depok","i_long":106.816926,"line":0,"i_lat":-6.405256,"is_transit":false,"distance":5084,"station_id":"DP","transit":false},{"transit":false,"station_id":"DPB","distance":1584,"i_lat":-6.391065,"is_transit":false,"time":3,"line":0,"i_long":106.819451,"station_name":"Depokbaru"},{"i_long":106.831114,"transit":false,"line":2,"time":4,"station_id":"POC","distance":2727,"is_transit":false,"station_name":"Pondok Cina","i_lat":-6.369073},{"is_transit":false,"time":2,"line":2,"i_long":106.831474,"station_id":"UI","distance":1109,"station_name":"Univ. Indonesia","transit":false,"i_lat":-6.360749},{"time":3,"transit":false,"is_transit":false,"line":2,"station_name":"Univ. Pancasila","i_lat":-6.339291,"i_long":106.834175,"station_id":"UP","distance":2264},{"i_lat":-6.330363,"i_long":106.832616,"distance":1029,"line":2,"is_transit":false,"time":2,"station_name":"Lenteng Agung","transit":false,"station_id":"LNA"},{"time":3,"transit":false,"line":2,"station_id":"TNT","is_transit":false,"distance":2671,"station_name":"Tanjung Barat","i_lat":-6.3080680000000005,"i_long":106.838896},{"distance":2820,"is_transit":false,"line":2,"time":4,"transit":false,"station_name":"Pasar Minggu","station_id":"PSM","i_lat":-6.2842400000000005,"i_long":106.843999},{"i_lat":-6.263214,"is_transit":false,"transit":false,"distance":2380,"station_id":"PSMB","time":2,"station_name":"Pasar Minggu Baru","i_long":106.851577,"line":2},{"line":0,"is_transit":false,"time":2,"station_id":"DRN","station_name":"Duren Kalibata","i_lat":-6.255332,"distance":824,"transit":false,"i_long":106.85449},{"i_long":106.856607,"transit":false,"i_lat":-6.242512,"distance":1546,"is_transit":false,"time":3,"station_name":"Cawang","station_id":"CW","line":0},{"station_id":"TEB","distance":1230,"i_lat":-6.226659,"station_name":"Tebet","transit":false,"i_long":106.857948,"time":2,"is_transit":false,"line":2},{"station_id":"MRI","is_transit":true,"distance":2610,"line":0,"time":4,"i_long":106.84912,"transit":true,"station_name":"Manggarai","i_lat":-6.209883},{"transit":false,"line":1,"time":4,"station_name":"Sudirman","station_id":"SUD","i_lat":-6.202263,"i_long":106.822649,"is_transit":false,"distance":3186},{"line":1,"station_name":"Sudirman Baru","transit":false,"is_transit":false,"i_lat":-6.201433,"station_id":"SUDB","distance":280,"time":1,"i_long":106.819881},{"time":1,"station_name":"Karet","line":1,"i_long":106.816351,"is_transit":false,"station_id":"KAT","distance":471,"transit":false,"i_lat":-6.20132},{"distance":2029,"is_transit":true,"transit":false,"i_long":106.811091,"line":1,"station_id":"THB","station_name":"Tanah Abang","i_lat":-6.185545,"time":5},{"is_transit":true,"transit":true,"i_long":106.800832,"line":1,"station_name":"Duri","time":8,"distance":3632,"station_id":"DU","i_lat":-6.155215},{"distance":1230,"line":0,"i_long":106.79867,"station_id":"AK","time":4,"is_transit":false,"transit":false,"i_lat":-6.144674,"station_name":"Angke"},{"station_id":"KPB","time":9,"station_name":"Kampung Bandan","transit":true,"i_long":106.826365,"distance":4102,"is_transit":true,"line":0,"i_lat":-6.132549},{"is_transit":false,"station_name":"Rajawali","i_long":106.836569,"i_lat":-6.14505,"line":11,"distance":1444,"time":3,"transit":false,"station_id":"RJW"},{"station_id":"KMO","time":5,"is_transit":false,"transit":false,"i_long":106.839204,"station_name":"Kemayoran","i_lat":-6.161728,"distance":1901,"line":11},{"i_long":106.84368,"time":4,"station_name":"Pasar Senen","is_transit":false,"line":11,"transit":false,"station_id":"PSE","distance":1436,"i_lat":-6.174784},{"i_long":106.850107,"is_transit":false,"station_id":"GST","station_name":"Gang Sentiong","distance":1567,"time":8,"transit":false,"i_lat":-6.185975,"line":11},{"station_id":"KMT","time":1,"i_long":106.855437,"distance":973,"station_name":"Kramat","transit":false,"is_transit":false,"line":11,"i_lat":-6.193792},{"is_transit":false,"station_id":"POK","time":2,"distance":1829,"transit":false,"i_lat":-6.209188,"i_long":106.861737,"station_name":"Pondok Jati","line":11},{"line":0,"i_long":106.86807400000001,"distance":1236,"is_transit":true,"transit":true,"station_name":"Jatinegara","station_id":"JNG","time":9,"i_lat":-6.215091},{"station_id":"KLD","distance":3395,"time":3,"transit":false,"station_name":"Klender","i_lat":-6.2135,"i_long":106.899548,"is_transit":false,"line":1},{"station_id":"BUA","transit":false,"i_long":106.922662,"station_name":"Buaran","time":2,"distance":3100,"i_lat":-6.215568,"is_transit":false,"line":0},{"time":1,"station_name":"Klenderbaru","station_id":"KLDB","i_long":106.939679,"is_transit":false,"i_lat":-6.217455,"distance":1305,"line":1,"transit":false},{"station_id":"CUK","is_transit":false,"i_long":106.951283,"i_lat":-6.219053,"distance":1385,"line":0,"transit":false,"time":8,"station_name":"Cakung"},{"distance":3097,"time":3,"i_lat":-6.224515,"is_transit":false,"transit":false,"i_long":106.977657,"line":1,"station_id":"KRI","station_name":"Kranji"},{"line":0,"i_lat":-6.236616,"station_name":"Bekasi","station_id":"BKS","transit":false,"i_long":106.997013,"distance":2520,"time":4,"is_transit":false},{"station_id":"BKST","i_lat":-6.248029,"transit":false,"time":2,"i_long":107.016735,"line":0,"station_name":"Bekasi Timur","distance":2368,"is_transit":false}],[{"is_transit":false,"station_id":"CBN","line":0,"transit":false,"time":0,"station_name":"Cibinong","i_long":106.851978,"distance":0,"i_lat":-6.46424},{"i_long":106.800298,"transit":false,"distance":6740,"i_lat":-6.448811,"is_transit":true,"line":1,"station_id":"CTA","station_name":"Citayam","time":10},{"station_name":"Depok","station_id":"DP","transit":false,"is_transit":false,"i_lat":-6.405256,"i_long":106.816926,"distance":5084,"time":6,"line":0},{"distance":1584,"station_id":"DPB","is_transit":false,"transit":false,"i_long":106.819451,"time":3,"station_name":"Depokbaru","i_lat":-6.391065,"line":0},{"transit":false,"is_transit":false,"station_name":"Pondok Cina","i_long":106.831114,"station_id":"POC","i_lat":-6.369073,"line":2,"distance":2727,"time":4},{"distance":1109,"station_id":"UI","i_lat":-6.360749,"i_long":106.831474,"line":2,"is_transit":false,"station_name":"Univ. Indonesia","transit":false,"time":2},{"station_name":"Univ. Pancasila","line":2,"i_lat":-6.339291,"i_long":106.834175,"station_id":"UP","is_transit":false,"transit":false,"distance":2264,"time":3},{"station_id":"LNA","station_name":"Lenteng Agung","transit":false,"i_lat":-6.330363,"i_long":106.832616,"line":2,"time":2,"is_transit":false,"distance":1029},{"is_transit":false,"distance":2671,"transit":false,"i_long":106.838896,"line":2,"i_lat":-6.3080680000000005,"station_id":"TNT","station_name":"Tanjung Barat","time":3},{"time":4,"is_transit":false,"station_name":"Pasar Minggu","i_lat":-6.2842400000000005,"i_long":106.843999,"line":2,"station_id":"PSM","distance":2820,"transit":false},{"i_lat":-6.263214,"transit":false,"i_long":106.851577,"time":2,"distance":2380,"is_transit":false,"station_name":"Pasar Minggu Baru","station_id":"PSMB","line":2},{"i_long":106.85449,"is_transit":false,"transit":false,"station_id":"DRN","i_lat":-6.255332,"distance":824,"line":0,"station_name":"Duren Kalibata","time":2},{"i_long":106.856607,"time":3,"distance":1546,"transit":false,"i_lat":-6.242512,"line":0,"is_transit":false,"station_id":"CW","station_name":"Cawang"},{"station_id":"TEB","is_transit":false,"time":2,"distance":1230,"i_long":106.857948,"line":2,"station_name":"Tebet","i_lat":-6.226659,"transit":false},{"station_id":"MRI","line":0,"is_transit":true,"transit":true,"station_name":"Manggarai","distance":2610,"i_lat":-6.209883,"i_long":106.84912,"time":4},{"line":0,"is_transit":false,"station_id":"CKI","distance":1590,"i_long":106.840169,"station_name":"Cikini","i_lat":-6.198556,"transit":false,"time":4},{"line":2,"is_transit":false,"transit":false,"i_lat":-6.186295,"station_name":"Gondangdia","distance":1750,"i_long":106.832183,"station_id":"GDD","time":3},{"station_name":"Juanda","distance":2015,"station_id":"JUA","i_lat":-6.166716,"time":4,"i_long":106.828284,"is_transit":false,"line":2,"transit":false},{"station_name":"Sawah Besar","line":2,"is_transit":false,"i_long":106.827103,"station_id":"SW","time":2,"i_lat":-6.160725,"distance":1149,"transit":false},{"station_name":"Manggabesar","time":2,"line":2,"distance":906,"i_lat":-6.149769,"station_id":"MGB","is_transit":false,"i_long":106.82482,"transit":false},{"station_name":"Jayakarta","transit":false,"distance":1080,"time":2,"i_lat":-6.141205,"line":7,"i_long":106.820901,"station_id":"JAY","is_transit":false},{"i_lat":-6.137569,"line":0,"station_id":"JAKK","time":4,"station_name":"Jakarta Kota","i_long":106.812439,"distance":1264,"transit":true,"is_transit":true},{"i_long":106.826365,"time":3,"line":0,"station_id":"KPB","is_transit":true,"station_name":"Kampung Bandan","transit":true,"distance":1364,"i_lat":-6.132549},{"i_long":106.836569,"station_id":"RJW","transit":false,"i_lat":-6.14505,"line":11,"is_transit":false,"time":3,"station_name":"Rajawali","distance":1444},{"distance":1901,"station_name":"Kemayoran","i_long":106.839204,"i_lat":-6.161728,"is_transit":false,"line":11,"time":5,"transit":false,"station_id":"KMO"},{"transit":false,"station_id":"PSE","i_lat":-6.174784,"time":4,"distance":1436,"station_name":"Pasar Senen","i_long":106.84368,"is_transit":false,"line":11},{"time":8,"i_long":106.850107,"transit":false,"is_transit":false,"station_id":"GST","line":11,"distance":1567,"station_name":"Gang Sentiong","i_lat":-6.185975},{"transit":false,"distance":973,"station_name":"Kramat","i_long":106.855437,"i_lat":-6.193792,"is_transit":false,"station_id":"KMT","time":1,"line":11},{"is_transit":false,"station_name":"Pondok Jati","distance":1829,"station_id":"POK","i_lat":-6.209188,"line":11,"transit":false,"i_long":106.861737,"time":2},{"transit":true,"is_transit":true,"time":9,"distance":1236,"station_name":"Jatinegara","i_long":106.86807400000001,"line":0,"station_id":"JNG","i_lat":-6.215091},{"station_name":"Klender","station_id":"KLD","line":1,"i_long":106.899548,"is_transit":false,"i_lat":-6.2135,"time":3,"distance":3395,"transit":false},{"line":0,"is_transit":false,"station_id":"BUA","distance":3100,"i_long":106.922662,"time":2,"transit":false,"i_lat":-6.215568,"station_name":"Buaran"},{"time":1,"i_long":106.939679,"line":1,"distance":1305,"transit":false,"i_lat":-6.217455,"is_transit":false,"station_id":"KLDB","station_name":"Klenderbaru"},{"distance":1385,"station_name":"Cakung","i_lat":-6.219053,"station_id":"CUK","i_long":106.951283,"transit":false,"line":0,"time":8,"is_transit":false},{"station_id":"KRI","i_lat":-6.224515,"transit":false,"is_transit":false,"line":1,"distance":3097,"station_name":"Kranji","time":3,"i_long":106.977657},{"is_transit":false,"i_long":106.997013,"transit":false,"line":0,"i_lat":-6.236616,"station_name":"Bekasi","time":4,"station_id":"BKS","distance":2520},{"line":0,"distance":2368,"is_transit":false,"transit":false,"station_id":"BKST","i_lat":-6.248029,"i_long":107.016735,"time":2,"station_name":"Bekasi Timur"}]]}