{"data":[[{"is_transit":false,"station_name":"Cibinong","distance":0,"line":21,"time":0,"i_lat":-6.46424,"i_long":106.851978,"transit":false,"station_id":"CBN"},{"station_name":"Pondok Rajeg","transit":false,"time":0,"station_id":"PDRG","i_lat":-6.460735,"is_transit":false,"i_long":106.824374,"line":21,"distance":0},{"i_long":106.800298,"station_id":"CTA","line":2,"time":0,"station_name":"Citayam","distance":0,"is_transit":true,"transit":true,"i_lat":-6.448811},{"station_id":"DP","distance":5084,"is_transit":false,"station_name":"Depok","i_long":106.816926,"line":2,"transit":false,"time":6,"i_lat":-6.405256},{"time":3,"i_long":106.819451,"line":2,"station_id":"DPB","transit":false,"is_transit":false,"station_name":"Depokbaru","i_lat":-6.391065,"distance":1584},{"distance":2727,"station_id":"POC","transit":false,"time":4,"i_lat":-6.369073,"i_long":106.831114,"is_transit":false,"line":2,"station_name":"Pondok Cina"},{"is_transit":false,"i_long":106.831474,"line":2,"station_name":"Univ. Indonesia","station_id":"UI","time":2,"i_lat":-6.360749,"distance":1109,"transit":false},{"transit":false,"is_transit":false,"line":2,"station_name":"Univ. Pancasila","i_long":106.834175,"station_id":"UP","time":3,"distance":2264,"i_lat":-6.339291},{"transit":false,"time":2,"station_id":"LNA","station_name":"Lenteng Agung","i_lat":-6.330363,"i_long":106.832616,"line":2,"is_transit":false,"distance":1029},{"is_transit":false,"i_long":106.838896,"distance":2671,"station_id":"TNT","transit":false,"line":2,"station_name":"Tanjung Barat","i_lat":-6.3080680000000005,"time":3},{"is_transit":false,"i_long":106.843999,"i_lat":-6.2842400000000005,"line":2,"transit":false,"time":4,"station_id":"PSM","distance":2820,"station_name":"Pasar Minggu"},{"i_long":106.851577,"distance":2380,"line":2,"transit":false,"station_id":"PSMB","i_lat":-6.263214,"is_transit":false,"station_name":"Pasar Minggu Baru","time":2},{"is_transit":false,"transit":false,"time":2,"i_lat":-6.255332,"i_long":106.85449,"distance":824,"station_name":"Duren Kalibata","line":2,"station_id":"DRN"},{"station_name":"Cawang","time":3,"i_lat":-6.242512,"station_id":"CW","is_transit":false,"distance":1546,"transit":false,"line":2,"i_long":106.856607},{"station_id":"TEB","distance":1230,"is_transit":false,"station_name":"Tebet","i_long":106.857948,"line":2,"i_lat":-6.226659,"time":2,"transit":false},{"i_lat":-6.209883,"is_transit":true,"station_id":"MRI","time":4,"distance":2610,"i_long":106.84912,"line":2,"station_name":"Manggarai","transit":true},{"i_long":106.822649,"i_lat":-6.202263,"station_id":"SUD","transit":false,"distance":3186,"is_transit":false,"line":1,"time":4,"station_name":"Sudirman"},{"station_id":"SUDB","transit":false,"time":1,"i_long":106.819881,"is_transit":false,"distance":280,"line":1,"station_name":"Sudirman Baru","i_lat":-6.201433},{"transit":false,"time":1,"station_name":"Karet","i_lat":-6.20132,"station_id":"KAT","distance":471,"is_transit":false,"line":1,"i_long":106.816351},{"is_transit":false,"transit":false,"time":5,"line":1,"distance":2029,"station_name":"Tanah Abang","i_lat":-6.185545,"i_long":106.811091,"station_id":"THB"}],[{"line":21,"station_id":"CBN","i_lat":-6.46424,"i_long":106.851978,"is_transit":false,"distance":0,"transit":false,"station_name":"Cibinong","time":0},{"i_long":106.824374,"line":21,"is_transit":false,"distance":0,"station_id":"PDRG","transit":false,"station_name":"Pondok Rajeg","time":0,"i_lat":-6.460735},{"station_name":"Citayam","station_id":"CTA","is_transit":true,"line":2,"distance":0,"i_lat":-6.448811,"time":0,"i_long":106.800298,"transit":true},{"is_transit":false,"i_lat":-6.405256,"line":2,"station_name":"Depok","time":6,"distance":5084,"transit":false,"station_id":"DP","i_long":106.816926},{"station_name":"Depokbaru","time":3,"is_transit":false,"i_lat":-6.391065,"distance":1584,"transit":false,"i_long":106.819451,"station_id":"DPB","line":2},{"distance":2727,"i_lat":-6.369073,"i_long":106.831114,"line":2,"station_id":"POC","is_transit":false,"station_name":"Pondok Cina","transit":false,"time":4},{"station_name":"Univ. Indonesia","is_transit":false,"time":2,"station_id":"UI","i_long":106.831474,"distance":1109,"line":2,"i_lat":-6.360749,"transit":false},{"transit":false,"is_transit":false,"station_id":"UP","time":3,"distance":2264,"line":2,"station_name":"Univ. Pancasila","i_lat":-6.339291,"i_long":106.834175},{"line":2,"time":2,"station_id":"LNA","i_lat":-6.330363,"station_name":"Lenteng Agung","i_long":106.832616,"distance":1029,"transit":false,"is_transit":false},{"time":3,"line":2,"i_long":106.838896,"station_id":"TNT","transit":false,"station_name":"Tanjung Barat","distance":2671,"i_lat":-6.3080680000000005,"is_transit":false},{"i_long":106.843999,"transit":false,"station_id":"PSM","line":2,"station_name":"Pasar Minggu","i_lat":-6.2842400000000005,"distance":2820,"time":4,"is_transit":false},{"time":2,"station_name":"Pasar Minggu Baru","is_transit":false,"station_id":"PSMB","i_lat":-6.263214,"line":2,"transit":false,"i_long":106.851577,"distance":2380},{"transit":false,"distance":824,"time":2,"is_transit":false,"i_lat":-6.255332,"station_name":"Duren Kalibata","station_id":"DRN","i_long":106.85449,"line":2},{"distance":1546,"station_id":"CW","transit":false,"station_name":"Cawang","is_transit":false,"line":2,"time":3,"i_lat":-6.242512,"i_long":106.856607},{"transit":false,"station_name":"Tebet","distance":1230,"i_long":106.857948,"line":2,"station_id":"TEB","is_transit":false,"time":2,"i_lat":-6.226659},{"station_id":"MRI","station_name":"Manggarai","is_transit":false,"line":2,"transit":false,"time":4,"i_lat":-6.209883,"distance":2610,"i_long":106.84912},{"line":2,"is_transit":false,"transit":false,"station_id":"CKI","station_name":"Cikini","i_lat":-6.198556,"distance":1590,"i_long":106.840169,"time":4},{"i_long":106.832183,"station_id":"GDD","transit":false,"is_transit":false,"distance":1750,"line":2,"i_lat":-6.186295,"station_name":"Gondangdia","time":3},{"distance":2015,"is_transit":false,"station_id":"JUA","line":2,"transit":false,"station_name":"Juanda","time":4,"i_lat":-6.166716,"i_long":106.828284},{"distance":1149,"line":2,"station_name":"Sawah Besar","time":2,"i_long":106.827103,"i_lat":-6.160725,"station_id":"SW","transit":false,"is_transit":false},{"station_name":"Manggabesar","i_lat":-6.149769,"i_long":106.82482,"is_transit":false,"distance":906,"transit":false,"line":2,"time":2,"station_id":"MGB"},{"transit":false,"is_transit":false,"i_lat":-6.141205,"station_id":"JAY","station_name":"Jayakarta","line":2,"i_long":106.820901,"time":2,"distance":1080},{"station_name":"Jakarta Kota","transit":true,"time":4,"i_lat":-6.137569,"distance":1264,"line":2,"is_transit":true,"i_long":106.812439,"station_id":"JAKK"},{"line":4,"station_id":"KPB","distance":1364,"is_transit":true,"i_lat":-6.132549,"i_long":106.826365,"transit":true,"time":3,"station_name":"Kampung Bandan"},{"station_id":"AK","time":9,"distance":4102,"i_lat":-6.144674,"i_long":106.79867,"line":1,"is_transit":false,"station_name":"Angke","transit":false},{"i_lat":-6.155215,"station_name":"Duri","transit":false,"distance":1230,"time":4,"line":1,"i_long":106.800832,"station_id":"DU","is_transit":false},{"transit":false,"i_long":106.811091,"is_transit":false,"station_name":"Tanah Abang","distance":3632,"station_id":"THB","line":1,"i_lat":-6.185545,"time":8}],[{"station_name":"Cibinong","is_transit":false,"i_lat":-6.46424,"line":21,"time":0,"i_long":106.851978,"transit":false,"station_id":"CBN","distance":0},{"distance":0,"is_transit":false,"transit":false,"station_name":"Pondok Rajeg","i_long":106.824374,"time":0,"station_id":"PDRG","i_lat":-6.460735,"line":21},{"i_long":106.800298,"is_transit":true,"distance":0,"transit":true,"line":2,"station_name":"Citayam","i_lat":-6.448811,"time":0,"station_id":"CTA"},{"is_transit":false,"i_lat":-6.405256,"station_id":"DP","station_name":"Depok","distance":5084,"transit":false,"time":6,"i_long":106.816926,"line":2},{"station_name":"Depokbaru","time":3,"i_long":106.819451,"line":2,"station_id":"DPB","is_transit":false,"distance":1584,"i_lat":-6.391065,"transit":false},{"i_long":106.831114,"is_transit":false,"station_name":"Pondok Cina","i_lat":-6.369073,"station_id":"POC","distance":2727,"transit":false,"line":2,"time":4},{"station_id":"UI","is_transit":false,"i_long":106.831474,"line":2,"transit":false,"station_name":"Univ. Indonesia","i_lat":-6.360749,"time":2,"distance":1109},{"transit":false,"is_transit":false,"i_lat":-6.339291,"time":3,"i_long":106.834175,"distance":2264,"line":2,"station_id":"UP","station_name":"Univ. Pancasila"},{"i_lat":-6.330363,"distance":1029,"station_name":"Lenteng Agung","station_id":"LNA","time":2,"i_long":106.832616,"transit":false,"line":2,"is_transit":false},{"i_long":106.838896,"station_id":"TNT","station_name":"Tanjung Barat","transit":false,"time":3,"distance":2671,"is_transit":false,"i_lat":-6.3080680000000005,"line":2},{"time":4,"distance":2820,"transit":false,"station_name":"Pasar Minggu","i_long":106.843999,"i_lat":-6.2842400000000005,"line":2,"is_transit":false,"station_id":"PSM"},{"is_transit":false,"i_long":106.851577,"transit":false,"station_name":"Pasar Minggu Baru","station_id":"PSMB","time":2,"distance":2380,"i_lat":-6.263214,"line":2},{"i_lat":-6.255332,"time":2,"line":2,"transit":false,"i_long":106.85449,"distance":824,"station_id":"DRN","station_name":"Duren Kalibata","is_transit":false},{"distance":1546,"i_long":106.856607,"station_id":"CW","line":2,"transit":false,"i_lat":-6.242512,"time":3,"is_transit":false,"station_name":"Cawang"},{"station_name":"Tebet","is_transit":false,"time":2,"distance":1230,"transit":false,"line":2,"i_lat":-6.226659,"station_id":"TEB","i_long":106.857948},{"distance":2610,"time":4,"i_lat":-6.209883,"i_long":106.84912,"station_id":"MRI","is_transit":true,"transit":true,"station_name":"Manggarai","line":2},{"transit":false,"line":1,"station_name":"Matraman","distance":1275,"i_lat":-6.212485,"station_id":"MTR","is_transit":false,"time":2,"i_long":106.858896},{"i_lat":-6.215091,"is_transit":true,"station_name":"Jatinegara","i_long":106.86807400000001,"station_id":"JNG","time":8,"distance":1377,"transit":true,"line":1},{"station_id":"POK","station_name":"Pondok Jati","transit":false,"distance":1236,"i_lat":-6.209188,"line":11,"is_transit":false,"time":2,"i_long":106.861737},{"transit":false,"is_transit":false,"line":11,"station_name":"Kramat","time":2,"distance":1829,"station_id":"KMT","i_long":106.855437,"i_lat":-6.193792},{"line":11,"time":1,"station_id":"GST","station_name":"Gang Sentiong","is_transit":false,"i_long":106.850107,"distance":973,"transit":false,"i_lat":-6.185975},{"is_transit":false,"station_id":"PSE","time":8,"line":11,"i_long":106.84368,"transit":false,"i_lat":-6.174784,"distance":1567,"station_name":"Pasar Senen"},{"station_id":"KMO","station_name":"Kemayoran","is_transit":false,"time":4,"transit":false,"distance":1436,"line":11,"i_long":106.839204,"i_lat":-6.161728},{"distance":1901,"i_long":106.836569,"station_id":"RJW","is_transit":false,"line":11,"transit":false,"i_lat":-6.14505,"time":5,"station_name":"Rajawali"},{"station_name":"Kampung Bandan","i_long":106.826365,"time":3,"transit":true,"station_id":"KPB","i_lat":-6.132549,"distance":1444,"is_transit":true,"line":4},{"distance":4102,"i_lat":-6.144674,"i_long":106.79867,"station_name":"Angke","transit":false,"time":9,"line":1,"is_transit":false,"station_id":"AK"},{"transit":false,"i_lat":-6.155215,"is_transit":false,"line":1,"i_long":106.800832,"station_id":"DU","station_name":"Duri","time":4,"distance":1230},{"distance":3632,"i_lat":-6.185545,"transit":false,"is_transit":false,"time":8,"station_name":"Tanah Abang","line":1,"station_id":"THB","i_long":106.811091}]]}