{"data":[[{"is_transit":false,"distance":0,"line":21,"station_id":"CBN","station_name":"Cibinong","time":0,"transit":false,"i_lat":-6.46424,"i_long":106.851978},{"distance":0,"is_transit":false,"transit":false,"i_long":106.824374,"station_id":"PDRG","station_name":"Pondok Rajeg","line":21,"time":0,"i_lat":-6.460735},{"station_id":"CTA","distance":0,"time":0,"is_transit":true,"station_name":"Citayam","transit":true,"i_lat":-6.448811,"i_long":106.800298,"line":2},{"i_lat":-6.405256,"i_long":106.816926,"is_transit":false,"line":2,"transit":false,"time":6,"station_name":"Depok","distance":5084,"station_id":"DP"},{"line":2,"station_name":"Depokbaru","i_lat":-6.391065,"station_id":"DPB","i_long":106.819451,"distance":1584,"is_transit":false,"transit":false,"time":3},{"transit":false,"time":4,"i_lat":-6.369073,"station_id":"POC","line":2,"i_long":106.831114,"station_name":"Pondok Cina","is_transit":false,"distance":2727},{"i_lat":-6.360749,"station_id":"UI","is_transit":false,"time":2,"distance":1109,"transit":false,"station_name":"Univ. Indonesia","i_long":106.831474,"line":2},{"station_id":"UP","transit":false,"is_transit":false,"line":2,"station_name":"Univ. Pancasila","i_lat":-6.339291,"distance":2264,"time":3,"i_long":106.834175},{"is_transit":false,"time":2,"line":2,"i_long":106.832616,"transit":false,"station_id":"LNA","distance":1029,"i_lat":-6.330363,"station_name":"Lenteng Agung"},{"is_transit":false,"distance":2671,"line":2,"station_name":"Tanjung Barat","transit":false,"station_id":"TNT","time":3,"i_lat":-6.3080680000000005,"i_long":106.838896},{"station_name":"Pasar Minggu","is_transit":false,"time":4,"line":2,"i_long":106.843999,"distance":2820,"transit":false,"station_id":"PSM","i_lat":-6.2842400000000005},{"i_lat":-6.263214,"i_long":106.851577,"distance":2380,"line":2,"station_name":"Pasar Minggu Baru","is_transit":false,"station_id":"PSMB","transit":false,"time":2},{"is_transit":false,"i_long":106.85449,"time":2,"distance":824,"station_id":"DRN","i_lat":-6.255332,"transit":false,"line":2,"station_name":"Duren Kalibata"},{"line":2,"is_transit":false,"distance":1546,"transit":false,"i_lat":-6.242512,"station_id":"CW","i_long":106.856607,"station_name":"Cawang","time":3},{"station_name":"Tebet","is_transit":false,"station_id":"TEB","distance":1230,"transit":false,"i_lat":-6.226659,"i_long":106.857948,"time":2,"line":2},{"station_id":"MRI","line":2,"i_long":106.84912,"station_name":"Manggarai","distance":2610,"is_transit":true,"transit":true,"i_lat":-6.209883,"time":4},{"station_name":"Sudirman","line":1,"is_transit":false,"transit":false,"i_long":106.822649,"station_id":"SUD","i_lat":-6.202263,"distance":3186,"time":4},{"is_transit":false,"i_long":106.819881,"distance":280,"station_id":"SUDB","transit":false,"time":1,"i_lat":-6.201433,"station_name":"Sudirman Baru","line":1},{"is_transit":false,"time":1,"transit":false,"station_id":"KAT","distance":471,"line":1,"i_long":106.816351,"i_lat":-6.20132,"station_name":"Karet"},{"distance":2029,"line":1,"station_name":"Tanah Abang","transit":false,"time":5,"i_lat":-6.185545,"i_long":106.811091,"is_transit":false,"station_id":"THB"},{"station_name":"Duri","is_transit":true,"time":8,"i_lat":-6.155215,"transit":true,"distance":3632,"station_id":"DU","line":1,"i_long":106.800832},{"station_name":"Grogol","line":5,"station_id":"GGL","i_long":106.788277,"transit":false,"distance":1700,"is_transit":false,"i_lat":-6.162021,"time":3},{"transit":false,"station_name":"Pesing","distance":2036,"is_transit":false,"time":2,"i_lat":-6.161433,"line":5,"station_id":"PSG","i_long":106.771379},{"i_lat":-6.1587309999999995,"time":2,"station_name":"Taman Kota","is_transit":false,"distance":1614,"i_long":106.756522,"line":5,"station_id":"TKO","transit":false},{"transit":false,"station_name":"Bojongindah","is_transit":false,"i_lat":-6.159876,"i_long":106.737035,"line":5,"distance":2334,"time":2,"station_id":"BOI"}],[{"distance":0,"station_id":"CBN","station_name":"Cibinong","transit":false,"i_long":106.851978,"is_transit":false,"i_lat":-6.46424,"line":21,"time":0},{"distance":0,"line":21,"station_id":"PDRG","station_name":"Pondok Rajeg","i_lat":-6.460735,"is_transit":false,"time":0,"transit":false,"i_long":106.824374},{"station_id":"CTA","is_transit":true,"time":0,"i_long":106.800298,"line":2,"i_lat":-6.448811,"transit":true,"station_name":"Citayam","distance":0},{"time":6,"station_name":"Depok","i_long":106.816926,"station_id":"DP","distance":5084,"is_transit":false,"line":2,"i_lat":-6.405256,"transit":false},{"line":2,"transit":false,"station_name":"Depokbaru","distance":1584,"is_transit":false,"station_id":"DPB","time":3,"i_long":106.819451,"i_lat":-6.391065},{"is_transit":false,"time":4,"distance":2727,"station_id":"POC","transit":false,"i_long":106.831114,"line":2,"station_name":"Pondok Cina","i_lat":-6.369073},{"station_id":"UI","is_transit":false,"station_name":"Univ. Indonesia","line":2,"time":2,"i_lat":-6.360749,"distance":1109,"i_long":106.831474,"transit":false},{"station_id":"UP","distance":2264,"time":3,"transit":false,"i_long":106.834175,"line":2,"i_lat":-6.339291,"station_name":"Univ. Pancasila","is_transit":false},{"transit":false,"is_transit":false,"station_id":"LNA","time":2,"line":2,"station_name":"Lenteng Agung","i_long":106.832616,"distance":1029,"i_lat":-6.330363},{"line":2,"time":3,"i_long":106.838896,"station_name":"Tanjung Barat","distance":2671,"is_transit":false,"station_id":"TNT","transit":false,"i_lat":-6.3080680000000005},{"is_transit":false,"i_lat":-6.2842400000000005,"transit":false,"station_name":"Pasar Minggu","time":4,"i_long":106.843999,"station_id":"PSM","distance":2820,"line":2},{"distance":2380,"station_name":"Pasar Minggu Baru","is_transit":false,"i_lat":-6.263214,"i_long":106.851577,"time":2,"line":2,"transit":false,"station_id":"PSMB"},{"line":2,"station_name":"Duren Kalibata","time":2,"station_id":"DRN","i_long":106.85449,"is_transit":false,"distance":824,"transit":false,"i_lat":-6.255332},{"i_long":106.856607,"station_id":"CW","time":3,"distance":1546,"is_transit":false,"line":2,"station_name":"Cawang","i_lat":-6.242512,"transit":false},{"transit":false,"distance":1230,"station_id":"TEB","time":2,"line":2,"i_lat":-6.226659,"station_name":"Tebet","is_transit":false,"i_long":106.857948},{"station_name":"Manggarai","distance":2610,"time":4,"is_transit":false,"station_id":"MRI","i_long":106.84912,"line":2,"transit":false,"i_lat":-6.209883},{"is_transit":false,"line":2,"time":4,"i_long":106.840169,"station_name":"Cikini","station_id":"CKI","distance":1590,"i_lat":-6.198556,"transit":false},{"line":2,"is_transit":false,"i_long":106.832183,"station_id":"GDD","i_lat":-6.186295,"distance":1750,"transit":false,"station_name":"Gondangdia","time":3},{"distance":2015,"station_id":"JUA","transit":false,"time":4,"is_transit":false,"i_long":106.828284,"station_name":"Juanda","i_lat":-6.166716,"line":2},{"i_lat":-6.160725,"i_long":106.827103,"station_name":"Sawah Besar","station_id":"SW","distance":1149,"transit":false,"time":2,"is_transit":false,"line":2},{"station_name":"Manggabesar","station_id":"MGB","line":2,"distance":906,"time":2,"transit":false,"is_transit":false,"i_long":106.82482,"i_lat":-6.149769},{"is_transit":false,"distance":1080,"time":2,"i_long":106.820901,"station_id":"JAY","transit":false,"station_name":"Jayakarta","i_lat":-6.141205,"line":2},{"transit":true,"distance":1264,"is_transit":true,"time":4,"i_lat":-6.137569,"station_id":"JAKK","line":2,"station_name":"Jakarta Kota","i_long":106.812439},{"line":4,"i_lat":-6.132549,"transit":true,"station_id":"KPB","station_name":"Kampung Bandan","is_transit":true,"distance":1364,"i_long":106.826365,"time":3},{"i_lat":-6.144674,"transit":false,"station_name":"Angke","station_id":"AK","time":9,"line":1,"is_transit":false,"i_long":106.79867,"distance":4102},{"i_lat":-6.155215,"line":1,"is_transit":true,"station_name":"Duri","transit":true,"station_id":"DU","distance":1230,"time":4,"i_long":106.800832},{"i_lat":-6.162021,"is_transit":false,"i_long":106.788277,"transit":false,"time":3,"line":5,"distance":1700,"station_name":"Grogol","station_id":"GGL"},{"i_long":106.771379,"line":5,"transit":false,"station_id":"PSG","is_transit":false,"time":2,"station_name":"Pesing","i_lat":-6.161433,"distance":2036},{"is_transit":false,"station_id":"TKO","transit":false,"distance":1614,"time":2,"i_long":106.756522,"i_lat":-6.1587309999999995,"station_name":"Taman Kota","line":5},{"line":5,"station_name":"Bojongindah","transit":false,"i_long":106.737035,"distance":2334,"station_id":"BOI","time":2,"i_lat":-6.159876,"is_transit":false}],[{"line":21,"station_name":"Cibinong","i_lat":-6.46424,"distance":0,"station_id":"CBN","is_transit":false,"time":0,"i_long":106.851978,"transit":false},{"station_name":"Pondok Rajeg","is_transit":false,"distance":0,"station_id":"PDRG","time":0,"i_lat":-6.460735,"i_long":106.824374,"line":21,"transit":false},{"transit":true,"station_name":"Citayam","is_transit":true,"i_lat":-6.448811,"station_id":"CTA","line":2,"distance":0,"i_long":106.800298,"time":0},{"time":6,"transit":false,"station_id":"DP","is_transit":false,"i_long":106.816926,"station_name":"Depok","line":2,"distance":5084,"i_lat":-6.405256},{"station_name":"Depokbaru","time":3,"transit":false,"line":2,"distance":1584,"station_id":"DPB","i_lat":-6.391065,"i_long":106.819451,"is_transit":false},{"time":4,"i_lat":-6.369073,"transit":false,"i_long":106.831114,"station_id":"POC","station_name":"Pondok Cina","distance":2727,"is_transit":false,"line":2},{"station_name":"Univ. Indonesia","is_transit":false,"i_long":106.831474,"i_lat":-6.360749,"station_id":"UI","line":2,"transit":false,"distance":1109,"time":2},{"station_name":"Univ. Pancasila","time":3,"station_id":"UP","is_transit":false,"transit":false,"i_long":106.834175,"line":2,"distance":2264,"i_lat":-6.339291},{"station_id":"LNA","time":2,"i_lat":-6.330363,"line":2,"distance":1029,"i_long":106.832616,"transit":false,"station_name":"Lenteng Agung","is_transit":false},{"i_long":106.838896,"transit":false,"distance":2671,"is_transit":false,"station_name":"Tanjung Barat","time":3,"station_id":"TNT","line":2,"i_lat":-6.3080680000000005},{"i_lat":-6.2842400000000005,"distance":2820,"station_id":"PSM","line":2,"i_long":106.843999,"station_name":"Pasar Minggu","transit":false,"is_transit":false,"time":4},{"station_name":"Pasar Minggu Baru","time":2,"transit":false,"is_transit":false,"i_lat":-6.263214,"distance":2380,"line":2,"station_id":"PSMB","i_long":106.851577},{"i_long":106.85449,"transit":false,"is_transit":false,"station_id":"DRN","station_name":"Duren Kalibata","time":2,"i_lat":-6.255332,"line":2,"distance":824},{"time":3,"transit":false,"i_lat":-6.242512,"line":2,"station_name":"Cawang","distance":1546,"is_transit":false,"station_id":"CW","i_long":106.856607},{"time":2,"line":2,"is_transit":false,"distance":1230,"transit":false,"station_name":"Tebet","station_id":"TEB","i_lat":-6.226659,"i_long":106.857948},{"station_id":"MRI","time":4,"i_lat":-6.209883,"transit":true,"station_name":"Manggarai","is_transit":true,"i_long":106.84912,"distance":2610,"line":2},{"station_id":"MTR","distance":1275,"is_transit":false,"i_lat":-6.212485,"station_name":"Matraman","transit":false,"i_long":106.858896,"line":1,"time":2},{"time":8,"transit":true,"distance":1377,"is_transit":true,"station_id":"JNG","i_lat":-6.215091,"i_long":106.86807400000001,"line":1,"station_name":"Jatinegara"},{"station_id":"POK","i_long":106.861737,"line":11,"i_lat":-6.209188,"station_name":"Pondok Jati","transit":false,"time":2,"distance":1236,"is_transit":false},{"line":11,"i_long":106.855437,"station_id":"KMT","distance":1829,"is_transit":false,"station_name":"Kramat","transit":false,"time":2,"i_lat":-6.193792},{"transit":false,"is_transit":false,"station_name":"Gang Sentiong","i_long":106.850107,"i_lat":-6.185975,"station_id":"GST","distance":973,"line":11,"time":1},{"is_transit":false,"time":8,"i_lat":-6.174784,"transit":false,"distance":1567,"station_name":"Pasar Senen","i_long":106.84368,"line":11,"station_id":"PSE"},{"station_id":"KMO","is_transit":false,"station_name":"Kemayoran","time":4,"i_long":106.839204,"i_lat":-6.161728,"line":11,"distance":1436,"transit":false},{"time":5,"station_id":"RJW","is_transit":false,"i_lat":-6.14505,"station_name":"Rajawali","distance":1901,"i_long":106.836569,"transit":false,"line":11},{"time":3,"station_name":"Kampung Bandan","is_transit":true,"station_id":"KPB","line":4,"distance":1444,"i_long":106.826365,"i_lat":-6.132549,"transit":true},{"station_name":"Angke","i_long":106.79867,"distance":4102,"is_transit":false,"station_id":"AK","time":9,"i_lat":-6.144674,"transit":false,"line":1},{"time":4,"distance":1230,"line":1,"i_lat":-6.155215,"i_long":106.800832,"station_id":"DU","transit":true,"station_name":"Duri","is_transit":true},{"time":3,"i_long":106.788277,"i_lat":-6.162021,"station_name":"Grogol","transit":false,"line":5,"station_id":"GGL","distance":1700,"is_transit":false},{"transit":false,"station_id":"PSG","station_name":"Pesing","distance":2036,"time":2,"is_transit":false,"line":5,"i_lat":-6.161433,"i_long":106.771379},{"i_lat":-6.1587309999999995,"is_transit":false,"line":5,"station_name":"Taman Kota","station_id":"TKO","transit":false,"distance":1614,"time":2,"i_long":106.756522},{"station_id":"BOI","is_transit":false,"time":2,"distance":2334,"i_lat":-6.159876,"i_long":106.737035,"line":5,"transit":false,"station_name":"Bojongindah"}]]}