{"data":[[{"distance":0,"transit":false,"i_lat":-6.46424,"is_transit":false,"station_id":"CBN","time":0,"station_name":"Cibinong","i_long":106.851978,"line":21},{"station_name":"Pondok Rajeg","transit":false,"distance":0,"station_id":"PDRG","time":0,"line":21,"i_lat":-6.460735,"is_transit":false,"i_long":106.824374},{"i_long":106.800298,"transit":true,"line":2,"i_lat":-6.448811,"station_name":"Citayam","time":0,"station_id":"CTA","is_transit":true,"distance":0},{"line":2,"is_transit":false,"i_lat":-6.405256,"station_id":"DP","time":6,"distance":5084,"station_name":"Depok","transit":false,"i_long":106.816926},{"is_transit":false,"distance":1584,"transit":false,"station_name":"Depokbaru","time":3,"i_lat":-6.391065,"i_long":106.819451,"line":2,"station_id":"DPB"},{"station_id":"POC","distance":2727,"transit":false,"i_long":106.831114,"i_lat":-6.369073,"time":4,"line":2,"station_name":"Pondok Cina","is_transit":false},{"station_name":"Univ. Indonesia","transit":false,"is_transit":false,"time":2,"distance":1109,"i_long":106.831474,"line":2,"i_lat":-6.360749,"station_id":"UI"},{"time":3,"is_transit":false,"distance":2264,"i_lat":-6.339291,"station_name":"Univ. Pancasila","line":2,"i_long":106.834175,"transit":false,"station_id":"UP"},{"transit":false,"time":2,"is_transit":false,"station_id":"LNA","i_long":106.832616,"distance":1029,"i_lat":-6.330363,"station_name":"Lenteng Agung","line":2},{"is_transit":false,"station_name":"Tanjung Barat","transit":false,"line":2,"i_lat":-6.3080680000000005,"i_long":106.838896,"distance":2671,"station_id":"TNT","time":3},{"time":4,"i_long":106.843999,"is_transit":false,"line":2,"transit":false,"station_id":"PSM","i_lat":-6.2842400000000005,"station_name":"Pasar Minggu","distance":2820},{"transit":false,"i_lat":-6.263214,"i_long":106.851577,"is_transit":false,"line":2,"station_id":"PSMB","time":2,"distance":2380,"station_name":"Pasar Minggu Baru"},{"i_lat":-6.255332,"is_transit":false,"station_id":"DRN","station_name":"Duren Kalibata","time":2,"line":2,"i_long":106.85449,"transit":false,"distance":824},{"distance":1546,"i_lat":-6.242512,"is_transit":false,"line":2,"station_name":"Cawang","i_long":106.856607,"time":3,"station_id":"CW","transit":false},{"station_name":"Tebet","i_long":106.857948,"transit":false,"is_transit":false,"line":2,"station_id":"TEB","distance":1230,"time":2,"i_lat":-6.226659},{"i_lat":-6.209883,"i_long":106.84912,"station_id":"MRI","is_transit":true,"time":4,"line":2,"transit":true,"distance":2610,"station_name":"Manggarai"},{"i_long":106.822649,"station_name":"Sudirman","is_transit":false,"distance":3186,"i_lat":-6.202263,"station_id":"SUD","line":1,"time":4,"transit":false},{"transit":false,"station_id":"SUDB","i_long":106.819881,"station_name":"Sudirman Baru","is_transit":false,"line":1,"i_lat":-6.201433,"distance":280,"time":1},{"transit":false,"time":1,"i_lat":-6.20132,"distance":471,"station_id":"KAT","is_transit":false,"line":1,"station_name":"Karet","i_long":106.816351},{"is_transit":false,"i_long":106.811091,"station_name":"Tanah Abang","line":1,"time":5,"distance":2029,"station_id":"THB","i_lat":-6.185545,"transit":false},{"station_name":"Duri","station_id":"DU","i_lat":-6.155215,"is_transit":true,"transit":true,"time":8,"line":1,"i_long":106.800832,"distance":3632},{"station_name":"Grogol","i_long":106.788277,"line":5,"is_transit":false,"time":3,"distance":1700,"i_lat":-6.162021,"transit":false,"station_id":"GGL"},{"transit":false,"station_name":"Pesing","distance":2036,"station_id":"PSG","is_transit":false,"i_lat":-6.161433,"line":5,"i_long":106.771379,"time":2},{"i_lat":-6.1587309999999995,"i_long":106.756522,"station_name":"Taman Kota","transit":false,"distance":1614,"line":5,"is_transit":false,"time":2,"station_id":"TKO"},{"i_lat":-6.159876,"station_name":"Bojongindah","time":2,"is_transit":false,"distance":2334,"i_long":106.737035,"station_id":"BOI","line":5,"transit":false},{"transit":false,"is_transit":false,"time":4,"i_lat":-6.162758,"line":5,"distance":1152,"station_id":"RW","station_name":"Rawa Buaya","i_long":106.723064},{"i_long":106.701612,"line":5,"station_name":"Kalideres","time":3,"transit":false,"is_transit":false,"distance":2504,"station_id":"KDS","i_lat":-6.166068},{"i_lat":-6.169933,"transit":false,"i_long":106.679458,"line":5,"station_id":"PI","distance":2548,"station_name":"Poris","time":3,"is_transit":false},{"station_name":"Batuceper","i_lat":-6.171811,"transit":false,"line":5,"is_transit":false,"time":3,"station_id":"BPR","i_long":106.665036,"distance":1834},{"time":3,"is_transit":false,"distance":2028,"station_name":"Tanah Tinggi","station_id":"TTI","i_long":106.64657,"i_lat":-6.17331,"line":5,"transit":false}],[{"transit":false,"station_name":"Cibinong","station_id":"CBN","time":0,"line":21,"i_long":106.851978,"distance":0,"i_lat":-6.46424,"is_transit":false},{"distance":0,"i_lat":-6.460735,"i_long":106.824374,"station_name":"Pondok Rajeg","line":21,"station_id":"PDRG","transit":false,"is_transit":false,"time":0},{"station_name":"Citayam","line":2,"i_lat":-6.448811,"distance":0,"transit":true,"is_transit":true,"time":0,"station_id":"CTA","i_long":106.800298},{"distance":5084,"transit":false,"station_name":"Depok","station_id":"DP","i_long":106.816926,"i_lat":-6.405256,"is_transit":false,"time":6,"line":2},{"is_transit":false,"station_id":"DPB","station_name":"Depokbaru","time":3,"transit":false,"i_lat":-6.391065,"line":2,"i_long":106.819451,"distance":1584},{"transit":false,"i_long":106.831114,"station_name":"Pondok Cina","line":2,"time":4,"distance":2727,"station_id":"POC","i_lat":-6.369073,"is_transit":false},{"line":2,"station_name":"Univ. Indonesia","station_id":"UI","transit":false,"i_lat":-6.360749,"is_transit":false,"distance":1109,"time":2,"i_long":106.831474},{"is_transit":false,"transit":false,"distance":2264,"i_lat":-6.339291,"line":2,"station_name":"Univ. Pancasila","time":3,"i_long":106.834175,"station_id":"UP"},{"station_name":"Lenteng Agung","station_id":"LNA","is_transit":false,"i_long":106.832616,"i_lat":-6.330363,"time":2,"distance":1029,"transit":false,"line":2},{"i_long":106.838896,"station_id":"TNT","distance":2671,"time":3,"station_name":"Tanjung Barat","transit":false,"i_lat":-6.3080680000000005,"line":2,"is_transit":false},{"i_long":106.843999,"station_name":"Pasar Minggu","line":2,"i_lat":-6.2842400000000005,"distance":2820,"station_id":"PSM","time":4,"is_transit":false,"transit":false},{"time":2,"i_lat":-6.263214,"i_long":106.851577,"station_name":"Pasar Minggu Baru","station_id":"PSMB","is_transit":false,"distance":2380,"transit":false,"line":2},{"line":2,"transit":false,"station_name":"Duren Kalibata","i_long":106.85449,"time":2,"i_lat":-6.255332,"station_id":"DRN","is_transit":false,"distance":824},{"line":2,"distance":1546,"time":3,"transit":false,"is_transit":false,"i_long":106.856607,"station_id":"CW","station_name":"Cawang","i_lat":-6.242512},{"station_name":"Tebet","line":2,"is_transit":false,"distance":1230,"i_lat":-6.226659,"i_long":106.857948,"time":2,"station_id":"TEB","transit":false},{"is_transit":false,"station_name":"Manggarai","time":4,"distance":2610,"i_long":106.84912,"i_lat":-6.209883,"line":2,"transit":false,"station_id":"MRI"},{"distance":1590,"i_long":106.840169,"i_lat":-6.198556,"line":2,"transit":false,"station_name":"Cikini","station_id":"CKI","time":4,"is_transit":false},{"is_transit":false,"distance":1750,"transit":false,"time":3,"i_lat":-6.186295,"line":2,"i_long":106.832183,"station_id":"GDD","station_name":"Gondangdia"},{"i_long":106.828284,"station_id":"JUA","distance":2015,"is_transit":false,"transit":false,"time":4,"i_lat":-6.166716,"station_name":"Juanda","line":2},{"line":2,"distance":1149,"time":2,"i_lat":-6.160725,"transit":false,"station_name":"Sawah Besar","i_long":106.827103,"station_id":"SW","is_transit":false},{"i_lat":-6.149769,"station_name":"Manggabesar","line":2,"is_transit":false,"transit":false,"station_id":"MGB","time":2,"i_long":106.82482,"distance":906},{"station_id":"JAY","time":2,"i_lat":-6.141205,"i_long":106.820901,"distance":1080,"line":2,"is_transit":false,"station_name":"Jayakarta","transit":false},{"transit":true,"distance":1264,"i_lat":-6.137569,"is_transit":true,"time":4,"station_name":"Jakarta Kota","station_id":"JAKK","i_long":106.812439,"line":2},{"i_long":106.826365,"is_transit":true,"i_lat":-6.132549,"distance":1364,"transit":true,"station_name":"Kampung Bandan","line":4,"time":3,"station_id":"KPB"},{"transit":false,"time":9,"distance":4102,"station_name":"Angke","is_transit":false,"line":1,"station_id":"AK","i_long":106.79867,"i_lat":-6.144674},{"distance":1230,"line":1,"i_lat":-6.155215,"time":4,"is_transit":true,"station_id":"DU","i_long":106.800832,"transit":true,"station_name":"Duri"},{"i_long":106.788277,"station_id":"GGL","is_transit":false,"time":3,"transit":false,"i_lat":-6.162021,"line":5,"distance":1700,"station_name":"Grogol"},{"station_id":"PSG","distance":2036,"station_name":"Pesing","i_lat":-6.161433,"line":5,"is_transit":false,"time":2,"i_long":106.771379,"transit":false},{"transit":false,"station_name":"Taman Kota","line":5,"station_id":"TKO","distance":1614,"time":2,"is_transit":false,"i_lat":-6.1587309999999995,"i_long":106.756522},{"line":5,"i_lat":-6.159876,"transit":false,"station_name":"Bojongindah","i_long":106.737035,"station_id":"BOI","is_transit":false,"time":2,"distance":2334},{"is_transit":false,"time":4,"line":5,"station_id":"RW","transit":false,"i_lat":-6.162758,"distance":1152,"i_long":106.723064,"station_name":"Rawa Buaya"},{"station_name":"Kalideres","time":3,"station_id":"KDS","transit":false,"is_transit":false,"distance":2504,"i_lat":-6.166068,"i_long":106.701612,"line":5},{"i_long":106.679458,"transit":false,"i_lat":-6.169933,"time":3,"line":5,"station_name":"Poris","station_id":"PI","distance":2548,"is_transit":false},{"distance":1834,"i_lat":-6.171811,"station_id":"BPR","transit":false,"time":3,"i_long":106.665036,"line":5,"station_name":"Batuceper","is_transit":false},{"i_long":106.64657,"distance":2028,"i_lat":-6.17331,"transit":false,"is_transit":false,"time":3,"station_id":"TTI","line":5,"station_name":"Tanah Tinggi"}],[{"distance":0,"i_lat":-6.46424,"line":21,"i_long":106.851978,"station_name":"Cibinong","transit":false,"station_id":"CBN","is_transit":false,"time":0},{"i_long":106.824374,"time":0,"station_id":"PDRG","distance":0,"transit":false,"is_transit":false,"i_lat":-6.460735,"line":21,"station_name":"Pondok Rajeg"},{"is_transit":true,"transit":true,"distance":0,"time":0,"i_lat":-6.448811,"i_long":106.800298,"station_id":"CTA","line":2,"station_name":"Citayam"},{"is_transit":false,"i_lat":-6.405256,"i_long":106.816926,"distance":5084,"station_id":"DP","station_name":"Depok","transit":false,"time":6,"line":2},{"time":3,"distance":1584,"i_lat":-6.391065,"station_name":"Depokbaru","station_id":"DPB","transit":false,"i_long":106.819451,"line":2,"is_transit":false},{"transit":false,"i_lat":-6.369073,"station_id":"POC","distance":2727,"i_long":106.831114,"time":4,"station_name":"Pondok Cina","is_transit":false,"line":2},{"time":2,"line":2,"station_name":"Univ. Indonesia","station_id":"UI","i_lat":-6.360749,"distance":1109,"transit":false,"is_transit":false,"i_long":106.831474},{"i_long":106.834175,"station_id":"UP","distance":2264,"station_name":"Univ. Pancasila","i_lat":-6.339291,"line":2,"transit":false,"is_transit":false,"time":3},{"is_transit":false,"time":2,"i_long":106.832616,"station_id":"LNA","distance":1029,"line":2,"i_lat":-6.330363,"transit":false,"station_name":"Lenteng Agung"},{"i_lat":-6.3080680000000005,"station_name":"Tanjung Barat","line":2,"transit":false,"is_transit":false,"time":3,"station_id":"TNT","distance":2671,"i_long":106.838896},{"i_lat":-6.2842400000000005,"i_long":106.843999,"time":4,"transit":false,"line":2,"station_name":"Pasar Minggu","distance":2820,"is_transit":false,"station_id":"PSM"},{"distance":2380,"is_transit":false,"station_id":"PSMB","i_long":106.851577,"line":2,"station_name":"Pasar Minggu Baru","transit":false,"i_lat":-6.263214,"time":2},{"station_id":"DRN","line":2,"is_transit":false,"i_lat":-6.255332,"distance":824,"station_name":"Duren Kalibata","i_long":106.85449,"time":2,"transit":false},{"is_transit":false,"time":3,"transit":false,"line":2,"i_long":106.856607,"i_lat":-6.242512,"distance":1546,"station_name":"Cawang","station_id":"CW"},{"line":2,"i_long":106.857948,"transit":false,"station_id":"TEB","distance":1230,"i_lat":-6.226659,"is_transit":false,"station_name":"Tebet","time":2},{"is_transit":true,"distance":2610,"i_lat":-6.209883,"transit":true,"station_id":"MRI","time":4,"line":2,"i_long":106.84912,"station_name":"Manggarai"},{"distance":1275,"transit":false,"time":2,"station_name":"Matraman","i_lat":-6.212485,"i_long":106.858896,"line":1,"station_id":"MTR","is_transit":false},{"station_id":"JNG","time":8,"station_name":"Jatinegara","i_lat":-6.215091,"distance":1377,"is_transit":true,"i_long":106.86807400000001,"line":1,"transit":true},{"transit":false,"station_name":"Pondok Jati","time":2,"i_long":106.861737,"i_lat":-6.209188,"station_id":"POK","line":11,"distance":1236,"is_transit":false},{"station_id":"KMT","i_lat":-6.193792,"time":2,"i_long":106.855437,"line":11,"is_transit":false,"station_name":"Kramat","transit":false,"distance":1829},{"station_name":"Gang Sentiong","is_transit":false,"i_lat":-6.185975,"line":11,"transit":false,"distance":973,"i_long":106.850107,"time":1,"station_id":"GST"},{"transit":false,"station_id":"PSE","line":11,"time":8,"i_lat":-6.174784,"i_long":106.84368,"is_transit":false,"distance":1567,"station_name":"Pasar Senen"},{"is_transit":false,"i_lat":-6.161728,"i_long":106.839204,"distance":1436,"station_id":"KMO","station_name":"Kemayoran","transit":false,"time":4,"line":11},{"transit":false,"is_transit":false,"time":5,"distance":1901,"line":11,"i_long":106.836569,"station_id":"RJW","station_name":"Rajawali","i_lat":-6.14505},{"time":3,"transit":true,"is_transit":true,"i_long":106.826365,"line":4,"station_name":"Kampung Bandan","i_lat":-6.132549,"station_id":"KPB","distance":1444},{"transit":false,"station_name":"Angke","station_id":"AK","is_transit":false,"distance":4102,"i_lat":-6.144674,"line":1,"i_long":106.79867,"time":9},{"i_lat":-6.155215,"line":1,"station_name":"Duri","is_transit":true,"distance":1230,"station_id":"DU","i_long":106.800832,"time":4,"transit":true},{"distance":1700,"transit":false,"station_id":"GGL","station_name":"Grogol","i_lat":-6.162021,"i_long":106.788277,"line":5,"is_transit":false,"time":3},{"i_long":106.771379,"transit":false,"station_name":"Pesing","is_transit":false,"time":2,"distance":2036,"station_id":"PSG","line":5,"i_lat":-6.161433},{"i_long":106.756522,"station_id":"TKO","time":2,"i_lat":-6.1587309999999995,"is_transit":false,"line":5,"station_name":"Taman Kota","distance":1614,"transit":false},{"station_name":"Bojongindah","time":2,"transit":false,"is_transit":false,"line":5,"i_lat":-6.159876,"i_long":106.737035,"station_id":"BOI","distance":2334},{"time":4,"i_lat":-6.162758,"distance":1152,"i_long":106.723064,"line":5,"station_id":"RW","transit":false,"is_transit":false,"station_name":"Rawa Buaya"},{"transit":false,"station_id":"KDS","time":3,"distance":2504,"i_lat":-6.166068,"i_long":106.701612,"station_name":"Kalideres","line":5,"is_transit":false},{"station_name":"Poris","station_id":"PI","i_long":106.679458,"distance":2548,"transit":false,"is_transit":false,"time":3,"i_lat":-6.169933,"line":5},{"is_transit":false,"time":3,"distance":1834,"i_lat":-6.171811,"transit":false,"station_name":"Batuceper","i_long":106.665036,"line":5,"station_id":"BPR"},{"line":5,"station_name":"Tanah Tinggi","distance":2028,"i_long":106.64657,"station_id":"TTI","time":3,"transit":false,"is_transit":false,"i_lat":-6.17331}]]}