{"data":[[{"line":21,"station_name":"Cibinong","transit":false,"time":0,"i_long":106.851978,"station_id":"CBN","i_lat":-6.46424,"distance":0,"is_transit":false},{"is_transit":false,"i_lat":-6.460735,"i_long":106.824374,"time":0,"station_id":"PDRG","station_name":"Pondok Rajeg","transit":false,"line":21,"distance":0},{"transit":true,"distance":0,"line":2,"i_long":106.800298,"station_id":"CTA","time":0,"i_lat":-6.448811,"is_transit":true,"station_name":"Citayam"},{"is_transit":false,"distance":5084,"i_long":106.816926,"i_lat":-6.405256,"station_name":"Depok","station_id":"DP","line":2,"time":6,"transit":false},{"station_name":"Depokbaru","station_id":"DPB","distance":1584,"transit":false,"i_lat":-6.391065,"time":3,"is_transit":false,"i_long":106.819451,"line":2},{"i_long":106.831114,"line":2,"time":4,"station_id":"POC","station_name":"Pondok Cina","is_transit":false,"transit":false,"i_lat":-6.369073,"distance":2727},{"i_lat":-6.360749,"i_long":106.831474,"station_id":"UI","transit":false,"line":2,"time":2,"distance":1109,"is_transit":false,"station_name":"Univ. Indonesia"},{"station_id":"UP","time":3,"line":2,"distance":2264,"is_transit":false,"transit":false,"i_lat":-6.339291,"station_name":"Univ. Pancasila","i_long":106.834175},{"station_id":"LNA","time":2,"transit":false,"i_lat":-6.330363,"i_long":106.832616,"is_transit":false,"station_name":"Lenteng Agung","distance":1029,"line":2},{"i_long":106.838896,"station_name":"Tanjung Barat","station_id":"TNT","transit":false,"line":2,"time":3,"distance":2671,"is_transit":false,"i_lat":-6.3080680000000005},{"i_long":106.843999,"transit":false,"is_transit":false,"time":4,"i_lat":-6.2842400000000005,"line":2,"distance":2820,"station_name":"Pasar Minggu","station_id":"PSM"},{"i_lat":-6.263214,"line":2,"is_transit":false,"station_id":"PSMB","distance":2380,"station_name":"Pasar Minggu Baru","time":2,"transit":false,"i_long":106.851577},{"station_id":"DRN","i_lat":-6.255332,"transit":false,"i_long":106.85449,"time":2,"line":2,"distance":824,"station_name":"Duren Kalibata","is_transit":false},{"i_long":106.856607,"i_lat":-6.242512,"station_id":"CW","time":3,"transit":false,"is_transit":false,"line":2,"distance":1546,"station_name":"Cawang"},{"time":2,"i_long":106.857948,"line":2,"station_name":"Tebet","transit":false,"station_id":"TEB","i_lat":-6.226659,"distance":1230,"is_transit":false},{"station_id":"MRI","time":4,"distance":2610,"i_long":106.84912,"transit":true,"line":2,"station_name":"Manggarai","is_transit":true,"i_lat":-6.209883},{"i_lat":-6.202263,"line":1,"transit":false,"station_id":"SUD","i_long":106.822649,"time":4,"station_name":"Sudirman","distance":3186,"is_transit":false},{"station_id":"SUDB","time":1,"i_lat":-6.201433,"station_name":"Sudirman Baru","i_long":106.819881,"is_transit":false,"transit":false,"line":1,"distance":280},{"time":1,"line":1,"station_id":"KAT","station_name":"Karet","transit":false,"distance":471,"i_lat":-6.20132,"is_transit":false,"i_long":106.816351},{"is_transit":false,"transit":false,"distance":2029,"station_id":"THB","i_long":106.811091,"i_lat":-6.185545,"line":1,"time":5,"station_name":"Tanah Abang"},{"transit":true,"line":1,"station_name":"Duri","is_transit":true,"station_id":"DU","distance":3632,"i_lat":-6.155215,"time":8,"i_long":106.800832},{"transit":false,"i_long":106.788277,"line":5,"station_name":"Grogol","station_id":"GRG","time":3,"distance":1700,"is_transit":false,"i_lat":-6.162021},{"time":2,"is_transit":false,"line":5,"i_lat":-6.161433,"i_long":106.771379,"station_name":"Pesing","distance":2036,"transit":false,"station_id":"PSG"},{"time":2,"station_name":"Taman Kota","transit":false,"line":5,"station_id":"TKO","is_transit":false,"distance":1614,"i_lat":-6.1587309999999995,"i_long":106.756522},{"time":2,"transit":false,"is_transit":false,"i_long":106.737035,"station_id":"BOI","distance":2334,"line":5,"i_lat":-6.159876,"station_name":"Bojongindah"},{"station_id":"RW","line":5,"transit":false,"distance":1152,"station_name":"Rawa Buaya","is_transit":false,"i_long":106.723064,"time":4,"i_lat":-6.162758},{"transit":false,"i_long":106.701612,"station_name":"Kalideres","station_id":"KDS","i_lat":-6.166068,"is_transit":false,"time":3,"line":5,"distance":2504},{"transit":false,"i_lat":-6.169933,"i_long":106.679458,"distance":2548,"station_name":"Poris","time":3,"is_transit":false,"line":5,"station_id":"PI"},{"i_long":106.665036,"distance":1834,"transit":false,"time":3,"is_transit":false,"i_lat":-6.171811,"station_name":"Batuceper","station_id":"BPR","line":5},{"station_name":"Tanah Tinggi","line":5,"i_lat":-6.17331,"time":3,"station_id":"TTI","distance":2028,"i_long":106.64657,"transit":false,"is_transit":false},{"transit":false,"i_long":106.632761,"i_lat":-6.176583,"distance":1547,"station_name":"Tangerang","is_transit":false,"line":5,"station_id":"TNG","time":3}],[{"transit":false,"i_long":106.851978,"station_id":"CBN","time":0,"is_transit":false,"station_name":"Cibinong","i_lat":-6.46424,"line":21,"distance":0},{"i_lat":-6.460735,"time":0,"station_id":"PDRG","is_transit":false,"station_name":"Pondok Rajeg","transit":false,"i_long":106.824374,"line":21,"distance":0},{"station_id":"CTA","time":0,"distance":0,"transit":true,"is_transit":true,"i_long":106.800298,"station_name":"Citayam","i_lat":-6.448811,"line":2},{"station_id":"DP","distance":5084,"line":2,"i_long":106.816926,"station_name":"Depok","is_transit":false,"transit":false,"i_lat":-6.405256,"time":6},{"station_name":"Depokbaru","is_transit":false,"i_lat":-6.391065,"i_long":106.819451,"distance":1584,"time":3,"transit":false,"station_id":"DPB","line":2},{"station_name":"Pondok Cina","time":4,"distance":2727,"is_transit":false,"line":2,"station_id":"POC","transit":false,"i_long":106.831114,"i_lat":-6.369073},{"line":2,"transit":false,"i_long":106.831474,"station_id":"UI","station_name":"Univ. Indonesia","time":2,"i_lat":-6.360749,"distance":1109,"is_transit":false},{"station_id":"UP","transit":false,"line":2,"station_name":"Univ. Pancasila","is_transit":false,"i_lat":-6.339291,"time":3,"distance":2264,"i_long":106.834175},{"i_lat":-6.330363,"i_long":106.832616,"is_transit":false,"distance":1029,"station_name":"Lenteng Agung","transit":false,"line":2,"time":2,"station_id":"LNA"},{"line":2,"station_id":"TNT","i_long":106.838896,"i_lat":-6.3080680000000005,"distance":2671,"time":3,"station_name":"Tanjung Barat","is_transit":false,"transit":false},{"station_name":"Pasar Minggu","i_long":106.843999,"i_lat":-6.2842400000000005,"time":4,"is_transit":false,"line":2,"station_id":"PSM","transit":false,"distance":2820},{"station_name":"Pasar Minggu Baru","distance":2380,"transit":false,"i_lat":-6.263214,"time":2,"is_transit":false,"line":2,"i_long":106.851577,"station_id":"PSMB"},{"i_lat":-6.255332,"is_transit":false,"i_long":106.85449,"line":2,"station_name":"Duren Kalibata","transit":false,"distance":824,"time":2,"station_id":"DRN"},{"is_transit":false,"time":3,"i_long":106.856607,"station_name":"Cawang","line":2,"i_lat":-6.242512,"distance":1546,"transit":false,"station_id":"CW"},{"distance":1230,"time":2,"station_name":"Tebet","i_lat":-6.226659,"line":2,"transit":false,"is_transit":false,"station_id":"TEB","i_long":106.857948},{"i_lat":-6.209883,"station_id":"MRI","line":2,"distance":2610,"transit":false,"station_name":"Manggarai","is_transit":false,"i_long":106.84912,"time":4},{"time":4,"transit":false,"station_id":"CKI","i_lat":-6.198556,"distance":1590,"i_long":106.840169,"line":2,"station_name":"Cikini","is_transit":false},{"i_long":106.832183,"line":2,"i_lat":-6.186295,"transit":false,"station_name":"Gondangdia","distance":1750,"time":3,"station_id":"GDD","is_transit":false},{"i_lat":-6.166716,"transit":false,"i_long":106.828284,"station_name":"Juanda","station_id":"JUA","distance":2015,"line":2,"time":4,"is_transit":false},{"line":2,"station_name":"Sawah Besar","is_transit":false,"distance":1149,"i_lat":-6.160725,"i_long":106.827103,"time":2,"transit":false,"station_id":"SW"},{"time":2,"i_long":106.82482,"distance":906,"is_transit":false,"station_name":"Manggabesar","i_lat":-6.149769,"transit":false,"station_id":"MGB","line":2},{"is_transit":false,"time":2,"station_id":"JAY","station_name":"Jayakarta","line":2,"distance":1080,"i_lat":-6.141205,"i_long":106.820901,"transit":false},{"station_name":"Jakarta Kota","transit":true,"is_transit":true,"station_id":"JAKK","i_long":106.812439,"distance":1264,"time":4,"i_lat":-6.137569,"line":2},{"i_long":106.826365,"distance":1364,"transit":true,"line":4,"time":3,"is_transit":true,"station_id":"KPB","i_lat":-6.132549,"station_name":"Kampung Bandan"},{"i_lat":-6.144674,"i_long":106.79867,"distance":4102,"time":9,"is_transit":false,"station_id":"AK","station_name":"Angke","transit":false,"line":1},{"i_long":106.800832,"station_id":"DU","distance":1230,"transit":true,"line":1,"time":4,"is_transit":true,"station_name":"Duri","i_lat":-6.155215},{"line":5,"distance":1700,"i_lat":-6.162021,"transit":false,"is_transit":false,"station_id":"GRG","time":3,"station_name":"Grogol","i_long":106.788277},{"line":5,"station_name":"Pesing","i_lat":-6.161433,"time":2,"i_long":106.771379,"transit":false,"distance":2036,"is_transit":false,"station_id":"PSG"},{"distance":1614,"i_long":106.756522,"i_lat":-6.1587309999999995,"station_name":"Taman Kota","time":2,"is_transit":false,"line":5,"station_id":"TKO","transit":false},{"i_long":106.737035,"distance":2334,"station_id":"BOI","transit":false,"time":2,"is_transit":false,"i_lat":-6.159876,"station_name":"Bojongindah","line":5},{"station_name":"Rawa Buaya","transit":false,"time":4,"station_id":"RW","i_long":106.723064,"distance":1152,"i_lat":-6.162758,"line":5,"is_transit":false},{"transit":false,"time":3,"is_transit":false,"station_id":"KDS","station_name":"Kalideres","i_long":106.701612,"i_lat":-6.166068,"distance":2504,"line":5},{"distance":2548,"is_transit":false,"i_long":106.679458,"station_name":"Poris","transit":false,"i_lat":-6.169933,"station_id":"PI","time":3,"line":5},{"transit":false,"i_lat":-6.171811,"time":3,"line":5,"is_transit":false,"station_name":"Batuceper","station_id":"BPR","distance":1834,"i_long":106.665036},{"i_long":106.64657,"transit":false,"station_name":"Tanah Tinggi","distance":2028,"station_id":"TTI","i_lat":-6.17331,"time":3,"line":5,"is_transit":false},{"transit":false,"station_id":"TNG","is_transit":false,"distance":1547,"time":3,"station_name":"Tangerang","i_lat":-6.176583,"i_long":106.632761,"line":5}],[{"line":21,"transit":false,"time":0,"i_long":106.851978,"is_transit":false,"distance":0,"station_name":"Cibinong","station_id":"CBN","i_lat":-6.46424},{"station_name":"Pondok Rajeg","is_transit":false,"transit":false,"station_id":"PDRG","time":0,"i_long":106.824374,"line":21,"distance":0,"i_lat":-6.460735},{"time":0,"station_id":"CTA","line":2,"distance":0,"i_long":106.800298,"station_name":"Citayam","i_lat":-6.448811,"transit":true,"is_transit":true},{"distance":5084,"time":6,"station_id":"DP","i_lat":-6.405256,"i_long":106.816926,"station_name":"Depok","transit":false,"is_transit":false,"line":2},{"i_lat":-6.391065,"station_name":"Depokbaru","station_id":"DPB","i_long":106.819451,"is_transit":false,"line":2,"transit":false,"distance":1584,"time":3},{"distance":2727,"station_name":"Pondok Cina","line":2,"transit":false,"time":4,"i_long":106.831114,"station_id":"POC","is_transit":false,"i_lat":-6.369073},{"is_transit":false,"station_id":"UI","distance":1109,"i_lat":-6.360749,"line":2,"i_long":106.831474,"station_name":"Univ. Indonesia","time":2,"transit":false},{"station_id":"UP","i_long":106.834175,"i_lat":-6.339291,"station_name":"Univ. Pancasila","transit":false,"distance":2264,"time":3,"is_transit":false,"line":2},{"station_name":"Lenteng Agung","station_id":"LNA","i_lat":-6.330363,"i_long":106.832616,"is_transit":false,"distance":1029,"time":2,"transit":false,"line":2},{"distance":2671,"station_id":"TNT","i_long":106.838896,"time":3,"line":2,"transit":false,"is_transit":false,"station_name":"Tanjung Barat","i_lat":-6.3080680000000005},{"line":2,"i_lat":-6.2842400000000005,"time":4,"transit":false,"distance":2820,"i_long":106.843999,"station_name":"Pasar Minggu","is_transit":false,"station_id":"PSM"},{"distance":2380,"line":2,"station_name":"Pasar Minggu Baru","transit":false,"time":2,"station_id":"PSMB","i_long":106.851577,"is_transit":false,"i_lat":-6.263214},{"station_name":"Duren Kalibata","is_transit":false,"line":2,"distance":824,"transit":false,"i_lat":-6.255332,"i_long":106.85449,"time":2,"station_id":"DRN"},{"is_transit":false,"i_long":106.856607,"line":2,"station_name":"Cawang","transit":false,"time":3,"station_id":"CW","i_lat":-6.242512,"distance":1546},{"time":2,"distance":1230,"transit":false,"station_id":"TEB","i_lat":-6.226659,"line":2,"is_transit":false,"station_name":"Tebet","i_long":106.857948},{"distance":2610,"i_lat":-6.209883,"station_id":"MRI","transit":true,"time":4,"is_transit":true,"station_name":"Manggarai","line":2,"i_long":106.84912},{"i_lat":-6.212485,"station_id":"MTR","i_long":106.858896,"time":2,"line":1,"transit":false,"distance":1275,"station_name":"Matraman","is_transit":false},{"line":1,"distance":1377,"station_id":"JNG","station_name":"Jatinegara","i_long":106.86807400000001,"is_transit":true,"transit":true,"i_lat":-6.215091,"time":8},{"distance":1236,"is_transit":false,"i_lat":-6.209188,"transit":false,"station_name":"Pondok Jati","station_id":"POK","i_long":106.861737,"line":11,"time":2},{"station_id":"KMT","transit":false,"is_transit":false,"i_long":106.855437,"time":2,"distance":1829,"station_name":"Kramat","i_lat":-6.193792,"line":11},{"time":1,"station_name":"Gang Sentiong","is_transit":false,"transit":false,"station_id":"GST","i_lat":-6.185975,"distance":973,"i_long":106.850107,"line":11},{"distance":1567,"time":8,"is_transit":false,"i_long":106.84368,"station_name":"Pasar Senen","station_id":"PSE","transit":false,"i_lat":-6.174784,"line":11},{"station_id":"KMO","i_long":106.839204,"line":11,"is_transit":false,"i_lat":-6.161728,"distance":1436,"time":4,"station_name":"Kemayoran","transit":false},{"station_id":"RJW","i_long":106.836569,"line":11,"i_lat":-6.14505,"distance":1901,"time":5,"station_name":"Rajawali","transit":false,"is_transit":false},{"is_transit":true,"time":3,"transit":true,"station_id":"KPB","distance":1444,"line":4,"station_name":"Kampung Bandan","i_lat":-6.132549,"i_long":106.826365},{"i_long":106.79867,"line":1,"station_name":"Angke","time":9,"transit":false,"distance":4102,"station_id":"AK","i_lat":-6.144674,"is_transit":false},{"transit":true,"station_id":"DU","time":4,"is_transit":true,"line":1,"i_lat":-6.155215,"distance":1230,"i_long":106.800832,"station_name":"Duri"},{"line":5,"distance":1700,"time":3,"station_name":"Grogol","transit":false,"station_id":"GRG","i_lat":-6.162021,"is_transit":false,"i_long":106.788277},{"is_transit":false,"station_id":"PSG","i_long":106.771379,"time":2,"i_lat":-6.161433,"transit":false,"line":5,"station_name":"Pesing","distance":2036},{"i_lat":-6.1587309999999995,"i_long":106.756522,"distance":1614,"line":5,"time":2,"transit":false,"station_name":"Taman Kota","is_transit":false,"station_id":"TKO"},{"distance":2334,"is_transit":false,"station_id":"BOI","station_name":"Bojongindah","time":2,"i_lat":-6.159876,"line":5,"transit":false,"i_long":106.737035},{"is_transit":false,"transit":false,"time":4,"station_name":"Rawa Buaya","distance":1152,"i_long":106.723064,"line":5,"station_id":"RW","i_lat":-6.162758},{"line":5,"is_transit":false,"time":3,"station_name":"Kalideres","i_long":106.701612,"distance":2504,"transit":false,"station_id":"KDS","i_lat":-6.166068},{"station_id":"PI","is_transit":false,"i_long":106.679458,"i_lat":-6.169933,"line":5,"transit":false,"time":3,"station_name":"Poris","distance":2548},{"station_id":"BPR","i_lat":-6.171811,"i_long":106.665036,"time":3,"station_name":"Batuceper","transit":false,"distance":1834,"line":5,"is_transit":false},{"i_long":106.64657,"i_lat":-6.17331,"is_transit":false,"line":5,"station_name":"Tanah Tinggi","time":3,"distance":2028,"transit":false,"station_id":"TTI"},{"is_transit":false,"station_id":"TNG","distance":1547,"station_name":"Tangerang","i_long":106.632761,"transit":false,"line":5,"i_lat":-6.176583,"time":3}]]}