{"data":[[{"time":0,"station_id":"CBN","line":21,"distance":0,"i_long":106.851978,"i_lat":-6.46424,"is_transit":false,"station_name":"Cibinong","transit":false},{"i_long":106.824374,"distance":0,"is_transit":false,"station_name":"Pondok Rajeg","i_lat":-6.460735,"line":21,"transit":false,"time":0,"station_id":"PDRG"},{"distance":0,"station_name":"Citayam","transit":true,"station_id":"CTA","i_lat":-6.448811,"i_long":106.800298,"line":2,"is_transit":true,"time":0},{"transit":false,"i_long":106.816926,"i_lat":-6.405256,"line":2,"station_id":"DP","station_name":"Depok","time":6,"is_transit":false,"distance":5084},{"is_transit":false,"i_long":106.819451,"transit":false,"time":3,"i_lat":-6.391065,"line":2,"station_id":"DPB","distance":1584,"station_name":"Depokbaru"},{"transit":false,"station_id":"POC","i_long":106.831114,"time":4,"is_transit":false,"station_name":"Pondok Cina","line":2,"i_lat":-6.369073,"distance":2727},{"time":2,"line":2,"station_id":"UI","i_long":106.831474,"i_lat":-6.360749,"transit":false,"distance":1109,"is_transit":false,"station_name":"Univ. Indonesia"},{"station_id":"UP","i_lat":-6.339291,"distance":2264,"line":2,"station_name":"Univ. Pancasila","time":3,"is_transit":false,"i_long":106.834175,"transit":false},{"station_id":"LNA","i_lat":-6.330363,"is_transit":false,"transit":false,"time":2,"station_name":"Lenteng Agung","distance":1029,"i_long":106.832616,"line":2},{"i_lat":-6.3080680000000005,"transit":false,"line":2,"station_id":"TNT","is_transit":false,"time":3,"distance":2671,"i_long":106.838896,"station_name":"Tanjung Barat"},{"station_id":"PSM","i_long":106.843999,"time":4,"line":2,"station_name":"Pasar Minggu","transit":false,"i_lat":-6.2842400000000005,"distance":2820,"is_transit":false},{"station_id":"PSMB","i_lat":-6.263214,"distance":2380,"time":2,"is_transit":false,"i_long":106.851577,"transit":false,"line":2,"station_name":"Pasar Minggu Baru"},{"is_transit":false,"time":2,"distance":824,"station_id":"DRN","station_name":"Duren Kalibata","transit":false,"i_lat":-6.255332,"i_long":106.85449,"line":2},{"i_long":106.856607,"distance":1546,"station_id":"CW","line":2,"is_transit":false,"station_name":"Cawang","transit":false,"time":3,"i_lat":-6.242512},{"is_transit":false,"line":2,"time":2,"distance":1230,"station_id":"TEB","station_name":"Tebet","i_lat":-6.226659,"i_long":106.857948,"transit":false},{"is_transit":true,"line":2,"distance":2610,"station_id":"MRI","station_name":"Manggarai","i_lat":-6.209883,"transit":true,"time":4,"i_long":106.84912},{"is_transit":false,"time":4,"line":1,"distance":3186,"station_name":"Sudirman","station_id":"SUD","transit":false,"i_lat":-6.202263,"i_long":106.822649},{"i_lat":-6.201433,"station_id":"SUDB","transit":false,"time":1,"station_name":"Sudirman Baru","i_long":106.819881,"line":1,"is_transit":false,"distance":280},{"time":1,"is_transit":false,"transit":false,"line":1,"station_name":"Karet","station_id":"KAT","distance":471,"i_long":106.816351,"i_lat":-6.20132},{"is_transit":false,"distance":2029,"transit":false,"station_id":"THB","i_lat":-6.185545,"i_long":106.811091,"time":5,"station_name":"Tanah Abang","line":1},{"line":1,"distance":3632,"station_id":"DU","is_transit":true,"i_lat":-6.155215,"time":8,"transit":true,"i_long":106.800832,"station_name":"Duri"},{"i_lat":-6.162021,"line":5,"distance":1700,"station_name":"Grogol","station_id":"GGL","is_transit":false,"i_long":106.788277,"transit":false,"time":3},{"line":5,"time":2,"i_lat":-6.161433,"station_name":"Pesing","transit":false,"station_id":"PSG","distance":2036,"is_transit":false,"i_long":106.771379},{"i_lat":-6.1587309999999995,"line":5,"distance":1614,"station_id":"TKO","is_transit":false,"station_name":"Taman Kota","transit":false,"i_long":106.756522,"time":2},{"transit":false,"time":2,"station_id":"BOI","i_lat":-6.159876,"i_long":106.737035,"line":5,"is_transit":false,"distance":2334,"station_name":"Bojongindah"}],[{"line":21,"transit":false,"distance":0,"station_id":"CBN","i_lat":-6.46424,"station_name":"Cibinong","is_transit":false,"time":0,"i_long":106.851978},{"time":0,"i_lat":-6.460735,"station_name":"Pondok Rajeg","i_long":106.824374,"distance":0,"is_transit":false,"station_id":"PDRG","line":21,"transit":false},{"i_long":106.800298,"distance":0,"i_lat":-6.448811,"station_id":"CTA","station_name":"Citayam","time":0,"transit":true,"line":2,"is_transit":true},{"is_transit":false,"i_lat":-6.405256,"station_name":"Depok","time":6,"station_id":"DP","i_long":106.816926,"line":2,"transit":false,"distance":5084},{"distance":1584,"time":3,"station_id":"DPB","line":2,"transit":false,"i_long":106.819451,"is_transit":false,"i_lat":-6.391065,"station_name":"Depokbaru"},{"time":4,"is_transit":false,"station_name":"Pondok Cina","transit":false,"i_long":106.831114,"line":2,"station_id":"POC","i_lat":-6.369073,"distance":2727},{"station_name":"Univ. Indonesia","line":2,"transit":false,"distance":1109,"i_long":106.831474,"time":2,"is_transit":false,"station_id":"UI","i_lat":-6.360749},{"is_transit":false,"line":2,"i_long":106.834175,"station_name":"Univ. Pancasila","station_id":"UP","distance":2264,"i_lat":-6.339291,"transit":false,"time":3},{"line":2,"i_long":106.832616,"distance":1029,"i_lat":-6.330363,"transit":false,"time":2,"station_name":"Lenteng Agung","is_transit":false,"station_id":"LNA"},{"i_long":106.838896,"line":2,"i_lat":-6.3080680000000005,"is_transit":false,"transit":false,"station_id":"TNT","distance":2671,"station_name":"Tanjung Barat","time":3},{"transit":false,"time":4,"station_id":"PSM","i_long":106.843999,"line":2,"i_lat":-6.2842400000000005,"distance":2820,"is_transit":false,"station_name":"Pasar Minggu"},{"distance":2380,"i_long":106.851577,"transit":false,"station_id":"PSMB","station_name":"Pasar Minggu Baru","line":2,"i_lat":-6.263214,"time":2,"is_transit":false},{"time":2,"i_lat":-6.255332,"transit":false,"i_long":106.85449,"distance":824,"station_name":"Duren Kalibata","station_id":"DRN","line":2,"is_transit":false},{"i_lat":-6.242512,"distance":1546,"time":3,"station_id":"CW","is_transit":false,"i_long":106.856607,"station_name":"Cawang","transit":false,"line":2},{"transit":false,"line":2,"station_id":"TEB","i_lat":-6.226659,"time":2,"distance":1230,"is_transit":false,"station_name":"Tebet","i_long":106.857948},{"i_long":106.84912,"i_lat":-6.209883,"is_transit":false,"distance":2610,"station_name":"Manggarai","time":4,"station_id":"MRI","line":2,"transit":false},{"station_id":"CKI","i_long":106.840169,"time":4,"distance":1590,"station_name":"Cikini","transit":false,"is_transit":false,"i_lat":-6.198556,"line":2},{"time":3,"i_lat":-6.186295,"is_transit":false,"distance":1750,"station_id":"GDD","i_long":106.832183,"line":2,"transit":false,"station_name":"Gondangdia"},{"is_transit":false,"station_id":"JUA","station_name":"Juanda","i_lat":-6.166716,"transit":false,"time":4,"distance":2015,"i_long":106.828284,"line":2},{"time":2,"distance":1149,"line":2,"station_name":"Sawah Besar","station_id":"SW","i_lat":-6.160725,"is_transit":false,"i_long":106.827103,"transit":false},{"station_name":"Manggabesar","station_id":"MGB","line":2,"is_transit":false,"time":2,"i_long":106.82482,"i_lat":-6.149769,"distance":906,"transit":false},{"is_transit":false,"transit":false,"distance":1080,"time":2,"station_id":"JAY","i_lat":-6.141205,"station_name":"Jayakarta","i_long":106.820901,"line":2},{"station_id":"JAKK","i_long":106.812439,"line":2,"station_name":"Jakarta Kota","i_lat":-6.137569,"is_transit":true,"distance":1264,"transit":true,"time":4},{"station_id":"KPB","distance":1364,"time":3,"is_transit":true,"transit":true,"i_lat":-6.132549,"station_name":"Kampung Bandan","i_long":106.826365,"line":4},{"i_lat":-6.144674,"time":9,"line":1,"i_long":106.79867,"is_transit":false,"station_name":"Angke","transit":false,"station_id":"AK","distance":4102},{"is_transit":true,"distance":1230,"station_name":"Duri","station_id":"DU","i_lat":-6.155215,"line":1,"time":4,"i_long":106.800832,"transit":true},{"distance":1700,"transit":false,"station_name":"Grogol","station_id":"GGL","is_transit":false,"i_long":106.788277,"time":3,"i_lat":-6.162021,"line":5},{"transit":false,"station_id":"PSG","is_transit":false,"i_lat":-6.161433,"distance":2036,"line":5,"station_name":"Pesing","i_long":106.771379,"time":2},{"station_name":"Taman Kota","station_id":"TKO","is_transit":false,"i_long":106.756522,"time":2,"i_lat":-6.1587309999999995,"distance":1614,"line":5,"transit":false},{"time":2,"i_lat":-6.159876,"transit":false,"is_transit":false,"station_id":"BOI","i_long":106.737035,"line":5,"station_name":"Bojongindah","distance":2334}],[{"is_transit":false,"station_name":"Cibinong","transit":false,"time":0,"station_id":"CBN","line":21,"i_lat":-6.46424,"i_long":106.851978,"distance":0},{"i_long":106.824374,"line":21,"station_name":"Pondok Rajeg","station_id":"PDRG","i_lat":-6.460735,"time":0,"is_transit":false,"distance":0,"transit":false},{"station_name":"Citayam","line":2,"transit":true,"distance":0,"time":0,"is_transit":true,"station_id":"CTA","i_long":106.800298,"i_lat":-6.448811},{"station_name":"Depok","i_lat":-6.405256,"i_long":106.816926,"transit":false,"time":6,"is_transit":false,"distance":5084,"line":2,"station_id":"DP"},{"time":3,"station_id":"DPB","distance":1584,"station_name":"Depokbaru","transit":false,"is_transit":false,"i_lat":-6.391065,"i_long":106.819451,"line":2},{"distance":2727,"time":4,"i_lat":-6.369073,"station_name":"Pondok Cina","line":2,"is_transit":false,"station_id":"POC","i_long":106.831114,"transit":false},{"station_id":"UI","distance":1109,"time":2,"is_transit":false,"i_lat":-6.360749,"line":2,"transit":false,"station_name":"Univ. Indonesia","i_long":106.831474},{"time":3,"is_transit":false,"station_name":"Univ. Pancasila","station_id":"UP","i_lat":-6.339291,"distance":2264,"i_long":106.834175,"line":2,"transit":false},{"station_id":"LNA","i_lat":-6.330363,"distance":1029,"station_name":"Lenteng Agung","line":2,"time":2,"i_long":106.832616,"is_transit":false,"transit":false},{"time":3,"distance":2671,"station_id":"TNT","line":2,"is_transit":false,"station_name":"Tanjung Barat","i_long":106.838896,"i_lat":-6.3080680000000005,"transit":false},{"time":4,"distance":2820,"transit":false,"station_name":"Pasar Minggu","is_transit":false,"i_long":106.843999,"line":2,"station_id":"PSM","i_lat":-6.2842400000000005},{"i_long":106.851577,"i_lat":-6.263214,"line":2,"time":2,"station_id":"PSMB","transit":false,"is_transit":false,"station_name":"Pasar Minggu Baru","distance":2380},{"line":2,"transit":false,"station_id":"DRN","i_lat":-6.255332,"i_long":106.85449,"is_transit":false,"time":2,"distance":824,"station_name":"Duren Kalibata"},{"is_transit":false,"time":3,"i_long":106.856607,"distance":1546,"station_name":"Cawang","station_id":"CW","transit":false,"i_lat":-6.242512,"line":2},{"is_transit":false,"transit":false,"i_long":106.857948,"station_name":"Tebet","i_lat":-6.226659,"station_id":"TEB","distance":1230,"time":2,"line":2},{"i_lat":-6.209883,"distance":2610,"station_name":"Manggarai","i_long":106.84912,"is_transit":true,"station_id":"MRI","line":2,"transit":true,"time":4},{"time":2,"i_lat":-6.212485,"transit":false,"is_transit":false,"station_id":"MTR","line":1,"i_long":106.858896,"station_name":"Matraman","distance":1275},{"distance":1377,"time":8,"is_transit":true,"station_name":"Jatinegara","station_id":"JNG","i_lat":-6.215091,"line":1,"transit":true,"i_long":106.86807400000001},{"is_transit":false,"station_name":"Pondok Jati","i_lat":-6.209188,"station_id":"POK","line":11,"transit":false,"i_long":106.861737,"distance":1236,"time":2},{"distance":1829,"transit":false,"station_name":"Kramat","station_id":"KMT","line":11,"time":2,"is_transit":false,"i_lat":-6.193792,"i_long":106.855437},{"time":1,"station_id":"GST","i_lat":-6.185975,"station_name":"Gang Sentiong","transit":false,"i_long":106.850107,"distance":973,"line":11,"is_transit":false},{"transit":false,"distance":1567,"station_id":"PSE","is_transit":false,"time":8,"station_name":"Pasar Senen","i_long":106.84368,"i_lat":-6.174784,"line":11},{"is_transit":false,"station_id":"KMO","i_lat":-6.161728,"line":11,"station_name":"Kemayoran","i_long":106.839204,"transit":false,"time":4,"distance":1436},{"is_transit":false,"time":5,"distance":1901,"line":11,"i_lat":-6.14505,"station_name":"Rajawali","station_id":"RJW","i_long":106.836569,"transit":false},{"station_id":"KPB","is_transit":true,"time":3,"distance":1444,"line":4,"i_lat":-6.132549,"station_name":"Kampung Bandan","transit":true,"i_long":106.826365},{"distance":4102,"station_name":"Angke","line":1,"transit":false,"station_id":"AK","i_long":106.79867,"i_lat":-6.144674,"time":9,"is_transit":false},{"time":4,"station_name":"Duri","station_id":"DU","i_long":106.800832,"is_transit":true,"line":1,"i_lat":-6.155215,"distance":1230,"transit":true},{"distance":1700,"time":3,"line":5,"is_transit":false,"transit":false,"station_name":"Grogol","i_lat":-6.162021,"i_long":106.788277,"station_id":"GGL"},{"transit":false,"station_name":"Pesing","i_long":106.771379,"line":5,"time":2,"is_transit":false,"distance":2036,"i_lat":-6.161433,"station_id":"PSG"},{"station_id":"TKO","distance":1614,"station_name":"Taman Kota","transit":false,"i_lat":-6.1587309999999995,"i_long":106.756522,"line":5,"is_transit":false,"time":2},{"station_id":"BOI","station_name":"Bojongindah","line":5,"is_transit":false,"time":2,"i_lat":-6.159876,"i_long":106.737035,"distance":2334,"transit":false}]]}