{"data":[[{"distance":0,"i_lat":-6.46424,"is_transit":false,"station_name":"Cibinong","time":0,"station_id":"CBN","i_long":106.851978,"line":0,"transit":false},{"i_long":106.800298,"line":1,"station_id":"CTA","i_lat":-6.448811,"time":10,"is_transit":true,"station_name":"Citayam","distance":6740,"transit":false},{"is_transit":false,"transit":false,"i_lat":-6.405256,"distance":5084,"line":0,"time":6,"station_name":"Depok","station_id":"DP","i_long":106.816926},{"line":0,"station_id":"DPB","transit":false,"i_long":106.819451,"time":3,"station_name":"Depokbaru","distance":1584,"i_lat":-6.391065,"is_transit":false},{"station_name":"Pondok Cina","station_id":"POC","is_transit":false,"i_long":106.831114,"transit":false,"time":4,"line":2,"i_lat":-6.369073,"distance":2727},{"i_lat":-6.360749,"station_name":"Univ. Indonesia","time":2,"station_id":"UI","line":2,"distance":1109,"is_transit":false,"transit":false,"i_long":106.831474},{"i_lat":-6.339291,"i_long":106.834175,"station_id":"UP","station_name":"Univ. Pancasila","distance":2264,"line":2,"is_transit":false,"transit":false,"time":3},{"line":2,"i_long":106.832616,"distance":1029,"i_lat":-6.330363,"station_id":"LNA","time":2,"is_transit":false,"transit":false,"station_name":"Lenteng Agung"},{"distance":2671,"station_id":"TNT","station_name":"Tanjung Barat","i_lat":-6.3080680000000005,"i_long":106.838896,"line":2,"time":3,"transit":false,"is_transit":false},{"station_id":"PSM","i_long":106.843999,"distance":2820,"station_name":"Pasar Minggu","time":4,"is_transit":false,"i_lat":-6.2842400000000005,"transit":false,"line":2},{"i_lat":-6.263214,"distance":2380,"station_id":"PSMB","time":2,"is_transit":false,"transit":false,"station_name":"Pasar Minggu Baru","i_long":106.851577,"line":2},{"time":2,"i_lat":-6.255332,"i_long":106.85449,"is_transit":false,"station_id":"DRN","line":0,"distance":824,"transit":false,"station_name":"Duren Kalibata"},{"line":0,"station_name":"Cawang","distance":1546,"station_id":"CW","i_lat":-6.242512,"time":3,"is_transit":false,"transit":false,"i_long":106.856607},{"station_name":"Tebet","is_transit":false,"station_id":"TEB","i_long":106.857948,"i_lat":-6.226659,"distance":1230,"time":2,"transit":false,"line":2},{"station_id":"MRI","transit":true,"line":0,"is_transit":true,"i_long":106.84912,"station_name":"Manggarai","i_lat":-6.209883,"distance":2610,"time":4},{"station_id":"MTR","distance":1275,"transit":false,"line":1,"is_transit":false,"station_name":"Matraman","time":2,"i_lat":-6.212485,"i_long":106.858896},{"distance":1377,"transit":false,"station_id":"JNG","station_name":"Jatinegara","time":8,"i_long":106.86807400000001,"i_lat":-6.215091,"line":0,"is_transit":true},{"is_transit":false,"i_long":106.899548,"transit":false,"station_id":"KLD","time":3,"station_name":"Klender","distance":3395,"line":1,"i_lat":-6.2135},{"line":0,"is_transit":false,"transit":false,"station_id":"BUA","i_lat":-6.215568,"distance":3100,"i_long":106.922662,"time":2,"station_name":"Buaran"},{"line":1,"i_long":106.939679,"station_id":"KLDB","station_name":"Klenderbaru","time":1,"is_transit":false,"distance":1305,"i_lat":-6.217455,"transit":false},{"transit":false,"station_name":"Cakung","i_lat":-6.219053,"time":8,"i_long":106.951283,"line":0,"distance":1385,"is_transit":false,"station_id":"CUK"},{"transit":false,"time":3,"station_id":"KRI","line":1,"is_transit":false,"i_lat":-6.224515,"i_long":106.977657,"distance":3097,"station_name":"Kranji"},{"distance":2520,"is_transit":false,"station_name":"Bekasi","station_id":"BKS","line":0,"i_long":106.997013,"transit":false,"time":4,"i_lat":-6.236616},{"distance":2368,"i_long":107.016735,"line":0,"station_id":"BKST","transit":false,"time":2,"is_transit":false,"station_name":"Bekasi Timur","i_lat":-6.248029},{"i_lat":-6.258864,"i_long":107.055722,"transit":false,"station_id":"TB","line":1,"station_name":"Tambun","time":7,"is_transit":false,"distance":4460}],[{"is_transit":false,"distance":0,"station_name":"Cibinong","line":0,"station_id":"CBN","i_lat":-6.46424,"transit":false,"time":0,"i_long":106.851978},{"transit":false,"is_transit":true,"station_name":"Citayam","station_id":"CTA","i_lat":-6.448811,"i_long":106.800298,"line":1,"distance":6740,"time":10},{"distance":5084,"station_id":"DP","station_name":"Depok","line":0,"is_transit":false,"i_lat":-6.405256,"i_long":106.816926,"transit":false,"time":6},{"i_long":106.819451,"distance":1584,"line":0,"time":3,"station_name":"Depokbaru","station_id":"DPB","transit":false,"i_lat":-6.391065,"is_transit":false},{"is_transit":false,"distance":2727,"time":4,"station_name":"Pondok Cina","station_id":"POC","transit":false,"i_lat":-6.369073,"i_long":106.831114,"line":2},{"distance":1109,"is_transit":false,"station_id":"UI","transit":false,"time":2,"station_name":"Univ. Indonesia","i_lat":-6.360749,"i_long":106.831474,"line":2},{"distance":2264,"transit":false,"i_long":106.834175,"station_name":"Univ. Pancasila","i_lat":-6.339291,"time":3,"line":2,"station_id":"UP","is_transit":false},{"transit":false,"i_lat":-6.330363,"i_long":106.832616,"station_id":"LNA","distance":1029,"station_name":"Lenteng Agung","line":2,"is_transit":false,"time":2},{"i_lat":-6.3080680000000005,"station_name":"Tanjung Barat","i_long":106.838896,"distance":2671,"station_id":"TNT","is_transit":false,"transit":false,"time":3,"line":2},{"is_transit":false,"transit":false,"station_id":"PSM","time":4,"distance":2820,"i_long":106.843999,"i_lat":-6.2842400000000005,"station_name":"Pasar Minggu","line":2},{"distance":2380,"transit":false,"station_name":"Pasar Minggu Baru","station_id":"PSMB","time":2,"i_lat":-6.263214,"is_transit":false,"i_long":106.851577,"line":2},{"line":0,"distance":824,"i_lat":-6.255332,"i_long":106.85449,"transit":false,"time":2,"is_transit":false,"station_id":"DRN","station_name":"Duren Kalibata"},{"station_id":"CW","line":0,"transit":false,"is_transit":false,"time":3,"station_name":"Cawang","i_lat":-6.242512,"i_long":106.856607,"distance":1546},{"line":2,"distance":1230,"i_long":106.857948,"i_lat":-6.226659,"time":2,"is_transit":false,"station_name":"Tebet","station_id":"TEB","transit":false},{"line":0,"time":4,"transit":true,"station_name":"Manggarai","distance":2610,"station_id":"MRI","i_long":106.84912,"is_transit":true,"i_lat":-6.209883},{"station_name":"Sudirman","line":1,"distance":3186,"i_lat":-6.202263,"i_long":106.822649,"station_id":"SUD","is_transit":false,"transit":false,"time":4},{"line":1,"is_transit":false,"time":1,"distance":280,"transit":false,"station_name":"Sudirman Baru","station_id":"SUDB","i_lat":-6.201433,"i_long":106.819881},{"is_transit":false,"time":1,"distance":471,"transit":false,"station_id":"KAT","i_lat":-6.20132,"station_name":"Karet","i_long":106.816351,"line":1},{"time":5,"station_name":"Tanah Abang","i_lat":-6.185545,"station_id":"THB","is_transit":true,"line":1,"distance":2029,"transit":false,"i_long":106.811091},{"station_id":"DU","distance":3632,"line":1,"is_transit":true,"station_name":"Duri","i_lat":-6.155215,"time":8,"transit":true,"i_long":106.800832},{"station_name":"Angke","line":0,"transit":false,"distance":1230,"i_long":106.79867,"time":4,"is_transit":false,"station_id":"AK","i_lat":-6.144674},{"i_long":106.826365,"is_transit":true,"station_name":"Kampung Bandan","i_lat":-6.132549,"station_id":"KPB","transit":true,"line":0,"distance":4102,"time":9},{"line":11,"distance":1444,"is_transit":false,"transit":false,"station_name":"Rajawali","i_lat":-6.14505,"station_id":"RJW","time":3,"i_long":106.836569},{"distance":1901,"i_lat":-6.161728,"is_transit":false,"transit":false,"time":5,"station_name":"Kemayoran","i_long":106.839204,"line":11,"station_id":"KMO"},{"time":4,"i_long":106.84368,"is_transit":false,"distance":1436,"transit":false,"i_lat":-6.174784,"station_name":"Pasar Senen","line":11,"station_id":"PSE"},{"distance":1567,"station_id":"GST","i_long":106.850107,"transit":false,"is_transit":false,"line":11,"time":8,"station_name":"Gang Sentiong","i_lat":-6.185975},{"station_name":"Kramat","time":1,"i_lat":-6.193792,"station_id":"KMT","transit":false,"distance":973,"is_transit":false,"i_long":106.855437,"line":11},{"time":2,"i_lat":-6.209188,"is_transit":false,"station_id":"POK","station_name":"Pondok Jati","i_long":106.861737,"distance":1829,"transit":false,"line":11},{"distance":1236,"transit":true,"is_transit":true,"i_lat":-6.215091,"i_long":106.86807400000001,"station_name":"Jatinegara","time":9,"line":0,"station_id":"JNG"},{"transit":false,"time":3,"station_name":"Klender","i_lat":-6.2135,"line":1,"station_id":"KLD","is_transit":false,"i_long":106.899548,"distance":3395},{"line":0,"time":2,"i_long":106.922662,"distance":3100,"transit":false,"station_name":"Buaran","is_transit":false,"station_id":"BUA","i_lat":-6.215568},{"time":1,"i_long":106.939679,"line":1,"distance":1305,"transit":false,"station_name":"Klenderbaru","i_lat":-6.217455,"station_id":"KLDB","is_transit":false},{"i_long":106.951283,"distance":1385,"is_transit":false,"station_id":"CUK","time":8,"transit":false,"station_name":"Cakung","i_lat":-6.219053,"line":0},{"station_id":"KRI","station_name":"Kranji","line":1,"i_long":106.977657,"is_transit":false,"transit":false,"distance":3097,"time":3,"i_lat":-6.224515},{"time":4,"is_transit":false,"i_long":106.997013,"station_id":"BKS","station_name":"Bekasi","i_lat":-6.236616,"distance":2520,"transit":false,"line":0},{"is_transit":false,"time":2,"i_lat":-6.248029,"station_name":"Bekasi Timur","line":0,"distance":2368,"station_id":"BKST","transit":false,"i_long":107.016735},{"i_lat":-6.258864,"station_id":"TB","station_name":"Tambun","time":7,"is_transit":false,"distance":4460,"i_long":107.055722,"transit":false,"line":1}],[{"distance":0,"i_long":106.851978,"transit":false,"is_transit":false,"station_name":"Cibinong","i_lat":-6.46424,"station_id":"CBN","time":0,"line":0},{"i_long":106.800298,"transit":false,"time":10,"i_lat":-6.448811,"station_name":"Citayam","station_id":"CTA","is_transit":true,"distance":6740,"line":1},{"station_id":"DP","i_long":106.816926,"station_name":"Depok","is_transit":false,"distance":5084,"time":6,"i_lat":-6.405256,"transit":false,"line":0},{"is_transit":false,"time":3,"station_id":"DPB","station_name":"Depokbaru","distance":1584,"i_long":106.819451,"i_lat":-6.391065,"transit":false,"line":0},{"transit":false,"line":2,"is_transit":false,"distance":2727,"station_id":"POC","station_name":"Pondok Cina","i_long":106.831114,"time":4,"i_lat":-6.369073},{"time":2,"i_lat":-6.360749,"i_long":106.831474,"transit":false,"station_name":"Univ. Indonesia","station_id":"UI","line":2,"is_transit":false,"distance":1109},{"is_transit":false,"station_id":"UP","transit":false,"i_long":106.834175,"station_name":"Univ. Pancasila","i_lat":-6.339291,"distance":2264,"line":2,"time":3},{"i_lat":-6.330363,"is_transit":false,"distance":1029,"station_id":"LNA","transit":false,"time":2,"station_name":"Lenteng Agung","i_long":106.832616,"line":2},{"i_long":106.838896,"transit":false,"is_transit":false,"station_id":"TNT","time":3,"station_name":"Tanjung Barat","i_lat":-6.3080680000000005,"distance":2671,"line":2},{"line":2,"transit":false,"is_transit":false,"time":4,"i_lat":-6.2842400000000005,"distance":2820,"station_id":"PSM","i_long":106.843999,"station_name":"Pasar Minggu"},{"i_lat":-6.263214,"line":2,"distance":2380,"i_long":106.851577,"station_id":"PSMB","time":2,"is_transit":false,"transit":false,"station_name":"Pasar Minggu Baru"},{"distance":824,"is_transit":false,"transit":false,"station_name":"Duren Kalibata","i_long":106.85449,"i_lat":-6.255332,"station_id":"DRN","time":2,"line":0},{"distance":1546,"line":0,"time":3,"station_id":"CW","station_name":"Cawang","i_lat":-6.242512,"is_transit":false,"transit":false,"i_long":106.856607},{"line":2,"distance":1230,"station_id":"TEB","transit":false,"i_long":106.857948,"time":2,"station_name":"Tebet","is_transit":false,"i_lat":-6.226659},{"distance":2610,"station_name":"Manggarai","station_id":"MRI","i_long":106.84912,"line":0,"transit":true,"time":4,"is_transit":true,"i_lat":-6.209883},{"transit":false,"distance":1590,"i_lat":-6.198556,"station_name":"Cikini","i_long":106.840169,"station_id":"CKI","line":0,"is_transit":false,"time":4},{"i_lat":-6.186295,"time":3,"line":2,"transit":false,"station_name":"Gondangdia","i_long":106.832183,"is_transit":false,"distance":1750,"station_id":"GDD"},{"i_long":106.828284,"station_name":"Juanda","station_id":"JUA","transit":false,"time":4,"line":2,"i_lat":-6.166716,"is_transit":false,"distance":2015},{"station_id":"SW","station_name":"Sawah Besar","i_lat":-6.160725,"line":2,"transit":false,"i_long":106.827103,"is_transit":false,"time":2,"distance":1149},{"is_transit":false,"station_name":"Manggabesar","i_long":106.82482,"i_lat":-6.149769,"transit":false,"distance":906,"time":2,"station_id":"MGB","line":2},{"station_id":"JAY","i_lat":-6.141205,"distance":1080,"line":7,"i_long":106.820901,"time":2,"station_name":"Jayakarta","is_transit":false,"transit":false},{"time":4,"station_name":"Jakarta Kota","distance":1264,"transit":true,"line":0,"station_id":"JAKK","i_long":106.812439,"is_transit":true,"i_lat":-6.137569},{"station_name":"Kampung Bandan","line":0,"station_id":"KPB","distance":1364,"transit":true,"time":3,"i_lat":-6.132549,"is_transit":true,"i_long":106.826365},{"station_id":"RJW","time":3,"station_name":"Rajawali","i_lat":-6.14505,"distance":1444,"is_transit":false,"line":11,"i_long":106.836569,"transit":false},{"transit":false,"i_long":106.839204,"line":11,"is_transit":false,"time":5,"station_name":"Kemayoran","distance":1901,"station_id":"KMO","i_lat":-6.161728},{"i_long":106.84368,"time":4,"distance":1436,"is_transit":false,"station_name":"Pasar Senen","station_id":"PSE","transit":false,"line":11,"i_lat":-6.174784},{"transit":false,"station_name":"Gang Sentiong","is_transit":false,"time":8,"i_long":106.850107,"line":11,"i_lat":-6.185975,"distance":1567,"station_id":"GST"},{"transit":false,"line":11,"distance":973,"time":1,"i_long":106.855437,"station_id":"KMT","station_name":"Kramat","is_transit":false,"i_lat":-6.193792},{"distance":1829,"time":2,"i_long":106.861737,"is_transit":false,"station_id":"POK","station_name":"Pondok Jati","line":11,"i_lat":-6.209188,"transit":false},{"station_name":"Jatinegara","distance":1236,"transit":true,"i_long":106.86807400000001,"line":0,"is_transit":true,"station_id":"JNG","time":9,"i_lat":-6.215091},{"station_id":"KLD","i_long":106.899548,"i_lat":-6.2135,"is_transit":false,"time":3,"station_name":"Klender","line":1,"transit":false,"distance":3395},{"i_lat":-6.215568,"i_long":106.922662,"transit":false,"is_transit":false,"distance":3100,"line":0,"station_id":"BUA","station_name":"Buaran","time":2},{"distance":1305,"is_transit":false,"time":1,"i_long":106.939679,"station_id":"KLDB","i_lat":-6.217455,"transit":false,"station_name":"Klenderbaru","line":1},{"i_lat":-6.219053,"transit":false,"station_id":"CUK","line":0,"station_name":"Cakung","i_long":106.951283,"distance":1385,"time":8,"is_transit":false},{"distance":3097,"station_id":"KRI","time":3,"i_lat":-6.224515,"is_transit":false,"station_name":"Kranji","line":1,"i_long":106.977657,"transit":false},{"distance":2520,"line":0,"time":4,"i_long":106.997013,"i_lat":-6.236616,"station_id":"BKS","transit":false,"is_transit":false,"station_name":"Bekasi"},{"station_name":"Bekasi Timur","distance":2368,"i_lat":-6.248029,"time":2,"i_long":107.016735,"station_id":"BKST","is_transit":false,"transit":false,"line":0},{"station_name":"Tambun","transit":false,"i_long":107.055722,"time":7,"line":1,"station_id":"TB","is_transit":false,"distance":4460,"i_lat":-6.258864}]]}