{"data":[[{"distance":0,"is_transit":false,"transit":false,"time":0,"station_name":"Cibinong","station_id":"CBN","i_lat":-6.46424,"i_long":106.851978,"line":21},{"i_lat":-6.460735,"station_id":"PDRG","is_transit":false,"i_long":106.824374,"station_name":"Pondok Rajeg","transit":false,"line":21,"distance":0,"time":0},{"transit":true,"i_lat":-6.448811,"line":2,"is_transit":true,"time":0,"i_long":106.800298,"station_id":"CTA","station_name":"Citayam","distance":0},{"station_name":"Depok","is_transit":false,"time":6,"station_id":"DP","transit":false,"distance":5084,"i_lat":-6.405256,"i_long":106.816926,"line":2},{"line":2,"i_long":106.819451,"transit":false,"i_lat":-6.391065,"is_transit":false,"station_name":"Depokbaru","distance":1584,"time":3,"station_id":"DPB"},{"distance":2727,"station_id":"POC","time":4,"is_transit":false,"i_lat":-6.369073,"transit":false,"i_long":106.831114,"station_name":"Pondok Cina","line":2},{"line":2,"station_id":"UI","station_name":"Univ. Indonesia","distance":1109,"transit":false,"i_lat":-6.360749,"time":2,"i_long":106.831474,"is_transit":false},{"station_id":"UP","station_name":"Univ. Pancasila","is_transit":false,"i_lat":-6.339291,"i_long":106.834175,"line":2,"distance":2264,"transit":false,"time":3},{"station_name":"Lenteng Agung","line":2,"i_lat":-6.330363,"distance":1029,"i_long":106.832616,"transit":false,"time":2,"is_transit":false,"station_id":"LNA"},{"transit":false,"station_name":"Tanjung Barat","station_id":"TNT","time":3,"distance":2671,"i_long":106.838896,"line":2,"is_transit":false,"i_lat":-6.3080680000000005},{"distance":2820,"station_id":"PSM","i_lat":-6.2842400000000005,"i_long":106.843999,"line":2,"time":4,"is_transit":false,"transit":false,"station_name":"Pasar Minggu"},{"station_id":"PSMB","time":2,"line":2,"station_name":"Pasar Minggu Baru","i_lat":-6.263214,"i_long":106.851577,"is_transit":false,"distance":2380,"transit":false},{"time":2,"i_long":106.85449,"station_id":"DRN","i_lat":-6.255332,"transit":false,"line":2,"is_transit":false,"distance":824,"station_name":"Duren Kalibata"},{"time":3,"i_long":106.856607,"distance":1546,"station_id":"CW","station_name":"Cawang","line":2,"i_lat":-6.242512,"is_transit":false,"transit":false},{"time":2,"station_id":"TEB","distance":1230,"i_long":106.857948,"station_name":"Tebet","transit":false,"line":2,"is_transit":false,"i_lat":-6.226659},{"station_name":"Manggarai","is_transit":true,"station_id":"MRI","transit":true,"time":4,"i_long":106.84912,"line":2,"distance":2610,"i_lat":-6.209883},{"line":1,"distance":3186,"i_long":106.822649,"is_transit":false,"time":4,"i_lat":-6.202263,"station_name":"Sudirman","station_id":"SUD","transit":false},{"time":1,"i_lat":-6.201433,"transit":false,"line":1,"station_id":"SUDB","distance":280,"is_transit":false,"station_name":"Sudirman Baru","i_long":106.819881},{"transit":false,"i_long":106.816351,"line":1,"is_transit":false,"time":1,"station_id":"KAT","station_name":"Karet","distance":471,"i_lat":-6.20132},{"distance":2029,"time":5,"station_id":"THB","i_long":106.811091,"i_lat":-6.185545,"transit":false,"station_name":"Tanah Abang","is_transit":false,"line":1},{"is_transit":true,"station_id":"DU","distance":3632,"transit":true,"station_name":"Duri","i_lat":-6.155215,"line":1,"i_long":106.800832,"time":8},{"transit":false,"i_lat":-6.162021,"distance":1700,"station_name":"Grogol","is_transit":false,"time":3,"i_long":106.788277,"station_id":"GRG","line":5},{"station_name":"Pesing","i_long":106.771379,"line":5,"distance":2036,"time":2,"is_transit":false,"i_lat":-6.161433,"station_id":"PSG","transit":false},{"transit":false,"i_lat":-6.1587309999999995,"distance":1614,"is_transit":false,"i_long":106.756522,"line":5,"station_id":"TKO","station_name":"Taman Kota","time":2},{"distance":2334,"is_transit":false,"transit":false,"i_long":106.737035,"time":2,"i_lat":-6.159876,"line":5,"station_name":"Bojongindah","station_id":"BOI"},{"transit":false,"distance":1152,"station_id":"RW","station_name":"Rawa Buaya","time":4,"i_lat":-6.162758,"is_transit":false,"i_long":106.723064,"line":5},{"station_id":"KDS","station_name":"Kalideres","i_lat":-6.166068,"transit":false,"i_long":106.701612,"is_transit":false,"distance":2504,"line":5,"time":3},{"transit":false,"station_id":"PI","time":3,"i_long":106.679458,"distance":2548,"line":5,"is_transit":false,"station_name":"Poris","i_lat":-6.169933},{"station_id":"BPR","is_transit":false,"i_long":106.665036,"transit":false,"distance":1834,"line":5,"i_lat":-6.171811,"station_name":"Batuceper","time":3}],[{"station_name":"Cibinong","is_transit":false,"i_lat":-6.46424,"distance":0,"transit":false,"i_long":106.851978,"station_id":"CBN","line":21,"time":0},{"line":21,"station_name":"Pondok Rajeg","transit":false,"i_long":106.824374,"i_lat":-6.460735,"is_transit":false,"distance":0,"time":0,"station_id":"PDRG"},{"station_id":"CTA","line":2,"distance":0,"i_long":106.800298,"time":0,"transit":true,"is_transit":true,"station_name":"Citayam","i_lat":-6.448811},{"is_transit":false,"i_long":106.816926,"distance":5084,"station_name":"Depok","station_id":"DP","transit":false,"line":2,"i_lat":-6.405256,"time":6},{"time":3,"line":2,"transit":false,"station_id":"DPB","distance":1584,"is_transit":false,"i_lat":-6.391065,"station_name":"Depokbaru","i_long":106.819451},{"station_name":"Pondok Cina","distance":2727,"station_id":"POC","transit":false,"i_lat":-6.369073,"line":2,"time":4,"is_transit":false,"i_long":106.831114},{"distance":1109,"station_name":"Univ. Indonesia","station_id":"UI","i_lat":-6.360749,"is_transit":false,"transit":false,"i_long":106.831474,"line":2,"time":2},{"transit":false,"time":3,"line":2,"i_lat":-6.339291,"i_long":106.834175,"distance":2264,"is_transit":false,"station_name":"Univ. Pancasila","station_id":"UP"},{"line":2,"transit":false,"distance":1029,"time":2,"i_lat":-6.330363,"station_name":"Lenteng Agung","is_transit":false,"station_id":"LNA","i_long":106.832616},{"transit":false,"is_transit":false,"i_lat":-6.3080680000000005,"i_long":106.838896,"time":3,"line":2,"station_name":"Tanjung Barat","station_id":"TNT","distance":2671},{"time":4,"transit":false,"station_id":"PSM","i_lat":-6.2842400000000005,"is_transit":false,"i_long":106.843999,"distance":2820,"station_name":"Pasar Minggu","line":2},{"station_name":"Pasar Minggu Baru","i_long":106.851577,"is_transit":false,"distance":2380,"i_lat":-6.263214,"station_id":"PSMB","line":2,"transit":false,"time":2},{"station_id":"DRN","line":2,"i_long":106.85449,"distance":824,"transit":false,"i_lat":-6.255332,"is_transit":false,"time":2,"station_name":"Duren Kalibata"},{"transit":false,"station_id":"CW","time":3,"is_transit":false,"station_name":"Cawang","i_long":106.856607,"i_lat":-6.242512,"line":2,"distance":1546},{"is_transit":false,"station_id":"TEB","transit":false,"station_name":"Tebet","distance":1230,"time":2,"i_lat":-6.226659,"line":2,"i_long":106.857948},{"station_name":"Manggarai","is_transit":false,"time":4,"line":2,"transit":false,"i_long":106.84912,"i_lat":-6.209883,"station_id":"MRI","distance":2610},{"distance":1590,"i_lat":-6.198556,"time":4,"is_transit":false,"station_name":"Cikini","station_id":"CKI","transit":false,"line":2,"i_long":106.840169},{"station_id":"GDD","i_long":106.832183,"distance":1750,"station_name":"Gondangdia","line":2,"time":3,"i_lat":-6.186295,"is_transit":false,"transit":false},{"station_name":"Juanda","i_long":106.828284,"distance":2015,"station_id":"JUA","i_lat":-6.166716,"time":4,"line":2,"is_transit":false,"transit":false},{"station_id":"SW","station_name":"Sawah Besar","i_lat":-6.160725,"i_long":106.827103,"line":2,"distance":1149,"transit":false,"is_transit":false,"time":2},{"time":2,"station_name":"Manggabesar","i_long":106.82482,"transit":false,"i_lat":-6.149769,"distance":906,"line":2,"station_id":"MGB","is_transit":false},{"i_lat":-6.141205,"i_long":106.820901,"time":2,"distance":1080,"line":2,"transit":false,"is_transit":false,"station_name":"Jayakarta","station_id":"JAY"},{"transit":true,"distance":1264,"line":2,"station_name":"Jakarta Kota","time":4,"station_id":"JAKK","i_lat":-6.137569,"i_long":106.812439,"is_transit":true},{"time":3,"transit":true,"station_name":"Kampung Bandan","station_id":"KPB","i_long":106.826365,"line":4,"is_transit":true,"i_lat":-6.132549,"distance":1364},{"transit":false,"station_id":"AK","distance":4102,"i_long":106.79867,"time":9,"station_name":"Angke","i_lat":-6.144674,"is_transit":false,"line":1},{"station_id":"DU","time":4,"line":1,"transit":true,"station_name":"Duri","is_transit":true,"i_long":106.800832,"i_lat":-6.155215,"distance":1230},{"distance":1700,"station_id":"GRG","is_transit":false,"transit":false,"i_long":106.788277,"i_lat":-6.162021,"time":3,"station_name":"Grogol","line":5},{"line":5,"distance":2036,"transit":false,"i_long":106.771379,"time":2,"is_transit":false,"station_name":"Pesing","station_id":"PSG","i_lat":-6.161433},{"station_id":"TKO","time":2,"distance":1614,"line":5,"transit":false,"station_name":"Taman Kota","is_transit":false,"i_lat":-6.1587309999999995,"i_long":106.756522},{"i_lat":-6.159876,"is_transit":false,"line":5,"time":2,"station_name":"Bojongindah","i_long":106.737035,"station_id":"BOI","distance":2334,"transit":false},{"line":5,"station_name":"Rawa Buaya","i_long":106.723064,"is_transit":false,"station_id":"RW","transit":false,"time":4,"distance":1152,"i_lat":-6.162758},{"line":5,"is_transit":false,"time":3,"i_long":106.701612,"distance":2504,"transit":false,"station_id":"KDS","i_lat":-6.166068,"station_name":"Kalideres"},{"transit":false,"time":3,"station_name":"Poris","i_lat":-6.169933,"i_long":106.679458,"station_id":"PI","is_transit":false,"line":5,"distance":2548},{"i_long":106.665036,"time":3,"distance":1834,"line":5,"station_id":"BPR","station_name":"Batuceper","is_transit":false,"transit":false,"i_lat":-6.171811}],[{"is_transit":false,"distance":0,"transit":false,"i_lat":-6.46424,"station_name":"Cibinong","i_long":106.851978,"station_id":"CBN","line":21,"time":0},{"distance":0,"station_name":"Pondok Rajeg","transit":false,"line":21,"i_lat":-6.460735,"time":0,"station_id":"PDRG","is_transit":false,"i_long":106.824374},{"station_id":"CTA","i_lat":-6.448811,"distance":0,"time":0,"transit":true,"station_name":"Citayam","line":2,"is_transit":true,"i_long":106.800298},{"line":2,"transit":false,"station_id":"DP","i_long":106.816926,"distance":5084,"i_lat":-6.405256,"time":6,"is_transit":false,"station_name":"Depok"},{"i_lat":-6.391065,"time":3,"distance":1584,"line":2,"transit":false,"station_id":"DPB","is_transit":false,"i_long":106.819451,"station_name":"Depokbaru"},{"i_lat":-6.369073,"time":4,"transit":false,"distance":2727,"i_long":106.831114,"is_transit":false,"station_id":"POC","line":2,"station_name":"Pondok Cina"},{"i_lat":-6.360749,"is_transit":false,"distance":1109,"time":2,"station_name":"Univ. Indonesia","transit":false,"line":2,"station_id":"UI","i_long":106.831474},{"i_long":106.834175,"is_transit":false,"time":3,"transit":false,"line":2,"station_name":"Univ. Pancasila","station_id":"UP","i_lat":-6.339291,"distance":2264},{"is_transit":false,"transit":false,"i_long":106.832616,"line":2,"distance":1029,"station_id":"LNA","time":2,"i_lat":-6.330363,"station_name":"Lenteng Agung"},{"i_long":106.838896,"transit":false,"distance":2671,"line":2,"i_lat":-6.3080680000000005,"is_transit":false,"time":3,"station_id":"TNT","station_name":"Tanjung Barat"},{"line":2,"i_lat":-6.2842400000000005,"distance":2820,"station_id":"PSM","time":4,"is_transit":false,"transit":false,"station_name":"Pasar Minggu","i_long":106.843999},{"is_transit":false,"station_name":"Pasar Minggu Baru","station_id":"PSMB","i_lat":-6.263214,"i_long":106.851577,"distance":2380,"time":2,"line":2,"transit":false},{"distance":824,"station_id":"DRN","time":2,"i_lat":-6.255332,"transit":false,"i_long":106.85449,"line":2,"station_name":"Duren Kalibata","is_transit":false},{"i_long":106.856607,"station_id":"CW","is_transit":false,"i_lat":-6.242512,"line":2,"time":3,"station_name":"Cawang","transit":false,"distance":1546},{"distance":1230,"station_name":"Tebet","station_id":"TEB","transit":false,"time":2,"line":2,"is_transit":false,"i_long":106.857948,"i_lat":-6.226659},{"is_transit":true,"transit":true,"line":2,"time":4,"station_name":"Manggarai","station_id":"MRI","i_long":106.84912,"i_lat":-6.209883,"distance":2610},{"station_id":"MTR","is_transit":false,"time":2,"i_lat":-6.212485,"transit":false,"i_long":106.858896,"line":1,"distance":1275,"station_name":"Matraman"},{"is_transit":true,"i_lat":-6.215091,"station_name":"Jatinegara","station_id":"JNG","transit":true,"distance":1377,"i_long":106.86807400000001,"time":8,"line":1},{"distance":1236,"station_name":"Pondok Jati","i_lat":-6.209188,"line":11,"time":2,"transit":false,"i_long":106.861737,"station_id":"POK","is_transit":false},{"i_lat":-6.193792,"station_name":"Kramat","i_long":106.855437,"is_transit":false,"distance":1829,"line":11,"station_id":"KMT","transit":false,"time":2},{"station_id":"GST","distance":973,"i_long":106.850107,"line":11,"transit":false,"station_name":"Gang Sentiong","i_lat":-6.185975,"time":1,"is_transit":false},{"line":11,"i_lat":-6.174784,"station_name":"Pasar Senen","station_id":"PSE","is_transit":false,"time":8,"transit":false,"i_long":106.84368,"distance":1567},{"time":4,"i_long":106.839204,"transit":false,"station_name":"Kemayoran","i_lat":-6.161728,"is_transit":false,"line":11,"distance":1436,"station_id":"KMO"},{"i_lat":-6.14505,"i_long":106.836569,"transit":false,"is_transit":false,"station_id":"RJW","station_name":"Rajawali","distance":1901,"time":5,"line":11},{"transit":true,"distance":1444,"station_name":"Kampung Bandan","is_transit":true,"station_id":"KPB","time":3,"i_lat":-6.132549,"i_long":106.826365,"line":4},{"i_long":106.79867,"line":1,"station_id":"AK","is_transit":false,"transit":false,"station_name":"Angke","distance":4102,"time":9,"i_lat":-6.144674},{"line":1,"time":4,"is_transit":true,"station_name":"Duri","station_id":"DU","i_long":106.800832,"distance":1230,"i_lat":-6.155215,"transit":true},{"i_lat":-6.162021,"transit":false,"station_name":"Grogol","i_long":106.788277,"line":5,"time":3,"is_transit":false,"distance":1700,"station_id":"GRG"},{"is_transit":false,"time":2,"line":5,"i_lat":-6.161433,"distance":2036,"station_name":"Pesing","station_id":"PSG","i_long":106.771379,"transit":false},{"station_id":"TKO","transit":false,"station_name":"Taman Kota","time":2,"is_transit":false,"i_lat":-6.1587309999999995,"distance":1614,"line":5,"i_long":106.756522},{"station_name":"Bojongindah","i_long":106.737035,"i_lat":-6.159876,"line":5,"is_transit":false,"time":2,"distance":2334,"transit":false,"station_id":"BOI"},{"time":4,"i_lat":-6.162758,"line":5,"is_transit":false,"transit":false,"station_name":"Rawa Buaya","station_id":"RW","i_long":106.723064,"distance":1152},{"i_lat":-6.166068,"i_long":106.701612,"station_id":"KDS","line":5,"time":3,"distance":2504,"transit":false,"is_transit":false,"station_name":"Kalideres"},{"transit":false,"station_id":"PI","time":3,"distance":2548,"line":5,"is_transit":false,"i_lat":-6.169933,"i_long":106.679458,"station_name":"Poris"},{"line":5,"distance":1834,"i_long":106.665036,"station_id":"BPR","time":3,"transit":false,"is_transit":false,"station_name":"Batuceper","i_lat":-6.171811}]]}