{"data":[[{"transit":false,"time":0,"distance":0,"station_id":"CBN","i_lat":-6.46424,"station_name":"Cibinong","i_long":106.851978,"line":21,"is_transit":false},{"station_name":"Pondok Rajeg","station_id":"PDRG","transit":false,"is_transit":false,"i_lat":-6.460735,"i_long":106.824374,"time":0,"line":21,"distance":0},{"station_name":"Citayam","distance":0,"is_transit":true,"i_long":106.800298,"transit":true,"station_id":"CTA","time":0,"line":2,"i_lat":-6.448811},{"line":2,"station_id":"DP","is_transit":false,"transit":false,"station_name":"Depok","i_lat":-6.405256,"distance":5084,"time":6,"i_long":106.816926},{"time":3,"distance":1584,"transit":false,"i_long":106.819451,"line":2,"station_name":"Depokbaru","i_lat":-6.391065,"station_id":"DPB","is_transit":false},{"transit":false,"station_name":"Pondok Cina","is_transit":false,"station_id":"POC","time":4,"distance":2727,"i_lat":-6.369073,"i_long":106.831114,"line":2},{"i_long":106.831474,"i_lat":-6.360749,"station_id":"UI","line":2,"time":2,"transit":false,"distance":1109,"station_name":"Univ. Indonesia","is_transit":false},{"i_long":106.834175,"is_transit":false,"time":3,"line":2,"distance":2264,"station_name":"Univ. Pancasila","transit":false,"station_id":"UP","i_lat":-6.339291},{"i_lat":-6.330363,"i_long":106.832616,"time":2,"line":2,"station_id":"LNA","distance":1029,"is_transit":false,"transit":false,"station_name":"Lenteng Agung"},{"distance":2671,"i_long":106.838896,"time":3,"line":2,"transit":false,"station_id":"TNT","station_name":"Tanjung Barat","is_transit":false,"i_lat":-6.3080680000000005},{"station_id":"PSM","distance":2820,"line":2,"i_lat":-6.2842400000000005,"i_long":106.843999,"time":4,"transit":false,"station_name":"Pasar Minggu","is_transit":false},{"transit":false,"station_id":"PSMB","is_transit":false,"line":2,"station_name":"Pasar Minggu Baru","distance":2380,"i_long":106.851577,"i_lat":-6.263214,"time":2},{"line":2,"is_transit":false,"time":2,"station_id":"DRN","transit":false,"distance":824,"i_lat":-6.255332,"i_long":106.85449,"station_name":"Duren Kalibata"},{"i_long":106.856607,"distance":1546,"line":2,"time":3,"station_name":"Cawang","station_id":"CW","is_transit":false,"transit":false,"i_lat":-6.242512},{"is_transit":false,"i_long":106.857948,"transit":false,"time":2,"station_name":"Tebet","station_id":"TEB","distance":1230,"line":2,"i_lat":-6.226659},{"transit":true,"time":4,"line":2,"distance":2610,"i_lat":-6.209883,"i_long":106.84912,"station_name":"Manggarai","station_id":"MRI","is_transit":true},{"line":1,"station_name":"Matraman","distance":1275,"time":2,"i_lat":-6.212485,"transit":false,"i_long":106.858896,"station_id":"MTR","is_transit":false},{"i_lat":-6.215091,"distance":1377,"station_id":"JNG","transit":false,"is_transit":false,"i_long":106.86807400000001,"station_name":"Jatinegara","line":1,"time":8},{"is_transit":false,"time":3,"station_id":"KLD","distance":3395,"transit":false,"station_name":"Klender","i_lat":-6.2135,"i_long":106.899548,"line":1},{"i_lat":-6.215568,"is_transit":false,"station_id":"BUA","i_long":106.922662,"transit":false,"line":1,"distance":3100,"station_name":"Buaran","time":2},{"transit":false,"station_name":"Klenderbaru","i_long":106.939679,"line":1,"time":1,"is_transit":false,"i_lat":-6.217455,"station_id":"KLDB","distance":1305},{"is_transit":false,"station_name":"Cakung","distance":1385,"i_lat":-6.219053,"time":8,"station_id":"CUK","transit":false,"i_long":106.951283,"line":1},{"is_transit":false,"station_id":"KRI","i_long":106.977657,"transit":false,"line":1,"station_name":"Kranji","distance":3097,"i_lat":-6.224515,"time":3},{"distance":2520,"is_transit":false,"line":1,"station_name":"Bekasi","time":4,"i_lat":-6.236616,"station_id":"BKS","i_long":106.997013,"transit":false},{"distance":2368,"station_name":"Bekasi Timur","is_transit":false,"i_lat":-6.248029,"station_id":"BKST","line":1,"time":2,"transit":false,"i_long":107.016735},{"transit":false,"station_name":"Tambun","line":1,"station_id":"TB","is_transit":false,"distance":4460,"i_lat":-6.258864,"i_long":107.055722,"time":7}],[{"time":0,"i_lat":-6.46424,"is_transit":false,"i_long":106.851978,"line":21,"station_name":"Cibinong","station_id":"CBN","transit":false,"distance":0},{"time":0,"station_name":"Pondok Rajeg","line":21,"is_transit":false,"transit":false,"station_id":"PDRG","i_long":106.824374,"distance":0,"i_lat":-6.460735},{"distance":0,"line":2,"station_name":"Citayam","station_id":"CTA","time":0,"i_lat":-6.448811,"transit":true,"is_transit":true,"i_long":106.800298},{"transit":false,"is_transit":false,"distance":5084,"station_id":"DP","line":2,"time":6,"i_lat":-6.405256,"i_long":106.816926,"station_name":"Depok"},{"station_name":"Depokbaru","transit":false,"station_id":"DPB","i_lat":-6.391065,"i_long":106.819451,"line":2,"distance":1584,"is_transit":false,"time":3},{"station_name":"Pondok Cina","distance":2727,"time":4,"i_lat":-6.369073,"i_long":106.831114,"station_id":"POC","is_transit":false,"line":2,"transit":false},{"station_id":"UI","is_transit":false,"time":2,"station_name":"Univ. Indonesia","distance":1109,"i_lat":-6.360749,"i_long":106.831474,"transit":false,"line":2},{"line":2,"transit":false,"distance":2264,"station_id":"UP","time":3,"is_transit":false,"i_lat":-6.339291,"station_name":"Univ. Pancasila","i_long":106.834175},{"station_id":"LNA","line":2,"distance":1029,"transit":false,"station_name":"Lenteng Agung","time":2,"is_transit":false,"i_lat":-6.330363,"i_long":106.832616},{"i_long":106.838896,"i_lat":-6.3080680000000005,"station_name":"Tanjung Barat","station_id":"TNT","time":3,"transit":false,"is_transit":false,"distance":2671,"line":2},{"i_long":106.843999,"time":4,"distance":2820,"station_name":"Pasar Minggu","i_lat":-6.2842400000000005,"station_id":"PSM","transit":false,"is_transit":false,"line":2},{"station_id":"PSMB","distance":2380,"line":2,"station_name":"Pasar Minggu Baru","i_lat":-6.263214,"transit":false,"i_long":106.851577,"is_transit":false,"time":2},{"station_name":"Duren Kalibata","i_lat":-6.255332,"is_transit":false,"station_id":"DRN","line":2,"transit":false,"time":2,"distance":824,"i_long":106.85449},{"is_transit":false,"i_lat":-6.242512,"i_long":106.856607,"line":2,"station_name":"Cawang","distance":1546,"transit":false,"station_id":"CW","time":3},{"station_name":"Tebet","is_transit":false,"time":2,"station_id":"TEB","i_long":106.857948,"line":2,"transit":false,"distance":1230,"i_lat":-6.226659},{"is_transit":true,"station_name":"Manggarai","transit":true,"station_id":"MRI","time":4,"distance":2610,"i_lat":-6.209883,"line":2,"i_long":106.84912},{"transit":false,"station_name":"Sudirman","i_lat":-6.202263,"station_id":"SUD","is_transit":false,"i_long":106.822649,"time":4,"line":1,"distance":3186},{"transit":false,"is_transit":false,"line":1,"i_long":106.819881,"distance":280,"station_id":"SUDB","station_name":"Sudirman Baru","time":1,"i_lat":-6.201433},{"line":1,"distance":471,"station_name":"Karet","station_id":"KAT","i_lat":-6.20132,"time":1,"is_transit":false,"transit":false,"i_long":106.816351},{"is_transit":false,"distance":2029,"station_id":"THB","time":5,"station_name":"Tanah Abang","i_long":106.811091,"line":1,"transit":false,"i_lat":-6.185545},{"is_transit":false,"station_id":"DU","transit":false,"time":8,"i_lat":-6.155215,"station_name":"Duri","i_long":106.800832,"line":1,"distance":3632},{"is_transit":false,"i_lat":-6.144674,"station_id":"AK","line":1,"distance":1230,"station_name":"Angke","time":4,"transit":false,"i_long":106.79867},{"is_transit":true,"distance":4102,"i_lat":-6.132549,"line":4,"station_id":"KPB","transit":true,"station_name":"Kampung Bandan","i_long":106.826365,"time":9},{"station_name":"Rajawali","i_lat":-6.14505,"line":11,"i_long":106.836569,"transit":false,"time":3,"is_transit":false,"station_id":"RJW","distance":1444},{"i_lat":-6.161728,"station_name":"Kemayoran","transit":false,"distance":1901,"station_id":"KMO","line":11,"is_transit":false,"time":5,"i_long":106.839204},{"is_transit":false,"line":11,"i_long":106.84368,"distance":1436,"station_id":"PSE","time":4,"transit":false,"station_name":"Pasar Senen","i_lat":-6.174784},{"station_id":"GST","station_name":"Gang Sentiong","is_transit":false,"i_long":106.850107,"transit":false,"distance":1567,"time":8,"i_lat":-6.185975,"line":11},{"station_id":"KMT","is_transit":false,"i_long":106.855437,"station_name":"Kramat","transit":false,"line":11,"distance":973,"time":1,"i_lat":-6.193792},{"time":2,"line":11,"station_id":"POK","i_long":106.861737,"i_lat":-6.209188,"transit":false,"station_name":"Pondok Jati","distance":1829,"is_transit":false},{"i_long":106.86807400000001,"station_id":"JNG","time":9,"is_transit":true,"transit":true,"i_lat":-6.215091,"line":1,"distance":1236,"station_name":"Jatinegara"},{"i_long":106.899548,"distance":3395,"station_id":"KLD","i_lat":-6.2135,"line":1,"station_name":"Klender","transit":false,"is_transit":false,"time":3},{"station_id":"BUA","is_transit":false,"station_name":"Buaran","distance":3100,"i_lat":-6.215568,"i_long":106.922662,"transit":false,"time":2,"line":1},{"station_id":"KLDB","line":1,"time":1,"distance":1305,"i_long":106.939679,"station_name":"Klenderbaru","is_transit":false,"i_lat":-6.217455,"transit":false},{"station_id":"CUK","line":1,"time":8,"distance":1385,"transit":false,"station_name":"Cakung","is_transit":false,"i_lat":-6.219053,"i_long":106.951283},{"is_transit":false,"line":1,"distance":3097,"transit":false,"station_id":"KRI","station_name":"Kranji","i_lat":-6.224515,"i_long":106.977657,"time":3},{"station_name":"Bekasi","station_id":"BKS","is_transit":false,"time":4,"distance":2520,"i_lat":-6.236616,"transit":false,"i_long":106.997013,"line":1},{"distance":2368,"station_id":"BKST","i_long":107.016735,"is_transit":false,"transit":false,"line":1,"i_lat":-6.248029,"time":2,"station_name":"Bekasi Timur"},{"distance":4460,"i_lat":-6.258864,"time":7,"is_transit":false,"line":1,"station_id":"TB","transit":false,"i_long":107.055722,"station_name":"Tambun"}],[{"station_id":"CBN","station_name":"Cibinong","is_transit":false,"distance":0,"line":21,"i_long":106.851978,"time":0,"i_lat":-6.46424,"transit":false},{"distance":0,"station_name":"Pondok Rajeg","time":0,"station_id":"PDRG","i_lat":-6.460735,"transit":false,"is_transit":false,"line":21,"i_long":106.824374},{"i_lat":-6.448811,"line":2,"time":0,"is_transit":true,"transit":true,"i_long":106.800298,"station_name":"Citayam","station_id":"CTA","distance":0},{"station_name":"Depok","i_lat":-6.405256,"distance":5084,"time":6,"transit":false,"i_long":106.816926,"line":2,"station_id":"DP","is_transit":false},{"is_transit":false,"i_long":106.819451,"transit":false,"distance":1584,"time":3,"station_id":"DPB","i_lat":-6.391065,"line":2,"station_name":"Depokbaru"},{"time":4,"distance":2727,"station_name":"Pondok Cina","line":2,"transit":false,"is_transit":false,"i_long":106.831114,"i_lat":-6.369073,"station_id":"POC"},{"transit":false,"time":2,"station_name":"Univ. Indonesia","is_transit":false,"i_lat":-6.360749,"i_long":106.831474,"distance":1109,"line":2,"station_id":"UI"},{"transit":false,"distance":2264,"time":3,"i_lat":-6.339291,"i_long":106.834175,"is_transit":false,"line":2,"station_id":"UP","station_name":"Univ. Pancasila"},{"line":2,"time":2,"is_transit":false,"station_name":"Lenteng Agung","distance":1029,"i_long":106.832616,"station_id":"LNA","transit":false,"i_lat":-6.330363},{"station_id":"TNT","time":3,"distance":2671,"is_transit":false,"transit":false,"i_lat":-6.3080680000000005,"line":2,"station_name":"Tanjung Barat","i_long":106.838896},{"transit":false,"line":2,"station_name":"Pasar Minggu","station_id":"PSM","is_transit":false,"i_long":106.843999,"time":4,"distance":2820,"i_lat":-6.2842400000000005},{"i_long":106.851577,"transit":false,"station_id":"PSMB","station_name":"Pasar Minggu Baru","i_lat":-6.263214,"is_transit":false,"line":2,"time":2,"distance":2380},{"distance":824,"line":2,"i_lat":-6.255332,"i_long":106.85449,"station_id":"DRN","time":2,"station_name":"Duren Kalibata","transit":false,"is_transit":false},{"station_name":"Cawang","station_id":"CW","is_transit":false,"time":3,"i_long":106.856607,"distance":1546,"transit":false,"i_lat":-6.242512,"line":2},{"station_id":"TEB","line":2,"i_long":106.857948,"is_transit":false,"transit":false,"station_name":"Tebet","i_lat":-6.226659,"time":2,"distance":1230},{"is_transit":false,"distance":2610,"line":2,"transit":false,"station_name":"Manggarai","station_id":"MRI","time":4,"i_long":106.84912,"i_lat":-6.209883},{"transit":false,"station_id":"CKI","distance":1590,"line":2,"i_long":106.840169,"time":4,"is_transit":false,"station_name":"Cikini","i_lat":-6.198556},{"is_transit":false,"line":2,"transit":false,"station_name":"Gondangdia","time":3,"i_long":106.832183,"station_id":"GDD","i_lat":-6.186295,"distance":1750},{"station_id":"JUA","time":4,"i_long":106.828284,"transit":false,"line":2,"i_lat":-6.166716,"station_name":"Juanda","distance":2015,"is_transit":false},{"transit":false,"time":2,"distance":1149,"station_name":"Sawah Besar","is_transit":false,"i_lat":-6.160725,"line":2,"i_long":106.827103,"station_id":"SW"},{"time":2,"i_lat":-6.149769,"is_transit":false,"station_name":"Manggabesar","distance":906,"station_id":"MGB","transit":false,"line":2,"i_long":106.82482},{"i_lat":-6.141205,"transit":false,"distance":1080,"is_transit":false,"i_long":106.820901,"station_id":"JAY","station_name":"Jayakarta","line":2,"time":2},{"i_lat":-6.137569,"transit":true,"station_id":"JAKK","is_transit":true,"time":4,"distance":1264,"i_long":106.812439,"line":2,"station_name":"Jakarta Kota"},{"distance":1364,"station_id":"KPB","time":3,"is_transit":true,"station_name":"Kampung Bandan","i_long":106.826365,"i_lat":-6.132549,"line":4,"transit":true},{"line":11,"is_transit":false,"transit":false,"i_lat":-6.14505,"station_name":"Rajawali","i_long":106.836569,"distance":1444,"station_id":"RJW","time":3},{"i_lat":-6.161728,"is_transit":false,"station_id":"KMO","i_long":106.839204,"time":5,"transit":false,"line":11,"station_name":"Kemayoran","distance":1901},{"station_name":"Pasar Senen","time":4,"transit":false,"line":11,"distance":1436,"station_id":"PSE","i_lat":-6.174784,"is_transit":false,"i_long":106.84368},{"distance":1567,"station_id":"GST","time":8,"is_transit":false,"i_lat":-6.185975,"i_long":106.850107,"line":11,"station_name":"Gang Sentiong","transit":false},{"i_lat":-6.193792,"is_transit":false,"time":1,"station_id":"KMT","distance":973,"line":11,"station_name":"Kramat","transit":false,"i_long":106.855437},{"transit":false,"station_name":"Pondok Jati","station_id":"POK","time":2,"i_lat":-6.209188,"is_transit":false,"distance":1829,"i_long":106.861737,"line":11},{"station_name":"Jatinegara","i_lat":-6.215091,"line":1,"transit":true,"is_transit":true,"i_long":106.86807400000001,"distance":1236,"time":9,"station_id":"JNG"},{"station_name":"Klender","station_id":"KLD","transit":false,"is_transit":false,"time":3,"i_lat":-6.2135,"distance":3395,"i_long":106.899548,"line":1},{"transit":false,"station_name":"Buaran","is_transit":false,"distance":3100,"line":1,"i_lat":-6.215568,"i_long":106.922662,"time":2,"station_id":"BUA"},{"distance":1305,"time":1,"i_long":106.939679,"is_transit":false,"station_id":"KLDB","station_name":"Klenderbaru","i_lat":-6.217455,"line":1,"transit":false},{"transit":false,"station_name":"Cakung","distance":1385,"station_id":"CUK","is_transit":false,"i_long":106.951283,"time":8,"line":1,"i_lat":-6.219053},{"station_id":"KRI","distance":3097,"time":3,"transit":false,"i_lat":-6.224515,"line":1,"station_name":"Kranji","i_long":106.977657,"is_transit":false},{"transit":false,"line":1,"time":4,"distance":2520,"station_name":"Bekasi","is_transit":false,"i_long":106.997013,"i_lat":-6.236616,"station_id":"BKS"},{"time":2,"station_name":"Bekasi Timur","i_lat":-6.248029,"transit":false,"line":1,"i_long":107.016735,"station_id":"BKST","distance":2368,"is_transit":false},{"transit":false,"station_name":"Tambun","distance":4460,"line":1,"station_id":"TB","is_transit":false,"time":7,"i_lat":-6.258864,"i_long":107.055722}]]}