{"data":[[{"station_id":"CBN","is_transit":false,"i_lat":-6.46424,"station_name":"Cibinong","time":0,"distance":0,"line":21,"transit":false,"i_long":106.851978},{"i_lat":-6.460735,"i_long":106.824374,"distance":0,"time":0,"is_transit":false,"transit":false,"station_id":"PDRG","line":21,"station_name":"Pondok Rajeg"},{"station_id":"CTA","i_lat":-6.448811,"i_long":106.800298,"is_transit":true,"line":2,"transit":true,"time":0,"distance":0,"station_name":"Citayam"},{"line":2,"distance":5084,"station_id":"DP","station_name":"Depok","time":6,"transit":false,"is_transit":false,"i_long":106.816926,"i_lat":-6.405256},{"station_name":"Depokbaru","i_lat":-6.391065,"line":2,"distance":1584,"time":3,"i_long":106.819451,"transit":false,"station_id":"DPB","is_transit":false},{"i_lat":-6.369073,"station_name":"Pondok Cina","transit":false,"station_id":"POC","distance":2727,"line":2,"i_long":106.831114,"is_transit":false,"time":4},{"transit":false,"station_id":"UI","is_transit":false,"i_lat":-6.360749,"distance":1109,"i_long":106.831474,"station_name":"Univ. Indonesia","time":2,"line":2},{"time":3,"i_lat":-6.339291,"station_name":"Univ. Pancasila","i_long":106.834175,"line":2,"transit":false,"is_transit":false,"station_id":"UP","distance":2264},{"is_transit":false,"time":2,"distance":1029,"i_lat":-6.330363,"i_long":106.832616,"line":2,"station_name":"Lenteng Agung","transit":false,"station_id":"LNA"},{"line":2,"station_id":"TNT","i_lat":-6.3080680000000005,"distance":2671,"transit":false,"is_transit":false,"station_name":"Tanjung Barat","i_long":106.838896,"time":3},{"i_long":106.843999,"station_id":"PSM","distance":2820,"i_lat":-6.2842400000000005,"station_name":"Pasar Minggu","time":4,"transit":false,"is_transit":false,"line":2},{"time":2,"transit":false,"station_name":"Pasar Minggu Baru","line":2,"i_long":106.851577,"is_transit":false,"distance":2380,"i_lat":-6.263214,"station_id":"PSMB"},{"station_id":"DRN","is_transit":false,"distance":824,"i_lat":-6.255332,"line":2,"transit":false,"station_name":"Duren Kalibata","time":2,"i_long":106.85449},{"is_transit":false,"i_lat":-6.242512,"i_long":106.856607,"distance":1546,"station_id":"CW","transit":false,"line":2,"time":3,"station_name":"Cawang"},{"time":2,"i_long":106.857948,"is_transit":false,"transit":false,"i_lat":-6.226659,"line":2,"station_id":"TEB","distance":1230,"station_name":"Tebet"},{"distance":2610,"station_name":"Manggarai","i_lat":-6.209883,"station_id":"MRI","i_long":106.84912,"line":2,"is_transit":true,"transit":true,"time":4},{"is_transit":false,"line":1,"transit":false,"time":2,"distance":1275,"station_name":"Matraman","i_lat":-6.212485,"i_long":106.858896,"station_id":"MTR"},{"i_lat":-6.215091,"i_long":106.86807400000001,"line":1,"distance":1377,"is_transit":false,"station_name":"Jatinegara","transit":false,"time":8,"station_id":"JNG"},{"station_name":"Klender","i_long":106.899548,"transit":false,"station_id":"KLD","distance":3395,"line":1,"time":3,"is_transit":false,"i_lat":-6.2135},{"time":2,"station_id":"BUA","distance":3100,"transit":false,"line":1,"i_lat":-6.215568,"station_name":"Buaran","is_transit":false,"i_long":106.922662},{"i_lat":-6.217455,"line":1,"time":1,"distance":1305,"is_transit":false,"transit":false,"station_name":"Klenderbaru","i_long":106.939679,"station_id":"KLDB"},{"station_name":"Cakung","i_long":106.951283,"is_transit":false,"station_id":"CUK","time":8,"i_lat":-6.219053,"line":1,"transit":false,"distance":1385},{"is_transit":false,"time":3,"i_lat":-6.224515,"station_name":"Kranji","station_id":"KRI","i_long":106.977657,"line":1,"distance":3097,"transit":false},{"transit":false,"station_name":"Bekasi","time":4,"distance":2520,"station_id":"BKS","line":1,"i_lat":-6.236616,"is_transit":false,"i_long":106.997013},{"station_name":"Bekasi Timur","station_id":"BKST","time":2,"i_long":107.016735,"transit":false,"line":1,"is_transit":false,"distance":2368,"i_lat":-6.248029},{"i_long":107.055722,"is_transit":false,"station_name":"Tambun","time":7,"line":1,"distance":4460,"transit":false,"i_lat":-6.258864,"station_id":"TB"},{"is_transit":false,"i_lat":-6.261877,"station_name":"Cibitung","i_long":107.083084,"transit":false,"station_id":"CIT","time":3,"distance":3420,"line":1},{"transit":false,"station_id":"TLM","i_lat":-6.262938,"line":1,"is_transit":false,"distance":2800,"i_long":107.093313,"station_name":"Metland Telaga Murni","time":2}],[{"is_transit":false,"line":21,"station_id":"CBN","distance":0,"i_lat":-6.46424,"i_long":106.851978,"time":0,"transit":false,"station_name":"Cibinong"},{"is_transit":false,"distance":0,"line":21,"time":0,"station_name":"Pondok Rajeg","i_lat":-6.460735,"i_long":106.824374,"transit":false,"station_id":"PDRG"},{"station_id":"CTA","is_transit":true,"i_lat":-6.448811,"i_long":106.800298,"line":2,"transit":true,"time":0,"station_name":"Citayam","distance":0},{"i_lat":-6.405256,"station_name":"Depok","is_transit":false,"i_long":106.816926,"time":6,"transit":false,"distance":5084,"station_id":"DP","line":2},{"station_name":"Depokbaru","i_long":106.819451,"distance":1584,"time":3,"i_lat":-6.391065,"line":2,"station_id":"DPB","is_transit":false,"transit":false},{"station_name":"Pondok Cina","is_transit":false,"transit":false,"station_id":"POC","i_lat":-6.369073,"time":4,"i_long":106.831114,"line":2,"distance":2727},{"time":2,"i_long":106.831474,"i_lat":-6.360749,"line":2,"distance":1109,"station_name":"Univ. Indonesia","is_transit":false,"transit":false,"station_id":"UI"},{"distance":2264,"i_lat":-6.339291,"time":3,"transit":false,"line":2,"station_name":"Univ. Pancasila","i_long":106.834175,"station_id":"UP","is_transit":false},{"i_long":106.832616,"line":2,"station_id":"LNA","i_lat":-6.330363,"is_transit":false,"time":2,"station_name":"Lenteng Agung","transit":false,"distance":1029},{"time":3,"i_lat":-6.3080680000000005,"i_long":106.838896,"line":2,"transit":false,"station_name":"Tanjung Barat","is_transit":false,"station_id":"TNT","distance":2671},{"transit":false,"i_long":106.843999,"distance":2820,"i_lat":-6.2842400000000005,"time":4,"station_name":"Pasar Minggu","station_id":"PSM","line":2,"is_transit":false},{"distance":2380,"transit":false,"time":2,"i_long":106.851577,"line":2,"station_id":"PSMB","is_transit":false,"station_name":"Pasar Minggu Baru","i_lat":-6.263214},{"distance":824,"i_long":106.85449,"transit":false,"station_id":"DRN","line":2,"is_transit":false,"station_name":"Duren Kalibata","i_lat":-6.255332,"time":2},{"i_lat":-6.242512,"station_name":"Cawang","station_id":"CW","distance":1546,"is_transit":false,"time":3,"transit":false,"i_long":106.856607,"line":2},{"i_lat":-6.226659,"is_transit":false,"station_name":"Tebet","i_long":106.857948,"transit":false,"station_id":"TEB","time":2,"line":2,"distance":1230},{"i_long":106.84912,"station_id":"MRI","station_name":"Manggarai","is_transit":true,"distance":2610,"line":2,"transit":true,"time":4,"i_lat":-6.209883},{"station_name":"Sudirman","i_long":106.822649,"distance":3186,"time":4,"i_lat":-6.202263,"transit":false,"station_id":"SUD","is_transit":false,"line":1},{"line":1,"is_transit":false,"distance":280,"station_id":"SUDB","i_long":106.819881,"station_name":"Sudirman Baru","time":1,"transit":false,"i_lat":-6.201433},{"i_long":106.816351,"station_name":"Karet","station_id":"KAT","is_transit":false,"time":1,"distance":471,"i_lat":-6.20132,"line":1,"transit":false},{"is_transit":false,"line":1,"station_id":"THB","time":5,"i_lat":-6.185545,"station_name":"Tanah Abang","transit":false,"distance":2029,"i_long":106.811091},{"line":1,"station_name":"Duri","transit":false,"station_id":"DU","distance":3632,"i_long":106.800832,"i_lat":-6.155215,"is_transit":false,"time":8},{"is_transit":false,"distance":1230,"station_name":"Angke","station_id":"AK","i_long":106.79867,"transit":false,"line":1,"i_lat":-6.144674,"time":4},{"i_long":106.826365,"is_transit":true,"i_lat":-6.132549,"station_id":"KPB","station_name":"Kampung Bandan","time":9,"line":4,"distance":4102,"transit":true},{"is_transit":false,"i_lat":-6.14505,"station_id":"RJW","transit":false,"time":3,"distance":1444,"i_long":106.836569,"line":11,"station_name":"Rajawali"},{"transit":false,"is_transit":false,"distance":1901,"time":5,"line":11,"station_name":"Kemayoran","station_id":"KMO","i_lat":-6.161728,"i_long":106.839204},{"transit":false,"station_id":"PSE","is_transit":false,"time":4,"line":11,"i_long":106.84368,"distance":1436,"i_lat":-6.174784,"station_name":"Pasar Senen"},{"time":8,"transit":false,"station_id":"GST","i_lat":-6.185975,"distance":1567,"station_name":"Gang Sentiong","is_transit":false,"i_long":106.850107,"line":11},{"time":1,"station_id":"KMT","line":11,"transit":false,"is_transit":false,"distance":973,"i_lat":-6.193792,"i_long":106.855437,"station_name":"Kramat"},{"distance":1829,"i_lat":-6.209188,"time":2,"station_id":"POK","line":11,"is_transit":false,"i_long":106.861737,"transit":false,"station_name":"Pondok Jati"},{"transit":true,"station_name":"Jatinegara","station_id":"JNG","i_long":106.86807400000001,"distance":1236,"i_lat":-6.215091,"line":1,"time":9,"is_transit":true},{"line":1,"station_id":"KLD","time":3,"distance":3395,"transit":false,"station_name":"Klender","i_long":106.899548,"is_transit":false,"i_lat":-6.2135},{"station_name":"Buaran","is_transit":false,"i_long":106.922662,"time":2,"i_lat":-6.215568,"distance":3100,"line":1,"station_id":"BUA","transit":false},{"distance":1305,"time":1,"line":1,"is_transit":false,"i_lat":-6.217455,"station_id":"KLDB","i_long":106.939679,"station_name":"Klenderbaru","transit":false},{"is_transit":false,"distance":1385,"station_id":"CUK","i_lat":-6.219053,"transit":false,"i_long":106.951283,"time":8,"station_name":"Cakung","line":1},{"station_name":"Kranji","is_transit":false,"distance":3097,"line":1,"transit":false,"i_long":106.977657,"i_lat":-6.224515,"time":3,"station_id":"KRI"},{"station_name":"Bekasi","station_id":"BKS","i_lat":-6.236616,"i_long":106.997013,"time":4,"line":1,"is_transit":false,"distance":2520,"transit":false},{"is_transit":false,"station_id":"BKST","line":1,"i_lat":-6.248029,"transit":false,"distance":2368,"i_long":107.016735,"time":2,"station_name":"Bekasi Timur"},{"line":1,"station_id":"TB","i_long":107.055722,"station_name":"Tambun","transit":false,"is_transit":false,"time":7,"distance":4460,"i_lat":-6.258864},{"station_id":"CIT","is_transit":false,"time":3,"i_lat":-6.261877,"i_long":107.083084,"station_name":"Cibitung","transit":false,"distance":3420,"line":1},{"station_id":"TLM","time":2,"i_long":107.093313,"i_lat":-6.262938,"transit":false,"station_name":"Metland Telaga Murni","distance":2800,"is_transit":false,"line":1}],[{"distance":0,"i_long":106.851978,"is_transit":false,"time":0,"station_id":"CBN","station_name":"Cibinong","transit":false,"line":21,"i_lat":-6.46424},{"i_lat":-6.460735,"station_id":"PDRG","distance":0,"transit":false,"is_transit":false,"line":21,"time":0,"station_name":"Pondok Rajeg","i_long":106.824374},{"is_transit":true,"time":0,"line":2,"i_lat":-6.448811,"station_name":"Citayam","station_id":"CTA","distance":0,"i_long":106.800298,"transit":true},{"time":6,"station_id":"DP","is_transit":false,"distance":5084,"i_long":106.816926,"line":2,"station_name":"Depok","transit":false,"i_lat":-6.405256},{"i_long":106.819451,"is_transit":false,"station_name":"Depokbaru","station_id":"DPB","line":2,"transit":false,"time":3,"distance":1584,"i_lat":-6.391065},{"station_id":"POC","time":4,"transit":false,"station_name":"Pondok Cina","i_lat":-6.369073,"distance":2727,"line":2,"is_transit":false,"i_long":106.831114},{"i_long":106.831474,"is_transit":false,"line":2,"station_name":"Univ. Indonesia","station_id":"UI","i_lat":-6.360749,"transit":false,"time":2,"distance":1109},{"i_lat":-6.339291,"station_id":"UP","transit":false,"station_name":"Univ. Pancasila","time":3,"line":2,"distance":2264,"is_transit":false,"i_long":106.834175},{"station_id":"LNA","time":2,"i_long":106.832616,"transit":false,"is_transit":false,"distance":1029,"station_name":"Lenteng Agung","line":2,"i_lat":-6.330363},{"station_name":"Tanjung Barat","i_long":106.838896,"line":2,"transit":false,"is_transit":false,"distance":2671,"i_lat":-6.3080680000000005,"station_id":"TNT","time":3},{"line":2,"i_long":106.843999,"transit":false,"time":4,"i_lat":-6.2842400000000005,"station_id":"PSM","station_name":"Pasar Minggu","distance":2820,"is_transit":false},{"station_id":"PSMB","time":2,"distance":2380,"is_transit":false,"i_long":106.851577,"line":2,"transit":false,"station_name":"Pasar Minggu Baru","i_lat":-6.263214},{"i_lat":-6.255332,"distance":824,"time":2,"station_name":"Duren Kalibata","transit":false,"station_id":"DRN","line":2,"i_long":106.85449,"is_transit":false},{"line":2,"station_name":"Cawang","i_lat":-6.242512,"i_long":106.856607,"transit":false,"is_transit":false,"distance":1546,"station_id":"CW","time":3},{"time":2,"i_lat":-6.226659,"line":2,"distance":1230,"transit":false,"is_transit":false,"station_id":"TEB","station_name":"Tebet","i_long":106.857948},{"is_transit":false,"i_long":106.84912,"station_name":"Manggarai","line":2,"transit":false,"station_id":"MRI","distance":2610,"i_lat":-6.209883,"time":4},{"station_id":"CKI","distance":1590,"line":2,"i_long":106.840169,"transit":false,"is_transit":false,"i_lat":-6.198556,"time":4,"station_name":"Cikini"},{"line":2,"i_long":106.832183,"time":3,"station_name":"Gondangdia","station_id":"GDD","is_transit":false,"transit":false,"i_lat":-6.186295,"distance":1750},{"time":4,"line":2,"is_transit":false,"transit":false,"station_id":"JUA","station_name":"Juanda","i_long":106.828284,"distance":2015,"i_lat":-6.166716},{"time":2,"distance":1149,"i_long":106.827103,"station_name":"Sawah Besar","is_transit":false,"station_id":"SW","line":2,"transit":false,"i_lat":-6.160725},{"time":2,"station_name":"Manggabesar","i_long":106.82482,"is_transit":false,"station_id":"MGB","i_lat":-6.149769,"line":2,"transit":false,"distance":906},{"time":2,"distance":1080,"i_lat":-6.141205,"line":2,"is_transit":false,"i_long":106.820901,"station_name":"Jayakarta","station_id":"JAY","transit":false},{"is_transit":true,"line":2,"i_lat":-6.137569,"time":4,"station_name":"Jakarta Kota","transit":true,"station_id":"JAKK","distance":1264,"i_long":106.812439},{"i_lat":-6.132549,"i_long":106.826365,"station_name":"Kampung Bandan","line":4,"transit":true,"time":3,"distance":1364,"station_id":"KPB","is_transit":true},{"time":3,"i_long":106.836569,"distance":1444,"station_name":"Rajawali","line":11,"is_transit":false,"station_id":"RJW","transit":false,"i_lat":-6.14505},{"distance":1901,"transit":false,"i_lat":-6.161728,"i_long":106.839204,"station_id":"KMO","line":11,"time":5,"is_transit":false,"station_name":"Kemayoran"},{"station_id":"PSE","transit":false,"i_lat":-6.174784,"distance":1436,"i_long":106.84368,"is_transit":false,"time":4,"line":11,"station_name":"Pasar Senen"},{"line":11,"station_name":"Gang Sentiong","i_lat":-6.185975,"time":8,"is_transit":false,"station_id":"GST","distance":1567,"transit":false,"i_long":106.850107},{"line":11,"station_name":"Kramat","i_long":106.855437,"distance":973,"is_transit":false,"i_lat":-6.193792,"station_id":"KMT","transit":false,"time":1},{"line":11,"station_name":"Pondok Jati","station_id":"POK","time":2,"distance":1829,"i_lat":-6.209188,"i_long":106.861737,"is_transit":false,"transit":false},{"station_name":"Jatinegara","time":9,"transit":true,"is_transit":true,"line":1,"distance":1236,"station_id":"JNG","i_long":106.86807400000001,"i_lat":-6.215091},{"i_long":106.899548,"transit":false,"station_name":"Klender","line":1,"distance":3395,"is_transit":false,"time":3,"station_id":"KLD","i_lat":-6.2135},{"station_id":"BUA","i_lat":-6.215568,"is_transit":false,"distance":3100,"transit":false,"station_name":"Buaran","i_long":106.922662,"line":1,"time":2},{"i_lat":-6.217455,"i_long":106.939679,"transit":false,"station_id":"KLDB","is_transit":false,"station_name":"Klenderbaru","distance":1305,"time":1,"line":1},{"distance":1385,"is_transit":false,"station_name":"Cakung","time":8,"i_long":106.951283,"line":1,"station_id":"CUK","i_lat":-6.219053,"transit":false},{"i_long":106.977657,"transit":false,"station_name":"Kranji","i_lat":-6.224515,"distance":3097,"station_id":"KRI","is_transit":false,"time":3,"line":1},{"is_transit":false,"i_lat":-6.236616,"station_name":"Bekasi","line":1,"distance":2520,"station_id":"BKS","transit":false,"time":4,"i_long":106.997013},{"station_name":"Bekasi Timur","transit":false,"i_long":107.016735,"line":1,"is_transit":false,"distance":2368,"station_id":"BKST","time":2,"i_lat":-6.248029},{"is_transit":false,"station_name":"Tambun","station_id":"TB","i_lat":-6.258864,"distance":4460,"i_long":107.055722,"time":7,"transit":false,"line":1},{"i_lat":-6.261877,"i_long":107.083084,"line":1,"time":3,"transit":false,"distance":3420,"station_name":"Cibitung","station_id":"CIT","is_transit":false},{"station_id":"TLM","is_transit":false,"line":1,"station_name":"Metland Telaga Murni","i_lat":-6.262938,"i_long":107.093313,"transit":false,"time":2,"distance":2800}]]}