{"data":[[{"time":0,"line":21,"is_transit":false,"i_lat":-6.46424,"i_long":106.851978,"station_name":"Cibinong","distance":0,"transit":false,"station_id":"CBN"},{"is_transit":false,"time":0,"distance":0,"i_long":106.824374,"line":21,"i_lat":-6.460735,"transit":false,"station_id":"PDRG","station_name":"Pondok Rajeg"},{"station_id":"CTA","station_name":"Citayam","time":0,"i_lat":-6.448811,"is_transit":true,"i_long":106.800298,"line":2,"transit":true,"distance":0},{"station_id":"DP","transit":false,"distance":5084,"station_name":"Depok","i_lat":-6.405256,"is_transit":false,"time":6,"line":2,"i_long":106.816926},{"is_transit":false,"i_long":106.819451,"time":3,"distance":1584,"station_name":"Depokbaru","line":2,"station_id":"DPB","i_lat":-6.391065,"transit":false},{"i_long":106.831114,"station_name":"Pondok Cina","is_transit":false,"line":2,"station_id":"POC","time":4,"i_lat":-6.369073,"transit":false,"distance":2727},{"is_transit":false,"transit":false,"station_id":"UI","station_name":"Univ. Indonesia","distance":1109,"time":2,"i_lat":-6.360749,"i_long":106.831474,"line":2},{"line":2,"i_lat":-6.339291,"transit":false,"time":3,"distance":2264,"is_transit":false,"station_name":"Univ. Pancasila","i_long":106.834175,"station_id":"UP"},{"station_id":"LNA","station_name":"Lenteng Agung","line":2,"transit":false,"is_transit":false,"time":2,"distance":1029,"i_lat":-6.330363,"i_long":106.832616},{"station_id":"TNT","station_name":"Tanjung Barat","is_transit":false,"transit":false,"i_lat":-6.3080680000000005,"distance":2671,"i_long":106.838896,"time":3,"line":2},{"transit":false,"is_transit":false,"time":4,"line":2,"station_id":"PSM","station_name":"Pasar Minggu","distance":2820,"i_lat":-6.2842400000000005,"i_long":106.843999},{"i_lat":-6.263214,"line":2,"distance":2380,"is_transit":false,"transit":false,"i_long":106.851577,"station_name":"Pasar Minggu Baru","time":2,"station_id":"PSMB"},{"line":2,"is_transit":false,"station_id":"DRN","i_lat":-6.255332,"distance":824,"i_long":106.85449,"transit":false,"station_name":"Duren Kalibata","time":2},{"i_lat":-6.242512,"transit":false,"station_name":"Cawang","i_long":106.856607,"is_transit":false,"station_id":"CW","time":3,"distance":1546,"line":2},{"transit":false,"station_name":"Tebet","station_id":"TEB","i_long":106.857948,"line":2,"is_transit":false,"i_lat":-6.226659,"time":2,"distance":1230},{"station_name":"Manggarai","is_transit":false,"i_lat":-6.209883,"time":4,"distance":2610,"transit":false,"station_id":"MRI","i_long":106.84912,"line":2},{"distance":1590,"i_lat":-6.198556,"time":4,"line":2,"i_long":106.840169,"transit":false,"station_id":"CKI","station_name":"Cikini","is_transit":false},{"transit":false,"distance":1750,"station_id":"GDD","time":3,"station_name":"Gondangdia","is_transit":false,"line":2,"i_long":106.832183,"i_lat":-6.186295},{"line":2,"transit":false,"i_long":106.828284,"station_name":"Juanda","distance":2015,"station_id":"JUA","is_transit":false,"time":4,"i_lat":-6.166716},{"time":2,"station_id":"SW","i_lat":-6.160725,"line":2,"transit":false,"distance":1149,"i_long":106.827103,"station_name":"Sawah Besar","is_transit":false},{"i_lat":-6.149769,"station_id":"MGB","is_transit":false,"time":2,"distance":906,"transit":false,"station_name":"Manggabesar","i_long":106.82482,"line":2},{"i_long":106.820901,"distance":1080,"is_transit":false,"transit":false,"station_name":"Jayakarta","time":2,"station_id":"JAY","i_lat":-6.141205,"line":2}],[{"line":21,"station_name":"Cibinong","time":0,"is_transit":false,"station_id":"CBN","i_lat":-6.46424,"i_long":106.851978,"transit":false,"distance":0},{"i_lat":-6.460735,"line":21,"i_long":106.824374,"station_name":"Pondok Rajeg","time":0,"station_id":"PDRG","transit":false,"distance":0,"is_transit":false},{"station_id":"CTA","time":0,"is_transit":true,"transit":true,"i_lat":-6.448811,"line":2,"i_long":106.800298,"station_name":"Citayam","distance":0},{"i_lat":-6.405256,"time":6,"station_id":"DP","station_name":"Depok","distance":5084,"transit":false,"line":2,"is_transit":false,"i_long":106.816926},{"transit":false,"i_long":106.819451,"is_transit":false,"distance":1584,"i_lat":-6.391065,"station_name":"Depokbaru","line":2,"station_id":"DPB","time":3},{"station_id":"POC","station_name":"Pondok Cina","is_transit":false,"time":4,"distance":2727,"i_long":106.831114,"line":2,"transit":false,"i_lat":-6.369073},{"distance":1109,"station_id":"UI","time":2,"i_lat":-6.360749,"i_long":106.831474,"station_name":"Univ. Indonesia","is_transit":false,"transit":false,"line":2},{"i_lat":-6.339291,"i_long":106.834175,"distance":2264,"station_id":"UP","line":2,"station_name":"Univ. Pancasila","transit":false,"is_transit":false,"time":3},{"line":2,"i_long":106.832616,"station_name":"Lenteng Agung","i_lat":-6.330363,"transit":false,"time":2,"is_transit":false,"distance":1029,"station_id":"LNA"},{"line":2,"i_lat":-6.3080680000000005,"i_long":106.838896,"station_name":"Tanjung Barat","time":3,"is_transit":false,"station_id":"TNT","distance":2671,"transit":false},{"i_lat":-6.2842400000000005,"line":2,"time":4,"station_name":"Pasar Minggu","i_long":106.843999,"transit":false,"station_id":"PSM","distance":2820,"is_transit":false},{"time":2,"i_long":106.851577,"transit":false,"is_transit":false,"line":2,"distance":2380,"i_lat":-6.263214,"station_name":"Pasar Minggu Baru","station_id":"PSMB"},{"transit":false,"station_id":"DRN","time":2,"i_long":106.85449,"line":2,"station_name":"Duren Kalibata","i_lat":-6.255332,"distance":824,"is_transit":false},{"transit":false,"is_transit":false,"time":3,"distance":1546,"station_name":"Cawang","station_id":"CW","i_lat":-6.242512,"i_long":106.856607,"line":2},{"transit":false,"station_name":"Tebet","distance":1230,"station_id":"TEB","line":2,"i_lat":-6.226659,"is_transit":false,"i_long":106.857948,"time":2},{"line":2,"station_id":"MRI","time":4,"station_name":"Manggarai","transit":true,"i_lat":-6.209883,"i_long":106.84912,"is_transit":true,"distance":2610},{"is_transit":false,"i_long":106.822649,"transit":false,"station_name":"Sudirman","time":4,"i_lat":-6.202263,"line":1,"station_id":"SUD","distance":3186},{"station_name":"Sudirman Baru","i_lat":-6.201433,"time":1,"is_transit":false,"i_long":106.819881,"transit":false,"station_id":"SUDB","distance":280,"line":1},{"station_id":"KAT","distance":471,"i_lat":-6.20132,"i_long":106.816351,"is_transit":false,"station_name":"Karet","time":1,"line":1,"transit":false},{"i_long":106.811091,"station_name":"Tanah Abang","line":1,"i_lat":-6.185545,"distance":2029,"transit":false,"is_transit":false,"station_id":"THB","time":5},{"distance":3632,"line":1,"is_transit":false,"transit":false,"i_lat":-6.155215,"station_id":"DU","i_long":106.800832,"station_name":"Duri","time":8},{"is_transit":false,"time":4,"station_name":"Angke","i_lat":-6.144674,"line":1,"station_id":"AK","transit":false,"distance":1230,"i_long":106.79867},{"time":9,"station_name":"Kampung Bandan","transit":true,"distance":4102,"i_lat":-6.132549,"is_transit":true,"station_id":"KPB","i_long":106.826365,"line":4},{"line":2,"i_long":106.812439,"is_transit":true,"transit":true,"i_lat":-6.137569,"time":3,"distance":1364,"station_name":"Jakarta Kota","station_id":"JAKK"},{"line":2,"station_name":"Jayakarta","station_id":"JAY","transit":false,"is_transit":false,"time":4,"distance":1264,"i_lat":-6.141205,"i_long":106.820901}],[{"station_id":"CBN","i_long":106.851978,"line":21,"station_name":"Cibinong","time":0,"transit":false,"is_transit":false,"distance":0,"i_lat":-6.46424},{"distance":0,"i_long":106.824374,"transit":false,"station_id":"PDRG","time":0,"station_name":"Pondok Rajeg","line":21,"is_transit":false,"i_lat":-6.460735},{"line":2,"i_lat":-6.448811,"time":0,"station_name":"Citayam","distance":0,"transit":true,"is_transit":true,"station_id":"CTA","i_long":106.800298},{"i_lat":-6.405256,"time":6,"transit":false,"is_transit":false,"distance":5084,"i_long":106.816926,"line":2,"station_name":"Depok","station_id":"DP"},{"i_long":106.819451,"line":2,"is_transit":false,"station_id":"DPB","distance":1584,"transit":false,"station_name":"Depokbaru","time":3,"i_lat":-6.391065},{"transit":false,"station_name":"Pondok Cina","distance":2727,"line":2,"is_transit":false,"i_lat":-6.369073,"station_id":"POC","i_long":106.831114,"time":4},{"line":2,"i_long":106.831474,"transit":false,"is_transit":false,"i_lat":-6.360749,"station_name":"Univ. Indonesia","time":2,"station_id":"UI","distance":1109},{"station_id":"UP","time":3,"distance":2264,"line":2,"station_name":"Univ. Pancasila","transit":false,"i_lat":-6.339291,"i_long":106.834175,"is_transit":false},{"line":2,"station_name":"Lenteng Agung","station_id":"LNA","time":2,"transit":false,"is_transit":false,"i_lat":-6.330363,"i_long":106.832616,"distance":1029},{"distance":2671,"station_name":"Tanjung Barat","station_id":"TNT","i_lat":-6.3080680000000005,"line":2,"transit":false,"time":3,"i_long":106.838896,"is_transit":false},{"station_name":"Pasar Minggu","time":4,"i_lat":-6.2842400000000005,"transit":false,"station_id":"PSM","is_transit":false,"distance":2820,"i_long":106.843999,"line":2},{"transit":false,"time":2,"i_lat":-6.263214,"line":2,"station_name":"Pasar Minggu Baru","i_long":106.851577,"station_id":"PSMB","distance":2380,"is_transit":false},{"transit":false,"is_transit":false,"distance":824,"i_lat":-6.255332,"time":2,"i_long":106.85449,"line":2,"station_name":"Duren Kalibata","station_id":"DRN"},{"i_lat":-6.242512,"station_name":"Cawang","station_id":"CW","time":3,"i_long":106.856607,"line":2,"is_transit":false,"transit":false,"distance":1546},{"station_id":"TEB","transit":false,"i_lat":-6.226659,"time":2,"station_name":"Tebet","i_long":106.857948,"line":2,"is_transit":false,"distance":1230},{"station_id":"MRI","is_transit":true,"distance":2610,"i_lat":-6.209883,"i_long":106.84912,"transit":true,"station_name":"Manggarai","line":2,"time":4},{"line":1,"i_lat":-6.212485,"distance":1275,"time":2,"is_transit":false,"i_long":106.858896,"transit":false,"station_id":"MTR","station_name":"Matraman"},{"is_transit":true,"time":8,"line":1,"i_long":106.86807400000001,"transit":true,"distance":1377,"i_lat":-6.215091,"station_name":"Jatinegara","station_id":"JNG"},{"station_id":"POK","station_name":"Pondok Jati","is_transit":false,"i_lat":-6.209188,"i_long":106.861737,"time":2,"transit":false,"distance":1236,"line":11},{"time":2,"i_lat":-6.193792,"i_long":106.855437,"station_name":"Kramat","transit":false,"station_id":"KMT","is_transit":false,"distance":1829,"line":11},{"is_transit":false,"station_name":"Gang Sentiong","transit":false,"i_lat":-6.185975,"i_long":106.850107,"line":11,"station_id":"GST","distance":973,"time":1},{"i_long":106.84368,"is_transit":false,"station_id":"PSE","time":8,"distance":1567,"i_lat":-6.174784,"line":11,"station_name":"Pasar Senen","transit":false},{"transit":false,"is_transit":false,"time":4,"i_long":106.839204,"line":11,"station_name":"Kemayoran","i_lat":-6.161728,"distance":1436,"station_id":"KMO"},{"transit":false,"i_lat":-6.14505,"station_name":"Rajawali","i_long":106.836569,"line":11,"time":5,"is_transit":false,"station_id":"RJW","distance":1901},{"time":3,"distance":1444,"i_lat":-6.132549,"i_long":106.826365,"line":4,"transit":true,"station_name":"Kampung Bandan","station_id":"KPB","is_transit":true},{"i_long":106.812439,"station_name":"Jakarta Kota","distance":1364,"transit":true,"is_transit":true,"i_lat":-6.137569,"station_id":"JAKK","line":2,"time":3},{"distance":1264,"station_id":"JAY","line":2,"i_lat":-6.141205,"time":4,"transit":false,"station_name":"Jayakarta","i_long":106.820901,"is_transit":false}]]}