{"data":[[{"line":21,"time":0,"transit":false,"is_transit":false,"station_id":"CBN","i_long":106.851978,"station_name":"Cibinong","distance":0,"i_lat":-6.46424},{"line":21,"is_transit":false,"i_long":106.824374,"i_lat":-6.460735,"time":0,"station_id":"PDRG","transit":false,"station_name":"Pondok Rajeg","distance":0},{"i_lat":-6.448811,"line":2,"i_long":106.800298,"station_name":"Citayam","station_id":"CTA","time":0,"distance":0,"transit":true,"is_transit":true},{"i_long":106.816926,"time":6,"station_name":"Depok","station_id":"DP","is_transit":false,"transit":false,"distance":5084,"line":2,"i_lat":-6.405256},{"transit":false,"i_long":106.819451,"station_name":"Depokbaru","station_id":"DPB","is_transit":false,"distance":1584,"time":3,"i_lat":-6.391065,"line":2},{"station_name":"Pondok Cina","i_long":106.831114,"time":4,"line":2,"transit":false,"station_id":"POC","i_lat":-6.369073,"is_transit":false,"distance":2727},{"distance":1109,"i_long":106.831474,"transit":false,"is_transit":false,"line":2,"time":2,"station_id":"UI","i_lat":-6.360749,"station_name":"Univ. Indonesia"},{"distance":2264,"i_lat":-6.339291,"line":2,"transit":false,"time":3,"is_transit":false,"station_name":"Univ. Pancasila","station_id":"UP","i_long":106.834175},{"station_id":"LNA","transit":false,"time":2,"distance":1029,"i_long":106.832616,"i_lat":-6.330363,"is_transit":false,"line":2,"station_name":"Lenteng Agung"},{"i_long":106.838896,"is_transit":false,"station_name":"Tanjung Barat","distance":2671,"station_id":"TNT","i_lat":-6.3080680000000005,"line":2,"transit":false,"time":3},{"station_name":"Pasar Minggu","is_transit":false,"time":4,"i_lat":-6.2842400000000005,"station_id":"PSM","transit":false,"i_long":106.843999,"line":2,"distance":2820},{"time":2,"station_id":"PSMB","transit":false,"distance":2380,"i_lat":-6.263214,"i_long":106.851577,"station_name":"Pasar Minggu Baru","line":2,"is_transit":false},{"line":2,"transit":false,"i_long":106.85449,"is_transit":false,"station_id":"DRN","station_name":"Duren Kalibata","time":2,"distance":824,"i_lat":-6.255332},{"i_long":106.856607,"distance":1546,"is_transit":false,"i_lat":-6.242512,"station_id":"CW","time":3,"line":2,"transit":false,"station_name":"Cawang"},{"i_lat":-6.226659,"i_long":106.857948,"is_transit":false,"station_name":"Tebet","transit":false,"distance":1230,"station_id":"TEB","line":2,"time":2},{"station_id":"MRI","line":2,"distance":2610,"i_lat":-6.209883,"time":4,"i_long":106.84912,"is_transit":true,"transit":true,"station_name":"Manggarai"},{"station_id":"SUD","is_transit":false,"i_long":106.822649,"line":1,"time":4,"station_name":"Sudirman","transit":false,"distance":3186,"i_lat":-6.202263},{"transit":false,"time":1,"i_long":106.819881,"line":1,"station_name":"Sudirman Baru","station_id":"SUDB","is_transit":false,"distance":280,"i_lat":-6.201433},{"station_id":"KAT","line":1,"station_name":"Karet","distance":471,"transit":false,"time":1,"i_lat":-6.20132,"is_transit":false,"i_long":106.816351},{"i_lat":-6.185545,"time":5,"line":1,"station_name":"Tanah Abang","transit":false,"is_transit":false,"station_id":"THB","i_long":106.811091,"distance":2029}],[{"distance":0,"i_lat":-6.46424,"station_name":"Cibinong","transit":false,"station_id":"CBN","time":0,"line":21,"is_transit":false,"i_long":106.851978},{"i_lat":-6.460735,"transit":false,"station_name":"Pondok Rajeg","time":0,"station_id":"PDRG","i_long":106.824374,"is_transit":false,"line":21,"distance":0},{"station_name":"Citayam","station_id":"CTA","i_lat":-6.448811,"is_transit":true,"transit":true,"time":0,"distance":0,"i_long":106.800298,"line":2},{"time":6,"distance":5084,"station_name":"Depok","station_id":"DP","i_lat":-6.405256,"i_long":106.816926,"transit":false,"line":2,"is_transit":false},{"i_lat":-6.391065,"station_name":"Depokbaru","line":2,"time":3,"transit":false,"station_id":"DPB","distance":1584,"is_transit":false,"i_long":106.819451},{"i_long":106.831114,"i_lat":-6.369073,"transit":false,"station_id":"POC","line":2,"is_transit":false,"time":4,"station_name":"Pondok Cina","distance":2727},{"i_lat":-6.360749,"line":2,"distance":1109,"station_id":"UI","station_name":"Univ. Indonesia","transit":false,"is_transit":false,"time":2,"i_long":106.831474},{"i_lat":-6.339291,"station_name":"Univ. Pancasila","station_id":"UP","transit":false,"distance":2264,"time":3,"i_long":106.834175,"line":2,"is_transit":false},{"station_name":"Lenteng Agung","i_lat":-6.330363,"station_id":"LNA","i_long":106.832616,"is_transit":false,"transit":false,"time":2,"line":2,"distance":1029},{"distance":2671,"line":2,"station_name":"Tanjung Barat","i_long":106.838896,"time":3,"station_id":"TNT","transit":false,"is_transit":false,"i_lat":-6.3080680000000005},{"distance":2820,"i_lat":-6.2842400000000005,"i_long":106.843999,"is_transit":false,"line":2,"transit":false,"station_name":"Pasar Minggu","time":4,"station_id":"PSM"},{"is_transit":false,"time":2,"line":2,"distance":2380,"i_lat":-6.263214,"transit":false,"i_long":106.851577,"station_name":"Pasar Minggu Baru","station_id":"PSMB"},{"i_long":106.85449,"distance":824,"i_lat":-6.255332,"line":2,"transit":false,"station_name":"Duren Kalibata","station_id":"DRN","time":2,"is_transit":false},{"distance":1546,"station_name":"Cawang","i_lat":-6.242512,"i_long":106.856607,"line":2,"time":3,"is_transit":false,"station_id":"CW","transit":false},{"line":2,"transit":false,"is_transit":false,"station_id":"TEB","i_lat":-6.226659,"i_long":106.857948,"distance":1230,"time":2,"station_name":"Tebet"},{"transit":false,"station_name":"Manggarai","time":4,"i_long":106.84912,"i_lat":-6.209883,"is_transit":false,"line":2,"station_id":"MRI","distance":2610},{"is_transit":false,"time":4,"transit":false,"distance":1590,"i_lat":-6.198556,"station_id":"CKI","line":2,"station_name":"Cikini","i_long":106.840169},{"time":3,"transit":false,"i_lat":-6.186295,"is_transit":false,"station_id":"GDD","i_long":106.832183,"line":2,"distance":1750,"station_name":"Gondangdia"},{"i_lat":-6.166716,"i_long":106.828284,"transit":false,"distance":2015,"is_transit":false,"station_name":"Juanda","line":2,"station_id":"JUA","time":4},{"station_id":"SW","transit":false,"line":2,"is_transit":false,"i_lat":-6.160725,"station_name":"Sawah Besar","i_long":106.827103,"time":2,"distance":1149},{"transit":false,"time":2,"is_transit":false,"station_name":"Manggabesar","i_long":106.82482,"i_lat":-6.149769,"station_id":"MGB","line":2,"distance":906},{"time":2,"station_name":"Jayakarta","station_id":"JAY","i_lat":-6.141205,"distance":1080,"line":2,"is_transit":false,"transit":false,"i_long":106.820901},{"station_name":"Jakarta Kota","distance":1264,"i_lat":-6.137569,"i_long":106.812439,"transit":true,"is_transit":true,"time":4,"line":2,"station_id":"JAKK"},{"time":3,"distance":1364,"i_lat":-6.132549,"station_id":"KPB","transit":true,"i_long":106.826365,"station_name":"Kampung Bandan","is_transit":true,"line":4},{"i_lat":-6.144674,"station_name":"Angke","i_long":106.79867,"transit":false,"is_transit":false,"distance":4102,"line":1,"time":9,"station_id":"AK"},{"time":4,"distance":1230,"station_name":"Duri","station_id":"DU","line":1,"transit":false,"i_long":106.800832,"i_lat":-6.155215,"is_transit":false},{"is_transit":false,"time":8,"transit":false,"i_long":106.811091,"station_name":"Tanah Abang","distance":3632,"line":1,"i_lat":-6.185545,"station_id":"THB"}],[{"is_transit":false,"distance":0,"transit":false,"i_long":106.851978,"station_name":"Cibinong","i_lat":-6.46424,"time":0,"line":21,"station_id":"CBN"},{"i_long":106.824374,"is_transit":false,"transit":false,"station_id":"PDRG","station_name":"Pondok Rajeg","distance":0,"line":21,"i_lat":-6.460735,"time":0},{"station_id":"CTA","i_lat":-6.448811,"distance":0,"station_name":"Citayam","transit":true,"time":0,"i_long":106.800298,"is_transit":true,"line":2},{"transit":false,"station_name":"Depok","is_transit":false,"time":6,"i_lat":-6.405256,"distance":5084,"line":2,"station_id":"DP","i_long":106.816926},{"station_id":"DPB","i_lat":-6.391065,"transit":false,"time":3,"distance":1584,"station_name":"Depokbaru","i_long":106.819451,"line":2,"is_transit":false},{"station_name":"Pondok Cina","station_id":"POC","i_lat":-6.369073,"line":2,"time":4,"i_long":106.831114,"transit":false,"is_transit":false,"distance":2727},{"station_name":"Univ. Indonesia","i_lat":-6.360749,"line":2,"transit":false,"time":2,"i_long":106.831474,"is_transit":false,"distance":1109,"station_id":"UI"},{"station_name":"Univ. Pancasila","time":3,"i_long":106.834175,"is_transit":false,"distance":2264,"transit":false,"station_id":"UP","line":2,"i_lat":-6.339291},{"transit":false,"station_name":"Lenteng Agung","is_transit":false,"station_id":"LNA","time":2,"distance":1029,"i_lat":-6.330363,"i_long":106.832616,"line":2},{"station_name":"Tanjung Barat","is_transit":false,"time":3,"i_long":106.838896,"line":2,"i_lat":-6.3080680000000005,"distance":2671,"station_id":"TNT","transit":false},{"station_id":"PSM","time":4,"transit":false,"is_transit":false,"line":2,"distance":2820,"i_long":106.843999,"station_name":"Pasar Minggu","i_lat":-6.2842400000000005},{"line":2,"transit":false,"station_name":"Pasar Minggu Baru","distance":2380,"i_lat":-6.263214,"is_transit":false,"i_long":106.851577,"station_id":"PSMB","time":2},{"i_lat":-6.255332,"station_name":"Duren Kalibata","transit":false,"station_id":"DRN","i_long":106.85449,"is_transit":false,"distance":824,"line":2,"time":2},{"transit":false,"station_name":"Cawang","time":3,"i_long":106.856607,"is_transit":false,"i_lat":-6.242512,"line":2,"station_id":"CW","distance":1546},{"is_transit":false,"transit":false,"station_name":"Tebet","distance":1230,"i_lat":-6.226659,"i_long":106.857948,"line":2,"time":2,"station_id":"TEB"},{"station_id":"MRI","station_name":"Manggarai","i_lat":-6.209883,"transit":true,"i_long":106.84912,"distance":2610,"is_transit":true,"time":4,"line":2},{"station_name":"Matraman","line":1,"i_lat":-6.212485,"transit":false,"time":2,"i_long":106.858896,"is_transit":false,"distance":1275,"station_id":"MTR"},{"station_name":"Jatinegara","transit":true,"time":8,"i_lat":-6.215091,"line":1,"station_id":"JNG","distance":1377,"is_transit":true,"i_long":106.86807400000001},{"station_name":"Pondok Jati","distance":1236,"station_id":"POK","transit":false,"i_lat":-6.209188,"is_transit":false,"i_long":106.861737,"line":11,"time":2},{"i_lat":-6.193792,"i_long":106.855437,"station_name":"Kramat","distance":1829,"is_transit":false,"time":2,"line":11,"transit":false,"station_id":"KMT"},{"line":11,"station_name":"Gang Sentiong","distance":973,"station_id":"GST","i_long":106.850107,"is_transit":false,"transit":false,"i_lat":-6.185975,"time":1},{"i_lat":-6.174784,"station_id":"PSE","distance":1567,"station_name":"Pasar Senen","i_long":106.84368,"transit":false,"time":8,"line":11,"is_transit":false},{"i_long":106.839204,"transit":false,"line":11,"time":4,"station_name":"Kemayoran","distance":1436,"i_lat":-6.161728,"is_transit":false,"station_id":"KMO"},{"is_transit":false,"distance":1901,"transit":false,"station_name":"Rajawali","i_long":106.836569,"time":5,"i_lat":-6.14505,"line":11,"station_id":"RJW"},{"line":4,"station_id":"KPB","station_name":"Kampung Bandan","i_long":106.826365,"distance":1444,"is_transit":true,"time":3,"transit":true,"i_lat":-6.132549},{"i_lat":-6.144674,"station_name":"Angke","i_long":106.79867,"station_id":"AK","line":1,"transit":false,"time":9,"distance":4102,"is_transit":false},{"is_transit":false,"station_id":"DU","i_long":106.800832,"station_name":"Duri","time":4,"transit":false,"distance":1230,"i_lat":-6.155215,"line":1},{"station_id":"THB","transit":false,"station_name":"Tanah Abang","line":1,"distance":3632,"i_lat":-6.185545,"is_transit":false,"time":8,"i_long":106.811091}]]}