{"data":[[{"distance":0,"station_id":"CBN","is_transit":false,"time":0,"station_name":"Cibinong","transit":false,"i_lat":-6.46424,"i_long":106.851978,"line":0},{"line":1,"distance":6740,"station_id":"CTA","station_name":"Citayam","transit":false,"is_transit":true,"i_lat":-6.448811,"i_long":106.800298,"time":10},{"transit":false,"is_transit":false,"time":6,"i_lat":-6.405256,"station_id":"DP","i_long":106.816926,"station_name":"Depok","distance":5084,"line":0},{"line":0,"station_id":"DPB","time":3,"transit":false,"is_transit":false,"distance":1584,"station_name":"Depokbaru","i_lat":-6.391065,"i_long":106.819451},{"transit":false,"i_long":106.831114,"time":4,"is_transit":false,"line":2,"i_lat":-6.369073,"station_id":"POC","distance":2727,"station_name":"Pondok Cina"},{"i_long":106.831474,"line":2,"time":2,"station_name":"Univ. Indonesia","transit":false,"i_lat":-6.360749,"station_id":"UI","is_transit":false,"distance":1109},{"transit":false,"station_id":"UP","distance":2264,"i_long":106.834175,"is_transit":false,"i_lat":-6.339291,"line":2,"station_name":"Univ. Pancasila","time":3},{"time":2,"i_long":106.832616,"line":2,"is_transit":false,"distance":1029,"transit":false,"i_lat":-6.330363,"station_name":"Lenteng Agung","station_id":"LNA"},{"transit":false,"station_name":"Tanjung Barat","i_lat":-6.3080680000000005,"line":2,"i_long":106.838896,"is_transit":false,"station_id":"TNT","time":3,"distance":2671},{"station_id":"PSM","station_name":"Pasar Minggu","transit":false,"i_lat":-6.2842400000000005,"time":4,"i_long":106.843999,"line":2,"distance":2820,"is_transit":false},{"i_lat":-6.263214,"is_transit":false,"i_long":106.851577,"station_id":"PSMB","distance":2380,"time":2,"line":2,"station_name":"Pasar Minggu Baru","transit":false},{"transit":false,"is_transit":false,"i_lat":-6.255332,"station_id":"DRN","station_name":"Duren Kalibata","time":2,"line":0,"i_long":106.85449,"distance":824},{"is_transit":false,"distance":1546,"transit":false,"i_lat":-6.242512,"i_long":106.856607,"line":0,"station_id":"CW","station_name":"Cawang","time":3},{"time":2,"i_long":106.857948,"is_transit":false,"station_name":"Tebet","station_id":"TEB","distance":1230,"transit":false,"i_lat":-6.226659,"line":2},{"i_lat":-6.209883,"line":0,"station_id":"MRI","time":4,"distance":2610,"station_name":"Manggarai","transit":true,"is_transit":true,"i_long":106.84912},{"station_name":"Matraman","distance":1275,"transit":false,"is_transit":false,"station_id":"MTR","i_lat":-6.212485,"i_long":106.858896,"time":2,"line":1},{"distance":1377,"station_id":"JNG","i_lat":-6.215091,"i_long":106.86807400000001,"transit":true,"station_name":"Jatinegara","is_transit":true,"time":8,"line":0},{"i_long":106.861737,"transit":false,"distance":1236,"is_transit":false,"station_id":"POK","i_lat":-6.209188,"line":11,"time":2,"station_name":"Pondok Jati"},{"is_transit":false,"distance":1829,"station_id":"KMT","transit":false,"station_name":"Kramat","line":11,"time":2,"i_lat":-6.193792,"i_long":106.855437},{"station_id":"GST","time":1,"i_long":106.850107,"distance":973,"station_name":"Gang Sentiong","transit":false,"i_lat":-6.185975,"is_transit":false,"line":11},{"i_long":106.84368,"distance":1567,"i_lat":-6.174784,"time":8,"transit":false,"station_id":"PSE","line":11,"station_name":"Pasar Senen","is_transit":false},{"i_lat":-6.161728,"line":11,"time":4,"is_transit":false,"i_long":106.839204,"station_id":"KMO","station_name":"Kemayoran","distance":1436,"transit":false}],[{"time":0,"distance":0,"transit":false,"i_lat":-6.46424,"station_name":"Cibinong","i_long":106.851978,"station_id":"CBN","is_transit":false,"line":0},{"i_long":106.800298,"line":1,"time":10,"i_lat":-6.448811,"transit":false,"distance":6740,"station_name":"Citayam","is_transit":true,"station_id":"CTA"},{"time":6,"i_lat":-6.405256,"distance":5084,"i_long":106.816926,"station_id":"DP","line":0,"is_transit":false,"station_name":"Depok","transit":false},{"station_id":"DPB","distance":1584,"time":3,"i_lat":-6.391065,"is_transit":false,"line":0,"station_name":"Depokbaru","transit":false,"i_long":106.819451},{"distance":2727,"time":4,"transit":false,"i_long":106.831114,"station_id":"POC","is_transit":false,"station_name":"Pondok Cina","i_lat":-6.369073,"line":2},{"i_long":106.831474,"is_transit":false,"distance":1109,"transit":false,"time":2,"station_id":"UI","station_name":"Univ. Indonesia","i_lat":-6.360749,"line":2},{"station_name":"Univ. Pancasila","time":3,"station_id":"UP","is_transit":false,"i_lat":-6.339291,"line":2,"transit":false,"i_long":106.834175,"distance":2264},{"transit":false,"time":2,"distance":1029,"i_lat":-6.330363,"i_long":106.832616,"line":2,"station_name":"Lenteng Agung","station_id":"LNA","is_transit":false},{"distance":2671,"line":2,"station_id":"TNT","is_transit":false,"station_name":"Tanjung Barat","i_long":106.838896,"time":3,"i_lat":-6.3080680000000005,"transit":false},{"distance":2820,"i_long":106.843999,"line":2,"station_name":"Pasar Minggu","station_id":"PSM","transit":false,"is_transit":false,"i_lat":-6.2842400000000005,"time":4},{"time":2,"transit":false,"station_name":"Pasar Minggu Baru","i_lat":-6.263214,"i_long":106.851577,"line":2,"station_id":"PSMB","distance":2380,"is_transit":false},{"line":0,"station_name":"Duren Kalibata","i_long":106.85449,"time":2,"is_transit":false,"station_id":"DRN","distance":824,"i_lat":-6.255332,"transit":false},{"station_id":"CW","i_lat":-6.242512,"time":3,"line":0,"transit":false,"distance":1546,"i_long":106.856607,"is_transit":false,"station_name":"Cawang"},{"i_long":106.857948,"line":2,"i_lat":-6.226659,"is_transit":false,"time":2,"distance":1230,"station_name":"Tebet","station_id":"TEB","transit":false},{"i_long":106.84912,"time":4,"station_name":"Manggarai","i_lat":-6.209883,"is_transit":true,"distance":2610,"transit":true,"line":0,"station_id":"MRI"},{"station_id":"SUD","station_name":"Sudirman","line":1,"i_long":106.822649,"transit":false,"is_transit":false,"time":4,"distance":3186,"i_lat":-6.202263},{"transit":false,"i_lat":-6.201433,"station_name":"Sudirman Baru","i_long":106.819881,"station_id":"SUDB","is_transit":false,"line":1,"distance":280,"time":1},{"time":1,"line":1,"station_name":"Karet","i_lat":-6.20132,"i_long":106.816351,"distance":471,"transit":false,"station_id":"KAT","is_transit":false},{"transit":false,"is_transit":true,"i_lat":-6.185545,"station_id":"THB","line":1,"distance":2029,"i_long":106.811091,"time":5,"station_name":"Tanah Abang"},{"distance":3632,"time":8,"line":1,"is_transit":true,"i_lat":-6.155215,"i_long":106.800832,"station_name":"Duri","transit":true,"station_id":"DU"},{"i_lat":-6.144674,"i_long":106.79867,"transit":false,"is_transit":false,"line":0,"station_id":"AK","distance":1230,"time":4,"station_name":"Angke"},{"i_lat":-6.132549,"distance":4102,"transit":true,"i_long":106.826365,"is_transit":true,"station_name":"Kampung Bandan","time":9,"line":0,"station_id":"KPB"},{"distance":1444,"is_transit":false,"time":3,"station_id":"RJW","station_name":"Rajawali","transit":false,"i_lat":-6.14505,"line":11,"i_long":106.836569},{"transit":false,"is_transit":false,"time":5,"station_name":"Kemayoran","i_long":106.839204,"line":11,"station_id":"KMO","distance":1901,"i_lat":-6.161728}],[{"station_id":"CBN","is_transit":false,"station_name":"Cibinong","distance":0,"line":0,"transit":false,"i_lat":-6.46424,"time":0,"i_long":106.851978},{"time":10,"transit":false,"i_long":106.800298,"line":1,"distance":6740,"station_name":"Citayam","station_id":"CTA","i_lat":-6.448811,"is_transit":true},{"time":6,"distance":5084,"station_name":"Depok","i_lat":-6.405256,"transit":false,"station_id":"DP","line":0,"is_transit":false,"i_long":106.816926},{"time":3,"line":0,"transit":false,"distance":1584,"i_long":106.819451,"station_name":"Depokbaru","i_lat":-6.391065,"is_transit":false,"station_id":"DPB"},{"i_long":106.831114,"station_name":"Pondok Cina","line":2,"i_lat":-6.369073,"transit":false,"is_transit":false,"distance":2727,"station_id":"POC","time":4},{"distance":1109,"i_long":106.831474,"is_transit":false,"line":2,"time":2,"transit":false,"station_name":"Univ. Indonesia","i_lat":-6.360749,"station_id":"UI"},{"transit":false,"time":3,"station_name":"Univ. Pancasila","i_long":106.834175,"is_transit":false,"distance":2264,"i_lat":-6.339291,"station_id":"UP","line":2},{"station_name":"Lenteng Agung","distance":1029,"line":2,"i_long":106.832616,"station_id":"LNA","i_lat":-6.330363,"time":2,"transit":false,"is_transit":false},{"station_id":"TNT","i_lat":-6.3080680000000005,"is_transit":false,"station_name":"Tanjung Barat","line":2,"distance":2671,"time":3,"transit":false,"i_long":106.838896},{"line":2,"i_lat":-6.2842400000000005,"i_long":106.843999,"time":4,"station_id":"PSM","distance":2820,"is_transit":false,"station_name":"Pasar Minggu","transit":false},{"distance":2380,"i_long":106.851577,"transit":false,"i_lat":-6.263214,"line":2,"time":2,"station_name":"Pasar Minggu Baru","is_transit":false,"station_id":"PSMB"},{"i_long":106.85449,"line":0,"is_transit":false,"station_name":"Duren Kalibata","i_lat":-6.255332,"distance":824,"transit":false,"time":2,"station_id":"DRN"},{"distance":1546,"station_name":"Cawang","transit":false,"i_long":106.856607,"station_id":"CW","time":3,"is_transit":false,"i_lat":-6.242512,"line":0},{"line":2,"is_transit":false,"i_lat":-6.226659,"station_id":"TEB","time":2,"distance":1230,"station_name":"Tebet","transit":false,"i_long":106.857948},{"i_lat":-6.209883,"distance":2610,"is_transit":true,"i_long":106.84912,"line":0,"time":4,"station_id":"MRI","transit":true,"station_name":"Manggarai"},{"time":4,"station_name":"Cikini","station_id":"CKI","transit":false,"i_long":106.840169,"i_lat":-6.198556,"line":0,"distance":1590,"is_transit":false},{"time":3,"line":2,"i_lat":-6.186295,"transit":false,"i_long":106.832183,"distance":1750,"station_id":"GDD","is_transit":false,"station_name":"Gondangdia"},{"distance":2015,"is_transit":false,"time":4,"station_name":"Juanda","transit":false,"station_id":"JUA","i_lat":-6.166716,"line":2,"i_long":106.828284},{"transit":false,"line":2,"time":2,"is_transit":false,"station_id":"SW","distance":1149,"station_name":"Sawah Besar","i_lat":-6.160725,"i_long":106.827103},{"transit":false,"station_id":"MGB","line":2,"distance":906,"i_lat":-6.149769,"is_transit":false,"station_name":"Manggabesar","time":2,"i_long":106.82482},{"line":7,"i_long":106.820901,"distance":1080,"station_id":"JAY","transit":false,"time":2,"station_name":"Jayakarta","i_lat":-6.141205,"is_transit":false},{"is_transit":true,"distance":1264,"station_id":"JAKK","i_lat":-6.137569,"time":4,"station_name":"Jakarta Kota","transit":true,"i_long":106.812439,"line":0},{"transit":true,"time":3,"station_id":"KPB","distance":1364,"station_name":"Kampung Bandan","i_long":106.826365,"i_lat":-6.132549,"line":0,"is_transit":true},{"line":11,"station_id":"RJW","distance":1444,"time":3,"station_name":"Rajawali","transit":false,"is_transit":false,"i_lat":-6.14505,"i_long":106.836569},{"station_name":"Kemayoran","transit":false,"i_long":106.839204,"line":11,"time":5,"i_lat":-6.161728,"station_id":"KMO","distance":1901,"is_transit":false}]]}