{"data":[[{"i_lat":-6.46424,"station_name":"Cibinong","is_transit":false,"distance":0,"station_id":"CBN","line":0,"time":0,"transit":false,"i_long":106.851978},{"i_long":106.800298,"line":1,"station_name":"Citayam","i_lat":-6.448811,"station_id":"CTA","is_transit":true,"distance":6740,"transit":false,"time":10},{"distance":5084,"station_name":"Depok","i_lat":-6.405256,"i_long":106.816926,"time":6,"line":0,"station_id":"DP","is_transit":false,"transit":false},{"station_id":"DPB","i_long":106.819451,"line":0,"time":3,"station_name":"Depokbaru","i_lat":-6.391065,"transit":false,"distance":1584,"is_transit":false},{"is_transit":false,"station_id":"POC","station_name":"Pondok Cina","transit":false,"line":2,"time":4,"distance":2727,"i_lat":-6.369073,"i_long":106.831114},{"i_long":106.831474,"distance":1109,"station_name":"Univ. Indonesia","station_id":"UI","is_transit":false,"line":2,"time":2,"transit":false,"i_lat":-6.360749},{"i_long":106.834175,"transit":false,"station_id":"UP","station_name":"Univ. Pancasila","i_lat":-6.339291,"time":3,"distance":2264,"is_transit":false,"line":2}]]}