{"data":[[{"station_name":"Cibinong","station_id":"CBN","is_transit":false,"i_lat":-6.46424,"i_long":106.851978,"distance":0,"transit":false,"line":21,"time":0},{"i_lat":-6.460735,"i_long":106.824374,"station_id":"PDRG","station_name":"Pondok Rajeg","is_transit":false,"line":21,"distance":0,"transit":false,"time":0},{"line":2,"station_id":"CTA","station_name":"Citayam","is_transit":true,"distance":0,"transit":true,"i_lat":-6.448811,"time":0,"i_long":106.800298},{"time":6,"station_id":"DP","transit":false,"distance":5084,"station_name":"Depok","i_lat":-6.405256,"is_transit":false,"i_long":106.816926,"line":2},{"is_transit":false,"station_id":"DPB","transit":false,"distance":1584,"station_name":"Depokbaru","i_lat":-6.391065,"time":3,"line":2,"i_long":106.819451},{"station_id":"POC","time":4,"transit":false,"i_lat":-6.369073,"station_name":"Pondok Cina","distance":2727,"is_transit":false,"line":2,"i_long":106.831114},{"distance":1109,"is_transit":false,"station_name":"Univ. Indonesia","i_long":106.831474,"line":2,"station_id":"UI","transit":false,"time":2,"i_lat":-6.360749},{"is_transit":false,"transit":false,"time":3,"line":2,"i_long":106.834175,"distance":2264,"station_name":"Univ. Pancasila","station_id":"UP","i_lat":-6.339291},{"distance":1029,"time":2,"station_id":"LNA","i_long":106.832616,"i_lat":-6.330363,"line":2,"station_name":"Lenteng Agung","is_transit":false,"transit":false},{"i_lat":-6.3080680000000005,"line":2,"distance":2671,"is_transit":false,"i_long":106.838896,"time":3,"transit":false,"station_id":"TNT","station_name":"Tanjung Barat"},{"line":2,"time":4,"distance":2820,"station_id":"PSM","station_name":"Pasar Minggu","is_transit":false,"transit":false,"i_lat":-6.2842400000000005,"i_long":106.843999},{"line":2,"station_name":"Pasar Minggu Baru","time":2,"i_lat":-6.263214,"transit":false,"distance":2380,"is_transit":false,"station_id":"PSMB","i_long":106.851577},{"i_lat":-6.255332,"station_name":"Duren Kalibata","i_long":106.85449,"is_transit":false,"distance":824,"line":2,"time":2,"transit":false,"station_id":"DRN"},{"i_long":106.856607,"station_name":"Cawang","station_id":"CW","line":2,"distance":1546,"is_transit":false,"transit":false,"time":3,"i_lat":-6.242512},{"i_lat":-6.226659,"time":2,"station_name":"Tebet","is_transit":false,"line":2,"station_id":"TEB","distance":1230,"i_long":106.857948,"transit":false},{"station_id":"MRI","i_lat":-6.209883,"station_name":"Manggarai","is_transit":true,"time":4,"i_long":106.84912,"distance":2610,"transit":true,"line":2},{"i_long":106.858896,"time":2,"i_lat":-6.212485,"station_name":"Matraman","transit":false,"line":1,"station_id":"MTR","is_transit":false,"distance":1275},{"station_name":"Jatinegara","i_long":106.86807400000001,"line":1,"transit":false,"distance":1377,"is_transit":false,"time":8,"station_id":"JNG","i_lat":-6.215091},{"station_id":"KLD","time":3,"line":1,"i_lat":-6.2135,"is_transit":false,"distance":3395,"i_long":106.899548,"station_name":"Klender","transit":false},{"transit":false,"station_id":"BUA","line":1,"time":2,"is_transit":false,"distance":3100,"station_name":"Buaran","i_long":106.922662,"i_lat":-6.215568},{"is_transit":false,"station_name":"Klenderbaru","time":1,"i_long":106.939679,"station_id":"KLDB","line":1,"distance":1305,"i_lat":-6.217455,"transit":false},{"distance":1385,"station_id":"CUK","i_long":106.951283,"is_transit":false,"i_lat":-6.219053,"transit":false,"station_name":"Cakung","time":8,"line":1},{"time":3,"station_id":"KRI","station_name":"Kranji","line":1,"distance":3097,"transit":false,"is_transit":false,"i_long":106.977657,"i_lat":-6.224515},{"i_lat":-6.236616,"is_transit":false,"i_long":106.997013,"line":1,"station_id":"BKS","distance":2520,"time":4,"transit":false,"station_name":"Bekasi"},{"line":1,"distance":2368,"transit":false,"i_lat":-6.248029,"i_long":107.016735,"station_name":"Bekasi Timur","time":2,"is_transit":false,"station_id":"BKST"}],[{"transit":false,"station_id":"CBN","i_lat":-6.46424,"station_name":"Cibinong","i_long":106.851978,"is_transit":false,"line":21,"distance":0,"time":0},{"station_name":"Pondok Rajeg","station_id":"PDRG","line":21,"time":0,"distance":0,"is_transit":false,"i_lat":-6.460735,"transit":false,"i_long":106.824374},{"distance":0,"is_transit":true,"transit":true,"station_id":"CTA","line":2,"time":0,"i_lat":-6.448811,"station_name":"Citayam","i_long":106.800298},{"i_lat":-6.405256,"transit":false,"station_id":"DP","distance":5084,"i_long":106.816926,"station_name":"Depok","line":2,"is_transit":false,"time":6},{"station_id":"DPB","i_long":106.819451,"line":2,"distance":1584,"time":3,"transit":false,"i_lat":-6.391065,"is_transit":false,"station_name":"Depokbaru"},{"distance":2727,"i_lat":-6.369073,"line":2,"is_transit":false,"transit":false,"station_id":"POC","time":4,"i_long":106.831114,"station_name":"Pondok Cina"},{"station_id":"UI","line":2,"transit":false,"is_transit":false,"i_lat":-6.360749,"distance":1109,"station_name":"Univ. Indonesia","i_long":106.831474,"time":2},{"distance":2264,"transit":false,"station_name":"Univ. Pancasila","line":2,"i_lat":-6.339291,"is_transit":false,"time":3,"i_long":106.834175,"station_id":"UP"},{"i_lat":-6.330363,"distance":1029,"station_name":"Lenteng Agung","line":2,"time":2,"transit":false,"station_id":"LNA","is_transit":false,"i_long":106.832616},{"i_long":106.838896,"line":2,"station_name":"Tanjung Barat","transit":false,"i_lat":-6.3080680000000005,"station_id":"TNT","time":3,"is_transit":false,"distance":2671},{"distance":2820,"time":4,"station_name":"Pasar Minggu","line":2,"transit":false,"i_lat":-6.2842400000000005,"is_transit":false,"station_id":"PSM","i_long":106.843999},{"transit":false,"time":2,"i_lat":-6.263214,"is_transit":false,"line":2,"distance":2380,"station_name":"Pasar Minggu Baru","i_long":106.851577,"station_id":"PSMB"},{"distance":824,"is_transit":false,"transit":false,"station_id":"DRN","line":2,"i_lat":-6.255332,"station_name":"Duren Kalibata","i_long":106.85449,"time":2},{"time":3,"station_id":"CW","distance":1546,"is_transit":false,"i_long":106.856607,"line":2,"transit":false,"i_lat":-6.242512,"station_name":"Cawang"},{"is_transit":false,"station_id":"TEB","time":2,"transit":false,"i_long":106.857948,"line":2,"distance":1230,"station_name":"Tebet","i_lat":-6.226659},{"station_id":"MRI","i_lat":-6.209883,"i_long":106.84912,"is_transit":true,"time":4,"distance":2610,"transit":true,"line":2,"station_name":"Manggarai"},{"line":1,"station_id":"SUD","station_name":"Sudirman","is_transit":false,"distance":3186,"transit":false,"time":4,"i_lat":-6.202263,"i_long":106.822649},{"transit":false,"line":1,"station_name":"Sudirman Baru","distance":280,"is_transit":false,"i_long":106.819881,"time":1,"i_lat":-6.201433,"station_id":"SUDB"},{"time":1,"station_name":"Karet","is_transit":false,"i_long":106.816351,"line":1,"distance":471,"transit":false,"station_id":"KAT","i_lat":-6.20132},{"i_long":106.811091,"distance":2029,"time":5,"station_id":"THB","is_transit":false,"transit":false,"i_lat":-6.185545,"line":1,"station_name":"Tanah Abang"},{"line":1,"distance":3632,"time":8,"i_lat":-6.155215,"i_long":106.800832,"station_id":"DU","station_name":"Duri","transit":false,"is_transit":false},{"station_id":"AK","i_long":106.79867,"line":1,"station_name":"Angke","i_lat":-6.144674,"is_transit":false,"distance":1230,"time":4,"transit":false},{"i_lat":-6.132549,"i_long":106.826365,"line":4,"time":9,"transit":true,"station_id":"KPB","station_name":"Kampung Bandan","is_transit":true,"distance":4102},{"line":11,"time":3,"is_transit":false,"distance":1444,"station_name":"Rajawali","i_lat":-6.14505,"transit":false,"station_id":"RJW","i_long":106.836569},{"i_lat":-6.161728,"line":11,"station_id":"KMO","distance":1901,"time":5,"i_long":106.839204,"is_transit":false,"station_name":"Kemayoran","transit":false},{"transit":false,"distance":1436,"i_long":106.84368,"time":4,"station_id":"PSE","i_lat":-6.174784,"station_name":"Pasar Senen","line":11,"is_transit":false},{"time":8,"station_name":"Gang Sentiong","station_id":"GST","i_lat":-6.185975,"line":11,"transit":false,"distance":1567,"is_transit":false,"i_long":106.850107},{"distance":973,"i_lat":-6.193792,"time":1,"is_transit":false,"station_name":"Kramat","transit":false,"station_id":"KMT","line":11,"i_long":106.855437},{"distance":1829,"time":2,"station_name":"Pondok Jati","i_long":106.861737,"transit":false,"station_id":"POK","i_lat":-6.209188,"is_transit":false,"line":11},{"time":9,"line":1,"distance":1236,"is_transit":true,"transit":true,"i_lat":-6.215091,"station_id":"JNG","station_name":"Jatinegara","i_long":106.86807400000001},{"i_lat":-6.2135,"line":1,"distance":3395,"station_name":"Klender","transit":false,"i_long":106.899548,"is_transit":false,"station_id":"KLD","time":3},{"is_transit":false,"i_long":106.922662,"time":2,"distance":3100,"transit":false,"station_id":"BUA","line":1,"i_lat":-6.215568,"station_name":"Buaran"},{"time":1,"distance":1305,"i_long":106.939679,"transit":false,"line":1,"station_name":"Klenderbaru","station_id":"KLDB","i_lat":-6.217455,"is_transit":false},{"transit":false,"station_id":"CUK","distance":1385,"station_name":"Cakung","i_long":106.951283,"time":8,"line":1,"i_lat":-6.219053,"is_transit":false},{"distance":3097,"transit":false,"time":3,"station_id":"KRI","line":1,"i_lat":-6.224515,"i_long":106.977657,"station_name":"Kranji","is_transit":false},{"i_long":106.997013,"is_transit":false,"i_lat":-6.236616,"time":4,"line":1,"station_name":"Bekasi","distance":2520,"transit":false,"station_id":"BKS"},{"is_transit":false,"time":2,"station_id":"BKST","i_long":107.016735,"i_lat":-6.248029,"station_name":"Bekasi Timur","distance":2368,"transit":false,"line":1}],[{"time":0,"i_lat":-6.46424,"station_name":"Cibinong","i_long":106.851978,"line":21,"transit":false,"station_id":"CBN","is_transit":false,"distance":0},{"is_transit":false,"line":21,"i_lat":-6.460735,"time":0,"i_long":106.824374,"transit":false,"station_id":"PDRG","distance":0,"station_name":"Pondok Rajeg"},{"station_id":"CTA","i_long":106.800298,"distance":0,"station_name":"Citayam","i_lat":-6.448811,"time":0,"line":2,"is_transit":true,"transit":true},{"time":6,"i_lat":-6.405256,"i_long":106.816926,"transit":false,"station_id":"DP","distance":5084,"station_name":"Depok","is_transit":false,"line":2},{"i_long":106.819451,"station_id":"DPB","i_lat":-6.391065,"is_transit":false,"transit":false,"line":2,"station_name":"Depokbaru","time":3,"distance":1584},{"i_long":106.831114,"is_transit":false,"station_id":"POC","station_name":"Pondok Cina","i_lat":-6.369073,"transit":false,"distance":2727,"time":4,"line":2},{"distance":1109,"i_long":106.831474,"station_id":"UI","time":2,"is_transit":false,"i_lat":-6.360749,"station_name":"Univ. Indonesia","transit":false,"line":2},{"line":2,"i_lat":-6.339291,"is_transit":false,"station_id":"UP","i_long":106.834175,"station_name":"Univ. Pancasila","time":3,"distance":2264,"transit":false},{"line":2,"distance":1029,"station_id":"LNA","is_transit":false,"time":2,"station_name":"Lenteng Agung","i_long":106.832616,"i_lat":-6.330363,"transit":false},{"station_id":"TNT","i_long":106.838896,"line":2,"station_name":"Tanjung Barat","transit":false,"time":3,"i_lat":-6.3080680000000005,"is_transit":false,"distance":2671},{"time":4,"i_lat":-6.2842400000000005,"i_long":106.843999,"station_id":"PSM","station_name":"Pasar Minggu","line":2,"is_transit":false,"distance":2820,"transit":false},{"distance":2380,"is_transit":false,"station_name":"Pasar Minggu Baru","i_lat":-6.263214,"i_long":106.851577,"station_id":"PSMB","time":2,"transit":false,"line":2},{"is_transit":false,"distance":824,"time":2,"station_name":"Duren Kalibata","i_long":106.85449,"line":2,"i_lat":-6.255332,"station_id":"DRN","transit":false},{"station_name":"Cawang","is_transit":false,"distance":1546,"transit":false,"i_long":106.856607,"station_id":"CW","i_lat":-6.242512,"time":3,"line":2},{"time":2,"line":2,"i_long":106.857948,"is_transit":false,"station_id":"TEB","distance":1230,"transit":false,"station_name":"Tebet","i_lat":-6.226659},{"i_lat":-6.209883,"is_transit":false,"distance":2610,"transit":false,"time":4,"line":2,"station_name":"Manggarai","i_long":106.84912,"station_id":"MRI"},{"time":4,"transit":false,"station_name":"Cikini","line":2,"station_id":"CKI","i_long":106.840169,"distance":1590,"i_lat":-6.198556,"is_transit":false},{"distance":1750,"station_name":"Gondangdia","i_long":106.832183,"line":2,"i_lat":-6.186295,"transit":false,"is_transit":false,"time":3,"station_id":"GDD"},{"distance":2015,"i_long":106.828284,"is_transit":false,"i_lat":-6.166716,"transit":false,"line":2,"time":4,"station_id":"JUA","station_name":"Juanda"},{"i_long":106.827103,"time":2,"station_name":"Sawah Besar","line":2,"is_transit":false,"transit":false,"station_id":"SW","distance":1149,"i_lat":-6.160725},{"transit":false,"station_id":"MGB","is_transit":false,"i_long":106.82482,"i_lat":-6.149769,"station_name":"Manggabesar","time":2,"line":2,"distance":906},{"is_transit":false,"distance":1080,"i_long":106.820901,"time":2,"transit":false,"station_id":"JAY","station_name":"Jayakarta","line":2,"i_lat":-6.141205},{"is_transit":true,"time":4,"distance":1264,"i_lat":-6.137569,"station_id":"JAKK","station_name":"Jakarta Kota","i_long":106.812439,"transit":true,"line":2},{"station_name":"Kampung Bandan","line":4,"distance":1364,"time":3,"is_transit":true,"station_id":"KPB","i_lat":-6.132549,"i_long":106.826365,"transit":true},{"distance":1444,"time":3,"station_id":"RJW","i_long":106.836569,"line":11,"station_name":"Rajawali","is_transit":false,"i_lat":-6.14505,"transit":false},{"i_lat":-6.161728,"line":11,"transit":false,"i_long":106.839204,"station_id":"KMO","time":5,"is_transit":false,"distance":1901,"station_name":"Kemayoran"},{"line":11,"time":4,"station_name":"Pasar Senen","station_id":"PSE","is_transit":false,"distance":1436,"i_lat":-6.174784,"i_long":106.84368,"transit":false},{"station_name":"Gang Sentiong","station_id":"GST","transit":false,"i_lat":-6.185975,"distance":1567,"time":8,"is_transit":false,"i_long":106.850107,"line":11},{"i_lat":-6.193792,"time":1,"transit":false,"station_id":"KMT","line":11,"distance":973,"is_transit":false,"i_long":106.855437,"station_name":"Kramat"},{"line":11,"is_transit":false,"i_long":106.861737,"distance":1829,"station_name":"Pondok Jati","i_lat":-6.209188,"transit":false,"station_id":"POK","time":2},{"i_long":106.86807400000001,"line":1,"station_id":"JNG","distance":1236,"time":9,"transit":true,"is_transit":true,"station_name":"Jatinegara","i_lat":-6.215091},{"station_name":"Klender","i_long":106.899548,"transit":false,"time":3,"i_lat":-6.2135,"distance":3395,"line":1,"is_transit":false,"station_id":"KLD"},{"i_long":106.922662,"transit":false,"line":1,"time":2,"is_transit":false,"station_id":"BUA","i_lat":-6.215568,"station_name":"Buaran","distance":3100},{"transit":false,"line":1,"i_long":106.939679,"station_id":"KLDB","time":1,"distance":1305,"is_transit":false,"station_name":"Klenderbaru","i_lat":-6.217455},{"is_transit":false,"time":8,"i_long":106.951283,"distance":1385,"line":1,"transit":false,"station_id":"CUK","station_name":"Cakung","i_lat":-6.219053},{"line":1,"distance":3097,"time":3,"is_transit":false,"station_id":"KRI","station_name":"Kranji","transit":false,"i_lat":-6.224515,"i_long":106.977657},{"distance":2520,"station_name":"Bekasi","is_transit":false,"station_id":"BKS","i_lat":-6.236616,"time":4,"transit":false,"line":1,"i_long":106.997013},{"i_lat":-6.248029,"station_name":"Bekasi Timur","distance":2368,"i_long":107.016735,"line":1,"transit":false,"is_transit":false,"time":2,"station_id":"BKST"}]]}