{"data":[[{"station_name":"Cibinong","i_long":106.851978,"transit":false,"i_lat":-6.46424,"time":0,"line":0,"distance":0,"is_transit":false,"station_id":"CBN"},{"station_id":"CTA","transit":false,"distance":6740,"i_lat":-6.448811,"i_long":106.800298,"station_name":"Citayam","line":1,"is_transit":true,"time":10},{"i_lat":-6.405256,"i_long":106.816926,"station_name":"Depok","station_id":"DP","time":6,"is_transit":false,"transit":false,"line":0,"distance":5084},{"i_long":106.819451,"time":3,"station_name":"Depokbaru","is_transit":false,"transit":false,"distance":1584,"station_id":"DPB","i_lat":-6.391065,"line":0},{"station_id":"POC","distance":2727,"transit":false,"i_lat":-6.369073,"time":4,"is_transit":false,"station_name":"Pondok Cina","i_long":106.831114,"line":2},{"time":2,"distance":1109,"line":2,"station_name":"Univ. Indonesia","i_lat":-6.360749,"i_long":106.831474,"station_id":"UI","is_transit":false,"transit":false},{"distance":2264,"i_lat":-6.339291,"is_transit":false,"station_id":"UP","line":2,"transit":false,"station_name":"Univ. Pancasila","time":3,"i_long":106.834175},{"station_id":"LNA","station_name":"Lenteng Agung","transit":false,"is_transit":false,"distance":1029,"i_lat":-6.330363,"line":2,"i_long":106.832616,"time":2},{"station_name":"Tanjung Barat","transit":false,"station_id":"TNT","i_long":106.838896,"is_transit":false,"time":3,"line":2,"distance":2671,"i_lat":-6.3080680000000005},{"distance":2820,"i_lat":-6.2842400000000005,"is_transit":false,"i_long":106.843999,"transit":false,"time":4,"station_id":"PSM","station_name":"Pasar Minggu","line":2},{"transit":false,"is_transit":false,"line":2,"station_id":"PSMB","i_long":106.851577,"i_lat":-6.263214,"station_name":"Pasar Minggu Baru","time":2,"distance":2380},{"distance":824,"time":2,"line":0,"transit":false,"i_lat":-6.255332,"is_transit":false,"station_id":"DRN","i_long":106.85449,"station_name":"Duren Kalibata"},{"time":3,"transit":false,"is_transit":false,"i_lat":-6.242512,"station_name":"Cawang","line":0,"i_long":106.856607,"distance":1546,"station_id":"CW"},{"station_name":"Tebet","is_transit":false,"i_long":106.857948,"i_lat":-6.226659,"time":2,"distance":1230,"station_id":"TEB","transit":false,"line":2},{"distance":2610,"is_transit":true,"station_name":"Manggarai","transit":true,"time":4,"station_id":"MRI","i_lat":-6.209883,"line":0,"i_long":106.84912},{"i_long":106.858896,"line":1,"time":2,"station_name":"Matraman","distance":1275,"station_id":"MTR","transit":false,"i_lat":-6.212485,"is_transit":false},{"is_transit":true,"i_lat":-6.215091,"i_long":106.86807400000001,"station_id":"JNG","line":0,"time":8,"station_name":"Jatinegara","distance":1377,"transit":false},{"i_lat":-6.2135,"is_transit":false,"station_name":"Klender","station_id":"KLD","transit":false,"i_long":106.899548,"time":3,"distance":3395,"line":1},{"line":0,"transit":false,"i_lat":-6.215568,"distance":3100,"station_name":"Buaran","time":2,"station_id":"BUA","is_transit":false,"i_long":106.922662},{"station_id":"KLDB","transit":false,"i_lat":-6.217455,"time":1,"distance":1305,"i_long":106.939679,"line":1,"is_transit":false,"station_name":"Klenderbaru"},{"station_id":"CUK","i_long":106.951283,"station_name":"Cakung","is_transit":false,"time":8,"line":0,"transit":false,"i_lat":-6.219053,"distance":1385},{"distance":3097,"transit":false,"station_id":"KRI","i_long":106.977657,"time":3,"i_lat":-6.224515,"station_name":"Kranji","is_transit":false,"line":1},{"is_transit":false,"i_lat":-6.236616,"time":4,"transit":false,"station_name":"Bekasi","distance":2520,"i_long":106.997013,"line":0,"station_id":"BKS"},{"time":2,"is_transit":false,"distance":2368,"station_id":"BKST","i_long":107.016735,"line":0,"transit":false,"i_lat":-6.248029,"station_name":"Bekasi Timur"},{"is_transit":false,"distance":4460,"i_long":107.055722,"line":1,"transit":false,"station_id":"TB","station_name":"Tambun","time":7,"i_lat":-6.258864},{"station_name":"Cibitung","line":0,"is_transit":false,"time":3,"distance":3420,"transit":false,"i_lat":-6.261877,"i_long":107.083084,"station_id":"CIT"},{"i_long":107.093313,"line":1,"is_transit":false,"station_id":"TLM","transit":false,"distance":2800,"i_lat":-6.262938,"time":2,"station_name":"Metland Telaga Murni"}],[{"i_lat":-6.46424,"line":0,"time":0,"station_id":"CBN","is_transit":false,"transit":false,"i_long":106.851978,"station_name":"Cibinong","distance":0},{"station_name":"Citayam","i_lat":-6.448811,"transit":false,"time":10,"is_transit":true,"station_id":"CTA","i_long":106.800298,"distance":6740,"line":1},{"time":6,"line":0,"station_name":"Depok","station_id":"DP","is_transit":false,"transit":false,"distance":5084,"i_lat":-6.405256,"i_long":106.816926},{"transit":false,"i_long":106.819451,"i_lat":-6.391065,"time":3,"station_id":"DPB","is_transit":false,"distance":1584,"line":0,"station_name":"Depokbaru"},{"station_name":"Pondok Cina","time":4,"line":2,"distance":2727,"is_transit":false,"i_lat":-6.369073,"i_long":106.831114,"transit":false,"station_id":"POC"},{"i_lat":-6.360749,"is_transit":false,"station_id":"UI","station_name":"Univ. Indonesia","distance":1109,"time":2,"i_long":106.831474,"transit":false,"line":2},{"station_name":"Univ. Pancasila","i_lat":-6.339291,"line":2,"time":3,"transit":false,"i_long":106.834175,"distance":2264,"station_id":"UP","is_transit":false},{"line":2,"time":2,"station_name":"Lenteng Agung","i_long":106.832616,"is_transit":false,"transit":false,"i_lat":-6.330363,"distance":1029,"station_id":"LNA"},{"i_lat":-6.3080680000000005,"line":2,"transit":false,"is_transit":false,"time":3,"station_name":"Tanjung Barat","distance":2671,"station_id":"TNT","i_long":106.838896},{"station_id":"PSM","time":4,"distance":2820,"is_transit":false,"i_lat":-6.2842400000000005,"station_name":"Pasar Minggu","line":2,"i_long":106.843999,"transit":false},{"station_id":"PSMB","line":2,"transit":false,"is_transit":false,"i_lat":-6.263214,"station_name":"Pasar Minggu Baru","time":2,"distance":2380,"i_long":106.851577},{"transit":false,"is_transit":false,"i_lat":-6.255332,"time":2,"i_long":106.85449,"station_id":"DRN","station_name":"Duren Kalibata","distance":824,"line":0},{"station_name":"Cawang","station_id":"CW","is_transit":false,"time":3,"i_lat":-6.242512,"i_long":106.856607,"transit":false,"line":0,"distance":1546},{"transit":false,"is_transit":false,"i_long":106.857948,"i_lat":-6.226659,"station_name":"Tebet","time":2,"station_id":"TEB","distance":1230,"line":2},{"distance":2610,"line":0,"time":4,"station_id":"MRI","i_long":106.84912,"station_name":"Manggarai","transit":true,"is_transit":true,"i_lat":-6.209883},{"i_long":106.822649,"time":4,"station_id":"SUD","station_name":"Sudirman","is_transit":false,"line":1,"i_lat":-6.202263,"distance":3186,"transit":false},{"station_id":"SUDB","time":1,"is_transit":false,"transit":false,"i_lat":-6.201433,"i_long":106.819881,"station_name":"Sudirman Baru","line":1,"distance":280},{"station_id":"KAT","is_transit":false,"station_name":"Karet","i_lat":-6.20132,"distance":471,"line":1,"time":1,"transit":false,"i_long":106.816351},{"i_long":106.811091,"line":1,"distance":2029,"station_id":"THB","transit":false,"is_transit":true,"time":5,"i_lat":-6.185545,"station_name":"Tanah Abang"},{"station_id":"DU","is_transit":true,"i_lat":-6.155215,"line":1,"i_long":106.800832,"transit":true,"time":8,"station_name":"Duri","distance":3632},{"distance":1230,"is_transit":false,"i_long":106.79867,"station_id":"AK","i_lat":-6.144674,"transit":false,"line":0,"time":4,"station_name":"Angke"},{"time":9,"station_name":"Kampung Bandan","is_transit":true,"station_id":"KPB","distance":4102,"i_long":106.826365,"i_lat":-6.132549,"transit":true,"line":0},{"transit":false,"line":11,"time":3,"station_name":"Rajawali","distance":1444,"is_transit":false,"station_id":"RJW","i_long":106.836569,"i_lat":-6.14505},{"i_lat":-6.161728,"distance":1901,"is_transit":false,"transit":false,"time":5,"i_long":106.839204,"station_name":"Kemayoran","station_id":"KMO","line":11},{"line":11,"station_name":"Pasar Senen","time":4,"distance":1436,"station_id":"PSE","i_lat":-6.174784,"transit":false,"is_transit":false,"i_long":106.84368},{"station_name":"Gang Sentiong","time":8,"i_lat":-6.185975,"i_long":106.850107,"station_id":"GST","distance":1567,"transit":false,"is_transit":false,"line":11},{"i_lat":-6.193792,"i_long":106.855437,"time":1,"distance":973,"station_id":"KMT","transit":false,"line":11,"station_name":"Kramat","is_transit":false},{"station_id":"POK","is_transit":false,"line":11,"i_lat":-6.209188,"distance":1829,"transit":false,"time":2,"station_name":"Pondok Jati","i_long":106.861737},{"i_long":106.86807400000001,"line":0,"station_name":"Jatinegara","station_id":"JNG","is_transit":true,"distance":1236,"transit":true,"time":9,"i_lat":-6.215091},{"station_name":"Klender","time":3,"distance":3395,"station_id":"KLD","is_transit":false,"transit":false,"i_long":106.899548,"line":1,"i_lat":-6.2135},{"station_name":"Buaran","station_id":"BUA","transit":false,"time":2,"is_transit":false,"i_long":106.922662,"i_lat":-6.215568,"line":0,"distance":3100},{"station_name":"Klenderbaru","i_lat":-6.217455,"time":1,"is_transit":false,"distance":1305,"station_id":"KLDB","i_long":106.939679,"line":1,"transit":false},{"i_lat":-6.219053,"station_name":"Cakung","transit":false,"distance":1385,"station_id":"CUK","line":0,"is_transit":false,"i_long":106.951283,"time":8},{"is_transit":false,"station_id":"KRI","transit":false,"station_name":"Kranji","i_lat":-6.224515,"line":1,"time":3,"i_long":106.977657,"distance":3097},{"station_name":"Bekasi","is_transit":false,"i_long":106.997013,"distance":2520,"station_id":"BKS","transit":false,"i_lat":-6.236616,"line":0,"time":4},{"transit":false,"station_name":"Bekasi Timur","line":0,"i_lat":-6.248029,"i_long":107.016735,"is_transit":false,"time":2,"distance":2368,"station_id":"BKST"},{"line":1,"time":7,"station_name":"Tambun","distance":4460,"station_id":"TB","is_transit":false,"i_long":107.055722,"i_lat":-6.258864,"transit":false},{"is_transit":false,"distance":3420,"time":3,"i_long":107.083084,"line":0,"station_id":"CIT","i_lat":-6.261877,"transit":false,"station_name":"Cibitung"},{"i_lat":-6.262938,"line":1,"is_transit":false,"distance":2800,"station_name":"Metland Telaga Murni","i_long":107.093313,"transit":false,"station_id":"TLM","time":2}],[{"station_name":"Cibinong","line":0,"time":0,"i_long":106.851978,"transit":false,"is_transit":false,"distance":0,"i_lat":-6.46424,"station_id":"CBN"},{"transit":false,"i_long":106.800298,"time":10,"line":1,"station_id":"CTA","is_transit":true,"i_lat":-6.448811,"distance":6740,"station_name":"Citayam"},{"station_name":"Depok","transit":false,"i_long":106.816926,"line":0,"station_id":"DP","is_transit":false,"distance":5084,"i_lat":-6.405256,"time":6},{"i_lat":-6.391065,"distance":1584,"line":0,"time":3,"i_long":106.819451,"station_name":"Depokbaru","station_id":"DPB","transit":false,"is_transit":false},{"i_lat":-6.369073,"is_transit":false,"i_long":106.831114,"line":2,"station_name":"Pondok Cina","transit":false,"station_id":"POC","distance":2727,"time":4},{"station_name":"Univ. Indonesia","line":2,"is_transit":false,"distance":1109,"i_long":106.831474,"station_id":"UI","i_lat":-6.360749,"transit":false,"time":2},{"station_name":"Univ. Pancasila","station_id":"UP","i_lat":-6.339291,"i_long":106.834175,"distance":2264,"transit":false,"is_transit":false,"time":3,"line":2},{"station_name":"Lenteng Agung","i_lat":-6.330363,"transit":false,"time":2,"i_long":106.832616,"distance":1029,"station_id":"LNA","line":2,"is_transit":false},{"station_id":"TNT","line":2,"i_lat":-6.3080680000000005,"time":3,"distance":2671,"transit":false,"i_long":106.838896,"station_name":"Tanjung Barat","is_transit":false},{"i_lat":-6.2842400000000005,"time":4,"line":2,"i_long":106.843999,"station_name":"Pasar Minggu","station_id":"PSM","distance":2820,"transit":false,"is_transit":false},{"i_long":106.851577,"time":2,"is_transit":false,"station_id":"PSMB","transit":false,"distance":2380,"line":2,"station_name":"Pasar Minggu Baru","i_lat":-6.263214},{"is_transit":false,"line":0,"i_lat":-6.255332,"transit":false,"distance":824,"station_id":"DRN","i_long":106.85449,"time":2,"station_name":"Duren Kalibata"},{"i_lat":-6.242512,"i_long":106.856607,"is_transit":false,"line":0,"time":3,"station_name":"Cawang","distance":1546,"station_id":"CW","transit":false},{"is_transit":false,"distance":1230,"station_id":"TEB","i_long":106.857948,"time":2,"transit":false,"i_lat":-6.226659,"station_name":"Tebet","line":2},{"time":4,"distance":2610,"line":0,"i_long":106.84912,"station_name":"Manggarai","transit":true,"station_id":"MRI","is_transit":true,"i_lat":-6.209883},{"i_long":106.840169,"time":4,"distance":1590,"is_transit":false,"line":0,"i_lat":-6.198556,"station_id":"CKI","transit":false,"station_name":"Cikini"},{"line":2,"transit":false,"i_long":106.832183,"distance":1750,"i_lat":-6.186295,"time":3,"station_name":"Gondangdia","station_id":"GDD","is_transit":false},{"transit":false,"station_name":"Juanda","distance":2015,"is_transit":false,"station_id":"JUA","i_lat":-6.166716,"i_long":106.828284,"line":2,"time":4},{"transit":false,"i_lat":-6.160725,"station_id":"SW","station_name":"Sawah Besar","is_transit":false,"time":2,"distance":1149,"i_long":106.827103,"line":2},{"distance":906,"transit":false,"is_transit":false,"i_long":106.82482,"time":2,"station_name":"Manggabesar","station_id":"MGB","i_lat":-6.149769,"line":2},{"distance":1080,"time":2,"station_name":"Jayakarta","line":7,"i_lat":-6.141205,"is_transit":false,"i_long":106.820901,"station_id":"JAY","transit":false},{"distance":1264,"i_lat":-6.137569,"i_long":106.812439,"line":0,"station_id":"JAKK","transit":true,"station_name":"Jakarta Kota","is_transit":true,"time":4},{"line":0,"transit":true,"is_transit":true,"i_lat":-6.132549,"distance":1364,"i_long":106.826365,"station_name":"Kampung Bandan","station_id":"KPB","time":3},{"line":11,"distance":1444,"i_lat":-6.14505,"transit":false,"is_transit":false,"station_id":"RJW","time":3,"i_long":106.836569,"station_name":"Rajawali"},{"line":11,"time":5,"i_lat":-6.161728,"station_id":"KMO","distance":1901,"station_name":"Kemayoran","transit":false,"i_long":106.839204,"is_transit":false},{"is_transit":false,"i_lat":-6.174784,"i_long":106.84368,"line":11,"time":4,"transit":false,"distance":1436,"station_name":"Pasar Senen","station_id":"PSE"},{"distance":1567,"time":8,"station_name":"Gang Sentiong","transit":false,"is_transit":false,"i_lat":-6.185975,"i_long":106.850107,"line":11,"station_id":"GST"},{"station_id":"KMT","i_lat":-6.193792,"i_long":106.855437,"time":1,"station_name":"Kramat","line":11,"transit":false,"is_transit":false,"distance":973},{"distance":1829,"i_lat":-6.209188,"i_long":106.861737,"time":2,"is_transit":false,"transit":false,"line":11,"station_id":"POK","station_name":"Pondok Jati"},{"distance":1236,"station_id":"JNG","is_transit":true,"i_lat":-6.215091,"station_name":"Jatinegara","transit":true,"line":0,"i_long":106.86807400000001,"time":9},{"station_name":"Klender","transit":false,"station_id":"KLD","i_long":106.899548,"is_transit":false,"time":3,"distance":3395,"i_lat":-6.2135,"line":1},{"is_transit":false,"station_id":"BUA","distance":3100,"time":2,"transit":false,"station_name":"Buaran","i_long":106.922662,"i_lat":-6.215568,"line":0},{"time":1,"is_transit":false,"station_name":"Klenderbaru","station_id":"KLDB","i_long":106.939679,"distance":1305,"i_lat":-6.217455,"line":1,"transit":false},{"i_lat":-6.219053,"time":8,"i_long":106.951283,"station_id":"CUK","station_name":"Cakung","distance":1385,"is_transit":false,"transit":false,"line":0},{"distance":3097,"i_lat":-6.224515,"line":1,"station_name":"Kranji","transit":false,"time":3,"is_transit":false,"station_id":"KRI","i_long":106.977657},{"time":4,"station_id":"BKS","i_lat":-6.236616,"station_name":"Bekasi","distance":2520,"is_transit":false,"i_long":106.997013,"transit":false,"line":0},{"i_lat":-6.248029,"station_id":"BKST","i_long":107.016735,"line":0,"time":2,"station_name":"Bekasi Timur","is_transit":false,"distance":2368,"transit":false},{"i_lat":-6.258864,"i_long":107.055722,"transit":false,"time":7,"is_transit":false,"station_id":"TB","station_name":"Tambun","line":1,"distance":4460},{"i_lat":-6.261877,"transit":false,"station_name":"Cibitung","i_long":107.083084,"time":3,"is_transit":false,"distance":3420,"line":0,"station_id":"CIT"},{"is_transit":false,"line":1,"time":2,"distance":2800,"i_long":107.093313,"station_id":"TLM","i_lat":-6.262938,"station_name":"Metland Telaga Murni","transit":false}]]}