{"data":[[{"is_transit":false,"line":21,"station_id":"CBN","time":0,"distance":0,"i_lat":-6.46424,"i_long":106.851978,"station_name":"Cibinong","transit":false},{"time":0,"station_name":"Pondok Rajeg","is_transit":false,"station_id":"PDRG","i_long":106.824374,"transit":false,"line":21,"distance":0,"i_lat":-6.460735},{"time":0,"transit":true,"is_transit":true,"i_long":106.800298,"station_name":"Citayam","i_lat":-6.448811,"station_id":"CTA","distance":0,"line":2},{"station_name":"Depok","is_transit":false,"line":2,"transit":false,"station_id":"DP","time":6,"distance":5084,"i_lat":-6.405256,"i_long":106.816926},{"transit":false,"i_lat":-6.391065,"is_transit":false,"time":3,"line":2,"station_id":"DPB","station_name":"Depokbaru","distance":1584,"i_long":106.819451},{"time":4,"is_transit":false,"i_lat":-6.369073,"distance":2727,"line":2,"transit":false,"station_name":"Pondok Cina","station_id":"POC","i_long":106.831114},{"station_id":"UI","is_transit":false,"distance":1109,"time":2,"i_lat":-6.360749,"i_long":106.831474,"station_name":"Univ. Indonesia","line":2,"transit":false},{"transit":false,"i_lat":-6.339291,"is_transit":false,"time":3,"station_name":"Univ. Pancasila","i_long":106.834175,"distance":2264,"line":2,"station_id":"UP"}]]}