{"data":[[{"station_id":"CBN","i_long":106.851978,"i_lat":-6.46424,"time":0,"transit":false,"line":0,"distance":0,"station_name":"Cibinong","is_transit":false},{"is_transit":true,"station_name":"Citayam","distance":6740,"time":10,"transit":false,"i_lat":-6.448811,"i_long":106.800298,"line":1,"station_id":"CTA"},{"distance":5084,"i_lat":-6.405256,"transit":false,"station_name":"Depok","is_transit":false,"i_long":106.816926,"line":0,"station_id":"DP","time":6},{"station_id":"DPB","time":3,"distance":1584,"transit":false,"i_long":106.819451,"line":0,"i_lat":-6.391065,"station_name":"Depokbaru","is_transit":false},{"time":4,"i_long":106.831114,"is_transit":false,"line":2,"station_id":"POC","transit":false,"i_lat":-6.369073,"distance":2727,"station_name":"Pondok Cina"},{"line":2,"i_long":106.831474,"distance":1109,"time":2,"transit":false,"station_id":"UI","station_name":"Univ. Indonesia","i_lat":-6.360749,"is_transit":false},{"station_name":"Univ. Pancasila","distance":2264,"station_id":"UP","time":3,"transit":false,"i_lat":-6.339291,"is_transit":false,"i_long":106.834175,"line":2},{"line":2,"distance":1029,"time":2,"transit":false,"station_name":"Lenteng Agung","i_long":106.832616,"is_transit":false,"station_id":"LNA","i_lat":-6.330363},{"station_name":"Tanjung Barat","i_long":106.838896,"station_id":"TNT","transit":false,"line":2,"is_transit":false,"i_lat":-6.3080680000000005,"distance":2671,"time":3},{"distance":2820,"transit":false,"time":4,"i_long":106.843999,"line":2,"station_id":"PSM","station_name":"Pasar Minggu","is_transit":false,"i_lat":-6.2842400000000005},{"transit":false,"i_lat":-6.263214,"distance":2380,"i_long":106.851577,"line":2,"station_name":"Pasar Minggu Baru","time":2,"is_transit":false,"station_id":"PSMB"},{"station_id":"DRN","i_long":106.85449,"time":2,"line":0,"station_name":"Duren Kalibata","i_lat":-6.255332,"is_transit":false,"transit":false,"distance":824},{"i_lat":-6.242512,"transit":false,"distance":1546,"station_name":"Cawang","line":0,"time":3,"i_long":106.856607,"station_id":"CW","is_transit":false},{"distance":1230,"time":2,"i_lat":-6.226659,"station_name":"Tebet","transit":false,"i_long":106.857948,"station_id":"TEB","is_transit":false,"line":2},{"distance":2610,"is_transit":true,"station_id":"MRI","time":4,"station_name":"Manggarai","transit":true,"i_lat":-6.209883,"line":0,"i_long":106.84912},{"station_id":"MTR","i_lat":-6.212485,"line":1,"distance":1275,"transit":false,"time":2,"i_long":106.858896,"station_name":"Matraman","is_transit":false},{"station_id":"JNG","is_transit":true,"time":8,"line":0,"i_lat":-6.215091,"distance":1377,"transit":true,"station_name":"Jatinegara","i_long":106.86807400000001},{"line":11,"distance":1236,"station_id":"POK","i_long":106.861737,"transit":false,"time":2,"station_name":"Pondok Jati","is_transit":false,"i_lat":-6.209188},{"line":11,"i_lat":-6.193792,"station_id":"KMT","distance":1829,"is_transit":false,"i_long":106.855437,"transit":false,"time":2,"station_name":"Kramat"}],[{"transit":false,"distance":0,"time":0,"i_lat":-6.46424,"i_long":106.851978,"station_id":"CBN","line":0,"station_name":"Cibinong","is_transit":false},{"station_name":"Citayam","station_id":"CTA","distance":6740,"is_transit":true,"i_lat":-6.448811,"time":10,"transit":false,"i_long":106.800298,"line":1},{"i_lat":-6.405256,"i_long":106.816926,"transit":false,"station_name":"Depok","line":0,"station_id":"DP","distance":5084,"is_transit":false,"time":6},{"time":3,"i_lat":-6.391065,"station_id":"DPB","line":0,"transit":false,"i_long":106.819451,"is_transit":false,"distance":1584,"station_name":"Depokbaru"},{"line":2,"time":4,"transit":false,"is_transit":false,"i_lat":-6.369073,"i_long":106.831114,"station_id":"POC","distance":2727,"station_name":"Pondok Cina"},{"station_id":"UI","distance":1109,"transit":false,"time":2,"i_long":106.831474,"is_transit":false,"i_lat":-6.360749,"station_name":"Univ. Indonesia","line":2},{"i_long":106.834175,"station_id":"UP","time":3,"distance":2264,"is_transit":false,"transit":false,"line":2,"i_lat":-6.339291,"station_name":"Univ. Pancasila"},{"line":2,"station_name":"Lenteng Agung","i_lat":-6.330363,"time":2,"distance":1029,"is_transit":false,"transit":false,"i_long":106.832616,"station_id":"LNA"},{"line":2,"distance":2671,"station_id":"TNT","is_transit":false,"i_long":106.838896,"transit":false,"time":3,"i_lat":-6.3080680000000005,"station_name":"Tanjung Barat"},{"i_long":106.843999,"line":2,"station_name":"Pasar Minggu","station_id":"PSM","time":4,"distance":2820,"is_transit":false,"transit":false,"i_lat":-6.2842400000000005},{"i_lat":-6.263214,"line":2,"distance":2380,"station_id":"PSMB","is_transit":false,"i_long":106.851577,"station_name":"Pasar Minggu Baru","transit":false,"time":2},{"station_id":"DRN","i_long":106.85449,"line":0,"time":2,"is_transit":false,"distance":824,"station_name":"Duren Kalibata","transit":false,"i_lat":-6.255332},{"line":0,"i_lat":-6.242512,"distance":1546,"station_name":"Cawang","time":3,"station_id":"CW","transit":false,"is_transit":false,"i_long":106.856607},{"is_transit":false,"i_lat":-6.226659,"station_id":"TEB","distance":1230,"i_long":106.857948,"station_name":"Tebet","transit":false,"line":2,"time":2},{"transit":true,"line":0,"is_transit":true,"station_name":"Manggarai","i_lat":-6.209883,"i_long":106.84912,"station_id":"MRI","time":4,"distance":2610},{"station_name":"Sudirman","transit":false,"line":1,"station_id":"SUD","distance":3186,"is_transit":false,"time":4,"i_lat":-6.202263,"i_long":106.822649},{"is_transit":false,"i_long":106.819881,"station_name":"Sudirman Baru","distance":280,"i_lat":-6.201433,"time":1,"line":1,"station_id":"SUDB","transit":false},{"transit":false,"i_lat":-6.20132,"i_long":106.816351,"line":1,"station_id":"KAT","distance":471,"is_transit":false,"time":1,"station_name":"Karet"},{"line":1,"station_id":"THB","distance":2029,"i_long":106.811091,"transit":false,"i_lat":-6.185545,"time":5,"station_name":"Tanah Abang","is_transit":true},{"is_transit":true,"station_id":"DU","time":8,"station_name":"Duri","i_long":106.800832,"transit":true,"line":1,"distance":3632,"i_lat":-6.155215},{"station_name":"Angke","i_long":106.79867,"is_transit":false,"i_lat":-6.144674,"station_id":"AK","time":4,"distance":1230,"transit":false,"line":0},{"transit":true,"time":9,"i_long":106.826365,"station_name":"Kampung Bandan","is_transit":true,"line":0,"station_id":"KPB","distance":4102,"i_lat":-6.132549},{"i_lat":-6.14505,"time":3,"distance":1444,"is_transit":false,"station_id":"RJW","transit":false,"i_long":106.836569,"line":11,"station_name":"Rajawali"},{"transit":false,"station_id":"KMO","time":5,"distance":1901,"i_lat":-6.161728,"station_name":"Kemayoran","line":11,"is_transit":false,"i_long":106.839204},{"transit":false,"station_name":"Pasar Senen","distance":1436,"i_lat":-6.174784,"time":4,"line":11,"is_transit":false,"station_id":"PSE","i_long":106.84368},{"time":8,"i_lat":-6.185975,"distance":1567,"transit":false,"line":11,"station_name":"Gang Sentiong","is_transit":false,"i_long":106.850107,"station_id":"GST"},{"station_id":"KMT","station_name":"Kramat","distance":973,"time":1,"transit":false,"i_lat":-6.193792,"line":11,"i_long":106.855437,"is_transit":false}],[{"transit":false,"station_name":"Cibinong","i_long":106.851978,"is_transit":false,"time":0,"station_id":"CBN","line":0,"distance":0,"i_lat":-6.46424},{"is_transit":true,"i_lat":-6.448811,"distance":6740,"time":10,"transit":false,"i_long":106.800298,"station_id":"CTA","line":1,"station_name":"Citayam"},{"distance":5084,"transit":false,"line":0,"station_name":"Depok","is_transit":false,"i_lat":-6.405256,"i_long":106.816926,"time":6,"station_id":"DP"},{"time":3,"station_id":"DPB","station_name":"Depokbaru","is_transit":false,"i_long":106.819451,"i_lat":-6.391065,"line":0,"distance":1584,"transit":false},{"is_transit":false,"i_long":106.831114,"distance":2727,"station_name":"Pondok Cina","i_lat":-6.369073,"station_id":"POC","time":4,"transit":false,"line":2},{"i_long":106.831474,"is_transit":false,"i_lat":-6.360749,"time":2,"distance":1109,"transit":false,"line":2,"station_name":"Univ. Indonesia","station_id":"UI"},{"line":2,"is_transit":false,"time":3,"transit":false,"distance":2264,"i_lat":-6.339291,"station_id":"UP","i_long":106.834175,"station_name":"Univ. Pancasila"},{"time":2,"is_transit":false,"station_id":"LNA","line":2,"station_name":"Lenteng Agung","i_long":106.832616,"i_lat":-6.330363,"distance":1029,"transit":false},{"time":3,"station_name":"Tanjung Barat","is_transit":false,"i_lat":-6.3080680000000005,"line":2,"transit":false,"station_id":"TNT","distance":2671,"i_long":106.838896},{"station_id":"PSM","station_name":"Pasar Minggu","distance":2820,"i_long":106.843999,"transit":false,"time":4,"is_transit":false,"i_lat":-6.2842400000000005,"line":2},{"station_id":"PSMB","i_long":106.851577,"distance":2380,"station_name":"Pasar Minggu Baru","i_lat":-6.263214,"is_transit":false,"transit":false,"line":2,"time":2},{"distance":824,"time":2,"transit":false,"station_name":"Duren Kalibata","i_lat":-6.255332,"station_id":"DRN","line":0,"i_long":106.85449,"is_transit":false},{"i_long":106.856607,"line":0,"transit":false,"station_name":"Cawang","distance":1546,"time":3,"i_lat":-6.242512,"is_transit":false,"station_id":"CW"},{"station_id":"TEB","is_transit":false,"i_long":106.857948,"station_name":"Tebet","i_lat":-6.226659,"time":2,"transit":false,"line":2,"distance":1230},{"line":0,"transit":true,"station_name":"Manggarai","time":4,"i_lat":-6.209883,"i_long":106.84912,"is_transit":true,"distance":2610,"station_id":"MRI"},{"time":4,"distance":1590,"i_long":106.840169,"station_name":"Cikini","i_lat":-6.198556,"line":0,"is_transit":false,"transit":false,"station_id":"CKI"},{"time":3,"i_lat":-6.186295,"distance":1750,"line":2,"transit":false,"station_id":"GDD","station_name":"Gondangdia","i_long":106.832183,"is_transit":false},{"time":4,"transit":false,"i_long":106.828284,"distance":2015,"is_transit":false,"i_lat":-6.166716,"station_name":"Juanda","line":2,"station_id":"JUA"},{"i_long":106.827103,"station_name":"Sawah Besar","line":2,"is_transit":false,"station_id":"SW","time":2,"distance":1149,"transit":false,"i_lat":-6.160725},{"i_long":106.82482,"is_transit":false,"line":2,"i_lat":-6.149769,"station_id":"MGB","distance":906,"time":2,"transit":false,"station_name":"Manggabesar"},{"station_id":"JAY","i_long":106.820901,"time":2,"station_name":"Jayakarta","distance":1080,"transit":false,"is_transit":false,"line":7,"i_lat":-6.141205},{"station_id":"JAKK","station_name":"Jakarta Kota","distance":1264,"line":0,"time":4,"i_lat":-6.137569,"i_long":106.812439,"transit":true,"is_transit":true},{"line":0,"i_long":106.826365,"is_transit":true,"transit":true,"station_name":"Kampung Bandan","time":3,"station_id":"KPB","distance":1364,"i_lat":-6.132549},{"line":11,"i_lat":-6.14505,"station_name":"Rajawali","transit":false,"i_long":106.836569,"is_transit":false,"station_id":"RJW","distance":1444,"time":3},{"time":5,"station_name":"Kemayoran","distance":1901,"i_lat":-6.161728,"i_long":106.839204,"line":11,"is_transit":false,"transit":false,"station_id":"KMO"},{"transit":false,"station_name":"Pasar Senen","time":4,"is_transit":false,"distance":1436,"line":11,"station_id":"PSE","i_lat":-6.174784,"i_long":106.84368},{"time":8,"i_lat":-6.185975,"i_long":106.850107,"station_name":"Gang Sentiong","is_transit":false,"distance":1567,"line":11,"station_id":"GST","transit":false},{"i_lat":-6.193792,"i_long":106.855437,"distance":973,"is_transit":false,"station_id":"KMT","time":1,"station_name":"Kramat","transit":false,"line":11}]]}