{"data":[[{"transit":false,"is_transit":false,"station_name":"Cibinong","distance":0,"station_id":"CBN","i_lat":-6.46424,"time":0,"i_long":106.851978,"line":21},{"is_transit":false,"i_lat":-6.460735,"line":21,"station_id":"PDRG","station_name":"Pondok Rajeg","transit":false,"time":0,"distance":0,"i_long":106.824374},{"distance":0,"station_name":"Citayam","line":2,"is_transit":true,"station_id":"CTA","time":0,"i_long":106.800298,"transit":true,"i_lat":-6.448811},{"time":6,"i_lat":-6.405256,"distance":5084,"is_transit":false,"line":2,"i_long":106.816926,"station_id":"DP","station_name":"Depok","transit":false},{"station_name":"Depokbaru","i_lat":-6.391065,"i_long":106.819451,"time":3,"line":2,"transit":false,"distance":1584,"is_transit":false,"station_id":"DPB"},{"distance":2727,"is_transit":false,"i_long":106.831114,"transit":false,"time":4,"line":2,"station_name":"Pondok Cina","station_id":"POC","i_lat":-6.369073},{"is_transit":false,"station_id":"UI","i_lat":-6.360749,"i_long":106.831474,"station_name":"Univ. Indonesia","time":2,"line":2,"distance":1109,"transit":false},{"station_name":"Univ. Pancasila","distance":2264,"i_lat":-6.339291,"station_id":"UP","transit":false,"i_long":106.834175,"time":3,"line":2,"is_transit":false},{"transit":false,"distance":1029,"i_long":106.832616,"station_name":"Lenteng Agung","is_transit":false,"i_lat":-6.330363,"time":2,"line":2,"station_id":"LNA"},{"distance":2671,"line":2,"i_long":106.838896,"transit":false,"station_id":"TNT","station_name":"Tanjung Barat","is_transit":false,"i_lat":-6.3080680000000005,"time":3},{"i_lat":-6.2842400000000005,"line":2,"distance":2820,"i_long":106.843999,"time":4,"station_id":"PSM","station_name":"Pasar Minggu","transit":false,"is_transit":false},{"i_long":106.851577,"line":2,"station_id":"PSMB","is_transit":false,"distance":2380,"transit":false,"station_name":"Pasar Minggu Baru","time":2,"i_lat":-6.263214},{"transit":false,"line":2,"distance":824,"station_id":"DRN","station_name":"Duren Kalibata","time":2,"is_transit":false,"i_lat":-6.255332,"i_long":106.85449},{"i_lat":-6.242512,"i_long":106.856607,"station_id":"CW","station_name":"Cawang","time":3,"line":2,"distance":1546,"is_transit":false,"transit":false},{"transit":false,"station_name":"Tebet","distance":1230,"station_id":"TEB","time":2,"is_transit":false,"i_lat":-6.226659,"i_long":106.857948,"line":2},{"is_transit":true,"i_long":106.84912,"station_id":"MRI","distance":2610,"i_lat":-6.209883,"line":2,"station_name":"Manggarai","transit":true,"time":4},{"i_long":106.858896,"line":1,"station_id":"MTR","i_lat":-6.212485,"is_transit":false,"distance":1275,"station_name":"Matraman","transit":false,"time":2},{"distance":1377,"is_transit":false,"time":8,"i_lat":-6.215091,"station_id":"JNG","transit":false,"i_long":106.86807400000001,"line":1,"station_name":"Jatinegara"},{"transit":false,"time":3,"line":1,"distance":3395,"i_long":106.899548,"station_name":"Klender","is_transit":false,"i_lat":-6.2135,"station_id":"KLD"},{"line":1,"station_id":"BUA","i_lat":-6.215568,"transit":false,"i_long":106.922662,"distance":3100,"time":2,"station_name":"Buaran","is_transit":false},{"distance":1305,"station_id":"KLDB","time":1,"i_long":106.939679,"is_transit":false,"i_lat":-6.217455,"transit":false,"line":1,"station_name":"Klenderbaru"},{"distance":1385,"is_transit":false,"i_lat":-6.219053,"transit":false,"station_id":"CUK","i_long":106.951283,"line":1,"time":8,"station_name":"Cakung"},{"distance":3097,"station_id":"KRI","time":3,"is_transit":false,"transit":false,"i_long":106.977657,"i_lat":-6.224515,"line":1,"station_name":"Kranji"},{"i_long":106.997013,"station_name":"Bekasi","transit":false,"time":4,"is_transit":false,"distance":2520,"station_id":"BKS","line":1,"i_lat":-6.236616},{"distance":2368,"line":1,"station_name":"Bekasi Timur","time":2,"i_long":107.016735,"station_id":"BKST","is_transit":false,"transit":false,"i_lat":-6.248029},{"is_transit":false,"transit":false,"i_lat":-6.258864,"station_id":"TB","time":7,"i_long":107.055722,"distance":4460,"station_name":"Tambun","line":1},{"transit":false,"station_id":"CIT","distance":3420,"station_name":"Cibitung","i_long":107.083084,"is_transit":false,"i_lat":-6.261877,"line":1,"time":3},{"station_name":"Metland Telaga Murni","distance":2800,"line":1,"station_id":"TLM","time":2,"is_transit":false,"i_lat":-6.262938,"transit":false,"i_long":107.093313}],[{"is_transit":false,"i_long":106.851978,"transit":false,"i_lat":-6.46424,"time":0,"line":21,"station_id":"CBN","station_name":"Cibinong","distance":0},{"station_id":"PDRG","is_transit":false,"i_long":106.824374,"time":0,"line":21,"distance":0,"transit":false,"station_name":"Pondok Rajeg","i_lat":-6.460735},{"distance":0,"i_long":106.800298,"time":0,"i_lat":-6.448811,"transit":true,"is_transit":true,"station_name":"Citayam","station_id":"CTA","line":2},{"i_lat":-6.405256,"station_name":"Depok","distance":5084,"time":6,"transit":false,"station_id":"DP","line":2,"is_transit":false,"i_long":106.816926},{"station_name":"Depokbaru","distance":1584,"time":3,"i_lat":-6.391065,"transit":false,"i_long":106.819451,"line":2,"station_id":"DPB","is_transit":false},{"station_name":"Pondok Cina","time":4,"i_long":106.831114,"distance":2727,"i_lat":-6.369073,"is_transit":false,"line":2,"transit":false,"station_id":"POC"},{"is_transit":false,"i_lat":-6.360749,"station_id":"UI","station_name":"Univ. Indonesia","time":2,"i_long":106.831474,"line":2,"distance":1109,"transit":false},{"line":2,"transit":false,"distance":2264,"station_id":"UP","time":3,"is_transit":false,"i_long":106.834175,"i_lat":-6.339291,"station_name":"Univ. Pancasila"},{"transit":false,"i_lat":-6.330363,"time":2,"line":2,"i_long":106.832616,"station_id":"LNA","distance":1029,"station_name":"Lenteng Agung","is_transit":false},{"station_name":"Tanjung Barat","i_lat":-6.3080680000000005,"line":2,"i_long":106.838896,"time":3,"station_id":"TNT","distance":2671,"transit":false,"is_transit":false},{"transit":false,"station_id":"PSM","line":2,"i_lat":-6.2842400000000005,"station_name":"Pasar Minggu","is_transit":false,"i_long":106.843999,"time":4,"distance":2820},{"line":2,"station_name":"Pasar Minggu Baru","station_id":"PSMB","i_long":106.851577,"time":2,"is_transit":false,"i_lat":-6.263214,"transit":false,"distance":2380},{"transit":false,"is_transit":false,"station_id":"DRN","distance":824,"time":2,"station_name":"Duren Kalibata","i_long":106.85449,"line":2,"i_lat":-6.255332},{"station_name":"Cawang","transit":false,"i_lat":-6.242512,"line":2,"is_transit":false,"distance":1546,"station_id":"CW","time":3,"i_long":106.856607},{"time":2,"distance":1230,"station_name":"Tebet","is_transit":false,"transit":false,"i_lat":-6.226659,"i_long":106.857948,"line":2,"station_id":"TEB"},{"station_id":"MRI","transit":true,"is_transit":true,"i_long":106.84912,"line":2,"time":4,"distance":2610,"station_name":"Manggarai","i_lat":-6.209883},{"distance":3186,"line":1,"is_transit":false,"i_long":106.822649,"station_name":"Sudirman","i_lat":-6.202263,"transit":false,"station_id":"SUD","time":4},{"station_id":"SUDB","line":1,"transit":false,"station_name":"Sudirman Baru","i_lat":-6.201433,"i_long":106.819881,"is_transit":false,"distance":280,"time":1},{"station_name":"Karet","i_lat":-6.20132,"station_id":"KAT","distance":471,"time":1,"is_transit":false,"line":1,"transit":false,"i_long":106.816351},{"i_lat":-6.185545,"is_transit":false,"i_long":106.811091,"station_name":"Tanah Abang","station_id":"THB","time":5,"line":1,"transit":false,"distance":2029},{"i_long":106.800832,"i_lat":-6.155215,"line":1,"transit":false,"station_id":"DU","distance":3632,"time":8,"is_transit":false,"station_name":"Duri"},{"station_name":"Angke","time":4,"is_transit":false,"i_long":106.79867,"line":1,"i_lat":-6.144674,"station_id":"AK","distance":1230,"transit":false},{"is_transit":true,"i_lat":-6.132549,"transit":true,"station_name":"Kampung Bandan","station_id":"KPB","i_long":106.826365,"line":4,"time":9,"distance":4102},{"station_id":"RJW","i_lat":-6.14505,"time":3,"distance":1444,"is_transit":false,"line":11,"station_name":"Rajawali","i_long":106.836569,"transit":false},{"i_long":106.839204,"time":5,"transit":false,"station_name":"Kemayoran","i_lat":-6.161728,"distance":1901,"is_transit":false,"station_id":"KMO","line":11},{"station_id":"PSE","transit":false,"station_name":"Pasar Senen","time":4,"i_lat":-6.174784,"line":11,"is_transit":false,"i_long":106.84368,"distance":1436},{"distance":1567,"station_name":"Gang Sentiong","i_long":106.850107,"line":11,"is_transit":false,"station_id":"GST","i_lat":-6.185975,"transit":false,"time":8},{"i_lat":-6.193792,"station_name":"Kramat","station_id":"KMT","transit":false,"distance":973,"line":11,"is_transit":false,"i_long":106.855437,"time":1},{"i_lat":-6.209188,"station_id":"POK","station_name":"Pondok Jati","line":11,"transit":false,"i_long":106.861737,"distance":1829,"time":2,"is_transit":false},{"i_long":106.86807400000001,"is_transit":true,"time":9,"line":1,"station_name":"Jatinegara","station_id":"JNG","transit":true,"i_lat":-6.215091,"distance":1236},{"distance":3395,"station_id":"KLD","station_name":"Klender","time":3,"transit":false,"line":1,"i_lat":-6.2135,"is_transit":false,"i_long":106.899548},{"transit":false,"station_name":"Buaran","time":2,"line":1,"station_id":"BUA","i_long":106.922662,"is_transit":false,"i_lat":-6.215568,"distance":3100},{"station_id":"KLDB","distance":1305,"station_name":"Klenderbaru","is_transit":false,"i_long":106.939679,"line":1,"time":1,"i_lat":-6.217455,"transit":false},{"transit":false,"is_transit":false,"line":1,"time":8,"i_long":106.951283,"distance":1385,"station_id":"CUK","station_name":"Cakung","i_lat":-6.219053},{"transit":false,"time":3,"distance":3097,"station_name":"Kranji","station_id":"KRI","i_long":106.977657,"is_transit":false,"line":1,"i_lat":-6.224515},{"transit":false,"distance":2520,"station_name":"Bekasi","i_lat":-6.236616,"line":1,"station_id":"BKS","time":4,"is_transit":false,"i_long":106.997013},{"transit":false,"i_lat":-6.248029,"line":1,"station_id":"BKST","i_long":107.016735,"time":2,"distance":2368,"station_name":"Bekasi Timur","is_transit":false},{"i_lat":-6.258864,"i_long":107.055722,"transit":false,"station_name":"Tambun","station_id":"TB","line":1,"time":7,"distance":4460,"is_transit":false},{"station_id":"CIT","transit":false,"line":1,"station_name":"Cibitung","time":3,"i_lat":-6.261877,"i_long":107.083084,"is_transit":false,"distance":3420},{"i_long":107.093313,"line":1,"time":2,"is_transit":false,"transit":false,"distance":2800,"station_name":"Metland Telaga Murni","station_id":"TLM","i_lat":-6.262938}],[{"transit":false,"station_id":"CBN","station_name":"Cibinong","time":0,"distance":0,"line":21,"i_lat":-6.46424,"is_transit":false,"i_long":106.851978},{"station_id":"PDRG","transit":false,"is_transit":false,"station_name":"Pondok Rajeg","i_long":106.824374,"i_lat":-6.460735,"line":21,"distance":0,"time":0},{"i_long":106.800298,"time":0,"station_id":"CTA","station_name":"Citayam","line":2,"i_lat":-6.448811,"distance":0,"is_transit":true,"transit":true},{"transit":false,"i_lat":-6.405256,"line":2,"is_transit":false,"station_name":"Depok","station_id":"DP","distance":5084,"time":6,"i_long":106.816926},{"i_long":106.819451,"transit":false,"station_name":"Depokbaru","time":3,"is_transit":false,"line":2,"distance":1584,"station_id":"DPB","i_lat":-6.391065},{"station_id":"POC","transit":false,"station_name":"Pondok Cina","time":4,"is_transit":false,"i_long":106.831114,"i_lat":-6.369073,"distance":2727,"line":2},{"is_transit":false,"station_id":"UI","distance":1109,"transit":false,"i_lat":-6.360749,"i_long":106.831474,"line":2,"time":2,"station_name":"Univ. Indonesia"},{"station_name":"Univ. Pancasila","i_lat":-6.339291,"time":3,"i_long":106.834175,"transit":false,"distance":2264,"is_transit":false,"line":2,"station_id":"UP"},{"station_name":"Lenteng Agung","is_transit":false,"i_lat":-6.330363,"i_long":106.832616,"line":2,"transit":false,"station_id":"LNA","distance":1029,"time":2},{"station_name":"Tanjung Barat","distance":2671,"time":3,"line":2,"station_id":"TNT","is_transit":false,"i_lat":-6.3080680000000005,"transit":false,"i_long":106.838896},{"line":2,"i_lat":-6.2842400000000005,"distance":2820,"station_id":"PSM","transit":false,"time":4,"i_long":106.843999,"is_transit":false,"station_name":"Pasar Minggu"},{"i_lat":-6.263214,"line":2,"time":2,"transit":false,"station_name":"Pasar Minggu Baru","is_transit":false,"distance":2380,"i_long":106.851577,"station_id":"PSMB"},{"i_long":106.85449,"time":2,"is_transit":false,"i_lat":-6.255332,"station_id":"DRN","transit":false,"distance":824,"station_name":"Duren Kalibata","line":2},{"time":3,"is_transit":false,"line":2,"transit":false,"station_id":"CW","i_lat":-6.242512,"station_name":"Cawang","i_long":106.856607,"distance":1546},{"time":2,"transit":false,"station_id":"TEB","i_long":106.857948,"is_transit":false,"i_lat":-6.226659,"distance":1230,"station_name":"Tebet","line":2},{"transit":false,"distance":2610,"i_lat":-6.209883,"i_long":106.84912,"line":2,"station_id":"MRI","station_name":"Manggarai","time":4,"is_transit":false},{"i_long":106.840169,"station_id":"CKI","station_name":"Cikini","distance":1590,"line":2,"transit":false,"time":4,"is_transit":false,"i_lat":-6.198556},{"distance":1750,"station_name":"Gondangdia","time":3,"transit":false,"i_lat":-6.186295,"station_id":"GDD","line":2,"is_transit":false,"i_long":106.832183},{"is_transit":false,"transit":false,"distance":2015,"station_id":"JUA","i_long":106.828284,"line":2,"i_lat":-6.166716,"time":4,"station_name":"Juanda"},{"is_transit":false,"i_long":106.827103,"distance":1149,"time":2,"i_lat":-6.160725,"line":2,"station_id":"SW","station_name":"Sawah Besar","transit":false},{"station_name":"Manggabesar","time":2,"is_transit":false,"line":2,"station_id":"MGB","i_long":106.82482,"i_lat":-6.149769,"transit":false,"distance":906},{"time":2,"i_lat":-6.141205,"i_long":106.820901,"distance":1080,"line":2,"station_name":"Jayakarta","transit":false,"is_transit":false,"station_id":"JAY"},{"station_name":"Jakarta Kota","i_long":106.812439,"line":2,"distance":1264,"station_id":"JAKK","i_lat":-6.137569,"is_transit":true,"transit":true,"time":4},{"distance":1364,"transit":true,"station_id":"KPB","is_transit":true,"line":4,"i_lat":-6.132549,"i_long":106.826365,"station_name":"Kampung Bandan","time":3},{"i_long":106.836569,"station_name":"Rajawali","transit":false,"station_id":"RJW","i_lat":-6.14505,"line":11,"distance":1444,"time":3,"is_transit":false},{"station_id":"KMO","distance":1901,"station_name":"Kemayoran","time":5,"line":11,"is_transit":false,"transit":false,"i_long":106.839204,"i_lat":-6.161728},{"i_lat":-6.174784,"station_id":"PSE","transit":false,"is_transit":false,"i_long":106.84368,"time":4,"station_name":"Pasar Senen","line":11,"distance":1436},{"i_long":106.850107,"line":11,"is_transit":false,"time":8,"transit":false,"distance":1567,"station_name":"Gang Sentiong","station_id":"GST","i_lat":-6.185975},{"line":11,"transit":false,"station_id":"KMT","station_name":"Kramat","distance":973,"time":1,"is_transit":false,"i_lat":-6.193792,"i_long":106.855437},{"station_name":"Pondok Jati","is_transit":false,"line":11,"transit":false,"distance":1829,"station_id":"POK","i_long":106.861737,"time":2,"i_lat":-6.209188},{"transit":true,"is_transit":true,"distance":1236,"i_lat":-6.215091,"time":9,"station_id":"JNG","i_long":106.86807400000001,"line":1,"station_name":"Jatinegara"},{"station_name":"Klender","distance":3395,"time":3,"i_long":106.899548,"i_lat":-6.2135,"line":1,"is_transit":false,"transit":false,"station_id":"KLD"},{"station_id":"BUA","i_long":106.922662,"time":2,"transit":false,"station_name":"Buaran","distance":3100,"i_lat":-6.215568,"is_transit":false,"line":1},{"transit":false,"i_lat":-6.217455,"time":1,"distance":1305,"is_transit":false,"station_name":"Klenderbaru","i_long":106.939679,"line":1,"station_id":"KLDB"},{"is_transit":false,"station_name":"Cakung","time":8,"i_lat":-6.219053,"i_long":106.951283,"line":1,"transit":false,"distance":1385,"station_id":"CUK"},{"i_lat":-6.224515,"time":3,"line":1,"station_id":"KRI","distance":3097,"i_long":106.977657,"transit":false,"is_transit":false,"station_name":"Kranji"},{"i_lat":-6.236616,"distance":2520,"i_long":106.997013,"station_id":"BKS","time":4,"transit":false,"station_name":"Bekasi","line":1,"is_transit":false},{"station_name":"Bekasi Timur","distance":2368,"i_long":107.016735,"transit":false,"line":1,"station_id":"BKST","is_transit":false,"i_lat":-6.248029,"time":2},{"transit":false,"is_transit":false,"i_long":107.055722,"time":7,"station_id":"TB","distance":4460,"line":1,"i_lat":-6.258864,"station_name":"Tambun"},{"is_transit":false,"i_lat":-6.261877,"station_id":"CIT","station_name":"Cibitung","line":1,"time":3,"i_long":107.083084,"distance":3420,"transit":false},{"distance":2800,"station_id":"TLM","time":2,"is_transit":false,"station_name":"Metland Telaga Murni","i_lat":-6.262938,"i_long":107.093313,"transit":false,"line":1}]]}