{"data":[[{"time":0,"line":21,"i_long":106.851978,"station_id":"CBN","i_lat":-6.46424,"is_transit":false,"distance":0,"transit":false,"station_name":"Cibinong"},{"i_long":106.824374,"line":21,"is_transit":false,"distance":0,"time":0,"i_lat":-6.460735,"station_id":"PDRG","transit":false,"station_name":"Pondok Rajeg"},{"station_name":"Citayam","i_long":106.800298,"station_id":"CTA","time":0,"is_transit":true,"distance":0,"transit":true,"i_lat":-6.448811,"line":2},{"station_id":"DP","i_lat":-6.405256,"time":6,"station_name":"Depok","i_long":106.816926,"line":2,"is_transit":false,"distance":5084,"transit":false},{"transit":false,"station_id":"DPB","i_lat":-6.391065,"line":2,"station_name":"Depokbaru","is_transit":false,"time":3,"i_long":106.819451,"distance":1584},{"distance":2727,"is_transit":false,"i_long":106.831114,"transit":false,"i_lat":-6.369073,"line":2,"station_id":"POC","station_name":"Pondok Cina","time":4},{"distance":1109,"is_transit":false,"station_name":"Univ. Indonesia","line":2,"i_long":106.831474,"station_id":"UI","transit":false,"time":2,"i_lat":-6.360749},{"station_name":"Univ. Pancasila","station_id":"UP","time":3,"transit":false,"i_long":106.834175,"i_lat":-6.339291,"line":2,"is_transit":false,"distance":2264},{"station_name":"Lenteng Agung","station_id":"LNA","transit":false,"distance":1029,"line":2,"is_transit":false,"i_long":106.832616,"time":2,"i_lat":-6.330363},{"time":3,"i_lat":-6.3080680000000005,"is_transit":false,"station_name":"Tanjung Barat","transit":false,"line":2,"i_long":106.838896,"distance":2671,"station_id":"TNT"},{"i_lat":-6.2842400000000005,"station_name":"Pasar Minggu","transit":false,"time":4,"is_transit":false,"station_id":"PSM","distance":2820,"i_long":106.843999,"line":2},{"distance":2380,"i_lat":-6.263214,"transit":false,"time":2,"is_transit":false,"i_long":106.851577,"line":2,"station_name":"Pasar Minggu Baru","station_id":"PSMB"},{"i_lat":-6.255332,"transit":false,"i_long":106.85449,"station_name":"Duren Kalibata","time":2,"is_transit":false,"distance":824,"station_id":"DRN","line":2},{"line":2,"i_lat":-6.242512,"i_long":106.856607,"distance":1546,"station_id":"CW","transit":false,"station_name":"Cawang","time":3,"is_transit":false},{"distance":1230,"i_lat":-6.226659,"i_long":106.857948,"line":2,"station_name":"Tebet","transit":false,"is_transit":false,"time":2,"station_id":"TEB"},{"i_lat":-6.209883,"line":2,"i_long":106.84912,"station_name":"Manggarai","is_transit":true,"station_id":"MRI","distance":2610,"transit":true,"time":4},{"transit":false,"i_lat":-6.202263,"station_id":"SUD","is_transit":false,"station_name":"Sudirman","time":4,"i_long":106.822649,"line":1,"distance":3186},{"is_transit":false,"i_lat":-6.201433,"station_name":"Sudirman Baru","i_long":106.819881,"station_id":"SUDB","line":1,"transit":false,"time":1,"distance":280},{"is_transit":false,"i_lat":-6.20132,"i_long":106.816351,"transit":false,"line":1,"station_id":"KAT","station_name":"Karet","time":1,"distance":471},{"station_id":"THB","i_lat":-6.185545,"is_transit":false,"distance":2029,"i_long":106.811091,"time":5,"transit":false,"line":1,"station_name":"Tanah Abang"},{"is_transit":true,"distance":3632,"transit":true,"station_name":"Duri","line":1,"i_lat":-6.155215,"time":8,"i_long":106.800832,"station_id":"DU"},{"time":3,"distance":1700,"is_transit":false,"transit":false,"station_id":"GGL","i_long":106.788277,"station_name":"Grogol","line":5,"i_lat":-6.162021},{"distance":2036,"station_id":"PSG","time":2,"line":5,"station_name":"Pesing","is_transit":false,"transit":false,"i_lat":-6.161433,"i_long":106.771379}],[{"station_name":"Cibinong","i_lat":-6.46424,"time":0,"i_long":106.851978,"line":21,"transit":false,"station_id":"CBN","is_transit":false,"distance":0},{"i_long":106.824374,"is_transit":false,"distance":0,"i_lat":-6.460735,"line":21,"station_name":"Pondok Rajeg","station_id":"PDRG","time":0,"transit":false},{"transit":true,"i_lat":-6.448811,"i_long":106.800298,"distance":0,"station_id":"CTA","time":0,"is_transit":true,"station_name":"Citayam","line":2},{"station_id":"DP","line":2,"i_lat":-6.405256,"is_transit":false,"transit":false,"station_name":"Depok","time":6,"distance":5084,"i_long":106.816926},{"time":3,"i_long":106.819451,"is_transit":false,"station_id":"DPB","distance":1584,"line":2,"station_name":"Depokbaru","transit":false,"i_lat":-6.391065},{"time":4,"i_lat":-6.369073,"distance":2727,"station_id":"POC","line":2,"station_name":"Pondok Cina","is_transit":false,"transit":false,"i_long":106.831114},{"line":2,"is_transit":false,"station_name":"Univ. Indonesia","distance":1109,"transit":false,"i_long":106.831474,"time":2,"station_id":"UI","i_lat":-6.360749},{"distance":2264,"time":3,"station_name":"Univ. Pancasila","i_lat":-6.339291,"line":2,"is_transit":false,"transit":false,"station_id":"UP","i_long":106.834175},{"distance":1029,"i_long":106.832616,"line":2,"station_id":"LNA","station_name":"Lenteng Agung","transit":false,"i_lat":-6.330363,"is_transit":false,"time":2},{"i_long":106.838896,"i_lat":-6.3080680000000005,"line":2,"station_id":"TNT","station_name":"Tanjung Barat","distance":2671,"time":3,"is_transit":false,"transit":false},{"station_name":"Pasar Minggu","i_long":106.843999,"station_id":"PSM","i_lat":-6.2842400000000005,"is_transit":false,"distance":2820,"transit":false,"time":4,"line":2},{"i_lat":-6.263214,"time":2,"i_long":106.851577,"station_id":"PSMB","station_name":"Pasar Minggu Baru","distance":2380,"line":2,"transit":false,"is_transit":false},{"station_id":"DRN","station_name":"Duren Kalibata","is_transit":false,"distance":824,"transit":false,"i_lat":-6.255332,"line":2,"time":2,"i_long":106.85449},{"line":2,"is_transit":false,"time":3,"distance":1546,"i_lat":-6.242512,"station_name":"Cawang","i_long":106.856607,"station_id":"CW","transit":false},{"distance":1230,"time":2,"i_long":106.857948,"station_id":"TEB","is_transit":false,"i_lat":-6.226659,"station_name":"Tebet","transit":false,"line":2},{"i_long":106.84912,"distance":2610,"is_transit":false,"station_id":"MRI","station_name":"Manggarai","line":2,"time":4,"transit":false,"i_lat":-6.209883},{"i_long":106.840169,"distance":1590,"is_transit":false,"line":2,"time":4,"i_lat":-6.198556,"station_id":"CKI","station_name":"Cikini","transit":false},{"is_transit":false,"station_id":"GDD","distance":1750,"transit":false,"line":2,"station_name":"Gondangdia","time":3,"i_long":106.832183,"i_lat":-6.186295},{"transit":false,"line":2,"distance":2015,"time":4,"is_transit":false,"station_id":"JUA","i_long":106.828284,"station_name":"Juanda","i_lat":-6.166716},{"line":2,"transit":false,"i_lat":-6.160725,"i_long":106.827103,"time":2,"station_name":"Sawah Besar","is_transit":false,"distance":1149,"station_id":"SW"},{"i_lat":-6.149769,"i_long":106.82482,"line":2,"distance":906,"transit":false,"is_transit":false,"station_name":"Manggabesar","time":2,"station_id":"MGB"},{"distance":1080,"is_transit":false,"station_id":"JAY","time":2,"i_lat":-6.141205,"line":2,"station_name":"Jayakarta","transit":false,"i_long":106.820901},{"is_transit":true,"i_long":106.812439,"transit":true,"distance":1264,"line":2,"station_id":"JAKK","time":4,"i_lat":-6.137569,"station_name":"Jakarta Kota"},{"station_name":"Kampung Bandan","i_long":106.826365,"station_id":"KPB","time":3,"transit":true,"distance":1364,"i_lat":-6.132549,"is_transit":true,"line":4},{"station_id":"AK","distance":4102,"time":9,"i_long":106.79867,"station_name":"Angke","transit":false,"is_transit":false,"line":1,"i_lat":-6.144674},{"station_name":"Duri","i_long":106.800832,"station_id":"DU","time":4,"is_transit":true,"i_lat":-6.155215,"line":1,"transit":true,"distance":1230},{"station_id":"GGL","is_transit":false,"transit":false,"distance":1700,"time":3,"line":5,"i_lat":-6.162021,"station_name":"Grogol","i_long":106.788277},{"station_id":"PSG","station_name":"Pesing","distance":2036,"transit":false,"time":2,"is_transit":false,"i_long":106.771379,"i_lat":-6.161433,"line":5}],[{"is_transit":false,"station_id":"CBN","station_name":"Cibinong","time":0,"distance":0,"i_lat":-6.46424,"transit":false,"i_long":106.851978,"line":21},{"time":0,"station_id":"PDRG","is_transit":false,"distance":0,"station_name":"Pondok Rajeg","transit":false,"i_lat":-6.460735,"i_long":106.824374,"line":21},{"line":2,"i_lat":-6.448811,"transit":true,"time":0,"i_long":106.800298,"distance":0,"station_id":"CTA","station_name":"Citayam","is_transit":true},{"distance":5084,"is_transit":false,"station_name":"Depok","transit":false,"i_lat":-6.405256,"time":6,"station_id":"DP","i_long":106.816926,"line":2},{"line":2,"station_name":"Depokbaru","is_transit":false,"distance":1584,"i_long":106.819451,"transit":false,"time":3,"station_id":"DPB","i_lat":-6.391065},{"i_long":106.831114,"line":2,"i_lat":-6.369073,"station_id":"POC","distance":2727,"station_name":"Pondok Cina","time":4,"is_transit":false,"transit":false},{"distance":1109,"transit":false,"i_long":106.831474,"station_name":"Univ. Indonesia","time":2,"line":2,"station_id":"UI","i_lat":-6.360749,"is_transit":false},{"is_transit":false,"distance":2264,"i_lat":-6.339291,"transit":false,"line":2,"i_long":106.834175,"station_id":"UP","time":3,"station_name":"Univ. Pancasila"},{"i_lat":-6.330363,"is_transit":false,"line":2,"station_id":"LNA","i_long":106.832616,"distance":1029,"station_name":"Lenteng Agung","time":2,"transit":false},{"station_id":"TNT","time":3,"distance":2671,"transit":false,"station_name":"Tanjung Barat","line":2,"is_transit":false,"i_lat":-6.3080680000000005,"i_long":106.838896},{"line":2,"transit":false,"i_lat":-6.2842400000000005,"time":4,"is_transit":false,"i_long":106.843999,"station_id":"PSM","station_name":"Pasar Minggu","distance":2820},{"transit":false,"station_id":"PSMB","time":2,"i_lat":-6.263214,"station_name":"Pasar Minggu Baru","i_long":106.851577,"is_transit":false,"distance":2380,"line":2},{"station_id":"DRN","time":2,"is_transit":false,"transit":false,"line":2,"i_long":106.85449,"distance":824,"i_lat":-6.255332,"station_name":"Duren Kalibata"},{"time":3,"station_id":"CW","line":2,"station_name":"Cawang","transit":false,"is_transit":false,"distance":1546,"i_lat":-6.242512,"i_long":106.856607},{"distance":1230,"time":2,"station_id":"TEB","station_name":"Tebet","transit":false,"is_transit":false,"i_lat":-6.226659,"i_long":106.857948,"line":2},{"is_transit":true,"i_lat":-6.209883,"line":2,"distance":2610,"transit":true,"i_long":106.84912,"station_name":"Manggarai","time":4,"station_id":"MRI"},{"distance":1275,"i_long":106.858896,"station_name":"Matraman","time":2,"i_lat":-6.212485,"station_id":"MTR","transit":false,"is_transit":false,"line":1},{"station_id":"JNG","distance":1377,"i_lat":-6.215091,"i_long":106.86807400000001,"is_transit":true,"transit":true,"station_name":"Jatinegara","time":8,"line":1},{"line":11,"i_long":106.861737,"station_id":"POK","station_name":"Pondok Jati","is_transit":false,"time":2,"distance":1236,"transit":false,"i_lat":-6.209188},{"i_lat":-6.193792,"line":11,"time":2,"i_long":106.855437,"station_id":"KMT","is_transit":false,"distance":1829,"transit":false,"station_name":"Kramat"},{"transit":false,"line":11,"time":1,"i_lat":-6.185975,"station_name":"Gang Sentiong","distance":973,"i_long":106.850107,"is_transit":false,"station_id":"GST"},{"line":11,"time":8,"i_long":106.84368,"station_name":"Pasar Senen","is_transit":false,"transit":false,"i_lat":-6.174784,"station_id":"PSE","distance":1567},{"station_name":"Kemayoran","station_id":"KMO","distance":1436,"i_lat":-6.161728,"is_transit":false,"line":11,"i_long":106.839204,"transit":false,"time":4},{"i_long":106.836569,"line":11,"station_id":"RJW","is_transit":false,"time":5,"transit":false,"i_lat":-6.14505,"station_name":"Rajawali","distance":1901},{"time":3,"station_id":"KPB","i_lat":-6.132549,"line":4,"station_name":"Kampung Bandan","distance":1444,"is_transit":true,"i_long":106.826365,"transit":true},{"station_id":"AK","transit":false,"time":9,"distance":4102,"i_lat":-6.144674,"i_long":106.79867,"is_transit":false,"line":1,"station_name":"Angke"},{"time":4,"station_name":"Duri","i_long":106.800832,"distance":1230,"line":1,"i_lat":-6.155215,"station_id":"DU","is_transit":true,"transit":true},{"line":5,"time":3,"i_long":106.788277,"station_name":"Grogol","transit":false,"distance":1700,"station_id":"GGL","i_lat":-6.162021,"is_transit":false},{"is_transit":false,"distance":2036,"i_lat":-6.161433,"time":2,"i_long":106.771379,"transit":false,"line":5,"station_name":"Pesing","station_id":"PSG"}]]}