{"data":[[{"i_lat":-6.46424,"time":0,"line":21,"is_transit":false,"distance":0,"transit":false,"i_long":106.851978,"station_id":"CBN","station_name":"Cibinong"},{"is_transit":false,"station_id":"PDRG","i_lat":-6.460735,"station_name":"Pondok Rajeg","distance":0,"transit":false,"line":21,"i_long":106.824374,"time":0},{"distance":0,"station_name":"Citayam","is_transit":true,"transit":true,"i_lat":-6.448811,"station_id":"CTA","i_long":106.800298,"line":2,"time":0},{"transit":false,"time":6,"station_id":"DP","distance":5084,"line":2,"station_name":"Depok","is_transit":false,"i_lat":-6.405256,"i_long":106.816926},{"transit":false,"i_long":106.819451,"station_name":"Depokbaru","time":3,"station_id":"DPB","is_transit":false,"distance":1584,"i_lat":-6.391065,"line":2},{"station_name":"Pondok Cina","station_id":"POC","i_long":106.831114,"line":2,"i_lat":-6.369073,"time":4,"is_transit":false,"distance":2727,"transit":false},{"transit":false,"distance":1109,"time":2,"is_transit":false,"line":2,"station_name":"Univ. Indonesia","i_lat":-6.360749,"i_long":106.831474,"station_id":"UI"},{"station_id":"UP","i_lat":-6.339291,"is_transit":false,"line":2,"time":3,"distance":2264,"station_name":"Univ. Pancasila","i_long":106.834175,"transit":false},{"time":2,"transit":false,"line":2,"distance":1029,"i_long":106.832616,"is_transit":false,"station_id":"LNA","i_lat":-6.330363,"station_name":"Lenteng Agung"},{"time":3,"is_transit":false,"distance":2671,"transit":false,"line":2,"station_name":"Tanjung Barat","i_lat":-6.3080680000000005,"station_id":"TNT","i_long":106.838896},{"line":2,"time":4,"is_transit":false,"station_name":"Pasar Minggu","station_id":"PSM","distance":2820,"transit":false,"i_long":106.843999,"i_lat":-6.2842400000000005},{"time":2,"is_transit":false,"station_name":"Pasar Minggu Baru","transit":false,"i_lat":-6.263214,"distance":2380,"i_long":106.851577,"line":2,"station_id":"PSMB"},{"time":2,"distance":824,"station_id":"DRN","line":2,"station_name":"Duren Kalibata","transit":false,"is_transit":false,"i_lat":-6.255332,"i_long":106.85449},{"distance":1546,"is_transit":false,"station_name":"Cawang","i_lat":-6.242512,"transit":false,"i_long":106.856607,"station_id":"CW","line":2,"time":3},{"i_long":106.857948,"station_id":"TEB","is_transit":false,"time":2,"transit":false,"station_name":"Tebet","i_lat":-6.226659,"line":2,"distance":1230},{"station_id":"MRI","distance":2610,"station_name":"Manggarai","i_lat":-6.209883,"line":2,"is_transit":false,"i_long":106.84912,"transit":false,"time":4},{"line":2,"distance":1590,"time":4,"station_id":"CKI","is_transit":false,"station_name":"Cikini","i_lat":-6.198556,"i_long":106.840169,"transit":false},{"transit":false,"line":2,"time":3,"distance":1750,"station_name":"Gondangdia","i_long":106.832183,"i_lat":-6.186295,"is_transit":false,"station_id":"GDD"},{"station_id":"JUA","time":4,"i_lat":-6.166716,"distance":2015,"i_long":106.828284,"line":2,"station_name":"Juanda","is_transit":false,"transit":false},{"time":2,"distance":1149,"station_name":"Sawah Besar","transit":false,"i_long":106.827103,"line":2,"is_transit":false,"i_lat":-6.160725,"station_id":"SW"},{"transit":false,"station_name":"Manggabesar","i_long":106.82482,"distance":906,"is_transit":false,"i_lat":-6.149769,"station_id":"MGB","time":2,"line":2},{"distance":1080,"time":2,"i_lat":-6.141205,"is_transit":false,"station_id":"JAY","i_long":106.820901,"line":2,"transit":false,"station_name":"Jayakarta"}],[{"distance":0,"is_transit":false,"station_name":"Cibinong","transit":false,"i_lat":-6.46424,"time":0,"i_long":106.851978,"station_id":"CBN","line":21},{"line":21,"time":0,"distance":0,"station_id":"PDRG","is_transit":false,"station_name":"Pondok Rajeg","i_lat":-6.460735,"i_long":106.824374,"transit":false},{"distance":0,"is_transit":true,"i_long":106.800298,"transit":true,"line":2,"station_id":"CTA","i_lat":-6.448811,"station_name":"Citayam","time":0},{"transit":false,"time":6,"station_id":"DP","is_transit":false,"station_name":"Depok","i_long":106.816926,"line":2,"distance":5084,"i_lat":-6.405256},{"distance":1584,"i_long":106.819451,"i_lat":-6.391065,"station_id":"DPB","is_transit":false,"transit":false,"station_name":"Depokbaru","line":2,"time":3},{"station_name":"Pondok Cina","i_lat":-6.369073,"line":2,"station_id":"POC","is_transit":false,"transit":false,"i_long":106.831114,"distance":2727,"time":4},{"transit":false,"station_name":"Univ. Indonesia","time":2,"is_transit":false,"i_lat":-6.360749,"i_long":106.831474,"distance":1109,"line":2,"station_id":"UI"},{"time":3,"i_lat":-6.339291,"line":2,"transit":false,"i_long":106.834175,"station_name":"Univ. Pancasila","station_id":"UP","is_transit":false,"distance":2264},{"transit":false,"distance":1029,"station_name":"Lenteng Agung","station_id":"LNA","i_lat":-6.330363,"is_transit":false,"i_long":106.832616,"line":2,"time":2},{"station_name":"Tanjung Barat","station_id":"TNT","is_transit":false,"distance":2671,"i_lat":-6.3080680000000005,"time":3,"i_long":106.838896,"transit":false,"line":2},{"station_name":"Pasar Minggu","line":2,"i_lat":-6.2842400000000005,"distance":2820,"transit":false,"is_transit":false,"time":4,"i_long":106.843999,"station_id":"PSM"},{"is_transit":false,"time":2,"station_id":"PSMB","station_name":"Pasar Minggu Baru","i_long":106.851577,"transit":false,"distance":2380,"i_lat":-6.263214,"line":2},{"i_lat":-6.255332,"station_id":"DRN","station_name":"Duren Kalibata","time":2,"is_transit":false,"distance":824,"transit":false,"i_long":106.85449,"line":2},{"time":3,"i_lat":-6.242512,"is_transit":false,"i_long":106.856607,"station_id":"CW","distance":1546,"station_name":"Cawang","transit":false,"line":2},{"is_transit":false,"station_name":"Tebet","i_long":106.857948,"station_id":"TEB","time":2,"distance":1230,"i_lat":-6.226659,"transit":false,"line":2},{"time":4,"i_long":106.84912,"distance":2610,"i_lat":-6.209883,"station_id":"MRI","transit":true,"line":2,"is_transit":true,"station_name":"Manggarai"},{"i_lat":-6.202263,"time":4,"station_id":"SUD","station_name":"Sudirman","distance":3186,"transit":false,"is_transit":false,"i_long":106.822649,"line":1},{"station_id":"SUDB","station_name":"Sudirman Baru","line":1,"i_lat":-6.201433,"distance":280,"i_long":106.819881,"transit":false,"time":1,"is_transit":false},{"station_id":"KAT","time":1,"distance":471,"station_name":"Karet","is_transit":false,"transit":false,"i_long":106.816351,"i_lat":-6.20132,"line":1},{"station_id":"THB","distance":2029,"time":5,"transit":false,"station_name":"Tanah Abang","line":1,"i_lat":-6.185545,"is_transit":false,"i_long":106.811091},{"time":8,"station_name":"Duri","line":1,"transit":false,"is_transit":false,"distance":3632,"i_lat":-6.155215,"station_id":"DU","i_long":106.800832},{"time":4,"is_transit":false,"distance":1230,"i_lat":-6.144674,"i_long":106.79867,"station_id":"AK","station_name":"Angke","transit":false,"line":1},{"transit":true,"distance":4102,"station_name":"Kampung Bandan","is_transit":true,"i_lat":-6.132549,"line":4,"i_long":106.826365,"station_id":"KPB","time":9},{"distance":1364,"line":2,"is_transit":true,"i_long":106.812439,"time":3,"transit":true,"i_lat":-6.137569,"station_name":"Jakarta Kota","station_id":"JAKK"},{"line":2,"is_transit":false,"station_name":"Jayakarta","i_long":106.820901,"i_lat":-6.141205,"transit":false,"station_id":"JAY","time":4,"distance":1264}],[{"station_id":"CBN","distance":0,"i_long":106.851978,"line":21,"transit":false,"is_transit":false,"time":0,"i_lat":-6.46424,"station_name":"Cibinong"},{"transit":false,"is_transit":false,"time":0,"line":21,"distance":0,"station_id":"PDRG","i_lat":-6.460735,"i_long":106.824374,"station_name":"Pondok Rajeg"},{"i_lat":-6.448811,"time":0,"is_transit":true,"i_long":106.800298,"station_id":"CTA","distance":0,"transit":true,"station_name":"Citayam","line":2},{"time":6,"distance":5084,"station_id":"DP","line":2,"i_long":106.816926,"station_name":"Depok","transit":false,"is_transit":false,"i_lat":-6.405256},{"station_name":"Depokbaru","i_long":106.819451,"time":3,"line":2,"station_id":"DPB","is_transit":false,"distance":1584,"i_lat":-6.391065,"transit":false},{"i_lat":-6.369073,"transit":false,"is_transit":false,"distance":2727,"station_name":"Pondok Cina","line":2,"i_long":106.831114,"station_id":"POC","time":4},{"time":2,"is_transit":false,"i_lat":-6.360749,"i_long":106.831474,"distance":1109,"line":2,"transit":false,"station_name":"Univ. Indonesia","station_id":"UI"},{"transit":false,"i_lat":-6.339291,"station_id":"UP","station_name":"Univ. Pancasila","line":2,"time":3,"distance":2264,"i_long":106.834175,"is_transit":false},{"time":2,"station_name":"Lenteng Agung","distance":1029,"line":2,"station_id":"LNA","is_transit":false,"transit":false,"i_long":106.832616,"i_lat":-6.330363},{"transit":false,"i_lat":-6.3080680000000005,"line":2,"station_id":"TNT","i_long":106.838896,"distance":2671,"station_name":"Tanjung Barat","time":3,"is_transit":false},{"is_transit":false,"i_lat":-6.2842400000000005,"time":4,"station_id":"PSM","i_long":106.843999,"distance":2820,"line":2,"transit":false,"station_name":"Pasar Minggu"},{"station_name":"Pasar Minggu Baru","i_long":106.851577,"time":2,"is_transit":false,"station_id":"PSMB","distance":2380,"transit":false,"line":2,"i_lat":-6.263214},{"station_id":"DRN","time":2,"i_lat":-6.255332,"station_name":"Duren Kalibata","distance":824,"transit":false,"line":2,"is_transit":false,"i_long":106.85449},{"station_name":"Cawang","i_lat":-6.242512,"line":2,"transit":false,"station_id":"CW","i_long":106.856607,"is_transit":false,"time":3,"distance":1546},{"time":2,"i_long":106.857948,"distance":1230,"station_name":"Tebet","i_lat":-6.226659,"is_transit":false,"transit":false,"line":2,"station_id":"TEB"},{"is_transit":true,"distance":2610,"i_lat":-6.209883,"time":4,"transit":true,"line":2,"station_name":"Manggarai","i_long":106.84912,"station_id":"MRI"},{"transit":false,"distance":1275,"i_long":106.858896,"time":2,"i_lat":-6.212485,"is_transit":false,"line":1,"station_id":"MTR","station_name":"Matraman"},{"i_lat":-6.215091,"station_id":"JNG","time":8,"line":1,"transit":true,"i_long":106.86807400000001,"is_transit":true,"station_name":"Jatinegara","distance":1377},{"station_name":"Pondok Jati","i_long":106.861737,"distance":1236,"station_id":"POK","transit":false,"is_transit":false,"i_lat":-6.209188,"time":2,"line":11},{"i_long":106.855437,"time":2,"line":11,"station_id":"KMT","station_name":"Kramat","distance":1829,"i_lat":-6.193792,"is_transit":false,"transit":false},{"line":11,"is_transit":false,"station_id":"GST","i_lat":-6.185975,"time":1,"transit":false,"i_long":106.850107,"distance":973,"station_name":"Gang Sentiong"},{"transit":false,"time":8,"is_transit":false,"station_name":"Pasar Senen","i_lat":-6.174784,"line":11,"station_id":"PSE","distance":1567,"i_long":106.84368},{"is_transit":false,"distance":1436,"line":11,"time":4,"transit":false,"station_id":"KMO","i_lat":-6.161728,"station_name":"Kemayoran","i_long":106.839204},{"transit":false,"time":5,"distance":1901,"is_transit":false,"station_name":"Rajawali","i_long":106.836569,"i_lat":-6.14505,"line":11,"station_id":"RJW"},{"i_lat":-6.132549,"i_long":106.826365,"station_id":"KPB","line":4,"is_transit":true,"distance":1444,"station_name":"Kampung Bandan","time":3,"transit":true},{"i_lat":-6.137569,"station_name":"Jakarta Kota","station_id":"JAKK","is_transit":true,"i_long":106.812439,"line":2,"time":3,"distance":1364,"transit":true},{"i_lat":-6.141205,"station_id":"JAY","i_long":106.820901,"time":4,"distance":1264,"transit":false,"is_transit":false,"station_name":"Jayakarta","line":2}]]}