{"data":[[{"time":0,"distance":0,"station_name":"Cibinong","transit":false,"is_transit":false,"line":21,"i_long":106.851978,"station_id":"CBN","i_lat":-6.46424},{"station_name":"Pondok Rajeg","time":0,"line":21,"transit":false,"is_transit":false,"distance":0,"i_long":106.824374,"i_lat":-6.460735,"station_id":"PDRG"},{"i_lat":-6.448811,"station_id":"CTA","line":2,"transit":true,"station_name":"Citayam","distance":0,"i_long":106.800298,"is_transit":true,"time":0},{"distance":5084,"i_long":106.816926,"time":6,"station_name":"Depok","is_transit":false,"i_lat":-6.405256,"transit":false,"station_id":"DP","line":2},{"i_lat":-6.391065,"station_name":"Depokbaru","time":3,"i_long":106.819451,"transit":false,"station_id":"DPB","is_transit":false,"line":2,"distance":1584},{"is_transit":false,"distance":2727,"line":2,"i_long":106.831114,"i_lat":-6.369073,"station_name":"Pondok Cina","station_id":"POC","transit":false,"time":4},{"i_long":106.831474,"distance":1109,"time":2,"transit":false,"is_transit":false,"i_lat":-6.360749,"line":2,"station_id":"UI","station_name":"Univ. Indonesia"},{"is_transit":false,"i_long":106.834175,"i_lat":-6.339291,"time":3,"transit":false,"line":2,"distance":2264,"station_id":"UP","station_name":"Univ. Pancasila"},{"line":2,"i_long":106.832616,"time":2,"station_id":"LNA","transit":false,"distance":1029,"is_transit":false,"station_name":"Lenteng Agung","i_lat":-6.330363},{"distance":2671,"station_name":"Tanjung Barat","station_id":"TNT","time":3,"transit":false,"is_transit":false,"i_lat":-6.3080680000000005,"i_long":106.838896,"line":2},{"i_lat":-6.2842400000000005,"distance":2820,"i_long":106.843999,"is_transit":false,"time":4,"transit":false,"line":2,"station_id":"PSM","station_name":"Pasar Minggu"},{"distance":2380,"is_transit":false,"i_long":106.851577,"line":2,"i_lat":-6.263214,"transit":false,"station_id":"PSMB","station_name":"Pasar Minggu Baru","time":2},{"i_long":106.85449,"distance":824,"i_lat":-6.255332,"transit":false,"line":2,"is_transit":false,"time":2,"station_id":"DRN","station_name":"Duren Kalibata"},{"transit":false,"is_transit":false,"i_lat":-6.242512,"line":2,"station_id":"CW","distance":1546,"station_name":"Cawang","time":3,"i_long":106.856607},{"station_name":"Tebet","line":2,"time":2,"i_long":106.857948,"i_lat":-6.226659,"transit":false,"distance":1230,"station_id":"TEB","is_transit":false},{"station_id":"MRI","transit":true,"time":4,"i_lat":-6.209883,"line":2,"is_transit":true,"i_long":106.84912,"station_name":"Manggarai","distance":2610},{"transit":false,"is_transit":false,"station_name":"Matraman","distance":1275,"time":2,"i_lat":-6.212485,"station_id":"MTR","i_long":106.858896,"line":1},{"distance":1377,"is_transit":true,"line":1,"station_name":"Jatinegara","i_lat":-6.215091,"i_long":106.86807400000001,"station_id":"JNG","time":8,"transit":true},{"distance":1236,"station_name":"Pondok Jati","time":2,"i_long":106.861737,"i_lat":-6.209188,"line":11,"transit":false,"station_id":"POK","is_transit":false},{"i_lat":-6.193792,"time":2,"transit":false,"line":11,"is_transit":false,"i_long":106.855437,"distance":1829,"station_id":"KMT","station_name":"Kramat"}],[{"station_name":"Cibinong","transit":false,"is_transit":false,"time":0,"line":21,"station_id":"CBN","i_long":106.851978,"i_lat":-6.46424,"distance":0},{"station_name":"Pondok Rajeg","station_id":"PDRG","i_long":106.824374,"transit":false,"is_transit":false,"i_lat":-6.460735,"time":0,"distance":0,"line":21},{"station_name":"Citayam","station_id":"CTA","i_lat":-6.448811,"is_transit":true,"distance":0,"time":0,"transit":true,"i_long":106.800298,"line":2},{"time":6,"i_lat":-6.405256,"distance":5084,"i_long":106.816926,"station_id":"DP","transit":false,"is_transit":false,"line":2,"station_name":"Depok"},{"transit":false,"distance":1584,"station_name":"Depokbaru","time":3,"i_long":106.819451,"line":2,"is_transit":false,"station_id":"DPB","i_lat":-6.391065},{"is_transit":false,"station_name":"Pondok Cina","i_long":106.831114,"line":2,"distance":2727,"station_id":"POC","time":4,"i_lat":-6.369073,"transit":false},{"distance":1109,"station_id":"UI","is_transit":false,"time":2,"i_long":106.831474,"i_lat":-6.360749,"line":2,"transit":false,"station_name":"Univ. Indonesia"},{"i_lat":-6.339291,"i_long":106.834175,"is_transit":false,"line":2,"station_name":"Univ. Pancasila","station_id":"UP","distance":2264,"transit":false,"time":3},{"is_transit":false,"station_id":"LNA","i_long":106.832616,"transit":false,"station_name":"Lenteng Agung","i_lat":-6.330363,"line":2,"distance":1029,"time":2},{"i_long":106.838896,"station_id":"TNT","distance":2671,"time":3,"i_lat":-6.3080680000000005,"transit":false,"is_transit":false,"line":2,"station_name":"Tanjung Barat"},{"station_id":"PSM","is_transit":false,"time":4,"i_lat":-6.2842400000000005,"distance":2820,"station_name":"Pasar Minggu","transit":false,"i_long":106.843999,"line":2},{"is_transit":false,"i_lat":-6.263214,"line":2,"distance":2380,"transit":false,"station_id":"PSMB","station_name":"Pasar Minggu Baru","time":2,"i_long":106.851577},{"i_long":106.85449,"time":2,"distance":824,"transit":false,"station_id":"DRN","station_name":"Duren Kalibata","i_lat":-6.255332,"line":2,"is_transit":false},{"station_id":"CW","transit":false,"i_lat":-6.242512,"distance":1546,"line":2,"time":3,"is_transit":false,"station_name":"Cawang","i_long":106.856607},{"distance":1230,"time":2,"station_name":"Tebet","i_long":106.857948,"station_id":"TEB","transit":false,"is_transit":false,"line":2,"i_lat":-6.226659},{"i_lat":-6.209883,"is_transit":true,"station_name":"Manggarai","distance":2610,"transit":true,"station_id":"MRI","i_long":106.84912,"line":2,"time":4},{"time":4,"i_lat":-6.202263,"transit":false,"i_long":106.822649,"line":1,"station_id":"SUD","is_transit":false,"distance":3186,"station_name":"Sudirman"},{"is_transit":false,"transit":false,"station_name":"Sudirman Baru","i_long":106.819881,"station_id":"SUDB","distance":280,"i_lat":-6.201433,"line":1,"time":1},{"i_lat":-6.20132,"i_long":106.816351,"time":1,"distance":471,"transit":false,"is_transit":false,"station_name":"Karet","line":1,"station_id":"KAT"},{"station_name":"Tanah Abang","distance":2029,"line":1,"i_lat":-6.185545,"i_long":106.811091,"transit":false,"is_transit":false,"station_id":"THB","time":5},{"station_id":"DU","station_name":"Duri","transit":false,"i_long":106.800832,"i_lat":-6.155215,"time":8,"line":1,"distance":3632,"is_transit":false},{"transit":false,"station_name":"Angke","time":4,"line":1,"i_lat":-6.144674,"i_long":106.79867,"station_id":"AK","is_transit":false,"distance":1230},{"station_name":"Kampung Bandan","distance":4102,"time":9,"transit":true,"station_id":"KPB","line":4,"is_transit":true,"i_lat":-6.132549,"i_long":106.826365},{"i_long":106.836569,"distance":1444,"station_id":"RJW","transit":false,"time":3,"is_transit":false,"i_lat":-6.14505,"line":11,"station_name":"Rajawali"},{"time":5,"i_lat":-6.161728,"line":11,"station_id":"KMO","station_name":"Kemayoran","i_long":106.839204,"transit":false,"is_transit":false,"distance":1901},{"distance":1436,"transit":false,"i_long":106.84368,"time":4,"station_name":"Pasar Senen","is_transit":false,"i_lat":-6.174784,"station_id":"PSE","line":11},{"i_lat":-6.185975,"i_long":106.850107,"time":8,"transit":false,"is_transit":false,"station_name":"Gang Sentiong","distance":1567,"line":11,"station_id":"GST"},{"station_id":"KMT","line":11,"distance":973,"i_long":106.855437,"transit":false,"is_transit":false,"station_name":"Kramat","i_lat":-6.193792,"time":1}],[{"station_name":"Cibinong","station_id":"CBN","is_transit":false,"time":0,"i_lat":-6.46424,"transit":false,"i_long":106.851978,"distance":0,"line":21},{"i_long":106.824374,"line":21,"distance":0,"is_transit":false,"time":0,"transit":false,"station_id":"PDRG","station_name":"Pondok Rajeg","i_lat":-6.460735},{"distance":0,"time":0,"i_lat":-6.448811,"i_long":106.800298,"line":2,"transit":true,"is_transit":true,"station_name":"Citayam","station_id":"CTA"},{"i_long":106.816926,"is_transit":false,"time":6,"transit":false,"distance":5084,"i_lat":-6.405256,"line":2,"station_id":"DP","station_name":"Depok"},{"i_long":106.819451,"line":2,"station_name":"Depokbaru","i_lat":-6.391065,"station_id":"DPB","distance":1584,"transit":false,"is_transit":false,"time":3},{"is_transit":false,"time":4,"line":2,"distance":2727,"i_lat":-6.369073,"transit":false,"i_long":106.831114,"station_name":"Pondok Cina","station_id":"POC"},{"is_transit":false,"i_lat":-6.360749,"line":2,"distance":1109,"station_id":"UI","station_name":"Univ. Indonesia","transit":false,"time":2,"i_long":106.831474},{"station_id":"UP","i_long":106.834175,"distance":2264,"i_lat":-6.339291,"time":3,"transit":false,"is_transit":false,"station_name":"Univ. Pancasila","line":2},{"station_id":"LNA","line":2,"time":2,"distance":1029,"station_name":"Lenteng Agung","i_lat":-6.330363,"i_long":106.832616,"is_transit":false,"transit":false},{"station_name":"Tanjung Barat","station_id":"TNT","time":3,"transit":false,"is_transit":false,"distance":2671,"i_long":106.838896,"i_lat":-6.3080680000000005,"line":2},{"transit":false,"station_name":"Pasar Minggu","i_long":106.843999,"time":4,"is_transit":false,"distance":2820,"station_id":"PSM","i_lat":-6.2842400000000005,"line":2},{"i_lat":-6.263214,"is_transit":false,"line":2,"transit":false,"i_long":106.851577,"distance":2380,"station_name":"Pasar Minggu Baru","time":2,"station_id":"PSMB"},{"is_transit":false,"i_long":106.85449,"transit":false,"station_name":"Duren Kalibata","i_lat":-6.255332,"station_id":"DRN","time":2,"distance":824,"line":2},{"line":2,"transit":false,"is_transit":false,"i_long":106.856607,"station_id":"CW","i_lat":-6.242512,"distance":1546,"time":3,"station_name":"Cawang"},{"station_name":"Tebet","station_id":"TEB","i_lat":-6.226659,"time":2,"distance":1230,"is_transit":false,"line":2,"i_long":106.857948,"transit":false},{"time":4,"i_lat":-6.209883,"i_long":106.84912,"line":2,"transit":false,"is_transit":false,"distance":2610,"station_name":"Manggarai","station_id":"MRI"},{"i_lat":-6.198556,"is_transit":false,"distance":1590,"time":4,"i_long":106.840169,"transit":false,"station_name":"Cikini","station_id":"CKI","line":2},{"station_id":"GDD","is_transit":false,"line":2,"distance":1750,"i_lat":-6.186295,"transit":false,"station_name":"Gondangdia","time":3,"i_long":106.832183},{"line":2,"transit":false,"i_long":106.828284,"distance":2015,"time":4,"i_lat":-6.166716,"station_name":"Juanda","is_transit":false,"station_id":"JUA"},{"is_transit":false,"transit":false,"distance":1149,"i_long":106.827103,"line":2,"station_id":"SW","time":2,"i_lat":-6.160725,"station_name":"Sawah Besar"},{"time":2,"line":2,"transit":false,"distance":906,"i_long":106.82482,"station_id":"MGB","station_name":"Manggabesar","is_transit":false,"i_lat":-6.149769},{"station_id":"JAY","line":2,"is_transit":false,"i_long":106.820901,"transit":false,"distance":1080,"station_name":"Jayakarta","time":2,"i_lat":-6.141205},{"i_long":106.812439,"station_name":"Jakarta Kota","transit":true,"i_lat":-6.137569,"station_id":"JAKK","is_transit":true,"line":2,"time":4,"distance":1264},{"i_lat":-6.132549,"transit":true,"station_id":"KPB","line":4,"is_transit":true,"station_name":"Kampung Bandan","i_long":106.826365,"time":3,"distance":1364},{"is_transit":false,"i_lat":-6.14505,"line":11,"station_name":"Rajawali","i_long":106.836569,"transit":false,"time":3,"station_id":"RJW","distance":1444},{"i_lat":-6.161728,"is_transit":false,"line":11,"i_long":106.839204,"transit":false,"station_id":"KMO","distance":1901,"station_name":"Kemayoran","time":5},{"station_name":"Pasar Senen","i_long":106.84368,"station_id":"PSE","time":4,"is_transit":false,"transit":false,"i_lat":-6.174784,"line":11,"distance":1436},{"station_name":"Gang Sentiong","transit":false,"station_id":"GST","i_lat":-6.185975,"is_transit":false,"distance":1567,"i_long":106.850107,"time":8,"line":11},{"time":1,"transit":false,"station_id":"KMT","i_lat":-6.193792,"line":11,"i_long":106.855437,"distance":973,"is_transit":false,"station_name":"Kramat"}]]}