{"data":[[{"station_id":"CBN","is_transit":false,"transit":false,"station_name":"Cibinong","time":0,"i_lat":-6.46424,"i_long":106.851978,"line":21,"distance":0},{"distance":0,"station_name":"Pondok Rajeg","time":0,"i_lat":-6.460735,"i_long":106.824374,"transit":false,"station_id":"PDRG","line":21,"is_transit":false},{"station_name":"Citayam","i_long":106.800298,"line":2,"is_transit":true,"time":0,"distance":0,"station_id":"CTA","i_lat":-6.448811,"transit":true},{"i_lat":-6.405256,"transit":false,"line":2,"distance":5084,"i_long":106.816926,"is_transit":false,"time":6,"station_id":"DP","station_name":"Depok"},{"i_long":106.819451,"distance":1584,"station_name":"Depokbaru","line":2,"is_transit":false,"transit":false,"station_id":"DPB","time":3,"i_lat":-6.391065}]]}