{"data":[[{"i_long":106.851978,"transit":false,"station_name":"Cibinong","distance":0,"is_transit":false,"i_lat":-6.46424,"station_id":"CBN","time":0,"line":21},{"station_id":"PDRG","i_long":106.824374,"transit":false,"station_name":"Pondok Rajeg","i_lat":-6.460735,"time":0,"is_transit":false,"line":21,"distance":0},{"station_id":"CTA","is_transit":true,"i_lat":-6.448811,"transit":true,"i_long":106.800298,"time":0,"station_name":"Citayam","line":2,"distance":0},{"i_long":106.816926,"line":2,"station_name":"Depok","transit":false,"station_id":"DP","time":6,"is_transit":false,"i_lat":-6.405256,"distance":5084},{"distance":1584,"station_name":"Depokbaru","i_lat":-6.391065,"transit":false,"time":3,"station_id":"DPB","is_transit":false,"line":2,"i_long":106.819451},{"distance":2727,"line":2,"i_long":106.831114,"transit":false,"station_id":"POC","time":4,"station_name":"Pondok Cina","is_transit":false,"i_lat":-6.369073},{"i_lat":-6.360749,"station_name":"Univ. Indonesia","i_long":106.831474,"transit":false,"station_id":"UI","line":2,"time":2,"is_transit":false,"distance":1109},{"i_lat":-6.339291,"time":3,"transit":false,"distance":2264,"is_transit":false,"station_id":"UP","line":2,"i_long":106.834175,"station_name":"Univ. Pancasila"},{"time":2,"i_long":106.832616,"station_name":"Lenteng Agung","i_lat":-6.330363,"distance":1029,"transit":false,"is_transit":false,"line":2,"station_id":"LNA"},{"i_long":106.838896,"station_id":"TNT","is_transit":false,"transit":false,"distance":2671,"time":3,"line":2,"station_name":"Tanjung Barat","i_lat":-6.3080680000000005},{"station_id":"PSM","time":4,"is_transit":false,"distance":2820,"i_lat":-6.2842400000000005,"line":2,"transit":false,"i_long":106.843999,"station_name":"Pasar Minggu"},{"station_id":"PSMB","time":2,"is_transit":false,"i_lat":-6.263214,"line":2,"i_long":106.851577,"distance":2380,"station_name":"Pasar Minggu Baru","transit":false},{"time":2,"station_name":"Duren Kalibata","station_id":"DRN","transit":false,"is_transit":false,"i_long":106.85449,"i_lat":-6.255332,"line":2,"distance":824},{"distance":1546,"is_transit":false,"transit":false,"i_lat":-6.242512,"station_name":"Cawang","line":2,"i_long":106.856607,"time":3,"station_id":"CW"},{"station_id":"TEB","time":2,"line":2,"distance":1230,"is_transit":false,"i_lat":-6.226659,"station_name":"Tebet","i_long":106.857948,"transit":false},{"transit":true,"i_lat":-6.209883,"is_transit":true,"i_long":106.84912,"line":2,"station_id":"MRI","distance":2610,"time":4,"station_name":"Manggarai"},{"line":1,"i_long":106.822649,"transit":false,"is_transit":false,"time":4,"i_lat":-6.202263,"station_id":"SUD","station_name":"Sudirman","distance":3186},{"transit":false,"distance":280,"is_transit":false,"time":1,"line":1,"station_name":"Sudirman Baru","station_id":"SUDB","i_lat":-6.201433,"i_long":106.819881},{"station_name":"Karet","time":1,"line":1,"i_long":106.816351,"distance":471,"station_id":"KAT","transit":false,"is_transit":false,"i_lat":-6.20132},{"transit":false,"station_name":"Tanah Abang","i_long":106.811091,"i_lat":-6.185545,"is_transit":false,"time":5,"station_id":"THB","line":1,"distance":2029},{"transit":true,"i_lat":-6.155215,"line":1,"time":8,"i_long":106.800832,"is_transit":true,"distance":3632,"station_name":"Duri","station_id":"DU"},{"is_transit":false,"transit":false,"i_lat":-6.162021,"line":5,"distance":1700,"station_id":"GGL","time":3,"i_long":106.788277,"station_name":"Grogol"},{"station_id":"PSG","line":5,"station_name":"Pesing","transit":false,"i_lat":-6.161433,"distance":2036,"is_transit":false,"i_long":106.771379,"time":2},{"time":2,"is_transit":false,"distance":1614,"i_lat":-6.1587309999999995,"station_id":"TKO","station_name":"Taman Kota","transit":false,"line":5,"i_long":106.756522},{"i_lat":-6.159876,"station_name":"Bojongindah","station_id":"BOI","time":2,"i_long":106.737035,"line":5,"distance":2334,"transit":false,"is_transit":false},{"i_long":106.723064,"station_id":"RW","distance":1152,"transit":false,"is_transit":false,"time":4,"line":5,"i_lat":-6.162758,"station_name":"Rawa Buaya"},{"station_id":"KDS","time":3,"is_transit":false,"i_long":106.701612,"line":5,"station_name":"Kalideres","distance":2504,"transit":false,"i_lat":-6.166068},{"transit":false,"i_lat":-6.169933,"is_transit":false,"distance":2548,"i_long":106.679458,"station_name":"Poris","station_id":"PI","line":5,"time":3},{"is_transit":false,"i_long":106.665036,"line":5,"transit":false,"i_lat":-6.171811,"distance":1834,"station_name":"Batuceper","station_id":"BPR","time":3},{"is_transit":false,"transit":false,"line":5,"station_name":"Tanah Tinggi","time":3,"station_id":"TTI","i_long":106.64657,"i_lat":-6.17331,"distance":2028}],[{"i_lat":-6.46424,"station_name":"Cibinong","line":21,"station_id":"CBN","i_long":106.851978,"transit":false,"is_transit":false,"time":0,"distance":0},{"station_id":"PDRG","is_transit":false,"i_lat":-6.460735,"distance":0,"line":21,"time":0,"transit":false,"i_long":106.824374,"station_name":"Pondok Rajeg"},{"station_name":"Citayam","transit":true,"distance":0,"is_transit":true,"station_id":"CTA","i_lat":-6.448811,"line":2,"time":0,"i_long":106.800298},{"station_name":"Depok","station_id":"DP","transit":false,"distance":5084,"time":6,"line":2,"i_long":106.816926,"is_transit":false,"i_lat":-6.405256},{"station_id":"DPB","is_transit":false,"line":2,"distance":1584,"transit":false,"time":3,"i_long":106.819451,"station_name":"Depokbaru","i_lat":-6.391065},{"station_name":"Pondok Cina","distance":2727,"station_id":"POC","time":4,"i_lat":-6.369073,"i_long":106.831114,"transit":false,"is_transit":false,"line":2},{"i_lat":-6.360749,"i_long":106.831474,"distance":1109,"is_transit":false,"line":2,"transit":false,"station_name":"Univ. Indonesia","station_id":"UI","time":2},{"time":3,"line":2,"station_name":"Univ. Pancasila","is_transit":false,"station_id":"UP","distance":2264,"transit":false,"i_lat":-6.339291,"i_long":106.834175},{"line":2,"i_lat":-6.330363,"station_id":"LNA","station_name":"Lenteng Agung","is_transit":false,"distance":1029,"i_long":106.832616,"transit":false,"time":2},{"i_long":106.838896,"transit":false,"time":3,"is_transit":false,"line":2,"distance":2671,"station_name":"Tanjung Barat","i_lat":-6.3080680000000005,"station_id":"TNT"},{"distance":2820,"station_id":"PSM","time":4,"i_long":106.843999,"line":2,"transit":false,"i_lat":-6.2842400000000005,"station_name":"Pasar Minggu","is_transit":false},{"station_id":"PSMB","is_transit":false,"i_lat":-6.263214,"i_long":106.851577,"time":2,"line":2,"transit":false,"distance":2380,"station_name":"Pasar Minggu Baru"},{"line":2,"i_long":106.85449,"distance":824,"station_name":"Duren Kalibata","station_id":"DRN","time":2,"is_transit":false,"transit":false,"i_lat":-6.255332},{"distance":1546,"time":3,"i_lat":-6.242512,"station_id":"CW","line":2,"is_transit":false,"transit":false,"station_name":"Cawang","i_long":106.856607},{"time":2,"i_long":106.857948,"i_lat":-6.226659,"line":2,"is_transit":false,"distance":1230,"station_name":"Tebet","station_id":"TEB","transit":false},{"station_name":"Manggarai","station_id":"MRI","time":4,"transit":false,"is_transit":false,"i_lat":-6.209883,"distance":2610,"line":2,"i_long":106.84912},{"is_transit":false,"line":2,"i_lat":-6.198556,"station_name":"Cikini","time":4,"station_id":"CKI","distance":1590,"i_long":106.840169,"transit":false},{"station_id":"GDD","line":2,"distance":1750,"transit":false,"time":3,"i_lat":-6.186295,"i_long":106.832183,"is_transit":false,"station_name":"Gondangdia"},{"distance":2015,"is_transit":false,"station_id":"JUA","i_lat":-6.166716,"transit":false,"station_name":"Juanda","i_long":106.828284,"line":2,"time":4},{"is_transit":false,"i_long":106.827103,"distance":1149,"transit":false,"station_id":"SW","time":2,"station_name":"Sawah Besar","i_lat":-6.160725,"line":2},{"is_transit":false,"i_lat":-6.149769,"distance":906,"station_name":"Manggabesar","i_long":106.82482,"line":2,"station_id":"MGB","transit":false,"time":2},{"is_transit":false,"distance":1080,"i_long":106.820901,"station_name":"Jayakarta","time":2,"i_lat":-6.141205,"transit":false,"line":2,"station_id":"JAY"},{"i_long":106.812439,"line":2,"station_name":"Jakarta Kota","distance":1264,"is_transit":true,"time":4,"i_lat":-6.137569,"station_id":"JAKK","transit":true},{"station_name":"Kampung Bandan","i_long":106.826365,"line":4,"time":3,"transit":true,"distance":1364,"station_id":"KPB","is_transit":true,"i_lat":-6.132549},{"line":1,"is_transit":false,"station_name":"Angke","time":9,"i_lat":-6.144674,"station_id":"AK","distance":4102,"i_long":106.79867,"transit":false},{"distance":1230,"time":4,"i_lat":-6.155215,"is_transit":true,"station_id":"DU","station_name":"Duri","i_long":106.800832,"transit":true,"line":1},{"is_transit":false,"i_lat":-6.162021,"station_id":"GGL","distance":1700,"transit":false,"line":5,"i_long":106.788277,"station_name":"Grogol","time":3},{"is_transit":false,"station_name":"Pesing","i_long":106.771379,"i_lat":-6.161433,"time":2,"station_id":"PSG","transit":false,"distance":2036,"line":5},{"i_long":106.756522,"station_name":"Taman Kota","line":5,"transit":false,"distance":1614,"time":2,"station_id":"TKO","is_transit":false,"i_lat":-6.1587309999999995},{"station_id":"BOI","i_lat":-6.159876,"i_long":106.737035,"transit":false,"distance":2334,"time":2,"station_name":"Bojongindah","line":5,"is_transit":false},{"i_long":106.723064,"transit":false,"distance":1152,"station_id":"RW","line":5,"i_lat":-6.162758,"station_name":"Rawa Buaya","time":4,"is_transit":false},{"is_transit":false,"i_long":106.701612,"station_id":"KDS","i_lat":-6.166068,"line":5,"transit":false,"distance":2504,"station_name":"Kalideres","time":3},{"station_id":"PI","i_long":106.679458,"i_lat":-6.169933,"transit":false,"station_name":"Poris","line":5,"distance":2548,"time":3,"is_transit":false},{"transit":false,"line":5,"i_lat":-6.171811,"station_name":"Batuceper","distance":1834,"station_id":"BPR","is_transit":false,"i_long":106.665036,"time":3},{"transit":false,"i_lat":-6.17331,"time":3,"distance":2028,"line":5,"i_long":106.64657,"station_name":"Tanah Tinggi","is_transit":false,"station_id":"TTI"}],[{"station_name":"Cibinong","station_id":"CBN","transit":false,"is_transit":false,"distance":0,"i_long":106.851978,"i_lat":-6.46424,"line":21,"time":0},{"transit":false,"station_id":"PDRG","distance":0,"i_lat":-6.460735,"time":0,"is_transit":false,"i_long":106.824374,"line":21,"station_name":"Pondok Rajeg"},{"station_name":"Citayam","distance":0,"station_id":"CTA","transit":true,"time":0,"i_long":106.800298,"i_lat":-6.448811,"line":2,"is_transit":true},{"line":2,"station_id":"DP","i_lat":-6.405256,"transit":false,"time":6,"distance":5084,"station_name":"Depok","i_long":106.816926,"is_transit":false},{"distance":1584,"time":3,"station_id":"DPB","i_long":106.819451,"station_name":"Depokbaru","transit":false,"line":2,"i_lat":-6.391065,"is_transit":false},{"is_transit":false,"station_name":"Pondok Cina","station_id":"POC","line":2,"time":4,"transit":false,"i_lat":-6.369073,"distance":2727,"i_long":106.831114},{"time":2,"distance":1109,"i_long":106.831474,"i_lat":-6.360749,"station_id":"UI","transit":false,"line":2,"station_name":"Univ. Indonesia","is_transit":false},{"time":3,"line":2,"transit":false,"station_id":"UP","station_name":"Univ. Pancasila","is_transit":false,"i_lat":-6.339291,"distance":2264,"i_long":106.834175},{"i_lat":-6.330363,"line":2,"i_long":106.832616,"station_name":"Lenteng Agung","transit":false,"distance":1029,"station_id":"LNA","time":2,"is_transit":false},{"i_long":106.838896,"line":2,"station_id":"TNT","distance":2671,"station_name":"Tanjung Barat","transit":false,"time":3,"is_transit":false,"i_lat":-6.3080680000000005},{"station_id":"PSM","is_transit":false,"line":2,"transit":false,"i_long":106.843999,"distance":2820,"time":4,"station_name":"Pasar Minggu","i_lat":-6.2842400000000005},{"time":2,"line":2,"station_id":"PSMB","transit":false,"distance":2380,"is_transit":false,"station_name":"Pasar Minggu Baru","i_lat":-6.263214,"i_long":106.851577},{"i_lat":-6.255332,"distance":824,"time":2,"station_name":"Duren Kalibata","i_long":106.85449,"line":2,"station_id":"DRN","is_transit":false,"transit":false},{"transit":false,"distance":1546,"is_transit":false,"time":3,"i_lat":-6.242512,"i_long":106.856607,"line":2,"station_name":"Cawang","station_id":"CW"},{"station_name":"Tebet","station_id":"TEB","time":2,"is_transit":false,"transit":false,"distance":1230,"i_long":106.857948,"line":2,"i_lat":-6.226659},{"station_name":"Manggarai","i_long":106.84912,"is_transit":true,"i_lat":-6.209883,"distance":2610,"station_id":"MRI","line":2,"time":4,"transit":true},{"distance":1275,"time":2,"line":1,"station_name":"Matraman","station_id":"MTR","is_transit":false,"i_long":106.858896,"i_lat":-6.212485,"transit":false},{"is_transit":true,"transit":true,"station_id":"JNG","i_lat":-6.215091,"distance":1377,"i_long":106.86807400000001,"time":8,"line":1,"station_name":"Jatinegara"},{"station_id":"POK","transit":false,"i_long":106.861737,"time":2,"station_name":"Pondok Jati","distance":1236,"is_transit":false,"i_lat":-6.209188,"line":11},{"line":11,"transit":false,"i_lat":-6.193792,"station_id":"KMT","i_long":106.855437,"station_name":"Kramat","time":2,"distance":1829,"is_transit":false},{"is_transit":false,"station_name":"Gang Sentiong","i_lat":-6.185975,"transit":false,"distance":973,"i_long":106.850107,"station_id":"GST","time":1,"line":11},{"i_lat":-6.174784,"i_long":106.84368,"distance":1567,"time":8,"line":11,"station_name":"Pasar Senen","station_id":"PSE","transit":false,"is_transit":false},{"transit":false,"time":4,"station_name":"Kemayoran","distance":1436,"is_transit":false,"i_long":106.839204,"line":11,"station_id":"KMO","i_lat":-6.161728},{"time":5,"line":11,"station_id":"RJW","transit":false,"is_transit":false,"station_name":"Rajawali","i_long":106.836569,"i_lat":-6.14505,"distance":1901},{"is_transit":true,"distance":1444,"transit":true,"time":3,"line":4,"station_name":"Kampung Bandan","station_id":"KPB","i_lat":-6.132549,"i_long":106.826365},{"distance":4102,"line":1,"station_name":"Angke","station_id":"AK","is_transit":false,"transit":false,"time":9,"i_long":106.79867,"i_lat":-6.144674},{"i_long":106.800832,"i_lat":-6.155215,"station_name":"Duri","station_id":"DU","distance":1230,"time":4,"line":1,"transit":true,"is_transit":true},{"time":3,"transit":false,"distance":1700,"station_id":"GGL","i_lat":-6.162021,"i_long":106.788277,"station_name":"Grogol","is_transit":false,"line":5},{"time":2,"distance":2036,"i_long":106.771379,"line":5,"transit":false,"is_transit":false,"station_name":"Pesing","station_id":"PSG","i_lat":-6.161433},{"i_long":106.756522,"is_transit":false,"distance":1614,"station_id":"TKO","i_lat":-6.1587309999999995,"transit":false,"time":2,"line":5,"station_name":"Taman Kota"},{"time":2,"line":5,"i_lat":-6.159876,"distance":2334,"station_name":"Bojongindah","i_long":106.737035,"station_id":"BOI","transit":false,"is_transit":false},{"is_transit":false,"line":5,"station_name":"Rawa Buaya","distance":1152,"i_lat":-6.162758,"station_id":"RW","i_long":106.723064,"time":4,"transit":false},{"line":5,"transit":false,"distance":2504,"station_id":"KDS","time":3,"i_long":106.701612,"station_name":"Kalideres","is_transit":false,"i_lat":-6.166068},{"is_transit":false,"station_name":"Poris","i_long":106.679458,"distance":2548,"time":3,"line":5,"i_lat":-6.169933,"transit":false,"station_id":"PI"},{"transit":false,"distance":1834,"is_transit":false,"time":3,"station_name":"Batuceper","i_lat":-6.171811,"station_id":"BPR","i_long":106.665036,"line":5},{"transit":false,"station_id":"TTI","i_lat":-6.17331,"i_long":106.64657,"line":5,"is_transit":false,"time":3,"station_name":"Tanah Tinggi","distance":2028}]]}