{"data":[[{"i_long":106.851978,"station_name":"Cibinong","time":0,"transit":false,"station_id":"CBN","is_transit":false,"line":21,"i_lat":-6.46424,"distance":0},{"distance":0,"station_id":"PDRG","station_name":"Pondok Rajeg","i_lat":-6.460735,"transit":false,"line":21,"i_long":106.824374,"is_transit":false,"time":0},{"distance":0,"i_long":106.800298,"station_id":"CTA","line":2,"time":0,"station_name":"Citayam","is_transit":true,"i_lat":-6.448811,"transit":true},{"station_id":"DP","station_name":"Depok","i_long":106.816926,"time":6,"distance":5084,"is_transit":false,"transit":false,"line":2,"i_lat":-6.405256},{"distance":1584,"station_id":"DPB","time":3,"station_name":"Depokbaru","transit":false,"line":2,"i_lat":-6.391065,"is_transit":false,"i_long":106.819451},{"i_lat":-6.369073,"line":2,"i_long":106.831114,"station_name":"Pondok Cina","station_id":"POC","time":4,"distance":2727,"is_transit":false,"transit":false},{"line":2,"transit":false,"station_id":"UI","i_lat":-6.360749,"time":2,"distance":1109,"station_name":"Univ. Indonesia","is_transit":false,"i_long":106.831474},{"i_long":106.834175,"station_id":"UP","time":3,"station_name":"Univ. Pancasila","i_lat":-6.339291,"distance":2264,"is_transit":false,"line":2,"transit":false},{"station_name":"Lenteng Agung","time":2,"is_transit":false,"line":2,"i_lat":-6.330363,"station_id":"LNA","transit":false,"i_long":106.832616,"distance":1029},{"transit":false,"station_id":"TNT","distance":2671,"station_name":"Tanjung Barat","line":2,"is_transit":false,"time":3,"i_lat":-6.3080680000000005,"i_long":106.838896},{"line":2,"time":4,"station_name":"Pasar Minggu","transit":false,"i_lat":-6.2842400000000005,"i_long":106.843999,"distance":2820,"station_id":"PSM","is_transit":false},{"is_transit":false,"line":2,"i_long":106.851577,"i_lat":-6.263214,"time":2,"transit":false,"station_name":"Pasar Minggu Baru","distance":2380,"station_id":"PSMB"},{"time":2,"distance":824,"is_transit":false,"station_id":"DRN","station_name":"Duren Kalibata","i_long":106.85449,"transit":false,"i_lat":-6.255332,"line":2},{"distance":1546,"station_id":"CW","line":2,"time":3,"station_name":"Cawang","i_long":106.856607,"is_transit":false,"i_lat":-6.242512,"transit":false},{"i_lat":-6.226659,"station_id":"TEB","i_long":106.857948,"time":2,"distance":1230,"station_name":"Tebet","is_transit":false,"line":2,"transit":false},{"transit":true,"distance":2610,"i_long":106.84912,"station_name":"Manggarai","line":2,"i_lat":-6.209883,"time":4,"station_id":"MRI","is_transit":true},{"i_long":106.822649,"distance":3186,"station_name":"Sudirman","time":4,"i_lat":-6.202263,"transit":false,"is_transit":false,"line":1,"station_id":"SUD"},{"transit":false,"time":1,"is_transit":false,"i_lat":-6.201433,"i_long":106.819881,"station_name":"Sudirman Baru","distance":280,"station_id":"SUDB","line":1},{"i_long":106.816351,"line":1,"i_lat":-6.20132,"station_name":"Karet","is_transit":false,"time":1,"distance":471,"transit":false,"station_id":"KAT"},{"station_name":"Tanah Abang","i_long":106.811091,"distance":2029,"line":1,"transit":true,"is_transit":true,"station_id":"THB","i_lat":-6.185545,"time":5},{"distance":3191,"station_id":"PLM","time":6,"line":6,"i_lat":-6.207404,"station_name":"Palmerah","transit":false,"i_long":106.79689,"is_transit":false},{"distance":3737,"time":7,"transit":false,"is_transit":false,"station_id":"KBY","i_lat":-6.237242,"station_name":"Kebayoran","line":6,"i_long":106.780334},{"i_lat":-6.276362,"time":8,"distance":6218,"is_transit":false,"station_name":"Pondokranji","station_id":"PDJ","line":6,"transit":false,"i_long":106.74273},{"is_transit":false,"transit":false,"i_lat":-6.288927,"i_long":106.728916,"distance":2179,"station_id":"JMU","time":3,"line":6,"station_name":"Jurangmangu"},{"distance":1994,"is_transit":false,"station_id":"SDM","line":6,"station_name":"Sudimara","i_lat":-6.296963,"transit":false,"time":4,"i_long":106.712277},{"transit":false,"time":6,"is_transit":false,"station_name":"Rawa Buntu","distance":4566,"i_lat":-6.314823,"i_long":106.675475,"line":6,"station_id":"RU"},{"station_name":"Serpong","transit":false,"distance":2413,"time":4,"i_long":106.66566,"i_lat":-6.319871,"station_id":"SRP","is_transit":false,"line":6},{"i_long":106.640411,"time":4,"station_name":"Cisauk","transit":false,"distance":1784,"station_id":"CSK","line":3,"i_lat":-6.32484,"is_transit":false},{"transit":false,"station_id":"CC","i_long":106.617853,"line":3,"i_lat":-6.329547,"is_transit":false,"station_name":"Cicayur","time":4,"distance":2519}],[{"i_long":106.851978,"line":21,"transit":false,"is_transit":false,"station_name":"Cibinong","distance":0,"station_id":"CBN","time":0,"i_lat":-6.46424},{"time":0,"distance":0,"i_long":106.824374,"transit":false,"station_name":"Pondok Rajeg","is_transit":false,"line":21,"i_lat":-6.460735,"station_id":"PDRG"},{"i_long":106.800298,"transit":true,"station_id":"CTA","station_name":"Citayam","time":0,"is_transit":true,"distance":0,"line":2,"i_lat":-6.448811},{"station_id":"DP","is_transit":false,"i_long":106.816926,"time":6,"transit":false,"station_name":"Depok","distance":5084,"i_lat":-6.405256,"line":2},{"station_id":"DPB","is_transit":false,"distance":1584,"transit":false,"station_name":"Depokbaru","line":2,"i_long":106.819451,"i_lat":-6.391065,"time":3},{"transit":false,"distance":2727,"line":2,"station_name":"Pondok Cina","is_transit":false,"time":4,"station_id":"POC","i_long":106.831114,"i_lat":-6.369073},{"distance":1109,"station_id":"UI","time":2,"station_name":"Univ. Indonesia","i_lat":-6.360749,"is_transit":false,"i_long":106.831474,"line":2,"transit":false},{"station_name":"Univ. Pancasila","station_id":"UP","transit":false,"time":3,"is_transit":false,"i_lat":-6.339291,"i_long":106.834175,"distance":2264,"line":2},{"transit":false,"is_transit":false,"distance":1029,"i_long":106.832616,"station_id":"LNA","line":2,"station_name":"Lenteng Agung","time":2,"i_lat":-6.330363},{"distance":2671,"i_lat":-6.3080680000000005,"line":2,"i_long":106.838896,"transit":false,"station_name":"Tanjung Barat","is_transit":false,"time":3,"station_id":"TNT"},{"station_id":"PSM","is_transit":false,"i_lat":-6.2842400000000005,"line":2,"time":4,"station_name":"Pasar Minggu","i_long":106.843999,"transit":false,"distance":2820},{"transit":false,"i_lat":-6.263214,"is_transit":false,"distance":2380,"i_long":106.851577,"time":2,"line":2,"station_name":"Pasar Minggu Baru","station_id":"PSMB"},{"distance":824,"transit":false,"is_transit":false,"station_id":"DRN","i_long":106.85449,"line":2,"time":2,"station_name":"Duren Kalibata","i_lat":-6.255332},{"station_id":"CW","i_long":106.856607,"distance":1546,"i_lat":-6.242512,"line":2,"transit":false,"is_transit":false,"time":3,"station_name":"Cawang"},{"transit":false,"i_lat":-6.226659,"is_transit":false,"station_name":"Tebet","i_long":106.857948,"line":2,"distance":1230,"station_id":"TEB","time":2},{"line":2,"i_lat":-6.209883,"distance":2610,"time":4,"i_long":106.84912,"is_transit":false,"transit":false,"station_name":"Manggarai","station_id":"MRI"},{"station_name":"Cikini","is_transit":false,"i_long":106.840169,"i_lat":-6.198556,"distance":1590,"time":4,"line":2,"transit":false,"station_id":"CKI"},{"line":2,"time":3,"i_lat":-6.186295,"distance":1750,"is_transit":false,"station_name":"Gondangdia","station_id":"GDD","transit":false,"i_long":106.832183},{"transit":false,"line":2,"i_long":106.828284,"is_transit":false,"i_lat":-6.166716,"station_name":"Juanda","time":4,"station_id":"JUA","distance":2015},{"is_transit":false,"distance":1149,"station_name":"Sawah Besar","i_lat":-6.160725,"transit":false,"i_long":106.827103,"line":2,"station_id":"SW","time":2},{"is_transit":false,"i_lat":-6.149769,"station_id":"MGB","i_long":106.82482,"line":2,"distance":906,"time":2,"transit":false,"station_name":"Manggabesar"},{"time":2,"transit":false,"distance":1080,"line":2,"station_name":"Jayakarta","is_transit":false,"i_lat":-6.141205,"i_long":106.820901,"station_id":"JAY"},{"is_transit":true,"time":4,"i_long":106.812439,"station_id":"JAKK","line":2,"distance":1264,"transit":true,"station_name":"Jakarta Kota","i_lat":-6.137569},{"distance":1364,"is_transit":true,"station_id":"KPB","transit":true,"i_lat":-6.132549,"station_name":"Kampung Bandan","i_long":106.826365,"time":3,"line":4},{"station_id":"AK","transit":false,"distance":4102,"i_lat":-6.144674,"i_long":106.79867,"line":1,"is_transit":false,"time":9,"station_name":"Angke"},{"transit":false,"distance":1230,"is_transit":false,"station_id":"DU","line":1,"i_long":106.800832,"time":4,"station_name":"Duri","i_lat":-6.155215},{"line":1,"distance":3632,"i_long":106.811091,"is_transit":true,"transit":true,"time":8,"station_name":"Tanah Abang","station_id":"THB","i_lat":-6.185545},{"i_long":106.79689,"station_name":"Palmerah","i_lat":-6.207404,"line":6,"transit":false,"distance":3191,"is_transit":false,"time":6,"station_id":"PLM"},{"distance":3737,"transit":false,"i_long":106.780334,"is_transit":false,"line":6,"station_id":"KBY","time":7,"station_name":"Kebayoran","i_lat":-6.237242},{"is_transit":false,"i_long":106.74273,"line":6,"station_name":"Pondokranji","transit":false,"distance":6218,"i_lat":-6.276362,"station_id":"PDJ","time":8},{"is_transit":false,"station_name":"Jurangmangu","distance":2179,"i_long":106.728916,"transit":false,"i_lat":-6.288927,"station_id":"JMU","time":3,"line":6},{"transit":false,"is_transit":false,"distance":1994,"i_lat":-6.296963,"line":6,"time":4,"station_id":"SDM","station_name":"Sudimara","i_long":106.712277},{"station_name":"Rawa Buntu","line":6,"station_id":"RU","time":6,"is_transit":false,"i_lat":-6.314823,"transit":false,"distance":4566,"i_long":106.675475},{"station_id":"SRP","i_lat":-6.319871,"transit":false,"time":4,"distance":2413,"line":6,"station_name":"Serpong","is_transit":false,"i_long":106.66566},{"distance":1784,"time":4,"transit":false,"i_long":106.640411,"station_id":"CSK","is_transit":false,"station_name":"Cisauk","i_lat":-6.32484,"line":3},{"is_transit":false,"line":3,"i_lat":-6.329547,"station_name":"Cicayur","station_id":"CC","transit":false,"i_long":106.617853,"time":4,"distance":2519}],[{"line":21,"i_lat":-6.46424,"is_transit":false,"station_name":"Cibinong","distance":0,"i_long":106.851978,"station_id":"CBN","time":0,"transit":false},{"station_id":"PDRG","i_long":106.824374,"time":0,"station_name":"Pondok Rajeg","transit":false,"is_transit":false,"distance":0,"i_lat":-6.460735,"line":21},{"station_id":"CTA","time":0,"distance":0,"station_name":"Citayam","transit":true,"is_transit":true,"i_long":106.800298,"i_lat":-6.448811,"line":2},{"transit":false,"line":2,"distance":5084,"station_id":"DP","i_long":106.816926,"time":6,"station_name":"Depok","i_lat":-6.405256,"is_transit":false},{"transit":false,"time":3,"station_name":"Depokbaru","is_transit":false,"line":2,"distance":1584,"i_lat":-6.391065,"i_long":106.819451,"station_id":"DPB"},{"station_id":"POC","station_name":"Pondok Cina","transit":false,"distance":2727,"time":4,"i_long":106.831114,"i_lat":-6.369073,"line":2,"is_transit":false},{"station_id":"UI","is_transit":false,"i_lat":-6.360749,"station_name":"Univ. Indonesia","time":2,"i_long":106.831474,"line":2,"distance":1109,"transit":false},{"station_id":"UP","transit":false,"i_lat":-6.339291,"i_long":106.834175,"is_transit":false,"distance":2264,"station_name":"Univ. Pancasila","time":3,"line":2},{"station_id":"LNA","station_name":"Lenteng Agung","transit":false,"distance":1029,"line":2,"time":2,"i_lat":-6.330363,"is_transit":false,"i_long":106.832616},{"line":2,"distance":2671,"station_id":"TNT","i_lat":-6.3080680000000005,"transit":false,"time":3,"is_transit":false,"station_name":"Tanjung Barat","i_long":106.838896},{"transit":false,"line":2,"station_name":"Pasar Minggu","distance":2820,"i_long":106.843999,"is_transit":false,"time":4,"station_id":"PSM","i_lat":-6.2842400000000005},{"is_transit":false,"distance":2380,"i_lat":-6.263214,"transit":false,"station_id":"PSMB","time":2,"station_name":"Pasar Minggu Baru","i_long":106.851577,"line":2},{"distance":824,"line":2,"station_id":"DRN","is_transit":false,"station_name":"Duren Kalibata","time":2,"transit":false,"i_lat":-6.255332,"i_long":106.85449},{"is_transit":false,"line":2,"transit":false,"station_name":"Cawang","distance":1546,"i_long":106.856607,"station_id":"CW","time":3,"i_lat":-6.242512},{"i_lat":-6.226659,"i_long":106.857948,"time":2,"station_name":"Tebet","is_transit":false,"station_id":"TEB","transit":false,"distance":1230,"line":2},{"time":4,"is_transit":true,"i_lat":-6.209883,"line":2,"transit":true,"i_long":106.84912,"station_name":"Manggarai","distance":2610,"station_id":"MRI"},{"transit":false,"time":2,"i_long":106.858896,"station_name":"Matraman","distance":1275,"is_transit":false,"station_id":"MTR","line":1,"i_lat":-6.212485},{"is_transit":true,"distance":1377,"time":8,"line":1,"i_lat":-6.215091,"station_id":"JNG","transit":true,"station_name":"Jatinegara","i_long":106.86807400000001},{"i_lat":-6.209188,"is_transit":false,"station_id":"POK","transit":false,"line":11,"distance":1236,"time":2,"station_name":"Pondok Jati","i_long":106.861737},{"distance":1829,"station_id":"KMT","line":11,"is_transit":false,"i_lat":-6.193792,"i_long":106.855437,"transit":false,"station_name":"Kramat","time":2},{"is_transit":false,"line":11,"time":1,"distance":973,"i_long":106.850107,"station_name":"Gang Sentiong","station_id":"GST","transit":false,"i_lat":-6.185975},{"distance":1567,"station_id":"PSE","i_long":106.84368,"station_name":"Pasar Senen","line":11,"time":8,"i_lat":-6.174784,"is_transit":false,"transit":false},{"transit":false,"station_id":"KMO","station_name":"Kemayoran","distance":1436,"time":4,"i_long":106.839204,"line":11,"is_transit":false,"i_lat":-6.161728},{"station_id":"RJW","is_transit":false,"transit":false,"station_name":"Rajawali","line":11,"i_lat":-6.14505,"distance":1901,"i_long":106.836569,"time":5},{"i_long":106.826365,"time":3,"transit":true,"station_name":"Kampung Bandan","station_id":"KPB","line":4,"distance":1444,"i_lat":-6.132549,"is_transit":true},{"line":1,"transit":false,"station_id":"AK","station_name":"Angke","time":9,"is_transit":false,"i_long":106.79867,"i_lat":-6.144674,"distance":4102},{"i_long":106.800832,"time":4,"is_transit":false,"line":1,"i_lat":-6.155215,"station_name":"Duri","distance":1230,"station_id":"DU","transit":false},{"i_lat":-6.185545,"transit":true,"distance":3632,"station_id":"THB","time":8,"station_name":"Tanah Abang","is_transit":true,"line":1,"i_long":106.811091},{"is_transit":false,"station_name":"Palmerah","station_id":"PLM","i_lat":-6.207404,"i_long":106.79689,"distance":3191,"transit":false,"time":6,"line":6},{"line":6,"transit":false,"is_transit":false,"distance":3737,"i_lat":-6.237242,"time":7,"station_name":"Kebayoran","station_id":"KBY","i_long":106.780334},{"station_name":"Pondokranji","i_lat":-6.276362,"i_long":106.74273,"station_id":"PDJ","time":8,"is_transit":false,"transit":false,"line":6,"distance":6218},{"distance":2179,"transit":false,"is_transit":false,"time":3,"station_id":"JMU","station_name":"Jurangmangu","i_lat":-6.288927,"line":6,"i_long":106.728916},{"station_id":"SDM","i_long":106.712277,"i_lat":-6.296963,"transit":false,"line":6,"station_name":"Sudimara","time":4,"is_transit":false,"distance":1994},{"is_transit":false,"distance":4566,"i_long":106.675475,"line":6,"station_id":"RU","transit":false,"station_name":"Rawa Buntu","time":6,"i_lat":-6.314823},{"line":6,"time":4,"distance":2413,"station_id":"SRP","transit":false,"i_long":106.66566,"i_lat":-6.319871,"station_name":"Serpong","is_transit":false},{"is_transit":false,"station_name":"Cisauk","i_long":106.640411,"line":3,"transit":false,"station_id":"CSK","distance":1784,"i_lat":-6.32484,"time":4},{"line":3,"is_transit":false,"i_lat":-6.329547,"station_name":"Cicayur","distance":2519,"station_id":"CC","transit":false,"time":4,"i_long":106.617853}]]}