{"data":[[{"distance":0,"time":0,"line":21,"station_id":"CBN","i_lat":-6.46424,"i_long":106.851978,"station_name":"Cibinong","is_transit":false,"transit":false},{"i_long":106.824374,"time":0,"station_name":"Pondok Rajeg","distance":0,"transit":false,"line":21,"is_transit":false,"i_lat":-6.460735,"station_id":"PDRG"},{"is_transit":true,"station_name":"Citayam","i_lat":-6.448811,"line":2,"distance":0,"transit":true,"time":0,"station_id":"CTA","i_long":106.800298},{"line":2,"station_id":"DP","i_lat":-6.405256,"time":6,"distance":5084,"station_name":"Depok","is_transit":false,"transit":false,"i_long":106.816926},{"transit":false,"is_transit":false,"station_name":"Depokbaru","line":2,"distance":1584,"i_lat":-6.391065,"i_long":106.819451,"time":3,"station_id":"DPB"},{"transit":false,"line":2,"station_name":"Pondok Cina","is_transit":false,"distance":2727,"i_long":106.831114,"time":4,"station_id":"POC","i_lat":-6.369073},{"line":2,"is_transit":false,"station_name":"Univ. Indonesia","transit":false,"station_id":"UI","i_long":106.831474,"i_lat":-6.360749,"time":2,"distance":1109},{"is_transit":false,"distance":2264,"station_name":"Univ. Pancasila","i_lat":-6.339291,"transit":false,"i_long":106.834175,"line":2,"time":3,"station_id":"UP"},{"transit":false,"i_long":106.832616,"line":2,"station_id":"LNA","i_lat":-6.330363,"station_name":"Lenteng Agung","time":2,"is_transit":false,"distance":1029},{"station_name":"Tanjung Barat","i_long":106.838896,"distance":2671,"station_id":"TNT","time":3,"line":2,"is_transit":false,"i_lat":-6.3080680000000005,"transit":false},{"i_lat":-6.2842400000000005,"station_id":"PSM","is_transit":false,"i_long":106.843999,"time":4,"distance":2820,"transit":false,"station_name":"Pasar Minggu","line":2},{"i_long":106.851577,"line":2,"station_name":"Pasar Minggu Baru","i_lat":-6.263214,"is_transit":false,"time":2,"distance":2380,"station_id":"PSMB","transit":false},{"station_name":"Duren Kalibata","transit":false,"i_lat":-6.255332,"station_id":"DRN","distance":824,"line":2,"i_long":106.85449,"is_transit":false,"time":2},{"i_lat":-6.242512,"line":2,"i_long":106.856607,"distance":1546,"station_name":"Cawang","time":3,"station_id":"CW","is_transit":false,"transit":false},{"line":2,"station_name":"Tebet","i_long":106.857948,"distance":1230,"time":2,"station_id":"TEB","is_transit":false,"transit":false,"i_lat":-6.226659},{"is_transit":true,"i_long":106.84912,"distance":2610,"station_id":"MRI","i_lat":-6.209883,"time":4,"line":2,"station_name":"Manggarai","transit":true},{"station_id":"SUD","time":4,"is_transit":false,"distance":3186,"i_lat":-6.202263,"transit":false,"i_long":106.822649,"line":1,"station_name":"Sudirman"},{"time":1,"i_long":106.819881,"is_transit":false,"station_id":"SUDB","station_name":"Sudirman Baru","i_lat":-6.201433,"transit":false,"distance":280,"line":1},{"line":1,"time":1,"station_name":"Karet","transit":false,"i_lat":-6.20132,"i_long":106.816351,"station_id":"KAT","distance":471,"is_transit":false},{"station_name":"Tanah Abang","is_transit":false,"station_id":"THB","transit":false,"i_long":106.811091,"distance":2029,"time":5,"i_lat":-6.185545,"line":1},{"i_long":106.800832,"transit":true,"is_transit":true,"station_name":"Duri","line":1,"station_id":"DU","distance":3632,"i_lat":-6.155215,"time":8},{"distance":1700,"i_long":106.788277,"time":3,"line":5,"is_transit":false,"station_name":"Grogol","i_lat":-6.162021,"transit":false,"station_id":"GRG"},{"station_name":"Pesing","i_lat":-6.161433,"is_transit":false,"i_long":106.771379,"time":2,"distance":2036,"station_id":"PSG","line":5,"transit":false},{"line":5,"distance":1614,"station_name":"Taman Kota","time":2,"transit":false,"i_lat":-6.1587309999999995,"is_transit":false,"i_long":106.756522,"station_id":"TKO"},{"transit":false,"i_long":106.737035,"distance":2334,"station_id":"BOI","is_transit":false,"time":2,"station_name":"Bojongindah","i_lat":-6.159876,"line":5},{"i_long":106.723064,"time":4,"station_name":"Rawa Buaya","is_transit":false,"line":5,"station_id":"RW","transit":false,"distance":1152,"i_lat":-6.162758},{"distance":2504,"line":5,"station_id":"KDS","is_transit":false,"station_name":"Kalideres","i_lat":-6.166068,"transit":false,"i_long":106.701612,"time":3},{"station_name":"Poris","station_id":"PI","i_lat":-6.169933,"line":5,"is_transit":false,"time":3,"transit":false,"i_long":106.679458,"distance":2548},{"station_id":"BPR","line":5,"is_transit":false,"distance":1834,"i_lat":-6.171811,"time":3,"i_long":106.665036,"transit":false,"station_name":"Batuceper"},{"distance":2028,"time":3,"transit":false,"is_transit":false,"i_lat":-6.17331,"i_long":106.64657,"station_name":"Tanah Tinggi","station_id":"TTI","line":5}],[{"station_name":"Cibinong","distance":0,"is_transit":false,"transit":false,"i_lat":-6.46424,"line":21,"station_id":"CBN","time":0,"i_long":106.851978},{"i_lat":-6.460735,"line":21,"is_transit":false,"transit":false,"distance":0,"time":0,"station_id":"PDRG","station_name":"Pondok Rajeg","i_long":106.824374},{"is_transit":true,"i_lat":-6.448811,"station_name":"Citayam","distance":0,"time":0,"station_id":"CTA","line":2,"i_long":106.800298,"transit":true},{"transit":false,"line":2,"station_id":"DP","distance":5084,"i_lat":-6.405256,"time":6,"station_name":"Depok","i_long":106.816926,"is_transit":false},{"i_long":106.819451,"line":2,"i_lat":-6.391065,"transit":false,"station_name":"Depokbaru","distance":1584,"is_transit":false,"time":3,"station_id":"DPB"},{"station_name":"Pondok Cina","i_long":106.831114,"line":2,"station_id":"POC","i_lat":-6.369073,"time":4,"distance":2727,"is_transit":false,"transit":false},{"i_long":106.831474,"distance":1109,"i_lat":-6.360749,"time":2,"station_name":"Univ. Indonesia","is_transit":false,"transit":false,"station_id":"UI","line":2},{"i_lat":-6.339291,"distance":2264,"time":3,"station_id":"UP","line":2,"transit":false,"station_name":"Univ. Pancasila","is_transit":false,"i_long":106.834175},{"transit":false,"time":2,"line":2,"station_id":"LNA","distance":1029,"i_lat":-6.330363,"i_long":106.832616,"station_name":"Lenteng Agung","is_transit":false},{"distance":2671,"i_lat":-6.3080680000000005,"station_id":"TNT","transit":false,"time":3,"line":2,"station_name":"Tanjung Barat","is_transit":false,"i_long":106.838896},{"time":4,"distance":2820,"transit":false,"i_long":106.843999,"is_transit":false,"station_name":"Pasar Minggu","station_id":"PSM","i_lat":-6.2842400000000005,"line":2},{"station_name":"Pasar Minggu Baru","i_long":106.851577,"distance":2380,"station_id":"PSMB","is_transit":false,"transit":false,"time":2,"i_lat":-6.263214,"line":2},{"is_transit":false,"line":2,"i_long":106.85449,"transit":false,"station_id":"DRN","station_name":"Duren Kalibata","time":2,"distance":824,"i_lat":-6.255332},{"time":3,"distance":1546,"i_lat":-6.242512,"line":2,"station_name":"Cawang","station_id":"CW","i_long":106.856607,"is_transit":false,"transit":false},{"i_lat":-6.226659,"line":2,"transit":false,"distance":1230,"station_name":"Tebet","station_id":"TEB","i_long":106.857948,"is_transit":false,"time":2},{"time":4,"is_transit":false,"distance":2610,"i_lat":-6.209883,"transit":false,"i_long":106.84912,"station_name":"Manggarai","station_id":"MRI","line":2},{"transit":false,"is_transit":false,"distance":1590,"i_long":106.840169,"i_lat":-6.198556,"line":2,"time":4,"station_name":"Cikini","station_id":"CKI"},{"time":3,"transit":false,"is_transit":false,"station_id":"GDD","distance":1750,"i_long":106.832183,"station_name":"Gondangdia","line":2,"i_lat":-6.186295},{"time":4,"is_transit":false,"distance":2015,"transit":false,"station_id":"JUA","i_lat":-6.166716,"i_long":106.828284,"line":2,"station_name":"Juanda"},{"transit":false,"time":2,"distance":1149,"i_long":106.827103,"station_name":"Sawah Besar","i_lat":-6.160725,"is_transit":false,"station_id":"SW","line":2},{"time":2,"is_transit":false,"transit":false,"station_name":"Manggabesar","station_id":"MGB","i_lat":-6.149769,"i_long":106.82482,"distance":906,"line":2},{"is_transit":false,"time":2,"station_name":"Jayakarta","transit":false,"i_long":106.820901,"line":2,"distance":1080,"station_id":"JAY","i_lat":-6.141205},{"distance":1264,"station_id":"JAKK","line":2,"transit":true,"time":4,"station_name":"Jakarta Kota","i_long":106.812439,"is_transit":true,"i_lat":-6.137569},{"station_id":"KPB","i_long":106.826365,"distance":1364,"time":3,"station_name":"Kampung Bandan","transit":true,"is_transit":true,"i_lat":-6.132549,"line":4},{"line":1,"station_name":"Angke","is_transit":false,"i_long":106.79867,"transit":false,"station_id":"AK","time":9,"distance":4102,"i_lat":-6.144674},{"time":4,"distance":1230,"station_id":"DU","line":1,"i_lat":-6.155215,"i_long":106.800832,"station_name":"Duri","is_transit":true,"transit":true},{"time":3,"transit":false,"i_lat":-6.162021,"i_long":106.788277,"station_name":"Grogol","is_transit":false,"distance":1700,"line":5,"station_id":"GRG"},{"station_name":"Pesing","station_id":"PSG","transit":false,"i_lat":-6.161433,"line":5,"time":2,"distance":2036,"i_long":106.771379,"is_transit":false},{"is_transit":false,"time":2,"station_id":"TKO","distance":1614,"line":5,"transit":false,"i_long":106.756522,"i_lat":-6.1587309999999995,"station_name":"Taman Kota"},{"transit":false,"is_transit":false,"line":5,"station_name":"Bojongindah","distance":2334,"station_id":"BOI","i_long":106.737035,"time":2,"i_lat":-6.159876},{"time":4,"is_transit":false,"i_long":106.723064,"station_id":"RW","line":5,"transit":false,"station_name":"Rawa Buaya","distance":1152,"i_lat":-6.162758},{"i_long":106.701612,"is_transit":false,"distance":2504,"transit":false,"line":5,"station_name":"Kalideres","station_id":"KDS","time":3,"i_lat":-6.166068},{"i_lat":-6.169933,"station_name":"Poris","transit":false,"time":3,"i_long":106.679458,"distance":2548,"line":5,"is_transit":false,"station_id":"PI"},{"transit":false,"line":5,"time":3,"station_name":"Batuceper","distance":1834,"station_id":"BPR","i_long":106.665036,"i_lat":-6.171811,"is_transit":false},{"i_long":106.64657,"i_lat":-6.17331,"station_name":"Tanah Tinggi","transit":false,"line":5,"station_id":"TTI","is_transit":false,"time":3,"distance":2028}],[{"distance":0,"i_lat":-6.46424,"station_name":"Cibinong","is_transit":false,"transit":false,"station_id":"CBN","i_long":106.851978,"line":21,"time":0},{"i_lat":-6.460735,"transit":false,"is_transit":false,"i_long":106.824374,"distance":0,"time":0,"line":21,"station_name":"Pondok Rajeg","station_id":"PDRG"},{"line":2,"is_transit":true,"transit":true,"i_long":106.800298,"time":0,"distance":0,"i_lat":-6.448811,"station_id":"CTA","station_name":"Citayam"},{"time":6,"line":2,"distance":5084,"i_long":106.816926,"transit":false,"is_transit":false,"station_id":"DP","station_name":"Depok","i_lat":-6.405256},{"transit":false,"i_long":106.819451,"is_transit":false,"i_lat":-6.391065,"distance":1584,"station_id":"DPB","station_name":"Depokbaru","line":2,"time":3},{"line":2,"distance":2727,"is_transit":false,"transit":false,"station_id":"POC","i_long":106.831114,"station_name":"Pondok Cina","time":4,"i_lat":-6.369073},{"is_transit":false,"transit":false,"i_lat":-6.360749,"i_long":106.831474,"station_name":"Univ. Indonesia","line":2,"station_id":"UI","time":2,"distance":1109},{"i_lat":-6.339291,"time":3,"line":2,"station_name":"Univ. Pancasila","is_transit":false,"distance":2264,"transit":false,"station_id":"UP","i_long":106.834175},{"i_lat":-6.330363,"station_name":"Lenteng Agung","distance":1029,"is_transit":false,"line":2,"i_long":106.832616,"transit":false,"time":2,"station_id":"LNA"},{"is_transit":false,"distance":2671,"station_name":"Tanjung Barat","station_id":"TNT","i_long":106.838896,"time":3,"transit":false,"i_lat":-6.3080680000000005,"line":2},{"i_long":106.843999,"i_lat":-6.2842400000000005,"time":4,"is_transit":false,"line":2,"station_name":"Pasar Minggu","distance":2820,"transit":false,"station_id":"PSM"},{"transit":false,"station_id":"PSMB","station_name":"Pasar Minggu Baru","distance":2380,"is_transit":false,"i_lat":-6.263214,"time":2,"i_long":106.851577,"line":2},{"line":2,"i_long":106.85449,"transit":false,"station_name":"Duren Kalibata","distance":824,"station_id":"DRN","time":2,"is_transit":false,"i_lat":-6.255332},{"transit":false,"time":3,"station_name":"Cawang","i_lat":-6.242512,"distance":1546,"i_long":106.856607,"is_transit":false,"station_id":"CW","line":2},{"distance":1230,"line":2,"is_transit":false,"time":2,"station_id":"TEB","transit":false,"station_name":"Tebet","i_long":106.857948,"i_lat":-6.226659},{"transit":true,"station_name":"Manggarai","station_id":"MRI","is_transit":true,"distance":2610,"i_long":106.84912,"line":2,"time":4,"i_lat":-6.209883},{"distance":1275,"transit":false,"station_id":"MTR","station_name":"Matraman","i_lat":-6.212485,"time":2,"i_long":106.858896,"line":1,"is_transit":false},{"transit":true,"is_transit":true,"i_lat":-6.215091,"i_long":106.86807400000001,"station_name":"Jatinegara","station_id":"JNG","distance":1377,"time":8,"line":1},{"i_long":106.861737,"time":2,"line":11,"station_name":"Pondok Jati","is_transit":false,"transit":false,"distance":1236,"station_id":"POK","i_lat":-6.209188},{"transit":false,"station_name":"Kramat","time":2,"is_transit":false,"station_id":"KMT","i_lat":-6.193792,"i_long":106.855437,"line":11,"distance":1829},{"time":1,"station_name":"Gang Sentiong","station_id":"GST","line":11,"distance":973,"i_lat":-6.185975,"is_transit":false,"i_long":106.850107,"transit":false},{"i_long":106.84368,"time":8,"is_transit":false,"station_name":"Pasar Senen","distance":1567,"transit":false,"station_id":"PSE","i_lat":-6.174784,"line":11},{"distance":1436,"i_lat":-6.161728,"station_name":"Kemayoran","station_id":"KMO","transit":false,"line":11,"time":4,"is_transit":false,"i_long":106.839204},{"i_lat":-6.14505,"distance":1901,"i_long":106.836569,"time":5,"line":11,"station_name":"Rajawali","transit":false,"is_transit":false,"station_id":"RJW"},{"transit":true,"time":3,"station_name":"Kampung Bandan","is_transit":true,"i_lat":-6.132549,"station_id":"KPB","line":4,"i_long":106.826365,"distance":1444},{"station_id":"AK","distance":4102,"time":9,"line":1,"transit":false,"is_transit":false,"station_name":"Angke","i_lat":-6.144674,"i_long":106.79867},{"distance":1230,"transit":true,"line":1,"station_id":"DU","i_lat":-6.155215,"time":4,"station_name":"Duri","is_transit":true,"i_long":106.800832},{"i_lat":-6.162021,"is_transit":false,"time":3,"station_id":"GRG","transit":false,"distance":1700,"line":5,"station_name":"Grogol","i_long":106.788277},{"station_name":"Pesing","is_transit":false,"distance":2036,"time":2,"station_id":"PSG","transit":false,"line":5,"i_lat":-6.161433,"i_long":106.771379},{"station_name":"Taman Kota","distance":1614,"line":5,"i_long":106.756522,"is_transit":false,"time":2,"transit":false,"i_lat":-6.1587309999999995,"station_id":"TKO"},{"station_name":"Bojongindah","is_transit":false,"distance":2334,"i_lat":-6.159876,"i_long":106.737035,"transit":false,"line":5,"station_id":"BOI","time":2},{"distance":1152,"station_name":"Rawa Buaya","line":5,"time":4,"transit":false,"i_long":106.723064,"station_id":"RW","i_lat":-6.162758,"is_transit":false},{"distance":2504,"is_transit":false,"i_long":106.701612,"transit":false,"time":3,"line":5,"station_name":"Kalideres","station_id":"KDS","i_lat":-6.166068},{"distance":2548,"transit":false,"station_id":"PI","line":5,"i_lat":-6.169933,"station_name":"Poris","time":3,"is_transit":false,"i_long":106.679458},{"transit":false,"line":5,"i_long":106.665036,"i_lat":-6.171811,"is_transit":false,"distance":1834,"station_id":"BPR","station_name":"Batuceper","time":3},{"line":5,"time":3,"station_id":"TTI","station_name":"Tanah Tinggi","is_transit":false,"distance":2028,"i_lat":-6.17331,"i_long":106.64657,"transit":false}]]}