{"data":[[{"distance":0,"i_long":106.851978,"i_lat":-6.46424,"line":21,"station_name":"Cibinong","is_transit":false,"station_id":"CBN","time":0,"transit":false},{"transit":false,"station_id":"PDRG","time":0,"distance":0,"i_lat":-6.460735,"i_long":106.824374,"line":21,"station_name":"Pondok Rajeg","is_transit":false},{"time":0,"i_lat":-6.448811,"station_id":"CTA","station_name":"Citayam","i_long":106.800298,"is_transit":true,"transit":true,"distance":0,"line":2},{"line":2,"time":6,"station_id":"DP","station_name":"Depok","transit":false,"distance":5084,"i_lat":-6.405256,"i_long":106.816926,"is_transit":false},{"station_id":"DPB","is_transit":false,"transit":false,"distance":1584,"station_name":"Depokbaru","i_lat":-6.391065,"line":2,"time":3,"i_long":106.819451},{"station_name":"Pondok Cina","i_lat":-6.369073,"i_long":106.831114,"is_transit":false,"time":4,"station_id":"POC","transit":false,"line":2,"distance":2727},{"transit":false,"i_long":106.831474,"distance":1109,"station_id":"UI","line":2,"station_name":"Univ. Indonesia","is_transit":false,"time":2,"i_lat":-6.360749},{"time":3,"i_lat":-6.339291,"station_id":"UP","i_long":106.834175,"station_name":"Univ. Pancasila","line":2,"transit":false,"distance":2264,"is_transit":false},{"transit":false,"i_long":106.832616,"station_id":"LNA","line":2,"distance":1029,"station_name":"Lenteng Agung","time":2,"is_transit":false,"i_lat":-6.330363},{"distance":2671,"time":3,"line":2,"station_name":"Tanjung Barat","i_lat":-6.3080680000000005,"i_long":106.838896,"is_transit":false,"station_id":"TNT","transit":false},{"is_transit":false,"station_id":"PSM","station_name":"Pasar Minggu","i_lat":-6.2842400000000005,"transit":false,"distance":2820,"time":4,"i_long":106.843999,"line":2},{"transit":false,"distance":2380,"is_transit":false,"i_lat":-6.263214,"time":2,"line":2,"i_long":106.851577,"station_id":"PSMB","station_name":"Pasar Minggu Baru"},{"distance":824,"line":2,"station_id":"DRN","transit":false,"i_long":106.85449,"i_lat":-6.255332,"station_name":"Duren Kalibata","is_transit":false,"time":2},{"i_lat":-6.242512,"line":2,"time":3,"station_name":"Cawang","transit":false,"is_transit":false,"station_id":"CW","i_long":106.856607,"distance":1546},{"is_transit":false,"transit":false,"time":2,"station_id":"TEB","i_long":106.857948,"i_lat":-6.226659,"distance":1230,"line":2,"station_name":"Tebet"},{"distance":2610,"line":2,"i_long":106.84912,"is_transit":true,"i_lat":-6.209883,"time":4,"station_id":"MRI","station_name":"Manggarai","transit":true},{"i_long":106.858896,"station_name":"Matraman","i_lat":-6.212485,"station_id":"MTR","transit":false,"is_transit":false,"line":1,"distance":1275,"time":2},{"is_transit":false,"distance":1377,"station_id":"JNG","line":1,"station_name":"Jatinegara","time":8,"transit":false,"i_lat":-6.215091,"i_long":106.86807400000001},{"station_id":"KLD","time":3,"transit":false,"station_name":"Klender","i_lat":-6.2135,"distance":3395,"i_long":106.899548,"is_transit":false,"line":1},{"transit":false,"is_transit":false,"i_long":106.922662,"station_name":"Buaran","time":2,"station_id":"BUA","distance":3100,"i_lat":-6.215568,"line":1},{"i_lat":-6.217455,"station_id":"KLDB","time":1,"line":1,"transit":false,"is_transit":false,"distance":1305,"station_name":"Klenderbaru","i_long":106.939679},{"transit":false,"i_lat":-6.219053,"time":8,"line":1,"i_long":106.951283,"distance":1385,"station_id":"CUK","is_transit":false,"station_name":"Cakung"},{"station_name":"Kranji","transit":false,"line":1,"i_long":106.977657,"distance":3097,"time":3,"i_lat":-6.224515,"station_id":"KRI","is_transit":false},{"line":1,"i_lat":-6.236616,"time":4,"transit":false,"i_long":106.997013,"distance":2520,"station_name":"Bekasi","station_id":"BKS","is_transit":false},{"i_long":107.016735,"transit":false,"is_transit":false,"distance":2368,"line":1,"station_id":"BKST","station_name":"Bekasi Timur","time":2,"i_lat":-6.248029},{"transit":false,"is_transit":false,"station_id":"TB","line":1,"i_long":107.055722,"distance":4460,"time":7,"i_lat":-6.258864,"station_name":"Tambun"}],[{"transit":false,"is_transit":false,"line":21,"distance":0,"station_name":"Cibinong","time":0,"i_lat":-6.46424,"station_id":"CBN","i_long":106.851978},{"i_lat":-6.460735,"is_transit":false,"line":21,"transit":false,"i_long":106.824374,"time":0,"station_id":"PDRG","distance":0,"station_name":"Pondok Rajeg"},{"station_name":"Citayam","time":0,"is_transit":true,"i_lat":-6.448811,"i_long":106.800298,"line":2,"distance":0,"station_id":"CTA","transit":true},{"station_id":"DP","transit":false,"station_name":"Depok","is_transit":false,"i_lat":-6.405256,"i_long":106.816926,"distance":5084,"time":6,"line":2},{"station_name":"Depokbaru","line":2,"station_id":"DPB","is_transit":false,"time":3,"transit":false,"i_lat":-6.391065,"i_long":106.819451,"distance":1584},{"station_id":"POC","i_lat":-6.369073,"time":4,"is_transit":false,"distance":2727,"line":2,"station_name":"Pondok Cina","transit":false,"i_long":106.831114},{"is_transit":false,"i_long":106.831474,"distance":1109,"station_name":"Univ. Indonesia","i_lat":-6.360749,"transit":false,"line":2,"station_id":"UI","time":2},{"transit":false,"is_transit":false,"i_long":106.834175,"i_lat":-6.339291,"distance":2264,"station_id":"UP","station_name":"Univ. Pancasila","time":3,"line":2},{"transit":false,"i_lat":-6.330363,"station_id":"LNA","station_name":"Lenteng Agung","i_long":106.832616,"line":2,"time":2,"is_transit":false,"distance":1029},{"i_lat":-6.3080680000000005,"station_name":"Tanjung Barat","time":3,"is_transit":false,"transit":false,"i_long":106.838896,"distance":2671,"station_id":"TNT","line":2},{"i_lat":-6.2842400000000005,"line":2,"is_transit":false,"station_id":"PSM","transit":false,"time":4,"distance":2820,"station_name":"Pasar Minggu","i_long":106.843999},{"transit":false,"station_name":"Pasar Minggu Baru","i_lat":-6.263214,"is_transit":false,"i_long":106.851577,"line":2,"time":2,"distance":2380,"station_id":"PSMB"},{"i_long":106.85449,"distance":824,"time":2,"is_transit":false,"station_id":"DRN","station_name":"Duren Kalibata","transit":false,"line":2,"i_lat":-6.255332},{"is_transit":false,"station_name":"Cawang","station_id":"CW","i_lat":-6.242512,"distance":1546,"transit":false,"line":2,"i_long":106.856607,"time":3},{"is_transit":false,"distance":1230,"station_name":"Tebet","i_lat":-6.226659,"transit":false,"line":2,"i_long":106.857948,"station_id":"TEB","time":2},{"is_transit":true,"distance":2610,"transit":true,"time":4,"station_name":"Manggarai","i_long":106.84912,"line":2,"station_id":"MRI","i_lat":-6.209883},{"transit":false,"i_lat":-6.202263,"distance":3186,"line":1,"i_long":106.822649,"station_id":"SUD","is_transit":false,"time":4,"station_name":"Sudirman"},{"time":1,"line":1,"station_id":"SUDB","i_lat":-6.201433,"distance":280,"i_long":106.819881,"station_name":"Sudirman Baru","transit":false,"is_transit":false},{"i_long":106.816351,"line":1,"transit":false,"is_transit":false,"distance":471,"station_id":"KAT","time":1,"station_name":"Karet","i_lat":-6.20132},{"station_id":"THB","i_lat":-6.185545,"line":1,"is_transit":false,"time":5,"distance":2029,"transit":false,"i_long":106.811091,"station_name":"Tanah Abang"},{"time":8,"station_id":"DU","i_lat":-6.155215,"transit":false,"distance":3632,"station_name":"Duri","is_transit":false,"i_long":106.800832,"line":1},{"line":1,"i_lat":-6.144674,"station_name":"Angke","transit":false,"is_transit":false,"distance":1230,"station_id":"AK","time":4,"i_long":106.79867},{"distance":4102,"i_lat":-6.132549,"line":4,"station_name":"Kampung Bandan","i_long":106.826365,"transit":true,"is_transit":true,"time":9,"station_id":"KPB"},{"i_long":106.836569,"station_id":"RJW","is_transit":false,"time":3,"station_name":"Rajawali","transit":false,"line":11,"distance":1444,"i_lat":-6.14505},{"time":5,"station_name":"Kemayoran","distance":1901,"i_long":106.839204,"i_lat":-6.161728,"line":11,"station_id":"KMO","is_transit":false,"transit":false},{"station_id":"PSE","time":4,"distance":1436,"station_name":"Pasar Senen","transit":false,"i_long":106.84368,"is_transit":false,"i_lat":-6.174784,"line":11},{"i_long":106.850107,"distance":1567,"time":8,"transit":false,"line":11,"station_name":"Gang Sentiong","is_transit":false,"station_id":"GST","i_lat":-6.185975},{"time":1,"station_id":"KMT","station_name":"Kramat","i_long":106.855437,"distance":973,"transit":false,"is_transit":false,"i_lat":-6.193792,"line":11},{"station_id":"POK","time":2,"transit":false,"i_long":106.861737,"is_transit":false,"distance":1829,"station_name":"Pondok Jati","i_lat":-6.209188,"line":11},{"is_transit":true,"i_lat":-6.215091,"line":1,"station_id":"JNG","distance":1236,"i_long":106.86807400000001,"time":9,"station_name":"Jatinegara","transit":true},{"i_long":106.899548,"line":1,"distance":3395,"station_id":"KLD","is_transit":false,"time":3,"station_name":"Klender","transit":false,"i_lat":-6.2135},{"i_lat":-6.215568,"transit":false,"station_id":"BUA","distance":3100,"is_transit":false,"station_name":"Buaran","time":2,"line":1,"i_long":106.922662},{"station_name":"Klenderbaru","time":1,"i_lat":-6.217455,"station_id":"KLDB","i_long":106.939679,"distance":1305,"line":1,"is_transit":false,"transit":false},{"is_transit":false,"distance":1385,"station_name":"Cakung","station_id":"CUK","transit":false,"time":8,"line":1,"i_lat":-6.219053,"i_long":106.951283},{"distance":3097,"time":3,"station_id":"KRI","transit":false,"station_name":"Kranji","is_transit":false,"i_long":106.977657,"line":1,"i_lat":-6.224515},{"line":1,"transit":false,"i_lat":-6.236616,"time":4,"distance":2520,"station_name":"Bekasi","station_id":"BKS","is_transit":false,"i_long":106.997013},{"distance":2368,"i_lat":-6.248029,"i_long":107.016735,"is_transit":false,"line":1,"station_id":"BKST","transit":false,"station_name":"Bekasi Timur","time":2},{"distance":4460,"transit":false,"station_name":"Tambun","line":1,"is_transit":false,"i_lat":-6.258864,"i_long":107.055722,"station_id":"TB","time":7}],[{"i_long":106.851978,"station_id":"CBN","is_transit":false,"line":21,"distance":0,"time":0,"station_name":"Cibinong","transit":false,"i_lat":-6.46424},{"i_long":106.824374,"line":21,"transit":false,"time":0,"distance":0,"i_lat":-6.460735,"station_id":"PDRG","is_transit":false,"station_name":"Pondok Rajeg"},{"is_transit":true,"time":0,"line":2,"i_long":106.800298,"station_name":"Citayam","station_id":"CTA","transit":true,"distance":0,"i_lat":-6.448811},{"line":2,"station_id":"DP","time":6,"station_name":"Depok","transit":false,"i_long":106.816926,"distance":5084,"is_transit":false,"i_lat":-6.405256},{"distance":1584,"line":2,"transit":false,"is_transit":false,"station_id":"DPB","time":3,"i_lat":-6.391065,"station_name":"Depokbaru","i_long":106.819451},{"i_long":106.831114,"line":2,"station_name":"Pondok Cina","station_id":"POC","time":4,"i_lat":-6.369073,"is_transit":false,"transit":false,"distance":2727},{"line":2,"i_long":106.831474,"station_name":"Univ. Indonesia","time":2,"is_transit":false,"transit":false,"station_id":"UI","i_lat":-6.360749,"distance":1109},{"i_long":106.834175,"station_id":"UP","station_name":"Univ. Pancasila","line":2,"transit":false,"time":3,"i_lat":-6.339291,"is_transit":false,"distance":2264},{"station_id":"LNA","transit":false,"i_lat":-6.330363,"i_long":106.832616,"line":2,"distance":1029,"is_transit":false,"time":2,"station_name":"Lenteng Agung"},{"distance":2671,"time":3,"i_long":106.838896,"station_name":"Tanjung Barat","transit":false,"is_transit":false,"i_lat":-6.3080680000000005,"line":2,"station_id":"TNT"},{"station_name":"Pasar Minggu","i_long":106.843999,"station_id":"PSM","line":2,"is_transit":false,"time":4,"distance":2820,"transit":false,"i_lat":-6.2842400000000005},{"distance":2380,"is_transit":false,"i_long":106.851577,"transit":false,"time":2,"line":2,"i_lat":-6.263214,"station_name":"Pasar Minggu Baru","station_id":"PSMB"},{"is_transit":false,"i_lat":-6.255332,"station_name":"Duren Kalibata","i_long":106.85449,"distance":824,"time":2,"line":2,"transit":false,"station_id":"DRN"},{"station_name":"Cawang","line":2,"distance":1546,"station_id":"CW","is_transit":false,"transit":false,"time":3,"i_long":106.856607,"i_lat":-6.242512},{"i_lat":-6.226659,"i_long":106.857948,"line":2,"station_name":"Tebet","transit":false,"station_id":"TEB","time":2,"is_transit":false,"distance":1230},{"station_name":"Manggarai","time":4,"distance":2610,"is_transit":false,"i_long":106.84912,"transit":false,"i_lat":-6.209883,"station_id":"MRI","line":2},{"station_id":"CKI","i_long":106.840169,"i_lat":-6.198556,"time":4,"station_name":"Cikini","distance":1590,"transit":false,"line":2,"is_transit":false},{"transit":false,"station_name":"Gondangdia","distance":1750,"i_lat":-6.186295,"i_long":106.832183,"station_id":"GDD","line":2,"time":3,"is_transit":false},{"distance":2015,"transit":false,"time":4,"i_long":106.828284,"i_lat":-6.166716,"is_transit":false,"line":2,"station_id":"JUA","station_name":"Juanda"},{"station_name":"Sawah Besar","distance":1149,"line":2,"station_id":"SW","time":2,"transit":false,"i_long":106.827103,"i_lat":-6.160725,"is_transit":false},{"is_transit":false,"transit":false,"i_lat":-6.149769,"time":2,"distance":906,"station_name":"Manggabesar","station_id":"MGB","i_long":106.82482,"line":2},{"i_lat":-6.141205,"station_name":"Jayakarta","transit":false,"time":2,"station_id":"JAY","line":2,"is_transit":false,"i_long":106.820901,"distance":1080},{"station_id":"JAKK","i_long":106.812439,"transit":true,"is_transit":true,"station_name":"Jakarta Kota","i_lat":-6.137569,"time":4,"distance":1264,"line":2},{"line":4,"time":3,"distance":1364,"station_name":"Kampung Bandan","transit":true,"i_lat":-6.132549,"station_id":"KPB","i_long":106.826365,"is_transit":true},{"transit":false,"is_transit":false,"i_lat":-6.14505,"i_long":106.836569,"line":11,"station_id":"RJW","station_name":"Rajawali","time":3,"distance":1444},{"line":11,"station_name":"Kemayoran","i_long":106.839204,"transit":false,"distance":1901,"is_transit":false,"i_lat":-6.161728,"station_id":"KMO","time":5},{"i_lat":-6.174784,"i_long":106.84368,"station_name":"Pasar Senen","line":11,"distance":1436,"time":4,"is_transit":false,"transit":false,"station_id":"PSE"},{"transit":false,"time":8,"station_name":"Gang Sentiong","is_transit":false,"station_id":"GST","i_lat":-6.185975,"i_long":106.850107,"distance":1567,"line":11},{"i_long":106.855437,"transit":false,"time":1,"station_id":"KMT","is_transit":false,"distance":973,"station_name":"Kramat","i_lat":-6.193792,"line":11},{"distance":1829,"i_lat":-6.209188,"i_long":106.861737,"is_transit":false,"station_id":"POK","station_name":"Pondok Jati","transit":false,"time":2,"line":11},{"time":9,"i_lat":-6.215091,"station_name":"Jatinegara","station_id":"JNG","transit":true,"distance":1236,"i_long":106.86807400000001,"line":1,"is_transit":true},{"is_transit":false,"i_lat":-6.2135,"i_long":106.899548,"time":3,"distance":3395,"line":1,"transit":false,"station_id":"KLD","station_name":"Klender"},{"is_transit":false,"station_id":"BUA","i_lat":-6.215568,"line":1,"distance":3100,"transit":false,"i_long":106.922662,"station_name":"Buaran","time":2},{"is_transit":false,"i_lat":-6.217455,"transit":false,"station_id":"KLDB","time":1,"distance":1305,"line":1,"i_long":106.939679,"station_name":"Klenderbaru"},{"line":1,"station_id":"CUK","time":8,"station_name":"Cakung","transit":false,"i_lat":-6.219053,"distance":1385,"is_transit":false,"i_long":106.951283},{"line":1,"i_long":106.977657,"time":3,"is_transit":false,"i_lat":-6.224515,"transit":false,"station_id":"KRI","station_name":"Kranji","distance":3097},{"line":1,"i_long":106.997013,"station_id":"BKS","transit":false,"distance":2520,"station_name":"Bekasi","is_transit":false,"time":4,"i_lat":-6.236616},{"station_name":"Bekasi Timur","line":1,"i_long":107.016735,"station_id":"BKST","time":2,"distance":2368,"is_transit":false,"transit":false,"i_lat":-6.248029},{"station_name":"Tambun","is_transit":false,"i_lat":-6.258864,"line":1,"distance":4460,"transit":false,"i_long":107.055722,"station_id":"TB","time":7}]]}