{"data":[[{"line":21,"distance":0,"transit":false,"time":0,"station_name":"Cibinong","station_id":"CBN","is_transit":false,"i_lat":-6.46424,"i_long":106.851978},{"transit":false,"i_lat":-6.460735,"station_id":"PDRG","is_transit":false,"line":21,"distance":0,"time":0,"i_long":106.824374,"station_name":"Pondok Rajeg"},{"time":0,"transit":true,"station_id":"CTA","station_name":"Citayam","is_transit":true,"line":2,"i_lat":-6.448811,"i_long":106.800298,"distance":0},{"i_long":106.816926,"distance":5084,"transit":false,"i_lat":-6.405256,"line":2,"time":6,"station_id":"DP","is_transit":false,"station_name":"Depok"},{"is_transit":false,"transit":false,"station_id":"DPB","distance":1584,"time":3,"i_long":106.819451,"i_lat":-6.391065,"line":2,"station_name":"Depokbaru"},{"i_lat":-6.369073,"i_long":106.831114,"station_id":"POC","transit":false,"is_transit":false,"time":4,"line":2,"distance":2727,"station_name":"Pondok Cina"},{"i_lat":-6.360749,"i_long":106.831474,"station_name":"Univ. Indonesia","line":2,"distance":1109,"is_transit":false,"transit":false,"station_id":"UI","time":2},{"i_long":106.834175,"distance":2264,"line":2,"time":3,"station_name":"Univ. Pancasila","station_id":"UP","is_transit":false,"transit":false,"i_lat":-6.339291},{"distance":1029,"i_long":106.832616,"transit":false,"i_lat":-6.330363,"time":2,"station_id":"LNA","station_name":"Lenteng Agung","is_transit":false,"line":2},{"i_long":106.838896,"time":3,"is_transit":false,"station_name":"Tanjung Barat","i_lat":-6.3080680000000005,"transit":false,"line":2,"distance":2671,"station_id":"TNT"},{"i_lat":-6.2842400000000005,"distance":2820,"station_name":"Pasar Minggu","line":2,"is_transit":false,"station_id":"PSM","i_long":106.843999,"time":4,"transit":false},{"station_name":"Pasar Minggu Baru","time":2,"i_long":106.851577,"i_lat":-6.263214,"distance":2380,"transit":false,"station_id":"PSMB","is_transit":false,"line":2},{"station_name":"Duren Kalibata","time":2,"station_id":"DRN","line":2,"i_lat":-6.255332,"distance":824,"transit":false,"is_transit":false,"i_long":106.85449},{"i_lat":-6.242512,"time":3,"station_id":"CW","transit":false,"i_long":106.856607,"is_transit":false,"station_name":"Cawang","line":2,"distance":1546},{"i_long":106.857948,"time":2,"line":2,"station_id":"TEB","i_lat":-6.226659,"distance":1230,"is_transit":false,"station_name":"Tebet","transit":false},{"time":4,"station_id":"MRI","i_long":106.84912,"line":2,"station_name":"Manggarai","is_transit":true,"distance":2610,"i_lat":-6.209883,"transit":true},{"station_id":"MTR","line":1,"time":2,"transit":false,"distance":1275,"is_transit":false,"i_lat":-6.212485,"station_name":"Matraman","i_long":106.858896},{"is_transit":false,"i_lat":-6.215091,"line":1,"time":8,"transit":false,"station_id":"JNG","i_long":106.86807400000001,"station_name":"Jatinegara","distance":1377},{"is_transit":false,"distance":3395,"transit":false,"station_name":"Klender","i_lat":-6.2135,"i_long":106.899548,"station_id":"KLD","line":1,"time":3},{"i_lat":-6.215568,"time":2,"station_name":"Buaran","is_transit":false,"distance":3100,"transit":false,"station_id":"BUA","i_long":106.922662,"line":1},{"station_id":"KLDB","station_name":"Klenderbaru","i_lat":-6.217455,"i_long":106.939679,"line":1,"is_transit":false,"transit":false,"distance":1305,"time":1},{"i_long":106.951283,"line":1,"i_lat":-6.219053,"transit":false,"distance":1385,"station_id":"CUK","station_name":"Cakung","time":8,"is_transit":false},{"distance":3097,"is_transit":false,"transit":false,"station_id":"KRI","station_name":"Kranji","i_lat":-6.224515,"line":1,"i_long":106.977657,"time":3},{"station_id":"BKS","line":1,"is_transit":false,"time":4,"station_name":"Bekasi","transit":false,"i_lat":-6.236616,"distance":2520,"i_long":106.997013},{"i_long":107.016735,"i_lat":-6.248029,"line":1,"is_transit":false,"distance":2368,"time":2,"station_id":"BKST","transit":false,"station_name":"Bekasi Timur"},{"time":7,"is_transit":false,"station_id":"TB","transit":false,"distance":4460,"i_long":107.055722,"i_lat":-6.258864,"line":1,"station_name":"Tambun"},{"transit":false,"i_lat":-6.261877,"line":1,"station_id":"CIT","station_name":"Cibitung","is_transit":false,"time":3,"distance":3420,"i_long":107.083084},{"station_id":"TLM","time":2,"distance":2800,"i_long":107.093313,"transit":false,"i_lat":-6.262938,"line":1,"is_transit":false,"station_name":"Metland Telaga Murni"}],[{"transit":false,"time":0,"station_id":"CBN","line":21,"station_name":"Cibinong","i_lat":-6.46424,"i_long":106.851978,"is_transit":false,"distance":0},{"line":21,"time":0,"transit":false,"is_transit":false,"station_id":"PDRG","distance":0,"station_name":"Pondok Rajeg","i_lat":-6.460735,"i_long":106.824374},{"transit":true,"station_name":"Citayam","time":0,"i_lat":-6.448811,"i_long":106.800298,"distance":0,"station_id":"CTA","line":2,"is_transit":true},{"station_name":"Depok","line":2,"time":6,"i_lat":-6.405256,"is_transit":false,"distance":5084,"station_id":"DP","transit":false,"i_long":106.816926},{"time":3,"transit":false,"is_transit":false,"distance":1584,"i_lat":-6.391065,"i_long":106.819451,"line":2,"station_id":"DPB","station_name":"Depokbaru"},{"station_name":"Pondok Cina","i_lat":-6.369073,"time":4,"is_transit":false,"transit":false,"distance":2727,"station_id":"POC","i_long":106.831114,"line":2},{"transit":false,"i_lat":-6.360749,"is_transit":false,"distance":1109,"station_name":"Univ. Indonesia","line":2,"i_long":106.831474,"time":2,"station_id":"UI"},{"station_id":"UP","transit":false,"distance":2264,"i_lat":-6.339291,"i_long":106.834175,"station_name":"Univ. Pancasila","is_transit":false,"time":3,"line":2},{"time":2,"transit":false,"distance":1029,"station_id":"LNA","station_name":"Lenteng Agung","line":2,"i_lat":-6.330363,"i_long":106.832616,"is_transit":false},{"station_name":"Tanjung Barat","time":3,"i_lat":-6.3080680000000005,"line":2,"i_long":106.838896,"transit":false,"is_transit":false,"distance":2671,"station_id":"TNT"},{"i_long":106.843999,"line":2,"i_lat":-6.2842400000000005,"time":4,"distance":2820,"is_transit":false,"station_name":"Pasar Minggu","station_id":"PSM","transit":false},{"transit":false,"is_transit":false,"line":2,"i_lat":-6.263214,"time":2,"distance":2380,"station_name":"Pasar Minggu Baru","i_long":106.851577,"station_id":"PSMB"},{"i_lat":-6.255332,"i_long":106.85449,"line":2,"station_name":"Duren Kalibata","time":2,"transit":false,"station_id":"DRN","distance":824,"is_transit":false},{"line":2,"i_lat":-6.242512,"i_long":106.856607,"is_transit":false,"transit":false,"station_id":"CW","station_name":"Cawang","time":3,"distance":1546},{"is_transit":false,"distance":1230,"i_long":106.857948,"line":2,"station_id":"TEB","transit":false,"station_name":"Tebet","time":2,"i_lat":-6.226659},{"line":2,"time":4,"distance":2610,"station_id":"MRI","transit":true,"i_long":106.84912,"i_lat":-6.209883,"station_name":"Manggarai","is_transit":true},{"is_transit":false,"station_name":"Sudirman","i_long":106.822649,"line":1,"transit":false,"station_id":"SUD","distance":3186,"i_lat":-6.202263,"time":4},{"line":1,"station_name":"Sudirman Baru","transit":false,"is_transit":false,"distance":280,"i_lat":-6.201433,"i_long":106.819881,"time":1,"station_id":"SUDB"},{"station_name":"Karet","station_id":"KAT","i_long":106.816351,"distance":471,"is_transit":false,"i_lat":-6.20132,"line":1,"transit":false,"time":1},{"transit":false,"station_id":"THB","i_lat":-6.185545,"i_long":106.811091,"station_name":"Tanah Abang","time":5,"line":1,"is_transit":false,"distance":2029},{"time":8,"transit":false,"i_long":106.800832,"line":1,"station_name":"Duri","i_lat":-6.155215,"is_transit":false,"distance":3632,"station_id":"DU"},{"is_transit":false,"transit":false,"station_name":"Angke","line":1,"time":4,"distance":1230,"station_id":"AK","i_lat":-6.144674,"i_long":106.79867},{"time":9,"is_transit":true,"i_lat":-6.132549,"station_id":"KPB","station_name":"Kampung Bandan","i_long":106.826365,"line":4,"transit":true,"distance":4102},{"station_id":"RJW","distance":1444,"is_transit":false,"i_lat":-6.14505,"time":3,"station_name":"Rajawali","i_long":106.836569,"line":11,"transit":false},{"station_name":"Kemayoran","is_transit":false,"i_lat":-6.161728,"time":5,"distance":1901,"i_long":106.839204,"transit":false,"station_id":"KMO","line":11},{"time":4,"transit":false,"station_id":"PSE","i_lat":-6.174784,"i_long":106.84368,"station_name":"Pasar Senen","is_transit":false,"line":11,"distance":1436},{"is_transit":false,"i_lat":-6.185975,"transit":false,"time":8,"distance":1567,"station_name":"Gang Sentiong","line":11,"i_long":106.850107,"station_id":"GST"},{"time":1,"station_id":"KMT","station_name":"Kramat","i_lat":-6.193792,"line":11,"transit":false,"is_transit":false,"distance":973,"i_long":106.855437},{"transit":false,"time":2,"is_transit":false,"station_id":"POK","i_long":106.861737,"station_name":"Pondok Jati","line":11,"i_lat":-6.209188,"distance":1829},{"i_lat":-6.215091,"transit":true,"is_transit":true,"i_long":106.86807400000001,"time":9,"distance":1236,"station_name":"Jatinegara","line":1,"station_id":"JNG"},{"station_name":"Klender","distance":3395,"time":3,"is_transit":false,"i_long":106.899548,"transit":false,"station_id":"KLD","i_lat":-6.2135,"line":1},{"time":2,"i_lat":-6.215568,"i_long":106.922662,"station_name":"Buaran","transit":false,"line":1,"is_transit":false,"distance":3100,"station_id":"BUA"},{"i_long":106.939679,"line":1,"transit":false,"is_transit":false,"station_name":"Klenderbaru","time":1,"distance":1305,"i_lat":-6.217455,"station_id":"KLDB"},{"is_transit":false,"station_name":"Cakung","time":8,"i_lat":-6.219053,"station_id":"CUK","i_long":106.951283,"distance":1385,"line":1,"transit":false},{"i_lat":-6.224515,"line":1,"station_id":"KRI","is_transit":false,"i_long":106.977657,"time":3,"transit":false,"distance":3097,"station_name":"Kranji"},{"line":1,"is_transit":false,"transit":false,"i_long":106.997013,"station_name":"Bekasi","distance":2520,"station_id":"BKS","i_lat":-6.236616,"time":4},{"transit":false,"station_name":"Bekasi Timur","i_long":107.016735,"station_id":"BKST","i_lat":-6.248029,"is_transit":false,"line":1,"time":2,"distance":2368},{"time":7,"transit":false,"is_transit":false,"station_name":"Tambun","i_lat":-6.258864,"i_long":107.055722,"line":1,"distance":4460,"station_id":"TB"},{"station_name":"Cibitung","transit":false,"time":3,"distance":3420,"station_id":"CIT","i_long":107.083084,"is_transit":false,"line":1,"i_lat":-6.261877},{"station_id":"TLM","is_transit":false,"transit":false,"i_lat":-6.262938,"i_long":107.093313,"line":1,"distance":2800,"time":2,"station_name":"Metland Telaga Murni"}],[{"station_name":"Cibinong","line":21,"station_id":"CBN","i_long":106.851978,"distance":0,"transit":false,"time":0,"i_lat":-6.46424,"is_transit":false},{"station_id":"PDRG","is_transit":false,"station_name":"Pondok Rajeg","distance":0,"time":0,"transit":false,"i_lat":-6.460735,"i_long":106.824374,"line":21},{"transit":true,"i_long":106.800298,"station_name":"Citayam","station_id":"CTA","distance":0,"line":2,"is_transit":true,"time":0,"i_lat":-6.448811},{"time":6,"distance":5084,"station_name":"Depok","line":2,"i_long":106.816926,"transit":false,"is_transit":false,"i_lat":-6.405256,"station_id":"DP"},{"i_long":106.819451,"transit":false,"distance":1584,"station_name":"Depokbaru","i_lat":-6.391065,"line":2,"time":3,"is_transit":false,"station_id":"DPB"},{"station_name":"Pondok Cina","is_transit":false,"transit":false,"distance":2727,"i_long":106.831114,"time":4,"i_lat":-6.369073,"line":2,"station_id":"POC"},{"i_long":106.831474,"station_name":"Univ. Indonesia","line":2,"station_id":"UI","transit":false,"is_transit":false,"distance":1109,"time":2,"i_lat":-6.360749},{"line":2,"transit":false,"station_id":"UP","i_lat":-6.339291,"time":3,"is_transit":false,"station_name":"Univ. Pancasila","distance":2264,"i_long":106.834175},{"time":2,"transit":false,"station_name":"Lenteng Agung","line":2,"station_id":"LNA","i_long":106.832616,"distance":1029,"is_transit":false,"i_lat":-6.330363},{"i_lat":-6.3080680000000005,"distance":2671,"station_name":"Tanjung Barat","i_long":106.838896,"line":2,"is_transit":false,"time":3,"station_id":"TNT","transit":false},{"time":4,"distance":2820,"is_transit":false,"i_lat":-6.2842400000000005,"transit":false,"station_id":"PSM","station_name":"Pasar Minggu","i_long":106.843999,"line":2},{"distance":2380,"i_lat":-6.263214,"station_id":"PSMB","line":2,"is_transit":false,"station_name":"Pasar Minggu Baru","transit":false,"i_long":106.851577,"time":2},{"is_transit":false,"time":2,"station_id":"DRN","i_lat":-6.255332,"transit":false,"distance":824,"i_long":106.85449,"station_name":"Duren Kalibata","line":2},{"is_transit":false,"station_name":"Cawang","i_long":106.856607,"time":3,"transit":false,"line":2,"distance":1546,"i_lat":-6.242512,"station_id":"CW"},{"station_id":"TEB","line":2,"transit":false,"station_name":"Tebet","i_long":106.857948,"i_lat":-6.226659,"is_transit":false,"time":2,"distance":1230},{"i_lat":-6.209883,"time":4,"distance":2610,"station_name":"Manggarai","i_long":106.84912,"transit":false,"station_id":"MRI","line":2,"is_transit":false},{"i_lat":-6.198556,"transit":false,"distance":1590,"station_id":"CKI","station_name":"Cikini","i_long":106.840169,"is_transit":false,"line":2,"time":4},{"station_name":"Gondangdia","i_long":106.832183,"time":3,"line":2,"transit":false,"distance":1750,"i_lat":-6.186295,"station_id":"GDD","is_transit":false},{"station_id":"JUA","transit":false,"station_name":"Juanda","i_lat":-6.166716,"line":2,"distance":2015,"time":4,"is_transit":false,"i_long":106.828284},{"station_name":"Sawah Besar","line":2,"transit":false,"i_lat":-6.160725,"station_id":"SW","time":2,"distance":1149,"i_long":106.827103,"is_transit":false},{"time":2,"is_transit":false,"transit":false,"station_name":"Manggabesar","distance":906,"i_lat":-6.149769,"station_id":"MGB","line":2,"i_long":106.82482},{"station_name":"Jayakarta","i_long":106.820901,"station_id":"JAY","i_lat":-6.141205,"is_transit":false,"transit":false,"distance":1080,"time":2,"line":2},{"is_transit":true,"distance":1264,"i_lat":-6.137569,"transit":true,"time":4,"station_id":"JAKK","i_long":106.812439,"line":2,"station_name":"Jakarta Kota"},{"time":3,"distance":1364,"is_transit":true,"station_id":"KPB","i_long":106.826365,"transit":true,"line":4,"station_name":"Kampung Bandan","i_lat":-6.132549},{"time":3,"is_transit":false,"distance":1444,"line":11,"station_name":"Rajawali","i_long":106.836569,"station_id":"RJW","transit":false,"i_lat":-6.14505},{"distance":1901,"transit":false,"time":5,"i_long":106.839204,"i_lat":-6.161728,"line":11,"is_transit":false,"station_name":"Kemayoran","station_id":"KMO"},{"station_name":"Pasar Senen","time":4,"distance":1436,"i_long":106.84368,"line":11,"transit":false,"is_transit":false,"i_lat":-6.174784,"station_id":"PSE"},{"time":8,"i_long":106.850107,"transit":false,"i_lat":-6.185975,"distance":1567,"is_transit":false,"station_id":"GST","station_name":"Gang Sentiong","line":11},{"i_long":106.855437,"station_name":"Kramat","station_id":"KMT","is_transit":false,"line":11,"distance":973,"time":1,"transit":false,"i_lat":-6.193792},{"distance":1829,"station_id":"POK","transit":false,"time":2,"is_transit":false,"i_lat":-6.209188,"i_long":106.861737,"station_name":"Pondok Jati","line":11},{"is_transit":true,"i_long":106.86807400000001,"station_name":"Jatinegara","time":9,"transit":true,"station_id":"JNG","distance":1236,"i_lat":-6.215091,"line":1},{"i_long":106.899548,"transit":false,"station_name":"Klender","distance":3395,"is_transit":false,"time":3,"i_lat":-6.2135,"line":1,"station_id":"KLD"},{"i_long":106.922662,"time":2,"distance":3100,"station_name":"Buaran","transit":false,"i_lat":-6.215568,"is_transit":false,"station_id":"BUA","line":1},{"distance":1305,"is_transit":false,"i_long":106.939679,"transit":false,"station_name":"Klenderbaru","i_lat":-6.217455,"station_id":"KLDB","time":1,"line":1},{"is_transit":false,"i_lat":-6.219053,"i_long":106.951283,"station_id":"CUK","station_name":"Cakung","distance":1385,"line":1,"time":8,"transit":false},{"is_transit":false,"station_id":"KRI","i_lat":-6.224515,"i_long":106.977657,"distance":3097,"line":1,"time":3,"station_name":"Kranji","transit":false},{"transit":false,"is_transit":false,"distance":2520,"station_name":"Bekasi","time":4,"i_lat":-6.236616,"i_long":106.997013,"station_id":"BKS","line":1},{"station_name":"Bekasi Timur","i_lat":-6.248029,"station_id":"BKST","transit":false,"time":2,"is_transit":false,"distance":2368,"i_long":107.016735,"line":1},{"time":7,"i_long":107.055722,"i_lat":-6.258864,"line":1,"transit":false,"is_transit":false,"distance":4460,"station_id":"TB","station_name":"Tambun"},{"line":1,"is_transit":false,"i_long":107.083084,"distance":3420,"time":3,"station_id":"CIT","station_name":"Cibitung","i_lat":-6.261877,"transit":false},{"distance":2800,"line":1,"station_name":"Metland Telaga Murni","i_lat":-6.262938,"is_transit":false,"time":2,"station_id":"TLM","i_long":107.093313,"transit":false}]]}