{"data":[[{"time":0,"is_transit":false,"station_name":"Cibinong","distance":0,"transit":false,"i_lat":-6.46424,"i_long":106.851978,"station_id":"CBN","line":0},{"distance":6740,"station_id":"CTA","transit":false,"time":10,"station_name":"Citayam","line":1,"is_transit":true,"i_long":106.800298,"i_lat":-6.448811},{"station_id":"DP","line":0,"time":6,"station_name":"Depok","i_lat":-6.405256,"is_transit":false,"distance":5084,"transit":false,"i_long":106.816926},{"i_lat":-6.391065,"distance":1584,"line":0,"is_transit":false,"station_name":"Depokbaru","transit":false,"station_id":"DPB","time":3,"i_long":106.819451},{"distance":2727,"station_id":"POC","line":2,"station_name":"Pondok Cina","time":4,"i_lat":-6.369073,"i_long":106.831114,"transit":false,"is_transit":false},{"distance":1109,"station_name":"Univ. Indonesia","is_transit":false,"transit":false,"i_lat":-6.360749,"i_long":106.831474,"line":2,"time":2,"station_id":"UI"},{"time":3,"i_long":106.834175,"station_id":"UP","line":2,"distance":2264,"station_name":"Univ. Pancasila","transit":false,"i_lat":-6.339291,"is_transit":false},{"time":2,"station_name":"Lenteng Agung","transit":false,"distance":1029,"i_lat":-6.330363,"i_long":106.832616,"station_id":"LNA","is_transit":false,"line":2},{"time":3,"station_name":"Tanjung Barat","i_long":106.838896,"i_lat":-6.3080680000000005,"transit":false,"station_id":"TNT","is_transit":false,"distance":2671,"line":2},{"i_lat":-6.2842400000000005,"line":2,"transit":false,"time":4,"station_id":"PSM","station_name":"Pasar Minggu","i_long":106.843999,"is_transit":false,"distance":2820},{"station_id":"PSMB","station_name":"Pasar Minggu Baru","time":2,"transit":false,"line":2,"i_long":106.851577,"distance":2380,"i_lat":-6.263214,"is_transit":false},{"i_lat":-6.255332,"is_transit":false,"station_id":"DRN","distance":824,"station_name":"Duren Kalibata","transit":false,"i_long":106.85449,"line":0,"time":2},{"distance":1546,"is_transit":false,"i_lat":-6.242512,"i_long":106.856607,"station_id":"CW","time":3,"station_name":"Cawang","transit":false,"line":0},{"time":2,"distance":1230,"is_transit":false,"station_id":"TEB","i_long":106.857948,"transit":false,"i_lat":-6.226659,"station_name":"Tebet","line":2},{"line":0,"i_long":106.84912,"station_id":"MRI","is_transit":true,"time":4,"distance":2610,"i_lat":-6.209883,"transit":true,"station_name":"Manggarai"},{"station_name":"Cikini","transit":false,"time":4,"is_transit":false,"i_lat":-6.198556,"station_id":"CKI","distance":1590,"i_long":106.840169,"line":0},{"i_long":106.832183,"line":2,"is_transit":false,"distance":1750,"station_name":"Gondangdia","time":3,"transit":false,"i_lat":-6.186295,"station_id":"GDD"},{"is_transit":false,"distance":2015,"station_name":"Juanda","transit":false,"station_id":"JUA","line":2,"i_long":106.828284,"time":4,"i_lat":-6.166716},{"i_long":106.827103,"time":2,"distance":1149,"station_name":"Sawah Besar","is_transit":false,"line":2,"station_id":"SW","i_lat":-6.160725,"transit":false},{"station_id":"MGB","transit":false,"line":2,"distance":906,"i_long":106.82482,"station_name":"Manggabesar","time":2,"is_transit":false,"i_lat":-6.149769},{"station_id":"JAY","distance":1080,"station_name":"Jayakarta","is_transit":false,"i_lat":-6.141205,"i_long":106.820901,"line":7,"transit":false,"time":2}],[{"transit":false,"line":0,"time":0,"i_lat":-6.46424,"is_transit":false,"i_long":106.851978,"station_name":"Cibinong","station_id":"CBN","distance":0},{"line":1,"is_transit":true,"station_id":"CTA","distance":6740,"time":10,"transit":false,"station_name":"Citayam","i_lat":-6.448811,"i_long":106.800298},{"transit":false,"time":6,"line":0,"distance":5084,"station_name":"Depok","i_long":106.816926,"station_id":"DP","is_transit":false,"i_lat":-6.405256},{"is_transit":false,"station_name":"Depokbaru","i_lat":-6.391065,"time":3,"transit":false,"i_long":106.819451,"distance":1584,"line":0,"station_id":"DPB"},{"line":2,"station_name":"Pondok Cina","distance":2727,"transit":false,"time":4,"i_long":106.831114,"station_id":"POC","is_transit":false,"i_lat":-6.369073},{"i_long":106.831474,"i_lat":-6.360749,"line":2,"station_id":"UI","time":2,"is_transit":false,"distance":1109,"station_name":"Univ. Indonesia","transit":false},{"station_name":"Univ. Pancasila","transit":false,"line":2,"is_transit":false,"distance":2264,"station_id":"UP","time":3,"i_long":106.834175,"i_lat":-6.339291},{"is_transit":false,"i_lat":-6.330363,"i_long":106.832616,"station_name":"Lenteng Agung","distance":1029,"station_id":"LNA","transit":false,"line":2,"time":2},{"distance":2671,"transit":false,"station_id":"TNT","station_name":"Tanjung Barat","i_long":106.838896,"line":2,"i_lat":-6.3080680000000005,"is_transit":false,"time":3},{"i_long":106.843999,"line":2,"i_lat":-6.2842400000000005,"distance":2820,"station_id":"PSM","is_transit":false,"station_name":"Pasar Minggu","transit":false,"time":4},{"time":2,"line":2,"station_name":"Pasar Minggu Baru","i_long":106.851577,"station_id":"PSMB","is_transit":false,"distance":2380,"transit":false,"i_lat":-6.263214},{"i_lat":-6.255332,"i_long":106.85449,"station_id":"DRN","is_transit":false,"station_name":"Duren Kalibata","time":2,"distance":824,"line":0,"transit":false},{"i_lat":-6.242512,"station_name":"Cawang","is_transit":false,"distance":1546,"station_id":"CW","line":0,"time":3,"transit":false,"i_long":106.856607},{"i_long":106.857948,"line":2,"station_name":"Tebet","i_lat":-6.226659,"station_id":"TEB","is_transit":false,"distance":1230,"transit":false,"time":2},{"distance":2610,"station_name":"Manggarai","i_lat":-6.209883,"i_long":106.84912,"time":4,"line":0,"station_id":"MRI","is_transit":true,"transit":true},{"station_id":"SUD","i_long":106.822649,"line":1,"time":4,"station_name":"Sudirman","i_lat":-6.202263,"transit":false,"distance":3186,"is_transit":false},{"is_transit":false,"station_id":"SUDB","station_name":"Sudirman Baru","transit":false,"line":1,"time":1,"distance":280,"i_lat":-6.201433,"i_long":106.819881},{"station_name":"Karet","i_lat":-6.20132,"line":1,"distance":471,"transit":false,"station_id":"KAT","time":1,"i_long":106.816351,"is_transit":false},{"i_lat":-6.185545,"station_id":"THB","is_transit":true,"time":5,"station_name":"Tanah Abang","transit":false,"line":1,"i_long":106.811091,"distance":2029},{"station_id":"DU","is_transit":true,"i_long":106.800832,"i_lat":-6.155215,"line":1,"distance":3632,"station_name":"Duri","time":8,"transit":true},{"time":4,"distance":1230,"station_name":"Angke","i_lat":-6.144674,"i_long":106.79867,"transit":false,"line":0,"is_transit":false,"station_id":"AK"},{"station_name":"Kampung Bandan","transit":false,"distance":4102,"line":0,"time":9,"i_long":106.826365,"i_lat":-6.132549,"is_transit":true,"station_id":"KPB"},{"time":3,"station_id":"JAKK","distance":1364,"i_lat":-6.137569,"is_transit":true,"i_long":106.812439,"station_name":"Jakarta Kota","transit":true,"line":0},{"transit":false,"station_id":"JAY","line":7,"time":4,"i_lat":-6.141205,"distance":1264,"station_name":"Jayakarta","i_long":106.820901,"is_transit":false}],[{"station_id":"CBN","distance":0,"i_lat":-6.46424,"station_name":"Cibinong","i_long":106.851978,"time":0,"line":0,"is_transit":false,"transit":false},{"line":1,"station_id":"CTA","transit":false,"time":10,"distance":6740,"i_lat":-6.448811,"i_long":106.800298,"station_name":"Citayam","is_transit":true},{"station_id":"DP","time":6,"i_long":106.816926,"line":0,"transit":false,"i_lat":-6.405256,"distance":5084,"is_transit":false,"station_name":"Depok"},{"time":3,"i_long":106.819451,"line":0,"station_name":"Depokbaru","is_transit":false,"station_id":"DPB","i_lat":-6.391065,"distance":1584,"transit":false},{"transit":false,"station_id":"POC","station_name":"Pondok Cina","time":4,"is_transit":false,"i_lat":-6.369073,"line":2,"i_long":106.831114,"distance":2727},{"is_transit":false,"station_id":"UI","time":2,"transit":false,"i_long":106.831474,"line":2,"i_lat":-6.360749,"distance":1109,"station_name":"Univ. Indonesia"},{"distance":2264,"line":2,"time":3,"station_id":"UP","is_transit":false,"station_name":"Univ. Pancasila","transit":false,"i_lat":-6.339291,"i_long":106.834175},{"transit":false,"i_long":106.832616,"station_name":"Lenteng Agung","i_lat":-6.330363,"station_id":"LNA","time":2,"distance":1029,"line":2,"is_transit":false},{"i_long":106.838896,"is_transit":false,"station_name":"Tanjung Barat","distance":2671,"transit":false,"station_id":"TNT","time":3,"i_lat":-6.3080680000000005,"line":2},{"is_transit":false,"distance":2820,"i_long":106.843999,"station_id":"PSM","time":4,"i_lat":-6.2842400000000005,"line":2,"station_name":"Pasar Minggu","transit":false},{"transit":false,"i_lat":-6.263214,"distance":2380,"time":2,"is_transit":false,"i_long":106.851577,"station_id":"PSMB","line":2,"station_name":"Pasar Minggu Baru"},{"distance":824,"i_lat":-6.255332,"station_name":"Duren Kalibata","i_long":106.85449,"line":0,"is_transit":false,"transit":false,"station_id":"DRN","time":2},{"time":3,"station_name":"Cawang","line":0,"i_long":106.856607,"is_transit":false,"distance":1546,"station_id":"CW","transit":false,"i_lat":-6.242512},{"station_name":"Tebet","is_transit":false,"line":2,"time":2,"i_long":106.857948,"transit":false,"i_lat":-6.226659,"station_id":"TEB","distance":1230},{"station_id":"MRI","station_name":"Manggarai","transit":true,"distance":2610,"i_lat":-6.209883,"is_transit":true,"time":4,"i_long":106.84912,"line":0},{"distance":1275,"station_name":"Matraman","transit":false,"station_id":"MTR","time":2,"i_lat":-6.212485,"line":1,"i_long":106.858896,"is_transit":false},{"time":8,"station_id":"JNG","i_long":106.86807400000001,"line":0,"distance":1377,"station_name":"Jatinegara","transit":true,"i_lat":-6.215091,"is_transit":true},{"is_transit":false,"station_id":"POK","distance":1236,"transit":false,"i_lat":-6.209188,"i_long":106.861737,"station_name":"Pondok Jati","line":11,"time":2},{"is_transit":false,"i_long":106.855437,"distance":1829,"transit":false,"line":11,"station_name":"Kramat","i_lat":-6.193792,"time":2,"station_id":"KMT"},{"distance":973,"line":11,"transit":false,"time":1,"station_id":"GST","i_long":106.850107,"i_lat":-6.185975,"is_transit":false,"station_name":"Gang Sentiong"},{"time":8,"line":11,"is_transit":false,"i_lat":-6.174784,"station_name":"Pasar Senen","station_id":"PSE","transit":false,"distance":1567,"i_long":106.84368},{"station_id":"KMO","i_lat":-6.161728,"distance":1436,"i_long":106.839204,"transit":false,"station_name":"Kemayoran","time":4,"is_transit":false,"line":11},{"i_lat":-6.14505,"station_name":"Rajawali","time":5,"station_id":"RJW","is_transit":false,"distance":1901,"i_long":106.836569,"line":11,"transit":false},{"is_transit":true,"station_id":"KPB","distance":1444,"i_long":106.826365,"time":3,"line":0,"station_name":"Kampung Bandan","transit":true,"i_lat":-6.132549},{"time":3,"distance":1364,"i_lat":-6.137569,"station_name":"Jakarta Kota","transit":true,"i_long":106.812439,"line":0,"station_id":"JAKK","is_transit":true},{"station_id":"JAY","i_long":106.820901,"station_name":"Jayakarta","i_lat":-6.141205,"time":4,"distance":1264,"transit":false,"is_transit":false,"line":7}]]}