{"data":[[{"line":21,"time":0,"transit":false,"distance":0,"station_id":"CBN","i_lat":-6.46424,"station_name":"Cibinong","i_long":106.851978,"is_transit":false},{"is_transit":false,"distance":0,"transit":false,"time":0,"station_id":"PDRG","station_name":"Pondok Rajeg","i_lat":-6.460735,"line":21,"i_long":106.824374},{"is_transit":true,"distance":0,"station_name":"Citayam","transit":true,"line":2,"station_id":"CTA","i_long":106.800298,"time":0,"i_lat":-6.448811},{"i_lat":-6.405256,"station_name":"Depok","station_id":"DP","is_transit":false,"time":6,"line":2,"transit":false,"i_long":106.816926,"distance":5084},{"transit":false,"time":3,"i_lat":-6.391065,"i_long":106.819451,"station_name":"Depokbaru","line":2,"station_id":"DPB","is_transit":false,"distance":1584},{"transit":false,"is_transit":false,"time":4,"station_id":"POC","distance":2727,"station_name":"Pondok Cina","i_lat":-6.369073,"line":2,"i_long":106.831114},{"transit":false,"is_transit":false,"distance":1109,"i_lat":-6.360749,"time":2,"station_id":"UI","line":2,"station_name":"Univ. Indonesia","i_long":106.831474},{"time":3,"distance":2264,"i_lat":-6.339291,"station_id":"UP","is_transit":false,"transit":false,"i_long":106.834175,"station_name":"Univ. Pancasila","line":2},{"is_transit":false,"transit":false,"i_long":106.832616,"line":2,"distance":1029,"station_id":"LNA","station_name":"Lenteng Agung","i_lat":-6.330363,"time":2},{"line":2,"station_id":"TNT","i_long":106.838896,"transit":false,"time":3,"station_name":"Tanjung Barat","is_transit":false,"i_lat":-6.3080680000000005,"distance":2671},{"transit":false,"distance":2820,"i_lat":-6.2842400000000005,"station_name":"Pasar Minggu","time":4,"station_id":"PSM","i_long":106.843999,"is_transit":false,"line":2},{"is_transit":false,"line":2,"distance":2380,"station_name":"Pasar Minggu Baru","transit":false,"i_lat":-6.263214,"time":2,"i_long":106.851577,"station_id":"PSMB"},{"distance":824,"station_id":"DRN","transit":false,"i_long":106.85449,"time":2,"i_lat":-6.255332,"line":2,"station_name":"Duren Kalibata","is_transit":false},{"time":3,"station_id":"CW","is_transit":false,"i_long":106.856607,"line":2,"i_lat":-6.242512,"distance":1546,"station_name":"Cawang","transit":false},{"station_name":"Tebet","transit":false,"station_id":"TEB","line":2,"i_lat":-6.226659,"time":2,"i_long":106.857948,"distance":1230,"is_transit":false},{"station_id":"MRI","i_lat":-6.209883,"i_long":106.84912,"transit":true,"station_name":"Manggarai","time":4,"distance":2610,"is_transit":true,"line":2},{"is_transit":false,"station_id":"SUD","i_lat":-6.202263,"i_long":106.822649,"time":4,"line":1,"distance":3186,"station_name":"Sudirman","transit":false},{"time":1,"station_id":"SUDB","i_long":106.819881,"transit":false,"distance":280,"station_name":"Sudirman Baru","line":1,"i_lat":-6.201433,"is_transit":false},{"station_name":"Karet","i_long":106.816351,"time":1,"line":1,"transit":false,"station_id":"KAT","i_lat":-6.20132,"is_transit":false,"distance":471},{"station_id":"THB","i_long":106.811091,"transit":true,"line":1,"time":5,"station_name":"Tanah Abang","distance":2029,"i_lat":-6.185545,"is_transit":true},{"i_long":106.79689,"transit":false,"i_lat":-6.207404,"station_id":"PLM","time":6,"distance":3191,"line":6,"is_transit":false,"station_name":"Palmerah"}],[{"station_name":"Cibinong","transit":false,"distance":0,"i_lat":-6.46424,"i_long":106.851978,"time":0,"line":21,"station_id":"CBN","is_transit":false},{"station_name":"Pondok Rajeg","line":21,"transit":false,"distance":0,"i_lat":-6.460735,"station_id":"PDRG","is_transit":false,"time":0,"i_long":106.824374},{"distance":0,"line":2,"i_lat":-6.448811,"is_transit":true,"i_long":106.800298,"station_id":"CTA","transit":true,"station_name":"Citayam","time":0},{"is_transit":false,"transit":false,"line":2,"station_id":"DP","distance":5084,"i_long":106.816926,"station_name":"Depok","time":6,"i_lat":-6.405256},{"time":3,"is_transit":false,"transit":false,"distance":1584,"station_id":"DPB","i_lat":-6.391065,"line":2,"station_name":"Depokbaru","i_long":106.819451},{"station_name":"Pondok Cina","is_transit":false,"i_lat":-6.369073,"time":4,"line":2,"distance":2727,"station_id":"POC","i_long":106.831114,"transit":false},{"distance":1109,"transit":false,"line":2,"station_id":"UI","i_lat":-6.360749,"is_transit":false,"time":2,"i_long":106.831474,"station_name":"Univ. Indonesia"},{"distance":2264,"i_lat":-6.339291,"station_id":"UP","transit":false,"line":2,"time":3,"station_name":"Univ. Pancasila","i_long":106.834175,"is_transit":false},{"is_transit":false,"transit":false,"station_id":"LNA","i_long":106.832616,"time":2,"station_name":"Lenteng Agung","distance":1029,"i_lat":-6.330363,"line":2},{"is_transit":false,"distance":2671,"i_lat":-6.3080680000000005,"i_long":106.838896,"time":3,"line":2,"transit":false,"station_name":"Tanjung Barat","station_id":"TNT"},{"station_name":"Pasar Minggu","i_long":106.843999,"time":4,"i_lat":-6.2842400000000005,"line":2,"is_transit":false,"distance":2820,"station_id":"PSM","transit":false},{"station_id":"PSMB","time":2,"station_name":"Pasar Minggu Baru","is_transit":false,"transit":false,"distance":2380,"i_long":106.851577,"i_lat":-6.263214,"line":2},{"station_id":"DRN","is_transit":false,"i_lat":-6.255332,"i_long":106.85449,"line":2,"time":2,"station_name":"Duren Kalibata","transit":false,"distance":824},{"station_id":"CW","distance":1546,"is_transit":false,"transit":false,"i_lat":-6.242512,"station_name":"Cawang","i_long":106.856607,"line":2,"time":3},{"line":2,"transit":false,"is_transit":false,"i_long":106.857948,"distance":1230,"time":2,"i_lat":-6.226659,"station_id":"TEB","station_name":"Tebet"},{"station_id":"MRI","i_long":106.84912,"is_transit":false,"transit":false,"station_name":"Manggarai","time":4,"i_lat":-6.209883,"line":2,"distance":2610},{"station_id":"CKI","i_lat":-6.198556,"is_transit":false,"distance":1590,"transit":false,"line":2,"i_long":106.840169,"time":4,"station_name":"Cikini"},{"transit":false,"i_lat":-6.186295,"is_transit":false,"line":2,"station_name":"Gondangdia","distance":1750,"station_id":"GDD","time":3,"i_long":106.832183},{"station_name":"Juanda","i_lat":-6.166716,"transit":false,"i_long":106.828284,"line":2,"station_id":"JUA","distance":2015,"is_transit":false,"time":4},{"distance":1149,"station_name":"Sawah Besar","station_id":"SW","is_transit":false,"transit":false,"i_long":106.827103,"line":2,"time":2,"i_lat":-6.160725},{"distance":906,"transit":false,"line":2,"is_transit":false,"i_lat":-6.149769,"i_long":106.82482,"time":2,"station_id":"MGB","station_name":"Manggabesar"},{"i_lat":-6.141205,"time":2,"transit":false,"station_name":"Jayakarta","is_transit":false,"station_id":"JAY","distance":1080,"line":2,"i_long":106.820901},{"is_transit":true,"station_name":"Jakarta Kota","i_long":106.812439,"line":2,"distance":1264,"i_lat":-6.137569,"transit":true,"station_id":"JAKK","time":4},{"station_id":"KPB","distance":1364,"is_transit":true,"i_lat":-6.132549,"time":3,"line":4,"transit":true,"i_long":106.826365,"station_name":"Kampung Bandan"},{"distance":4102,"is_transit":false,"i_lat":-6.144674,"i_long":106.79867,"station_id":"AK","time":9,"station_name":"Angke","transit":false,"line":1},{"transit":false,"station_name":"Duri","line":1,"i_lat":-6.155215,"distance":1230,"time":4,"station_id":"DU","is_transit":false,"i_long":106.800832},{"i_long":106.811091,"line":1,"transit":true,"time":8,"is_transit":true,"distance":3632,"station_id":"THB","station_name":"Tanah Abang","i_lat":-6.185545},{"i_long":106.79689,"transit":false,"station_id":"PLM","i_lat":-6.207404,"distance":3191,"line":6,"is_transit":false,"time":6,"station_name":"Palmerah"}],[{"transit":false,"line":21,"is_transit":false,"i_lat":-6.46424,"station_name":"Cibinong","distance":0,"i_long":106.851978,"time":0,"station_id":"CBN"},{"time":0,"distance":0,"line":21,"station_name":"Pondok Rajeg","i_lat":-6.460735,"is_transit":false,"station_id":"PDRG","transit":false,"i_long":106.824374},{"transit":true,"time":0,"distance":0,"station_id":"CTA","line":2,"i_lat":-6.448811,"i_long":106.800298,"is_transit":true,"station_name":"Citayam"},{"is_transit":false,"i_long":106.816926,"i_lat":-6.405256,"transit":false,"time":6,"station_name":"Depok","distance":5084,"line":2,"station_id":"DP"},{"distance":1584,"station_name":"Depokbaru","i_long":106.819451,"line":2,"i_lat":-6.391065,"transit":false,"time":3,"station_id":"DPB","is_transit":false},{"line":2,"transit":false,"i_lat":-6.369073,"station_name":"Pondok Cina","distance":2727,"i_long":106.831114,"time":4,"station_id":"POC","is_transit":false},{"distance":1109,"station_id":"UI","i_lat":-6.360749,"station_name":"Univ. Indonesia","time":2,"line":2,"i_long":106.831474,"transit":false,"is_transit":false},{"line":2,"time":3,"station_id":"UP","is_transit":false,"distance":2264,"i_lat":-6.339291,"transit":false,"i_long":106.834175,"station_name":"Univ. Pancasila"},{"distance":1029,"i_lat":-6.330363,"is_transit":false,"time":2,"line":2,"transit":false,"i_long":106.832616,"station_id":"LNA","station_name":"Lenteng Agung"},{"i_long":106.838896,"transit":false,"time":3,"station_name":"Tanjung Barat","station_id":"TNT","is_transit":false,"i_lat":-6.3080680000000005,"line":2,"distance":2671},{"i_long":106.843999,"transit":false,"time":4,"station_id":"PSM","distance":2820,"i_lat":-6.2842400000000005,"is_transit":false,"line":2,"station_name":"Pasar Minggu"},{"i_lat":-6.263214,"line":2,"i_long":106.851577,"station_name":"Pasar Minggu Baru","transit":false,"is_transit":false,"distance":2380,"time":2,"station_id":"PSMB"},{"is_transit":false,"transit":false,"i_long":106.85449,"line":2,"station_name":"Duren Kalibata","i_lat":-6.255332,"time":2,"station_id":"DRN","distance":824},{"station_name":"Cawang","is_transit":false,"time":3,"i_lat":-6.242512,"line":2,"station_id":"CW","distance":1546,"transit":false,"i_long":106.856607},{"station_id":"TEB","transit":false,"time":2,"distance":1230,"is_transit":false,"i_lat":-6.226659,"i_long":106.857948,"line":2,"station_name":"Tebet"},{"transit":true,"i_long":106.84912,"time":4,"station_name":"Manggarai","distance":2610,"line":2,"i_lat":-6.209883,"station_id":"MRI","is_transit":true},{"station_id":"MTR","distance":1275,"i_lat":-6.212485,"i_long":106.858896,"transit":false,"is_transit":false,"time":2,"station_name":"Matraman","line":1},{"station_name":"Jatinegara","station_id":"JNG","transit":true,"distance":1377,"i_lat":-6.215091,"line":1,"is_transit":true,"time":8,"i_long":106.86807400000001},{"i_lat":-6.209188,"distance":1236,"i_long":106.861737,"is_transit":false,"time":2,"station_name":"Pondok Jati","line":11,"transit":false,"station_id":"POK"},{"i_long":106.855437,"i_lat":-6.193792,"transit":false,"distance":1829,"station_id":"KMT","time":2,"line":11,"is_transit":false,"station_name":"Kramat"},{"is_transit":false,"station_id":"GST","station_name":"Gang Sentiong","i_long":106.850107,"transit":false,"distance":973,"line":11,"time":1,"i_lat":-6.185975},{"transit":false,"station_name":"Pasar Senen","i_lat":-6.174784,"distance":1567,"line":11,"is_transit":false,"time":8,"station_id":"PSE","i_long":106.84368},{"line":11,"time":4,"transit":false,"i_lat":-6.161728,"is_transit":false,"station_name":"Kemayoran","station_id":"KMO","i_long":106.839204,"distance":1436},{"distance":1901,"i_long":106.836569,"station_id":"RJW","station_name":"Rajawali","transit":false,"i_lat":-6.14505,"time":5,"line":11,"is_transit":false},{"distance":1444,"station_id":"KPB","i_long":106.826365,"line":4,"station_name":"Kampung Bandan","is_transit":true,"time":3,"transit":true,"i_lat":-6.132549},{"line":1,"station_id":"AK","transit":false,"is_transit":false,"i_long":106.79867,"distance":4102,"time":9,"i_lat":-6.144674,"station_name":"Angke"},{"line":1,"station_id":"DU","distance":1230,"i_long":106.800832,"time":4,"transit":false,"is_transit":false,"station_name":"Duri","i_lat":-6.155215},{"station_id":"THB","is_transit":true,"station_name":"Tanah Abang","i_lat":-6.185545,"i_long":106.811091,"time":8,"transit":true,"line":1,"distance":3632},{"time":6,"i_long":106.79689,"station_id":"PLM","station_name":"Palmerah","distance":3191,"i_lat":-6.207404,"line":6,"is_transit":false,"transit":false}]]}