{"data":[[{"line":21,"i_lat":-6.46424,"is_transit":false,"station_id":"CBN","station_name":"Cibinong","i_long":106.851978,"transit":false,"time":0,"distance":0},{"i_lat":-6.460735,"is_transit":false,"time":0,"i_long":106.824374,"transit":false,"station_id":"PDRG","distance":0,"line":21,"station_name":"Pondok Rajeg"},{"time":0,"station_name":"Citayam","is_transit":true,"transit":true,"i_lat":-6.448811,"i_long":106.800298,"station_id":"CTA","distance":0,"line":2},{"time":6,"transit":false,"station_name":"Depok","i_lat":-6.405256,"i_long":106.816926,"station_id":"DP","line":2,"distance":5084,"is_transit":false},{"station_id":"DPB","i_long":106.819451,"line":2,"is_transit":false,"time":3,"station_name":"Depokbaru","i_lat":-6.391065,"distance":1584,"transit":false},{"i_lat":-6.369073,"i_long":106.831114,"is_transit":false,"transit":false,"time":4,"station_id":"POC","line":2,"distance":2727,"station_name":"Pondok Cina"},{"station_name":"Univ. Indonesia","is_transit":false,"line":2,"time":2,"station_id":"UI","i_long":106.831474,"transit":false,"i_lat":-6.360749,"distance":1109},{"transit":false,"line":2,"station_id":"UP","time":3,"i_long":106.834175,"is_transit":false,"distance":2264,"station_name":"Univ. Pancasila","i_lat":-6.339291}]]}