{"data":[[{"time":0,"transit":false,"line":21,"distance":0,"station_id":"CBN","is_transit":false,"station_name":"Cibinong","i_long":106.851978,"i_lat":-6.46424},{"distance":0,"station_id":"PDRG","i_lat":-6.460735,"i_long":106.824374,"line":21,"is_transit":false,"station_name":"Pondok Rajeg","transit":false,"time":0},{"distance":0,"line":2,"is_transit":true,"station_id":"CTA","transit":true,"i_long":106.800298,"time":0,"i_lat":-6.448811,"station_name":"Citayam"},{"i_lat":-6.405256,"time":6,"is_transit":false,"transit":false,"distance":5084,"i_long":106.816926,"line":2,"station_id":"DP","station_name":"Depok"},{"station_name":"Depokbaru","is_transit":false,"time":3,"distance":1584,"i_long":106.819451,"transit":false,"station_id":"DPB","line":2,"i_lat":-6.391065},{"station_id":"POC","is_transit":false,"time":4,"transit":false,"line":2,"i_long":106.831114,"distance":2727,"station_name":"Pondok Cina","i_lat":-6.369073},{"station_name":"Univ. Indonesia","i_lat":-6.360749,"distance":1109,"time":2,"line":2,"i_long":106.831474,"transit":false,"station_id":"UI","is_transit":false},{"station_name":"Univ. Pancasila","i_lat":-6.339291,"time":3,"is_transit":false,"station_id":"UP","i_long":106.834175,"line":2,"transit":false,"distance":2264},{"transit":false,"station_name":"Lenteng Agung","distance":1029,"line":2,"station_id":"LNA","i_long":106.832616,"i_lat":-6.330363,"time":2,"is_transit":false},{"i_long":106.838896,"transit":false,"line":2,"i_lat":-6.3080680000000005,"time":3,"is_transit":false,"station_name":"Tanjung Barat","distance":2671,"station_id":"TNT"},{"is_transit":false,"station_name":"Pasar Minggu","transit":false,"station_id":"PSM","i_long":106.843999,"time":4,"distance":2820,"line":2,"i_lat":-6.2842400000000005},{"station_name":"Pasar Minggu Baru","transit":false,"i_lat":-6.263214,"i_long":106.851577,"time":2,"station_id":"PSMB","distance":2380,"is_transit":false,"line":2},{"distance":824,"station_name":"Duren Kalibata","station_id":"DRN","is_transit":false,"transit":false,"i_long":106.85449,"time":2,"line":2,"i_lat":-6.255332},{"transit":false,"time":3,"is_transit":false,"line":2,"i_long":106.856607,"i_lat":-6.242512,"distance":1546,"station_id":"CW","station_name":"Cawang"},{"time":2,"i_lat":-6.226659,"station_name":"Tebet","i_long":106.857948,"transit":false,"is_transit":false,"station_id":"TEB","line":2,"distance":1230},{"i_long":106.84912,"time":4,"station_id":"MRI","distance":2610,"is_transit":true,"station_name":"Manggarai","transit":true,"i_lat":-6.209883,"line":2},{"i_long":106.858896,"line":1,"i_lat":-6.212485,"time":2,"transit":false,"station_id":"MTR","is_transit":false,"station_name":"Matraman","distance":1275},{"is_transit":false,"transit":false,"station_name":"Jatinegara","distance":1377,"station_id":"JNG","i_lat":-6.215091,"time":8,"line":1,"i_long":106.86807400000001},{"i_long":106.899548,"line":1,"time":3,"station_id":"KLD","station_name":"Klender","is_transit":false,"i_lat":-6.2135,"transit":false,"distance":3395},{"station_name":"Buaran","is_transit":false,"station_id":"BUA","i_lat":-6.215568,"i_long":106.922662,"transit":false,"time":2,"distance":3100,"line":1},{"station_id":"KLDB","i_long":106.939679,"line":1,"i_lat":-6.217455,"time":1,"is_transit":false,"transit":false,"distance":1305,"station_name":"Klenderbaru"},{"transit":false,"distance":1385,"station_name":"Cakung","station_id":"CUK","i_lat":-6.219053,"line":1,"i_long":106.951283,"is_transit":false,"time":8},{"i_lat":-6.224515,"station_name":"Kranji","transit":false,"station_id":"KRI","i_long":106.977657,"distance":3097,"time":3,"line":1,"is_transit":false},{"station_id":"BKS","station_name":"Bekasi","i_long":106.997013,"is_transit":false,"line":1,"time":4,"distance":2520,"i_lat":-6.236616,"transit":false},{"line":1,"transit":false,"i_long":107.016735,"station_name":"Bekasi Timur","is_transit":false,"station_id":"BKST","distance":2368,"i_lat":-6.248029,"time":2},{"station_name":"Tambun","i_lat":-6.258864,"time":7,"is_transit":false,"distance":4460,"i_long":107.055722,"transit":false,"station_id":"TB","line":1}],[{"station_name":"Cibinong","i_lat":-6.46424,"distance":0,"i_long":106.851978,"time":0,"is_transit":false,"transit":false,"station_id":"CBN","line":21},{"station_name":"Pondok Rajeg","distance":0,"is_transit":false,"transit":false,"line":21,"i_long":106.824374,"i_lat":-6.460735,"time":0,"station_id":"PDRG"},{"line":2,"station_name":"Citayam","station_id":"CTA","is_transit":true,"distance":0,"i_lat":-6.448811,"time":0,"transit":true,"i_long":106.800298},{"transit":false,"time":6,"station_id":"DP","distance":5084,"i_lat":-6.405256,"line":2,"i_long":106.816926,"station_name":"Depok","is_transit":false},{"is_transit":false,"station_name":"Depokbaru","i_lat":-6.391065,"line":2,"distance":1584,"station_id":"DPB","time":3,"transit":false,"i_long":106.819451},{"station_name":"Pondok Cina","i_long":106.831114,"line":2,"distance":2727,"time":4,"transit":false,"is_transit":false,"station_id":"POC","i_lat":-6.369073},{"i_long":106.831474,"line":2,"distance":1109,"station_id":"UI","station_name":"Univ. Indonesia","is_transit":false,"transit":false,"time":2,"i_lat":-6.360749},{"i_long":106.834175,"time":3,"is_transit":false,"station_name":"Univ. Pancasila","transit":false,"distance":2264,"station_id":"UP","i_lat":-6.339291,"line":2},{"transit":false,"i_long":106.832616,"station_id":"LNA","is_transit":false,"line":2,"distance":1029,"station_name":"Lenteng Agung","time":2,"i_lat":-6.330363},{"i_lat":-6.3080680000000005,"station_name":"Tanjung Barat","distance":2671,"time":3,"is_transit":false,"station_id":"TNT","line":2,"i_long":106.838896,"transit":false},{"station_name":"Pasar Minggu","line":2,"time":4,"is_transit":false,"distance":2820,"station_id":"PSM","i_lat":-6.2842400000000005,"i_long":106.843999,"transit":false},{"station_id":"PSMB","line":2,"time":2,"transit":false,"station_name":"Pasar Minggu Baru","i_long":106.851577,"distance":2380,"is_transit":false,"i_lat":-6.263214},{"station_name":"Duren Kalibata","is_transit":false,"transit":false,"station_id":"DRN","i_lat":-6.255332,"distance":824,"line":2,"time":2,"i_long":106.85449},{"i_lat":-6.242512,"i_long":106.856607,"transit":false,"station_id":"CW","station_name":"Cawang","line":2,"is_transit":false,"distance":1546,"time":3},{"time":2,"line":2,"station_name":"Tebet","is_transit":false,"i_long":106.857948,"distance":1230,"station_id":"TEB","i_lat":-6.226659,"transit":false},{"transit":true,"distance":2610,"station_name":"Manggarai","time":4,"line":2,"i_lat":-6.209883,"i_long":106.84912,"station_id":"MRI","is_transit":true},{"line":1,"is_transit":false,"station_id":"SUD","i_lat":-6.202263,"station_name":"Sudirman","i_long":106.822649,"time":4,"transit":false,"distance":3186},{"station_name":"Sudirman Baru","is_transit":false,"i_lat":-6.201433,"station_id":"SUDB","i_long":106.819881,"time":1,"transit":false,"line":1,"distance":280},{"distance":471,"station_id":"KAT","line":1,"i_lat":-6.20132,"is_transit":false,"station_name":"Karet","i_long":106.816351,"transit":false,"time":1},{"i_lat":-6.185545,"i_long":106.811091,"line":1,"is_transit":false,"station_name":"Tanah Abang","distance":2029,"station_id":"THB","transit":false,"time":5},{"station_id":"DU","i_lat":-6.155215,"station_name":"Duri","line":1,"time":8,"transit":false,"distance":3632,"is_transit":false,"i_long":106.800832},{"time":4,"line":1,"is_transit":false,"station_name":"Angke","transit":false,"i_lat":-6.144674,"station_id":"AK","i_long":106.79867,"distance":1230},{"is_transit":true,"transit":true,"i_lat":-6.132549,"station_id":"KPB","distance":4102,"i_long":106.826365,"time":9,"line":4,"station_name":"Kampung Bandan"},{"distance":1444,"line":11,"time":3,"station_name":"Rajawali","transit":false,"station_id":"RJW","i_lat":-6.14505,"i_long":106.836569,"is_transit":false},{"is_transit":false,"station_id":"KMO","line":11,"i_lat":-6.161728,"station_name":"Kemayoran","i_long":106.839204,"time":5,"distance":1901,"transit":false},{"is_transit":false,"station_id":"PSE","time":4,"distance":1436,"i_lat":-6.174784,"i_long":106.84368,"line":11,"transit":false,"station_name":"Pasar Senen"},{"line":11,"transit":false,"i_long":106.850107,"time":8,"distance":1567,"station_name":"Gang Sentiong","is_transit":false,"station_id":"GST","i_lat":-6.185975},{"is_transit":false,"station_name":"Kramat","station_id":"KMT","i_lat":-6.193792,"line":11,"distance":973,"time":1,"transit":false,"i_long":106.855437},{"time":2,"i_lat":-6.209188,"station_id":"POK","transit":false,"station_name":"Pondok Jati","is_transit":false,"distance":1829,"i_long":106.861737,"line":11},{"i_long":106.86807400000001,"time":9,"is_transit":true,"line":1,"station_name":"Jatinegara","transit":true,"i_lat":-6.215091,"station_id":"JNG","distance":1236},{"time":3,"station_name":"Klender","i_lat":-6.2135,"station_id":"KLD","i_long":106.899548,"line":1,"transit":false,"is_transit":false,"distance":3395},{"i_long":106.922662,"station_id":"BUA","i_lat":-6.215568,"station_name":"Buaran","transit":false,"line":1,"distance":3100,"is_transit":false,"time":2},{"i_long":106.939679,"transit":false,"is_transit":false,"station_name":"Klenderbaru","distance":1305,"station_id":"KLDB","i_lat":-6.217455,"time":1,"line":1},{"station_name":"Cakung","distance":1385,"station_id":"CUK","i_lat":-6.219053,"is_transit":false,"line":1,"i_long":106.951283,"transit":false,"time":8},{"i_long":106.977657,"line":1,"station_id":"KRI","is_transit":false,"time":3,"transit":false,"i_lat":-6.224515,"station_name":"Kranji","distance":3097},{"time":4,"station_id":"BKS","i_lat":-6.236616,"line":1,"station_name":"Bekasi","distance":2520,"is_transit":false,"i_long":106.997013,"transit":false},{"station_id":"BKST","transit":false,"time":2,"distance":2368,"i_lat":-6.248029,"i_long":107.016735,"is_transit":false,"line":1,"station_name":"Bekasi Timur"},{"time":7,"station_name":"Tambun","i_long":107.055722,"distance":4460,"line":1,"i_lat":-6.258864,"is_transit":false,"transit":false,"station_id":"TB"}],[{"line":21,"time":0,"i_long":106.851978,"station_name":"Cibinong","transit":false,"distance":0,"station_id":"CBN","i_lat":-6.46424,"is_transit":false},{"is_transit":false,"distance":0,"i_lat":-6.460735,"time":0,"i_long":106.824374,"transit":false,"line":21,"station_name":"Pondok Rajeg","station_id":"PDRG"},{"is_transit":true,"distance":0,"station_id":"CTA","transit":true,"station_name":"Citayam","i_lat":-6.448811,"i_long":106.800298,"line":2,"time":0},{"line":2,"i_lat":-6.405256,"is_transit":false,"station_name":"Depok","time":6,"transit":false,"station_id":"DP","i_long":106.816926,"distance":5084},{"station_id":"DPB","i_long":106.819451,"is_transit":false,"line":2,"station_name":"Depokbaru","time":3,"distance":1584,"i_lat":-6.391065,"transit":false},{"is_transit":false,"i_long":106.831114,"time":4,"i_lat":-6.369073,"transit":false,"line":2,"station_id":"POC","station_name":"Pondok Cina","distance":2727},{"i_lat":-6.360749,"station_id":"UI","line":2,"station_name":"Univ. Indonesia","time":2,"is_transit":false,"transit":false,"distance":1109,"i_long":106.831474},{"time":3,"distance":2264,"i_long":106.834175,"station_name":"Univ. Pancasila","line":2,"transit":false,"station_id":"UP","is_transit":false,"i_lat":-6.339291},{"time":2,"transit":false,"station_id":"LNA","is_transit":false,"i_long":106.832616,"line":2,"i_lat":-6.330363,"distance":1029,"station_name":"Lenteng Agung"},{"transit":false,"is_transit":false,"i_lat":-6.3080680000000005,"i_long":106.838896,"line":2,"time":3,"station_name":"Tanjung Barat","distance":2671,"station_id":"TNT"},{"i_long":106.843999,"station_name":"Pasar Minggu","i_lat":-6.2842400000000005,"time":4,"is_transit":false,"transit":false,"distance":2820,"station_id":"PSM","line":2},{"time":2,"transit":false,"station_id":"PSMB","is_transit":false,"i_long":106.851577,"distance":2380,"i_lat":-6.263214,"line":2,"station_name":"Pasar Minggu Baru"},{"time":2,"station_id":"DRN","i_lat":-6.255332,"line":2,"distance":824,"station_name":"Duren Kalibata","is_transit":false,"i_long":106.85449,"transit":false},{"i_lat":-6.242512,"transit":false,"time":3,"station_id":"CW","is_transit":false,"distance":1546,"i_long":106.856607,"station_name":"Cawang","line":2},{"line":2,"distance":1230,"station_name":"Tebet","station_id":"TEB","i_lat":-6.226659,"i_long":106.857948,"time":2,"transit":false,"is_transit":false},{"i_long":106.84912,"transit":false,"is_transit":false,"station_name":"Manggarai","station_id":"MRI","time":4,"distance":2610,"i_lat":-6.209883,"line":2},{"line":2,"is_transit":false,"i_lat":-6.198556,"distance":1590,"i_long":106.840169,"station_name":"Cikini","time":4,"transit":false,"station_id":"CKI"},{"distance":1750,"line":2,"transit":false,"station_id":"GDD","i_lat":-6.186295,"i_long":106.832183,"station_name":"Gondangdia","time":3,"is_transit":false},{"is_transit":false,"distance":2015,"i_long":106.828284,"station_name":"Juanda","time":4,"i_lat":-6.166716,"station_id":"JUA","line":2,"transit":false},{"time":2,"line":2,"distance":1149,"is_transit":false,"station_id":"SW","i_long":106.827103,"transit":false,"station_name":"Sawah Besar","i_lat":-6.160725},{"distance":906,"transit":false,"station_id":"MGB","line":2,"time":2,"i_lat":-6.149769,"i_long":106.82482,"is_transit":false,"station_name":"Manggabesar"},{"station_id":"JAY","time":2,"station_name":"Jayakarta","i_lat":-6.141205,"i_long":106.820901,"is_transit":false,"line":2,"distance":1080,"transit":false},{"transit":true,"station_name":"Jakarta Kota","time":4,"distance":1264,"i_long":106.812439,"station_id":"JAKK","line":2,"is_transit":true,"i_lat":-6.137569},{"station_id":"KPB","is_transit":true,"line":4,"time":3,"transit":true,"distance":1364,"i_long":106.826365,"station_name":"Kampung Bandan","i_lat":-6.132549},{"station_name":"Rajawali","distance":1444,"station_id":"RJW","line":11,"is_transit":false,"i_lat":-6.14505,"i_long":106.836569,"time":3,"transit":false},{"station_name":"Kemayoran","is_transit":false,"i_lat":-6.161728,"i_long":106.839204,"distance":1901,"line":11,"transit":false,"station_id":"KMO","time":5},{"distance":1436,"line":11,"station_name":"Pasar Senen","transit":false,"i_lat":-6.174784,"i_long":106.84368,"station_id":"PSE","time":4,"is_transit":false},{"time":8,"station_name":"Gang Sentiong","is_transit":false,"transit":false,"station_id":"GST","distance":1567,"i_lat":-6.185975,"i_long":106.850107,"line":11},{"time":1,"distance":973,"station_id":"KMT","i_lat":-6.193792,"station_name":"Kramat","is_transit":false,"line":11,"transit":false,"i_long":106.855437},{"i_lat":-6.209188,"time":2,"station_name":"Pondok Jati","i_long":106.861737,"is_transit":false,"line":11,"station_id":"POK","transit":false,"distance":1829},{"station_name":"Jatinegara","distance":1236,"station_id":"JNG","i_long":106.86807400000001,"line":1,"transit":true,"time":9,"is_transit":true,"i_lat":-6.215091},{"station_name":"Klender","time":3,"station_id":"KLD","i_lat":-6.2135,"i_long":106.899548,"is_transit":false,"line":1,"distance":3395,"transit":false},{"is_transit":false,"line":1,"station_name":"Buaran","i_long":106.922662,"i_lat":-6.215568,"transit":false,"time":2,"station_id":"BUA","distance":3100},{"distance":1305,"i_lat":-6.217455,"line":1,"station_id":"KLDB","is_transit":false,"station_name":"Klenderbaru","i_long":106.939679,"time":1,"transit":false},{"station_name":"Cakung","i_long":106.951283,"distance":1385,"transit":false,"station_id":"CUK","i_lat":-6.219053,"line":1,"time":8,"is_transit":false},{"i_long":106.977657,"station_name":"Kranji","station_id":"KRI","transit":false,"time":3,"is_transit":false,"i_lat":-6.224515,"distance":3097,"line":1},{"distance":2520,"station_name":"Bekasi","transit":false,"i_long":106.997013,"is_transit":false,"i_lat":-6.236616,"time":4,"station_id":"BKS","line":1},{"i_lat":-6.248029,"station_name":"Bekasi Timur","distance":2368,"station_id":"BKST","line":1,"is_transit":false,"time":2,"transit":false,"i_long":107.016735},{"station_name":"Tambun","is_transit":false,"i_lat":-6.258864,"transit":false,"station_id":"TB","time":7,"distance":4460,"line":1,"i_long":107.055722}]]}