{"data":[[{"i_long":106.851978,"is_transit":false,"i_lat":-6.46424,"distance":0,"time":0,"line":21,"station_id":"CBN","station_name":"Cibinong","transit":false},{"i_lat":-6.460735,"i_long":106.824374,"station_name":"Pondok Rajeg","transit":false,"time":0,"distance":0,"line":21,"station_id":"PDRG","is_transit":false},{"transit":true,"i_long":106.800298,"line":2,"station_name":"Citayam","time":0,"is_transit":true,"distance":0,"station_id":"CTA","i_lat":-6.448811},{"station_name":"Depok","station_id":"DP","is_transit":false,"time":6,"distance":5084,"i_lat":-6.405256,"transit":false,"i_long":106.816926,"line":2},{"station_id":"DPB","distance":1584,"i_long":106.819451,"transit":false,"station_name":"Depokbaru","i_lat":-6.391065,"line":2,"time":3,"is_transit":false},{"transit":false,"station_id":"POC","i_long":106.831114,"is_transit":false,"line":2,"time":4,"station_name":"Pondok Cina","i_lat":-6.369073,"distance":2727},{"transit":false,"i_lat":-6.360749,"station_name":"Univ. Indonesia","line":2,"i_long":106.831474,"is_transit":false,"station_id":"UI","time":2,"distance":1109},{"transit":false,"distance":2264,"station_id":"UP","is_transit":false,"i_long":106.834175,"line":2,"time":3,"station_name":"Univ. Pancasila","i_lat":-6.339291},{"station_name":"Lenteng Agung","station_id":"LNA","is_transit":false,"distance":1029,"i_long":106.832616,"line":2,"transit":false,"time":2,"i_lat":-6.330363},{"is_transit":false,"i_long":106.838896,"time":3,"i_lat":-6.3080680000000005,"transit":false,"distance":2671,"station_id":"TNT","station_name":"Tanjung Barat","line":2},{"line":2,"station_name":"Pasar Minggu","station_id":"PSM","is_transit":false,"i_long":106.843999,"i_lat":-6.2842400000000005,"transit":false,"time":4,"distance":2820},{"station_name":"Pasar Minggu Baru","time":2,"i_long":106.851577,"line":2,"transit":false,"station_id":"PSMB","distance":2380,"is_transit":false,"i_lat":-6.263214},{"station_name":"Duren Kalibata","transit":false,"is_transit":false,"i_lat":-6.255332,"line":2,"i_long":106.85449,"distance":824,"station_id":"DRN","time":2},{"i_long":106.856607,"time":3,"distance":1546,"station_name":"Cawang","i_lat":-6.242512,"station_id":"CW","transit":false,"is_transit":false,"line":2},{"line":2,"station_name":"Tebet","time":2,"is_transit":false,"transit":false,"i_long":106.857948,"distance":1230,"i_lat":-6.226659,"station_id":"TEB"},{"i_lat":-6.209883,"time":4,"i_long":106.84912,"is_transit":true,"station_id":"MRI","transit":true,"station_name":"Manggarai","distance":2610,"line":2},{"time":4,"transit":false,"station_id":"SUD","line":1,"is_transit":false,"station_name":"Sudirman","distance":3186,"i_long":106.822649,"i_lat":-6.202263},{"is_transit":false,"distance":280,"i_lat":-6.201433,"line":1,"transit":false,"time":1,"i_long":106.819881,"station_id":"SUDB","station_name":"Sudirman Baru"},{"i_lat":-6.20132,"distance":471,"time":1,"line":1,"station_name":"Karet","is_transit":false,"transit":false,"i_long":106.816351,"station_id":"KAT"},{"time":5,"station_name":"Tanah Abang","station_id":"THB","distance":2029,"i_lat":-6.185545,"line":1,"i_long":106.811091,"transit":true,"is_transit":true},{"is_transit":false,"transit":false,"distance":3191,"time":6,"i_lat":-6.207404,"station_id":"PLM","station_name":"Palmerah","line":6,"i_long":106.79689},{"i_lat":-6.237242,"transit":false,"line":6,"i_long":106.780334,"is_transit":false,"time":7,"station_id":"KBY","station_name":"Kebayoran","distance":3737},{"is_transit":false,"time":8,"i_lat":-6.276362,"station_name":"Pondokranji","station_id":"PDJ","distance":6218,"i_long":106.74273,"line":6,"transit":false},{"line":6,"distance":2179,"transit":false,"station_id":"JMU","station_name":"Jurangmangu","is_transit":false,"time":3,"i_lat":-6.288927,"i_long":106.728916},{"time":4,"distance":1994,"i_lat":-6.296963,"station_id":"SDM","i_long":106.712277,"transit":false,"line":6,"is_transit":false,"station_name":"Sudimara"},{"time":6,"is_transit":false,"i_long":106.675475,"i_lat":-6.314823,"line":6,"distance":4566,"station_name":"Rawa Buntu","transit":false,"station_id":"RU"},{"distance":2413,"time":4,"i_lat":-6.319871,"i_long":106.66566,"station_id":"SRP","station_name":"Serpong","line":6,"transit":false,"is_transit":false},{"distance":1784,"line":3,"time":4,"i_long":106.640411,"is_transit":false,"station_id":"CSK","i_lat":-6.32484,"station_name":"Cisauk","transit":false},{"is_transit":false,"line":3,"station_id":"CC","transit":false,"i_lat":-6.329547,"time":4,"distance":2519,"i_long":106.617853,"station_name":"Cicayur"}],[{"distance":0,"is_transit":false,"station_id":"CBN","i_long":106.851978,"line":21,"i_lat":-6.46424,"station_name":"Cibinong","transit":false,"time":0},{"is_transit":false,"station_id":"PDRG","distance":0,"i_lat":-6.460735,"i_long":106.824374,"station_name":"Pondok Rajeg","time":0,"line":21,"transit":false},{"is_transit":true,"i_lat":-6.448811,"distance":0,"station_name":"Citayam","time":0,"transit":true,"station_id":"CTA","i_long":106.800298,"line":2},{"distance":5084,"station_id":"DP","transit":false,"station_name":"Depok","i_long":106.816926,"line":2,"is_transit":false,"i_lat":-6.405256,"time":6},{"i_long":106.819451,"transit":false,"station_name":"Depokbaru","is_transit":false,"station_id":"DPB","time":3,"distance":1584,"line":2,"i_lat":-6.391065},{"i_long":106.831114,"station_name":"Pondok Cina","line":2,"station_id":"POC","transit":false,"is_transit":false,"i_lat":-6.369073,"distance":2727,"time":4},{"i_long":106.831474,"station_id":"UI","time":2,"i_lat":-6.360749,"transit":false,"is_transit":false,"distance":1109,"station_name":"Univ. Indonesia","line":2},{"line":2,"time":3,"transit":false,"station_id":"UP","distance":2264,"i_long":106.834175,"station_name":"Univ. Pancasila","is_transit":false,"i_lat":-6.339291},{"station_name":"Lenteng Agung","distance":1029,"line":2,"station_id":"LNA","time":2,"i_lat":-6.330363,"transit":false,"i_long":106.832616,"is_transit":false},{"distance":2671,"i_long":106.838896,"station_id":"TNT","station_name":"Tanjung Barat","line":2,"is_transit":false,"i_lat":-6.3080680000000005,"transit":false,"time":3},{"line":2,"i_long":106.843999,"station_id":"PSM","is_transit":false,"i_lat":-6.2842400000000005,"station_name":"Pasar Minggu","transit":false,"distance":2820,"time":4},{"distance":2380,"is_transit":false,"station_name":"Pasar Minggu Baru","i_long":106.851577,"transit":false,"station_id":"PSMB","time":2,"i_lat":-6.263214,"line":2},{"i_lat":-6.255332,"time":2,"line":2,"distance":824,"transit":false,"station_id":"DRN","is_transit":false,"station_name":"Duren Kalibata","i_long":106.85449},{"is_transit":false,"station_id":"CW","i_long":106.856607,"station_name":"Cawang","distance":1546,"transit":false,"i_lat":-6.242512,"time":3,"line":2},{"is_transit":false,"i_lat":-6.226659,"station_id":"TEB","i_long":106.857948,"line":2,"time":2,"distance":1230,"station_name":"Tebet","transit":false},{"station_id":"MRI","line":2,"time":4,"distance":2610,"i_long":106.84912,"transit":false,"station_name":"Manggarai","is_transit":false,"i_lat":-6.209883},{"distance":1590,"transit":false,"i_lat":-6.198556,"i_long":106.840169,"line":2,"station_name":"Cikini","is_transit":false,"station_id":"CKI","time":4},{"station_id":"GDD","distance":1750,"is_transit":false,"time":3,"i_lat":-6.186295,"transit":false,"station_name":"Gondangdia","i_long":106.832183,"line":2},{"distance":2015,"station_id":"JUA","i_lat":-6.166716,"is_transit":false,"station_name":"Juanda","transit":false,"time":4,"line":2,"i_long":106.828284},{"transit":false,"station_name":"Sawah Besar","distance":1149,"is_transit":false,"time":2,"line":2,"station_id":"SW","i_lat":-6.160725,"i_long":106.827103},{"line":2,"is_transit":false,"time":2,"station_name":"Manggabesar","station_id":"MGB","distance":906,"transit":false,"i_lat":-6.149769,"i_long":106.82482},{"station_name":"Jayakarta","station_id":"JAY","distance":1080,"transit":false,"is_transit":false,"time":2,"line":2,"i_long":106.820901,"i_lat":-6.141205},{"i_lat":-6.137569,"station_name":"Jakarta Kota","distance":1264,"line":2,"i_long":106.812439,"station_id":"JAKK","is_transit":true,"transit":true,"time":4},{"time":3,"transit":true,"i_long":106.826365,"station_name":"Kampung Bandan","line":4,"distance":1364,"i_lat":-6.132549,"station_id":"KPB","is_transit":true},{"station_id":"AK","station_name":"Angke","time":9,"i_lat":-6.144674,"distance":4102,"line":1,"i_long":106.79867,"transit":false,"is_transit":false},{"transit":false,"station_id":"DU","time":4,"line":1,"station_name":"Duri","distance":1230,"is_transit":false,"i_lat":-6.155215,"i_long":106.800832},{"distance":3632,"transit":true,"station_name":"Tanah Abang","station_id":"THB","is_transit":true,"i_lat":-6.185545,"i_long":106.811091,"time":8,"line":1},{"time":6,"i_lat":-6.207404,"transit":false,"is_transit":false,"distance":3191,"line":6,"station_name":"Palmerah","station_id":"PLM","i_long":106.79689},{"is_transit":false,"distance":3737,"i_lat":-6.237242,"line":6,"transit":false,"time":7,"station_name":"Kebayoran","station_id":"KBY","i_long":106.780334},{"line":6,"time":8,"station_id":"PDJ","distance":6218,"i_long":106.74273,"station_name":"Pondokranji","transit":false,"i_lat":-6.276362,"is_transit":false},{"time":3,"line":6,"distance":2179,"transit":false,"station_name":"Jurangmangu","i_long":106.728916,"is_transit":false,"i_lat":-6.288927,"station_id":"JMU"},{"is_transit":false,"time":4,"i_lat":-6.296963,"station_id":"SDM","i_long":106.712277,"line":6,"distance":1994,"transit":false,"station_name":"Sudimara"},{"i_lat":-6.314823,"station_name":"Rawa Buntu","is_transit":false,"line":6,"station_id":"RU","transit":false,"i_long":106.675475,"time":6,"distance":4566},{"i_lat":-6.319871,"time":4,"station_name":"Serpong","line":6,"is_transit":false,"distance":2413,"station_id":"SRP","i_long":106.66566,"transit":false},{"time":4,"station_name":"Cisauk","is_transit":false,"distance":1784,"i_long":106.640411,"transit":false,"i_lat":-6.32484,"station_id":"CSK","line":3},{"is_transit":false,"transit":false,"station_name":"Cicayur","distance":2519,"station_id":"CC","time":4,"i_long":106.617853,"line":3,"i_lat":-6.329547}],[{"transit":false,"i_lat":-6.46424,"line":21,"is_transit":false,"distance":0,"i_long":106.851978,"station_id":"CBN","station_name":"Cibinong","time":0},{"station_id":"PDRG","is_transit":false,"line":21,"time":0,"station_name":"Pondok Rajeg","distance":0,"i_long":106.824374,"transit":false,"i_lat":-6.460735},{"i_long":106.800298,"transit":true,"station_id":"CTA","time":0,"distance":0,"is_transit":true,"i_lat":-6.448811,"station_name":"Citayam","line":2},{"line":2,"i_long":106.816926,"is_transit":false,"time":6,"transit":false,"station_name":"Depok","station_id":"DP","i_lat":-6.405256,"distance":5084},{"time":3,"i_lat":-6.391065,"transit":false,"is_transit":false,"line":2,"distance":1584,"station_name":"Depokbaru","station_id":"DPB","i_long":106.819451},{"station_id":"POC","transit":false,"i_lat":-6.369073,"i_long":106.831114,"time":4,"station_name":"Pondok Cina","is_transit":false,"distance":2727,"line":2},{"line":2,"is_transit":false,"transit":false,"station_name":"Univ. Indonesia","station_id":"UI","i_long":106.831474,"distance":1109,"i_lat":-6.360749,"time":2},{"line":2,"transit":false,"time":3,"i_lat":-6.339291,"station_id":"UP","distance":2264,"is_transit":false,"station_name":"Univ. Pancasila","i_long":106.834175},{"distance":1029,"station_name":"Lenteng Agung","i_long":106.832616,"is_transit":false,"station_id":"LNA","time":2,"i_lat":-6.330363,"line":2,"transit":false},{"station_id":"TNT","i_lat":-6.3080680000000005,"line":2,"station_name":"Tanjung Barat","transit":false,"is_transit":false,"i_long":106.838896,"distance":2671,"time":3},{"i_lat":-6.2842400000000005,"i_long":106.843999,"transit":false,"is_transit":false,"station_id":"PSM","time":4,"distance":2820,"station_name":"Pasar Minggu","line":2},{"line":2,"station_id":"PSMB","distance":2380,"i_lat":-6.263214,"is_transit":false,"i_long":106.851577,"transit":false,"station_name":"Pasar Minggu Baru","time":2},{"station_id":"DRN","transit":false,"station_name":"Duren Kalibata","distance":824,"is_transit":false,"i_lat":-6.255332,"i_long":106.85449,"line":2,"time":2},{"i_lat":-6.242512,"transit":false,"time":3,"i_long":106.856607,"station_id":"CW","is_transit":false,"line":2,"station_name":"Cawang","distance":1546},{"station_name":"Tebet","station_id":"TEB","is_transit":false,"time":2,"i_long":106.857948,"distance":1230,"transit":false,"i_lat":-6.226659,"line":2},{"line":2,"station_id":"MRI","is_transit":true,"station_name":"Manggarai","time":4,"distance":2610,"transit":true,"i_lat":-6.209883,"i_long":106.84912},{"is_transit":false,"i_long":106.858896,"i_lat":-6.212485,"station_id":"MTR","line":1,"transit":false,"station_name":"Matraman","time":2,"distance":1275},{"transit":true,"station_id":"JNG","i_lat":-6.215091,"is_transit":true,"i_long":106.86807400000001,"time":8,"distance":1377,"line":1,"station_name":"Jatinegara"},{"transit":false,"station_name":"Pondok Jati","i_lat":-6.209188,"i_long":106.861737,"station_id":"POK","distance":1236,"is_transit":false,"line":11,"time":2},{"is_transit":false,"time":2,"distance":1829,"i_long":106.855437,"station_name":"Kramat","line":11,"transit":false,"station_id":"KMT","i_lat":-6.193792},{"time":1,"i_lat":-6.185975,"is_transit":false,"i_long":106.850107,"distance":973,"line":11,"station_name":"Gang Sentiong","transit":false,"station_id":"GST"},{"i_long":106.84368,"station_id":"PSE","transit":false,"station_name":"Pasar Senen","time":8,"line":11,"distance":1567,"i_lat":-6.174784,"is_transit":false},{"is_transit":false,"time":4,"transit":false,"station_name":"Kemayoran","station_id":"KMO","i_lat":-6.161728,"distance":1436,"line":11,"i_long":106.839204},{"line":11,"i_lat":-6.14505,"station_name":"Rajawali","is_transit":false,"i_long":106.836569,"distance":1901,"station_id":"RJW","time":5,"transit":false},{"station_name":"Kampung Bandan","is_transit":true,"i_long":106.826365,"i_lat":-6.132549,"line":4,"distance":1444,"station_id":"KPB","time":3,"transit":true},{"distance":4102,"i_lat":-6.144674,"i_long":106.79867,"station_id":"AK","line":1,"is_transit":false,"station_name":"Angke","transit":false,"time":9},{"i_long":106.800832,"i_lat":-6.155215,"distance":1230,"station_name":"Duri","transit":false,"station_id":"DU","time":4,"line":1,"is_transit":false},{"transit":true,"time":8,"is_transit":true,"station_name":"Tanah Abang","station_id":"THB","i_lat":-6.185545,"distance":3632,"i_long":106.811091,"line":1},{"transit":false,"distance":3191,"i_long":106.79689,"line":6,"time":6,"station_name":"Palmerah","is_transit":false,"station_id":"PLM","i_lat":-6.207404},{"transit":false,"station_id":"KBY","time":7,"line":6,"station_name":"Kebayoran","distance":3737,"i_lat":-6.237242,"i_long":106.780334,"is_transit":false},{"is_transit":false,"time":8,"station_name":"Pondokranji","station_id":"PDJ","i_lat":-6.276362,"i_long":106.74273,"transit":false,"distance":6218,"line":6},{"is_transit":false,"station_name":"Jurangmangu","i_lat":-6.288927,"line":6,"station_id":"JMU","i_long":106.728916,"time":3,"transit":false,"distance":2179},{"is_transit":false,"station_id":"SDM","transit":false,"station_name":"Sudimara","line":6,"i_long":106.712277,"distance":1994,"time":4,"i_lat":-6.296963},{"transit":false,"station_name":"Rawa Buntu","i_lat":-6.314823,"station_id":"RU","is_transit":false,"i_long":106.675475,"time":6,"line":6,"distance":4566},{"is_transit":false,"line":6,"station_id":"SRP","i_lat":-6.319871,"distance":2413,"station_name":"Serpong","i_long":106.66566,"transit":false,"time":4},{"i_lat":-6.32484,"transit":false,"distance":1784,"station_name":"Cisauk","time":4,"is_transit":false,"line":3,"i_long":106.640411,"station_id":"CSK"},{"line":3,"i_lat":-6.329547,"station_id":"CC","distance":2519,"time":4,"i_long":106.617853,"transit":false,"station_name":"Cicayur","is_transit":false}]]}