{"data":[[{"i_long":106.851978,"i_lat":-6.46424,"station_id":"CBN","transit":false,"station_name":"Cibinong","time":0,"line":21,"distance":0,"is_transit":false},{"transit":false,"i_long":106.824374,"time":0,"line":21,"i_lat":-6.460735,"station_id":"PDRG","station_name":"Pondok Rajeg","distance":0,"is_transit":false},{"is_transit":true,"station_id":"CTA","transit":true,"time":0,"distance":0,"line":2,"station_name":"Citayam","i_lat":-6.448811,"i_long":106.800298},{"time":6,"transit":false,"station_id":"DP","i_lat":-6.405256,"line":2,"distance":5084,"i_long":106.816926,"is_transit":false,"station_name":"Depok"},{"time":3,"distance":1584,"i_lat":-6.391065,"i_long":106.819451,"station_name":"Depokbaru","station_id":"DPB","transit":false,"line":2,"is_transit":false},{"distance":2727,"transit":false,"i_lat":-6.369073,"station_name":"Pondok Cina","station_id":"POC","i_long":106.831114,"is_transit":false,"time":4,"line":2},{"i_lat":-6.360749,"line":2,"i_long":106.831474,"station_id":"UI","station_name":"Univ. Indonesia","distance":1109,"is_transit":false,"transit":false,"time":2},{"station_id":"UP","is_transit":false,"time":3,"station_name":"Univ. Pancasila","distance":2264,"i_lat":-6.339291,"line":2,"i_long":106.834175,"transit":false},{"station_name":"Lenteng Agung","time":2,"distance":1029,"i_lat":-6.330363,"i_long":106.832616,"is_transit":false,"line":2,"station_id":"LNA","transit":false},{"station_name":"Tanjung Barat","transit":false,"i_long":106.838896,"line":2,"distance":2671,"station_id":"TNT","time":3,"is_transit":false,"i_lat":-6.3080680000000005},{"station_id":"PSM","station_name":"Pasar Minggu","i_long":106.843999,"distance":2820,"time":4,"i_lat":-6.2842400000000005,"transit":false,"is_transit":false,"line":2},{"line":2,"i_long":106.851577,"distance":2380,"station_id":"PSMB","is_transit":false,"time":2,"i_lat":-6.263214,"transit":false,"station_name":"Pasar Minggu Baru"},{"line":2,"station_id":"DRN","time":2,"i_lat":-6.255332,"transit":false,"station_name":"Duren Kalibata","i_long":106.85449,"is_transit":false,"distance":824},{"line":2,"transit":false,"station_id":"CW","is_transit":false,"time":3,"station_name":"Cawang","distance":1546,"i_lat":-6.242512,"i_long":106.856607},{"is_transit":false,"time":2,"distance":1230,"i_lat":-6.226659,"i_long":106.857948,"transit":false,"line":2,"station_name":"Tebet","station_id":"TEB"},{"i_lat":-6.209883,"line":2,"station_name":"Manggarai","is_transit":true,"transit":true,"i_long":106.84912,"distance":2610,"time":4,"station_id":"MRI"},{"station_id":"SUD","transit":false,"time":4,"i_lat":-6.202263,"station_name":"Sudirman","is_transit":false,"i_long":106.822649,"line":1,"distance":3186},{"is_transit":false,"distance":280,"line":1,"i_long":106.819881,"time":1,"transit":false,"station_id":"SUDB","i_lat":-6.201433,"station_name":"Sudirman Baru"},{"line":1,"i_lat":-6.20132,"i_long":106.816351,"station_name":"Karet","station_id":"KAT","transit":false,"time":1,"distance":471,"is_transit":false},{"station_name":"Tanah Abang","time":5,"line":1,"is_transit":true,"i_long":106.811091,"transit":true,"i_lat":-6.185545,"distance":2029,"station_id":"THB"},{"i_lat":-6.207404,"station_name":"Palmerah","station_id":"PLM","transit":false,"time":6,"is_transit":false,"line":6,"i_long":106.79689,"distance":3191}],[{"time":0,"distance":0,"i_lat":-6.46424,"station_id":"CBN","i_long":106.851978,"is_transit":false,"transit":false,"line":21,"station_name":"Cibinong"},{"time":0,"transit":false,"distance":0,"is_transit":false,"i_long":106.824374,"i_lat":-6.460735,"station_name":"Pondok Rajeg","station_id":"PDRG","line":21},{"station_id":"CTA","distance":0,"i_long":106.800298,"station_name":"Citayam","time":0,"i_lat":-6.448811,"transit":true,"line":2,"is_transit":true},{"station_name":"Depok","time":6,"distance":5084,"station_id":"DP","i_lat":-6.405256,"i_long":106.816926,"line":2,"is_transit":false,"transit":false},{"time":3,"transit":false,"station_name":"Depokbaru","is_transit":false,"line":2,"i_long":106.819451,"station_id":"DPB","distance":1584,"i_lat":-6.391065},{"station_id":"POC","distance":2727,"is_transit":false,"time":4,"station_name":"Pondok Cina","i_lat":-6.369073,"transit":false,"i_long":106.831114,"line":2},{"station_id":"UI","is_transit":false,"time":2,"distance":1109,"i_lat":-6.360749,"i_long":106.831474,"transit":false,"line":2,"station_name":"Univ. Indonesia"},{"is_transit":false,"distance":2264,"i_lat":-6.339291,"i_long":106.834175,"line":2,"time":3,"station_id":"UP","transit":false,"station_name":"Univ. Pancasila"},{"station_id":"LNA","station_name":"Lenteng Agung","distance":1029,"is_transit":false,"line":2,"time":2,"transit":false,"i_long":106.832616,"i_lat":-6.330363},{"station_name":"Tanjung Barat","line":2,"distance":2671,"station_id":"TNT","i_lat":-6.3080680000000005,"transit":false,"is_transit":false,"time":3,"i_long":106.838896},{"i_lat":-6.2842400000000005,"is_transit":false,"transit":false,"station_name":"Pasar Minggu","station_id":"PSM","distance":2820,"i_long":106.843999,"line":2,"time":4},{"i_lat":-6.263214,"transit":false,"is_transit":false,"line":2,"time":2,"i_long":106.851577,"station_id":"PSMB","station_name":"Pasar Minggu Baru","distance":2380},{"i_lat":-6.255332,"line":2,"station_id":"DRN","transit":false,"time":2,"distance":824,"station_name":"Duren Kalibata","is_transit":false,"i_long":106.85449},{"transit":false,"station_name":"Cawang","time":3,"i_long":106.856607,"i_lat":-6.242512,"is_transit":false,"distance":1546,"station_id":"CW","line":2},{"time":2,"i_lat":-6.226659,"i_long":106.857948,"station_name":"Tebet","station_id":"TEB","line":2,"is_transit":false,"transit":false,"distance":1230},{"station_id":"MRI","transit":false,"i_long":106.84912,"is_transit":false,"line":2,"time":4,"distance":2610,"i_lat":-6.209883,"station_name":"Manggarai"},{"transit":false,"i_lat":-6.198556,"i_long":106.840169,"is_transit":false,"station_id":"CKI","distance":1590,"line":2,"time":4,"station_name":"Cikini"},{"is_transit":false,"time":3,"i_lat":-6.186295,"distance":1750,"i_long":106.832183,"station_id":"GDD","transit":false,"station_name":"Gondangdia","line":2},{"station_id":"JUA","is_transit":false,"time":4,"i_lat":-6.166716,"distance":2015,"station_name":"Juanda","line":2,"transit":false,"i_long":106.828284},{"distance":1149,"i_lat":-6.160725,"time":2,"station_id":"SW","line":2,"is_transit":false,"i_long":106.827103,"transit":false,"station_name":"Sawah Besar"},{"station_id":"MGB","time":2,"distance":906,"i_lat":-6.149769,"i_long":106.82482,"transit":false,"is_transit":false,"station_name":"Manggabesar","line":2},{"station_id":"JAY","time":2,"station_name":"Jayakarta","line":2,"i_long":106.820901,"is_transit":false,"distance":1080,"transit":false,"i_lat":-6.141205},{"transit":true,"station_name":"Jakarta Kota","is_transit":true,"i_long":106.812439,"time":4,"distance":1264,"line":2,"i_lat":-6.137569,"station_id":"JAKK"},{"station_name":"Kampung Bandan","transit":true,"is_transit":true,"distance":1364,"i_long":106.826365,"time":3,"line":4,"station_id":"KPB","i_lat":-6.132549},{"station_id":"AK","i_lat":-6.144674,"line":1,"i_long":106.79867,"station_name":"Angke","is_transit":false,"time":9,"transit":false,"distance":4102},{"i_lat":-6.155215,"station_id":"DU","transit":false,"line":1,"distance":1230,"station_name":"Duri","i_long":106.800832,"is_transit":false,"time":4},{"distance":3632,"i_lat":-6.185545,"station_name":"Tanah Abang","time":8,"is_transit":true,"i_long":106.811091,"transit":true,"station_id":"THB","line":1},{"transit":false,"station_name":"Palmerah","station_id":"PLM","time":6,"distance":3191,"i_lat":-6.207404,"is_transit":false,"i_long":106.79689,"line":6}],[{"time":0,"line":21,"station_id":"CBN","transit":false,"station_name":"Cibinong","i_long":106.851978,"distance":0,"is_transit":false,"i_lat":-6.46424},{"is_transit":false,"time":0,"station_id":"PDRG","transit":false,"station_name":"Pondok Rajeg","distance":0,"line":21,"i_long":106.824374,"i_lat":-6.460735},{"station_name":"Citayam","line":2,"station_id":"CTA","is_transit":true,"transit":true,"i_long":106.800298,"distance":0,"time":0,"i_lat":-6.448811},{"i_lat":-6.405256,"time":6,"station_id":"DP","station_name":"Depok","line":2,"is_transit":false,"i_long":106.816926,"transit":false,"distance":5084},{"i_long":106.819451,"transit":false,"i_lat":-6.391065,"station_id":"DPB","distance":1584,"station_name":"Depokbaru","time":3,"is_transit":false,"line":2},{"line":2,"transit":false,"is_transit":false,"time":4,"station_id":"POC","distance":2727,"i_long":106.831114,"i_lat":-6.369073,"station_name":"Pondok Cina"},{"distance":1109,"i_long":106.831474,"transit":false,"i_lat":-6.360749,"station_id":"UI","time":2,"station_name":"Univ. Indonesia","is_transit":false,"line":2},{"line":2,"distance":2264,"station_name":"Univ. Pancasila","transit":false,"is_transit":false,"i_long":106.834175,"station_id":"UP","time":3,"i_lat":-6.339291},{"station_id":"LNA","transit":false,"station_name":"Lenteng Agung","distance":1029,"is_transit":false,"i_lat":-6.330363,"i_long":106.832616,"time":2,"line":2},{"i_long":106.838896,"station_name":"Tanjung Barat","i_lat":-6.3080680000000005,"time":3,"line":2,"station_id":"TNT","distance":2671,"transit":false,"is_transit":false},{"station_id":"PSM","time":4,"station_name":"Pasar Minggu","line":2,"is_transit":false,"distance":2820,"transit":false,"i_lat":-6.2842400000000005,"i_long":106.843999},{"transit":false,"i_long":106.851577,"station_name":"Pasar Minggu Baru","is_transit":false,"station_id":"PSMB","time":2,"distance":2380,"i_lat":-6.263214,"line":2},{"line":2,"station_id":"DRN","station_name":"Duren Kalibata","distance":824,"time":2,"is_transit":false,"transit":false,"i_long":106.85449,"i_lat":-6.255332},{"time":3,"distance":1546,"i_lat":-6.242512,"station_id":"CW","station_name":"Cawang","is_transit":false,"i_long":106.856607,"line":2,"transit":false},{"is_transit":false,"i_long":106.857948,"distance":1230,"station_name":"Tebet","i_lat":-6.226659,"time":2,"transit":false,"station_id":"TEB","line":2},{"time":4,"station_id":"MRI","is_transit":true,"i_lat":-6.209883,"station_name":"Manggarai","transit":true,"i_long":106.84912,"distance":2610,"line":2},{"is_transit":false,"station_name":"Matraman","time":2,"transit":false,"distance":1275,"station_id":"MTR","i_lat":-6.212485,"i_long":106.858896,"line":1},{"station_id":"JNG","station_name":"Jatinegara","line":1,"i_long":106.86807400000001,"distance":1377,"transit":true,"i_lat":-6.215091,"time":8,"is_transit":true},{"line":11,"i_lat":-6.209188,"transit":false,"is_transit":false,"i_long":106.861737,"station_name":"Pondok Jati","time":2,"station_id":"POK","distance":1236},{"line":11,"distance":1829,"station_id":"KMT","station_name":"Kramat","i_lat":-6.193792,"i_long":106.855437,"is_transit":false,"transit":false,"time":2},{"transit":false,"is_transit":false,"i_lat":-6.185975,"line":11,"station_id":"GST","station_name":"Gang Sentiong","time":1,"distance":973,"i_long":106.850107},{"i_long":106.84368,"line":11,"distance":1567,"is_transit":false,"time":8,"transit":false,"i_lat":-6.174784,"station_id":"PSE","station_name":"Pasar Senen"},{"time":4,"line":11,"station_name":"Kemayoran","i_lat":-6.161728,"transit":false,"is_transit":false,"distance":1436,"i_long":106.839204,"station_id":"KMO"},{"transit":false,"station_name":"Rajawali","i_long":106.836569,"distance":1901,"is_transit":false,"time":5,"i_lat":-6.14505,"station_id":"RJW","line":11},{"station_id":"KPB","transit":true,"station_name":"Kampung Bandan","is_transit":true,"distance":1444,"i_lat":-6.132549,"i_long":106.826365,"time":3,"line":4},{"station_name":"Angke","time":9,"transit":false,"is_transit":false,"line":1,"i_lat":-6.144674,"station_id":"AK","distance":4102,"i_long":106.79867},{"station_id":"DU","station_name":"Duri","is_transit":false,"time":4,"transit":false,"distance":1230,"i_lat":-6.155215,"i_long":106.800832,"line":1},{"station_id":"THB","time":8,"distance":3632,"transit":true,"i_lat":-6.185545,"i_long":106.811091,"station_name":"Tanah Abang","is_transit":true,"line":1},{"distance":3191,"station_name":"Palmerah","time":6,"line":6,"transit":false,"is_transit":false,"i_lat":-6.207404,"i_long":106.79689,"station_id":"PLM"}]]}