{"data":[[{"i_long":106.851978,"i_lat":-6.46424,"distance":0,"time":0,"is_transit":false,"station_name":"Cibinong","line":0,"transit":false,"station_id":"CBN"},{"line":1,"station_id":"CTA","station_name":"Citayam","distance":6740,"i_lat":-6.448811,"i_long":106.800298,"transit":false,"time":10,"is_transit":true},{"time":6,"station_id":"DP","is_transit":false,"station_name":"Depok","i_lat":-6.405256,"i_long":106.816926,"distance":5084,"transit":false,"line":0},{"transit":false,"time":3,"is_transit":false,"station_id":"DPB","distance":1584,"line":0,"i_long":106.819451,"i_lat":-6.391065,"station_name":"Depokbaru"},{"is_transit":false,"i_lat":-6.369073,"station_id":"POC","line":2,"transit":false,"distance":2727,"i_long":106.831114,"time":4,"station_name":"Pondok Cina"},{"i_lat":-6.360749,"station_id":"UI","transit":false,"is_transit":false,"station_name":"Univ. Indonesia","line":2,"i_long":106.831474,"distance":1109,"time":2},{"station_name":"Univ. Pancasila","i_lat":-6.339291,"time":3,"distance":2264,"transit":false,"i_long":106.834175,"station_id":"UP","line":2,"is_transit":false},{"station_id":"LNA","line":2,"is_transit":false,"transit":false,"i_long":106.832616,"station_name":"Lenteng Agung","time":2,"i_lat":-6.330363,"distance":1029},{"i_lat":-6.3080680000000005,"is_transit":false,"i_long":106.838896,"time":3,"station_id":"TNT","line":2,"distance":2671,"station_name":"Tanjung Barat","transit":false},{"is_transit":false,"transit":false,"i_long":106.843999,"distance":2820,"line":2,"time":4,"station_name":"Pasar Minggu","i_lat":-6.2842400000000005,"station_id":"PSM"},{"transit":false,"is_transit":false,"i_lat":-6.263214,"distance":2380,"station_name":"Pasar Minggu Baru","i_long":106.851577,"line":2,"station_id":"PSMB","time":2},{"station_id":"DRN","transit":false,"distance":824,"i_lat":-6.255332,"i_long":106.85449,"is_transit":false,"time":2,"station_name":"Duren Kalibata","line":0},{"station_name":"Cawang","transit":false,"i_lat":-6.242512,"distance":1546,"line":0,"time":3,"i_long":106.856607,"is_transit":false,"station_id":"CW"},{"time":2,"transit":false,"i_lat":-6.226659,"is_transit":false,"line":2,"station_id":"TEB","station_name":"Tebet","i_long":106.857948,"distance":1230},{"distance":2610,"is_transit":true,"station_name":"Manggarai","transit":true,"i_long":106.84912,"i_lat":-6.209883,"station_id":"MRI","line":0,"time":4},{"i_long":106.858896,"station_id":"MTR","time":2,"station_name":"Matraman","i_lat":-6.212485,"is_transit":false,"transit":false,"line":1,"distance":1275},{"line":0,"distance":1377,"is_transit":true,"time":8,"i_lat":-6.215091,"station_name":"Jatinegara","station_id":"JNG","i_long":106.86807400000001,"transit":false},{"line":1,"time":3,"transit":false,"is_transit":false,"station_name":"Klender","station_id":"KLD","i_lat":-6.2135,"i_long":106.899548,"distance":3395}],[{"i_long":106.851978,"station_name":"Cibinong","station_id":"CBN","is_transit":false,"line":0,"i_lat":-6.46424,"distance":0,"time":0,"transit":false},{"line":1,"is_transit":true,"time":10,"station_id":"CTA","station_name":"Citayam","i_lat":-6.448811,"i_long":106.800298,"distance":6740,"transit":false},{"distance":5084,"line":0,"station_name":"Depok","time":6,"i_lat":-6.405256,"i_long":106.816926,"is_transit":false,"station_id":"DP","transit":false},{"line":0,"time":3,"station_name":"Depokbaru","is_transit":false,"distance":1584,"i_long":106.819451,"i_lat":-6.391065,"station_id":"DPB","transit":false},{"transit":false,"i_lat":-6.369073,"time":4,"is_transit":false,"i_long":106.831114,"line":2,"station_id":"POC","distance":2727,"station_name":"Pondok Cina"},{"line":2,"i_lat":-6.360749,"i_long":106.831474,"station_name":"Univ. Indonesia","time":2,"is_transit":false,"station_id":"UI","transit":false,"distance":1109},{"transit":false,"i_lat":-6.339291,"station_id":"UP","distance":2264,"i_long":106.834175,"is_transit":false,"line":2,"time":3,"station_name":"Univ. Pancasila"},{"is_transit":false,"time":2,"i_lat":-6.330363,"station_id":"LNA","station_name":"Lenteng Agung","transit":false,"distance":1029,"i_long":106.832616,"line":2},{"transit":false,"i_long":106.838896,"station_id":"TNT","time":3,"i_lat":-6.3080680000000005,"is_transit":false,"line":2,"distance":2671,"station_name":"Tanjung Barat"},{"i_long":106.843999,"station_id":"PSM","is_transit":false,"line":2,"time":4,"distance":2820,"transit":false,"station_name":"Pasar Minggu","i_lat":-6.2842400000000005},{"i_lat":-6.263214,"station_name":"Pasar Minggu Baru","station_id":"PSMB","is_transit":false,"distance":2380,"i_long":106.851577,"time":2,"transit":false,"line":2},{"i_lat":-6.255332,"time":2,"distance":824,"is_transit":false,"i_long":106.85449,"station_id":"DRN","station_name":"Duren Kalibata","transit":false,"line":0},{"is_transit":false,"time":3,"station_name":"Cawang","transit":false,"line":0,"distance":1546,"i_long":106.856607,"i_lat":-6.242512,"station_id":"CW"},{"distance":1230,"i_lat":-6.226659,"i_long":106.857948,"time":2,"station_name":"Tebet","station_id":"TEB","line":2,"is_transit":false,"transit":false},{"time":4,"station_name":"Manggarai","transit":true,"i_long":106.84912,"line":0,"station_id":"MRI","is_transit":true,"distance":2610,"i_lat":-6.209883},{"i_lat":-6.202263,"station_id":"SUD","time":4,"i_long":106.822649,"transit":false,"line":1,"is_transit":false,"station_name":"Sudirman","distance":3186},{"station_id":"SUDB","i_lat":-6.201433,"distance":280,"i_long":106.819881,"line":1,"time":1,"is_transit":false,"station_name":"Sudirman Baru","transit":false},{"station_id":"KAT","i_lat":-6.20132,"i_long":106.816351,"time":1,"is_transit":false,"distance":471,"line":1,"station_name":"Karet","transit":false},{"line":1,"station_id":"THB","distance":2029,"is_transit":true,"time":5,"transit":false,"station_name":"Tanah Abang","i_long":106.811091,"i_lat":-6.185545},{"time":8,"is_transit":true,"distance":3632,"station_name":"Duri","transit":true,"station_id":"DU","i_lat":-6.155215,"i_long":106.800832,"line":1},{"distance":1230,"time":4,"i_lat":-6.144674,"is_transit":false,"transit":false,"i_long":106.79867,"line":0,"station_id":"AK","station_name":"Angke"},{"line":0,"i_lat":-6.132549,"station_name":"Kampung Bandan","station_id":"KPB","transit":true,"i_long":106.826365,"distance":4102,"time":9,"is_transit":true},{"station_id":"RJW","i_lat":-6.14505,"transit":false,"time":3,"i_long":106.836569,"line":11,"station_name":"Rajawali","distance":1444,"is_transit":false},{"is_transit":false,"station_id":"KMO","line":11,"transit":false,"time":5,"station_name":"Kemayoran","i_long":106.839204,"distance":1901,"i_lat":-6.161728},{"i_long":106.84368,"transit":false,"distance":1436,"i_lat":-6.174784,"is_transit":false,"line":11,"station_id":"PSE","station_name":"Pasar Senen","time":4},{"station_name":"Gang Sentiong","station_id":"GST","transit":false,"is_transit":false,"i_lat":-6.185975,"i_long":106.850107,"distance":1567,"time":8,"line":11},{"distance":973,"station_id":"KMT","is_transit":false,"transit":false,"i_long":106.855437,"time":1,"station_name":"Kramat","i_lat":-6.193792,"line":11},{"transit":false,"is_transit":false,"station_name":"Pondok Jati","i_long":106.861737,"station_id":"POK","i_lat":-6.209188,"line":11,"distance":1829,"time":2},{"distance":1236,"station_id":"JNG","i_lat":-6.215091,"i_long":106.86807400000001,"line":0,"is_transit":true,"station_name":"Jatinegara","transit":true,"time":9},{"station_name":"Klender","line":1,"i_lat":-6.2135,"i_long":106.899548,"station_id":"KLD","is_transit":false,"transit":false,"distance":3395,"time":3}],[{"station_id":"CBN","station_name":"Cibinong","transit":false,"i_lat":-6.46424,"i_long":106.851978,"line":0,"time":0,"is_transit":false,"distance":0},{"is_transit":true,"distance":6740,"transit":false,"i_long":106.800298,"line":1,"i_lat":-6.448811,"station_id":"CTA","station_name":"Citayam","time":10},{"time":6,"is_transit":false,"station_name":"Depok","i_lat":-6.405256,"i_long":106.816926,"line":0,"station_id":"DP","distance":5084,"transit":false},{"i_lat":-6.391065,"transit":false,"i_long":106.819451,"time":3,"distance":1584,"is_transit":false,"station_name":"Depokbaru","station_id":"DPB","line":0},{"i_long":106.831114,"is_transit":false,"transit":false,"station_id":"POC","i_lat":-6.369073,"distance":2727,"line":2,"station_name":"Pondok Cina","time":4},{"i_long":106.831474,"time":2,"distance":1109,"transit":false,"i_lat":-6.360749,"line":2,"is_transit":false,"station_id":"UI","station_name":"Univ. Indonesia"},{"station_id":"UP","is_transit":false,"time":3,"distance":2264,"i_long":106.834175,"line":2,"station_name":"Univ. Pancasila","i_lat":-6.339291,"transit":false},{"station_id":"LNA","line":2,"is_transit":false,"transit":false,"station_name":"Lenteng Agung","distance":1029,"i_lat":-6.330363,"i_long":106.832616,"time":2},{"line":2,"is_transit":false,"station_id":"TNT","distance":2671,"i_long":106.838896,"station_name":"Tanjung Barat","i_lat":-6.3080680000000005,"transit":false,"time":3},{"line":2,"is_transit":false,"transit":false,"i_lat":-6.2842400000000005,"station_name":"Pasar Minggu","distance":2820,"i_long":106.843999,"station_id":"PSM","time":4},{"station_name":"Pasar Minggu Baru","distance":2380,"station_id":"PSMB","i_lat":-6.263214,"time":2,"i_long":106.851577,"is_transit":false,"line":2,"transit":false},{"station_name":"Duren Kalibata","line":0,"is_transit":false,"i_long":106.85449,"station_id":"DRN","time":2,"i_lat":-6.255332,"distance":824,"transit":false},{"station_name":"Cawang","time":3,"line":0,"distance":1546,"i_lat":-6.242512,"station_id":"CW","is_transit":false,"i_long":106.856607,"transit":false},{"station_name":"Tebet","transit":false,"distance":1230,"time":2,"i_lat":-6.226659,"line":2,"i_long":106.857948,"station_id":"TEB","is_transit":false},{"i_lat":-6.209883,"line":0,"station_id":"MRI","time":4,"station_name":"Manggarai","i_long":106.84912,"distance":2610,"transit":true,"is_transit":true},{"i_long":106.840169,"time":4,"line":0,"station_id":"CKI","is_transit":false,"station_name":"Cikini","transit":false,"distance":1590,"i_lat":-6.198556},{"i_long":106.832183,"station_id":"GDD","transit":false,"i_lat":-6.186295,"line":2,"is_transit":false,"time":3,"station_name":"Gondangdia","distance":1750},{"transit":false,"i_long":106.828284,"distance":2015,"station_name":"Juanda","line":2,"time":4,"i_lat":-6.166716,"station_id":"JUA","is_transit":false},{"station_id":"SW","station_name":"Sawah Besar","time":2,"distance":1149,"transit":false,"is_transit":false,"i_long":106.827103,"line":2,"i_lat":-6.160725},{"line":2,"distance":906,"station_name":"Manggabesar","station_id":"MGB","is_transit":false,"time":2,"transit":false,"i_lat":-6.149769,"i_long":106.82482},{"is_transit":false,"i_lat":-6.141205,"distance":1080,"line":7,"i_long":106.820901,"station_id":"JAY","time":2,"station_name":"Jayakarta","transit":false},{"line":0,"time":4,"distance":1264,"station_id":"JAKK","is_transit":true,"transit":true,"i_lat":-6.137569,"i_long":106.812439,"station_name":"Jakarta Kota"},{"transit":true,"station_id":"KPB","is_transit":true,"time":3,"distance":1364,"i_long":106.826365,"station_name":"Kampung Bandan","i_lat":-6.132549,"line":0},{"is_transit":false,"time":3,"transit":false,"line":11,"distance":1444,"station_id":"RJW","i_lat":-6.14505,"i_long":106.836569,"station_name":"Rajawali"},{"is_transit":false,"distance":1901,"station_name":"Kemayoran","transit":false,"i_lat":-6.161728,"i_long":106.839204,"station_id":"KMO","line":11,"time":5},{"i_lat":-6.174784,"station_id":"PSE","transit":false,"i_long":106.84368,"is_transit":false,"line":11,"station_name":"Pasar Senen","time":4,"distance":1436},{"line":11,"is_transit":false,"station_id":"GST","distance":1567,"time":8,"i_lat":-6.185975,"transit":false,"station_name":"Gang Sentiong","i_long":106.850107},{"i_lat":-6.193792,"is_transit":false,"station_id":"KMT","station_name":"Kramat","i_long":106.855437,"line":11,"time":1,"transit":false,"distance":973},{"station_id":"POK","time":2,"is_transit":false,"i_lat":-6.209188,"station_name":"Pondok Jati","line":11,"transit":false,"i_long":106.861737,"distance":1829},{"transit":true,"i_long":106.86807400000001,"time":9,"station_id":"JNG","distance":1236,"station_name":"Jatinegara","i_lat":-6.215091,"is_transit":true,"line":0},{"is_transit":false,"i_long":106.899548,"station_name":"Klender","station_id":"KLD","time":3,"i_lat":-6.2135,"distance":3395,"line":1,"transit":false}]]}