{"data":[[{"i_lat":-6.46424,"station_name":"Cibinong","station_id":"CBN","i_long":106.851978,"line":0,"is_transit":false,"distance":0,"time":0,"transit":false},{"is_transit":true,"i_long":106.800298,"transit":false,"time":10,"i_lat":-6.448811,"distance":6740,"station_id":"CTA","station_name":"Citayam","line":1},{"distance":5084,"i_long":106.816926,"time":6,"line":0,"is_transit":false,"station_id":"DP","station_name":"Depok","i_lat":-6.405256,"transit":false},{"is_transit":false,"distance":1584,"transit":false,"station_id":"DPB","station_name":"Depokbaru","i_long":106.819451,"time":3,"i_lat":-6.391065,"line":0},{"i_long":106.831114,"transit":false,"station_id":"POC","is_transit":false,"line":2,"i_lat":-6.369073,"distance":2727,"station_name":"Pondok Cina","time":4},{"i_long":106.831474,"distance":1109,"transit":false,"line":2,"time":2,"i_lat":-6.360749,"station_name":"Univ. Indonesia","station_id":"UI","is_transit":false},{"distance":2264,"station_name":"Univ. Pancasila","is_transit":false,"transit":false,"i_lat":-6.339291,"line":2,"station_id":"UP","time":3,"i_long":106.834175},{"line":2,"station_name":"Lenteng Agung","transit":false,"station_id":"LNA","is_transit":false,"time":2,"i_lat":-6.330363,"i_long":106.832616,"distance":1029},{"i_lat":-6.3080680000000005,"station_id":"TNT","is_transit":false,"transit":false,"time":3,"line":2,"station_name":"Tanjung Barat","distance":2671,"i_long":106.838896},{"is_transit":false,"station_id":"PSM","transit":false,"line":2,"station_name":"Pasar Minggu","time":4,"i_long":106.843999,"distance":2820,"i_lat":-6.2842400000000005},{"transit":false,"is_transit":false,"distance":2380,"station_id":"PSMB","time":2,"station_name":"Pasar Minggu Baru","i_lat":-6.263214,"i_long":106.851577,"line":2},{"time":2,"i_long":106.85449,"transit":false,"line":0,"i_lat":-6.255332,"is_transit":false,"station_id":"DRN","distance":824,"station_name":"Duren Kalibata"},{"line":0,"transit":false,"i_long":106.856607,"is_transit":false,"station_id":"CW","station_name":"Cawang","i_lat":-6.242512,"distance":1546,"time":3},{"i_lat":-6.226659,"time":2,"distance":1230,"station_name":"Tebet","i_long":106.857948,"line":2,"station_id":"TEB","transit":false,"is_transit":false},{"distance":2610,"transit":false,"station_name":"Manggarai","is_transit":true,"time":4,"i_long":106.84912,"i_lat":-6.209883,"station_id":"MRI","line":0}]]}