{"data":[[{"i_long":106.851978,"line":21,"transit":false,"is_transit":false,"station_id":"CBN","distance":0,"station_name":"Cibinong","time":0,"i_lat":-6.46424},{"station_id":"PDRG","station_name":"Pondok Rajeg","distance":0,"transit":false,"i_lat":-6.460735,"time":0,"line":21,"is_transit":false,"i_long":106.824374},{"station_id":"CTA","distance":0,"i_lat":-6.448811,"i_long":106.800298,"is_transit":true,"station_name":"Citayam","transit":true,"time":0,"line":2},{"station_name":"Depok","station_id":"DP","time":6,"i_long":106.816926,"distance":5084,"line":2,"is_transit":false,"transit":false,"i_lat":-6.405256},{"transit":false,"station_id":"DPB","i_lat":-6.391065,"station_name":"Depokbaru","line":2,"distance":1584,"is_transit":false,"time":3,"i_long":106.819451}]]}