{"data":[[{"transit":false,"distance":0,"i_long":106.851978,"i_lat":-6.46424,"station_id":"CBN","line":21,"time":0,"station_name":"Cibinong","is_transit":false},{"distance":0,"i_long":106.824374,"line":21,"i_lat":-6.460735,"is_transit":false,"time":0,"station_name":"Pondok Rajeg","transit":false,"station_id":"PDRG"},{"line":2,"time":0,"station_name":"Citayam","i_long":106.800298,"distance":0,"transit":true,"is_transit":true,"i_lat":-6.448811,"station_id":"CTA"},{"time":6,"station_id":"DP","is_transit":false,"transit":false,"station_name":"Depok","i_lat":-6.405256,"i_long":106.816926,"line":2,"distance":5084},{"is_transit":false,"distance":1584,"i_lat":-6.391065,"line":2,"time":3,"i_long":106.819451,"station_id":"DPB","transit":false,"station_name":"Depokbaru"},{"distance":2727,"station_name":"Pondok Cina","time":4,"line":2,"i_long":106.831114,"is_transit":false,"station_id":"POC","i_lat":-6.369073,"transit":false},{"distance":1109,"line":2,"time":2,"i_long":106.831474,"is_transit":false,"station_id":"UI","i_lat":-6.360749,"transit":false,"station_name":"Univ. Indonesia"},{"station_name":"Univ. Pancasila","is_transit":false,"time":3,"station_id":"UP","transit":false,"i_lat":-6.339291,"i_long":106.834175,"line":2,"distance":2264},{"is_transit":false,"transit":false,"line":2,"time":2,"distance":1029,"station_id":"LNA","i_long":106.832616,"i_lat":-6.330363,"station_name":"Lenteng Agung"},{"station_name":"Tanjung Barat","i_long":106.838896,"is_transit":false,"line":2,"station_id":"TNT","transit":false,"time":3,"i_lat":-6.3080680000000005,"distance":2671},{"line":2,"time":4,"i_long":106.843999,"station_name":"Pasar Minggu","transit":false,"i_lat":-6.2842400000000005,"is_transit":false,"station_id":"PSM","distance":2820},{"station_id":"PSMB","station_name":"Pasar Minggu Baru","is_transit":false,"transit":false,"line":2,"time":2,"i_lat":-6.263214,"i_long":106.851577,"distance":2380},{"is_transit":false,"transit":false,"i_long":106.85449,"line":2,"distance":824,"station_name":"Duren Kalibata","time":2,"i_lat":-6.255332,"station_id":"DRN"},{"time":3,"is_transit":false,"i_long":106.856607,"distance":1546,"i_lat":-6.242512,"line":2,"station_name":"Cawang","transit":false,"station_id":"CW"},{"i_long":106.857948,"distance":1230,"station_name":"Tebet","station_id":"TEB","transit":false,"i_lat":-6.226659,"line":2,"time":2,"is_transit":false},{"i_lat":-6.209883,"i_long":106.84912,"distance":2610,"is_transit":true,"line":2,"transit":true,"station_id":"MRI","station_name":"Manggarai","time":4},{"i_long":106.822649,"is_transit":false,"station_id":"SUD","line":1,"station_name":"Sudirman","transit":false,"time":4,"i_lat":-6.202263,"distance":3186},{"line":1,"station_id":"SUDB","time":1,"distance":280,"is_transit":false,"i_long":106.819881,"station_name":"Sudirman Baru","transit":false,"i_lat":-6.201433},{"distance":471,"i_lat":-6.20132,"i_long":106.816351,"time":1,"station_name":"Karet","line":1,"is_transit":false,"transit":false,"station_id":"KAT"},{"time":5,"i_long":106.811091,"station_name":"Tanah Abang","station_id":"THB","i_lat":-6.185545,"line":1,"distance":2029,"transit":false,"is_transit":false},{"line":1,"time":8,"station_id":"DU","i_lat":-6.155215,"distance":3632,"transit":true,"station_name":"Duri","i_long":106.800832,"is_transit":true},{"station_id":"GGL","line":5,"station_name":"Grogol","i_long":106.788277,"transit":false,"time":3,"distance":1700,"is_transit":false,"i_lat":-6.162021},{"line":5,"i_long":106.771379,"transit":false,"i_lat":-6.161433,"is_transit":false,"distance":2036,"time":2,"station_name":"Pesing","station_id":"PSG"},{"station_id":"TKO","transit":false,"distance":1614,"time":2,"is_transit":false,"i_lat":-6.1587309999999995,"line":5,"i_long":106.756522,"station_name":"Taman Kota"},{"time":2,"distance":2334,"is_transit":false,"i_long":106.737035,"line":5,"station_name":"Bojongindah","transit":false,"station_id":"BOI","i_lat":-6.159876},{"time":4,"is_transit":false,"station_id":"RW","transit":false,"i_lat":-6.162758,"station_name":"Rawa Buaya","distance":1152,"i_long":106.723064,"line":5},{"distance":2504,"transit":false,"i_long":106.701612,"station_name":"Kalideres","is_transit":false,"i_lat":-6.166068,"station_id":"KDS","time":3,"line":5},{"station_id":"PI","i_lat":-6.169933,"station_name":"Poris","line":5,"i_long":106.679458,"time":3,"transit":false,"distance":2548,"is_transit":false},{"station_name":"Batuceper","i_long":106.665036,"distance":1834,"station_id":"BPR","i_lat":-6.171811,"time":3,"is_transit":false,"transit":false,"line":5},{"station_id":"TTI","i_lat":-6.17331,"line":5,"station_name":"Tanah Tinggi","transit":false,"distance":2028,"i_long":106.64657,"is_transit":false,"time":3},{"is_transit":false,"line":5,"time":3,"distance":1547,"transit":false,"i_lat":-6.176583,"station_id":"TNG","i_long":106.632761,"station_name":"Tangerang"}],[{"distance":0,"is_transit":false,"station_id":"CBN","i_lat":-6.46424,"transit":false,"time":0,"i_long":106.851978,"line":21,"station_name":"Cibinong"},{"station_name":"Pondok Rajeg","distance":0,"time":0,"is_transit":false,"station_id":"PDRG","i_lat":-6.460735,"line":21,"i_long":106.824374,"transit":false},{"i_lat":-6.448811,"line":2,"i_long":106.800298,"transit":true,"station_name":"Citayam","station_id":"CTA","is_transit":true,"distance":0,"time":0},{"i_long":106.816926,"line":2,"distance":5084,"is_transit":false,"station_name":"Depok","transit":false,"time":6,"station_id":"DP","i_lat":-6.405256},{"i_long":106.819451,"transit":false,"station_id":"DPB","line":2,"distance":1584,"time":3,"is_transit":false,"station_name":"Depokbaru","i_lat":-6.391065},{"time":4,"transit":false,"station_name":"Pondok Cina","is_transit":false,"line":2,"station_id":"POC","distance":2727,"i_long":106.831114,"i_lat":-6.369073},{"i_lat":-6.360749,"transit":false,"time":2,"is_transit":false,"i_long":106.831474,"line":2,"distance":1109,"station_name":"Univ. Indonesia","station_id":"UI"},{"time":3,"station_name":"Univ. Pancasila","is_transit":false,"i_long":106.834175,"line":2,"i_lat":-6.339291,"station_id":"UP","distance":2264,"transit":false},{"station_id":"LNA","station_name":"Lenteng Agung","i_long":106.832616,"transit":false,"line":2,"i_lat":-6.330363,"is_transit":false,"time":2,"distance":1029},{"station_id":"TNT","i_lat":-6.3080680000000005,"is_transit":false,"station_name":"Tanjung Barat","transit":false,"time":3,"i_long":106.838896,"line":2,"distance":2671},{"station_id":"PSM","i_long":106.843999,"is_transit":false,"line":2,"time":4,"station_name":"Pasar Minggu","distance":2820,"i_lat":-6.2842400000000005,"transit":false},{"transit":false,"station_name":"Pasar Minggu Baru","time":2,"i_lat":-6.263214,"is_transit":false,"station_id":"PSMB","line":2,"i_long":106.851577,"distance":2380},{"station_name":"Duren Kalibata","is_transit":false,"station_id":"DRN","time":2,"i_lat":-6.255332,"i_long":106.85449,"transit":false,"line":2,"distance":824},{"i_long":106.856607,"is_transit":false,"station_name":"Cawang","station_id":"CW","i_lat":-6.242512,"distance":1546,"time":3,"line":2,"transit":false},{"distance":1230,"is_transit":false,"station_id":"TEB","transit":false,"line":2,"i_lat":-6.226659,"i_long":106.857948,"time":2,"station_name":"Tebet"},{"time":4,"transit":false,"distance":2610,"station_name":"Manggarai","is_transit":false,"i_lat":-6.209883,"i_long":106.84912,"line":2,"station_id":"MRI"},{"i_long":106.840169,"line":2,"is_transit":false,"i_lat":-6.198556,"time":4,"station_id":"CKI","station_name":"Cikini","distance":1590,"transit":false},{"transit":false,"station_id":"GDD","i_long":106.832183,"line":2,"is_transit":false,"time":3,"station_name":"Gondangdia","i_lat":-6.186295,"distance":1750},{"i_lat":-6.166716,"i_long":106.828284,"distance":2015,"station_id":"JUA","station_name":"Juanda","line":2,"time":4,"transit":false,"is_transit":false},{"station_name":"Sawah Besar","is_transit":false,"transit":false,"i_lat":-6.160725,"i_long":106.827103,"station_id":"SW","time":2,"distance":1149,"line":2},{"i_long":106.82482,"line":2,"station_id":"MGB","is_transit":false,"time":2,"i_lat":-6.149769,"station_name":"Manggabesar","transit":false,"distance":906},{"station_id":"JAY","i_long":106.820901,"line":2,"time":2,"i_lat":-6.141205,"distance":1080,"transit":false,"station_name":"Jayakarta","is_transit":false},{"is_transit":true,"i_lat":-6.137569,"station_name":"Jakarta Kota","station_id":"JAKK","distance":1264,"time":4,"i_long":106.812439,"line":2,"transit":true},{"line":4,"station_name":"Kampung Bandan","i_lat":-6.132549,"station_id":"KPB","transit":true,"distance":1364,"time":3,"is_transit":true,"i_long":106.826365},{"station_name":"Angke","station_id":"AK","i_lat":-6.144674,"line":1,"time":9,"i_long":106.79867,"transit":false,"is_transit":false,"distance":4102},{"i_long":106.800832,"station_name":"Duri","station_id":"DU","transit":true,"distance":1230,"is_transit":true,"time":4,"i_lat":-6.155215,"line":1},{"transit":false,"time":3,"i_lat":-6.162021,"distance":1700,"i_long":106.788277,"line":5,"is_transit":false,"station_id":"GGL","station_name":"Grogol"},{"line":5,"time":2,"station_id":"PSG","distance":2036,"station_name":"Pesing","is_transit":false,"transit":false,"i_lat":-6.161433,"i_long":106.771379},{"distance":1614,"time":2,"station_name":"Taman Kota","i_lat":-6.1587309999999995,"i_long":106.756522,"line":5,"is_transit":false,"station_id":"TKO","transit":false},{"station_id":"BOI","line":5,"distance":2334,"transit":false,"i_long":106.737035,"is_transit":false,"station_name":"Bojongindah","time":2,"i_lat":-6.159876},{"distance":1152,"is_transit":false,"i_long":106.723064,"line":5,"station_name":"Rawa Buaya","transit":false,"station_id":"RW","i_lat":-6.162758,"time":4},{"time":3,"is_transit":false,"line":5,"station_id":"KDS","i_lat":-6.166068,"station_name":"Kalideres","distance":2504,"i_long":106.701612,"transit":false},{"line":5,"distance":2548,"i_long":106.679458,"time":3,"station_id":"PI","station_name":"Poris","transit":false,"is_transit":false,"i_lat":-6.169933},{"station_id":"BPR","station_name":"Batuceper","i_long":106.665036,"line":5,"transit":false,"distance":1834,"time":3,"is_transit":false,"i_lat":-6.171811},{"is_transit":false,"station_name":"Tanah Tinggi","distance":2028,"i_lat":-6.17331,"i_long":106.64657,"transit":false,"station_id":"TTI","time":3,"line":5},{"transit":false,"is_transit":false,"distance":1547,"i_lat":-6.176583,"i_long":106.632761,"station_id":"TNG","line":5,"time":3,"station_name":"Tangerang"}],[{"distance":0,"station_name":"Cibinong","transit":false,"i_lat":-6.46424,"time":0,"station_id":"CBN","i_long":106.851978,"line":21,"is_transit":false},{"station_id":"PDRG","is_transit":false,"line":21,"station_name":"Pondok Rajeg","i_long":106.824374,"transit":false,"i_lat":-6.460735,"distance":0,"time":0},{"station_id":"CTA","is_transit":true,"i_lat":-6.448811,"station_name":"Citayam","distance":0,"time":0,"transit":true,"i_long":106.800298,"line":2},{"station_id":"DP","i_long":106.816926,"transit":false,"i_lat":-6.405256,"line":2,"time":6,"distance":5084,"station_name":"Depok","is_transit":false},{"distance":1584,"station_name":"Depokbaru","station_id":"DPB","i_long":106.819451,"is_transit":false,"transit":false,"line":2,"i_lat":-6.391065,"time":3},{"i_lat":-6.369073,"station_name":"Pondok Cina","transit":false,"is_transit":false,"time":4,"i_long":106.831114,"line":2,"station_id":"POC","distance":2727},{"distance":1109,"station_id":"UI","i_long":106.831474,"station_name":"Univ. Indonesia","time":2,"is_transit":false,"i_lat":-6.360749,"transit":false,"line":2},{"transit":false,"time":3,"line":2,"is_transit":false,"i_lat":-6.339291,"distance":2264,"station_name":"Univ. Pancasila","station_id":"UP","i_long":106.834175},{"transit":false,"line":2,"station_name":"Lenteng Agung","is_transit":false,"station_id":"LNA","time":2,"i_lat":-6.330363,"i_long":106.832616,"distance":1029},{"distance":2671,"time":3,"station_name":"Tanjung Barat","i_lat":-6.3080680000000005,"is_transit":false,"line":2,"transit":false,"station_id":"TNT","i_long":106.838896},{"i_long":106.843999,"time":4,"distance":2820,"station_name":"Pasar Minggu","station_id":"PSM","transit":false,"i_lat":-6.2842400000000005,"line":2,"is_transit":false},{"is_transit":false,"line":2,"i_lat":-6.263214,"transit":false,"station_id":"PSMB","i_long":106.851577,"station_name":"Pasar Minggu Baru","distance":2380,"time":2},{"i_long":106.85449,"i_lat":-6.255332,"line":2,"station_name":"Duren Kalibata","is_transit":false,"transit":false,"station_id":"DRN","distance":824,"time":2},{"i_long":106.856607,"station_id":"CW","is_transit":false,"station_name":"Cawang","transit":false,"i_lat":-6.242512,"time":3,"line":2,"distance":1546},{"station_name":"Tebet","time":2,"distance":1230,"transit":false,"station_id":"TEB","line":2,"is_transit":false,"i_lat":-6.226659,"i_long":106.857948},{"i_lat":-6.209883,"station_id":"MRI","time":4,"i_long":106.84912,"line":2,"station_name":"Manggarai","transit":true,"is_transit":true,"distance":2610},{"transit":false,"is_transit":false,"line":1,"i_lat":-6.212485,"distance":1275,"time":2,"station_id":"MTR","i_long":106.858896,"station_name":"Matraman"},{"line":1,"time":8,"i_long":106.86807400000001,"distance":1377,"transit":true,"is_transit":true,"i_lat":-6.215091,"station_name":"Jatinegara","station_id":"JNG"},{"distance":1236,"station_id":"POK","i_long":106.861737,"time":2,"is_transit":false,"transit":false,"i_lat":-6.209188,"line":11,"station_name":"Pondok Jati"},{"station_id":"KMT","time":2,"i_lat":-6.193792,"station_name":"Kramat","is_transit":false,"distance":1829,"i_long":106.855437,"line":11,"transit":false},{"time":1,"line":11,"i_long":106.850107,"station_name":"Gang Sentiong","distance":973,"station_id":"GST","transit":false,"is_transit":false,"i_lat":-6.185975},{"i_lat":-6.174784,"i_long":106.84368,"time":8,"line":11,"distance":1567,"station_name":"Pasar Senen","transit":false,"station_id":"PSE","is_transit":false},{"is_transit":false,"station_name":"Kemayoran","transit":false,"line":11,"i_lat":-6.161728,"i_long":106.839204,"station_id":"KMO","distance":1436,"time":4},{"distance":1901,"i_long":106.836569,"is_transit":false,"i_lat":-6.14505,"line":11,"time":5,"station_id":"RJW","station_name":"Rajawali","transit":false},{"time":3,"transit":true,"line":4,"i_long":106.826365,"i_lat":-6.132549,"station_name":"Kampung Bandan","is_transit":true,"distance":1444,"station_id":"KPB"},{"station_name":"Angke","distance":4102,"station_id":"AK","i_lat":-6.144674,"i_long":106.79867,"line":1,"transit":false,"time":9,"is_transit":false},{"is_transit":true,"station_id":"DU","time":4,"i_long":106.800832,"station_name":"Duri","transit":true,"i_lat":-6.155215,"distance":1230,"line":1},{"distance":1700,"station_id":"GGL","line":5,"is_transit":false,"i_lat":-6.162021,"time":3,"station_name":"Grogol","transit":false,"i_long":106.788277},{"station_id":"PSG","line":5,"time":2,"i_lat":-6.161433,"is_transit":false,"station_name":"Pesing","transit":false,"i_long":106.771379,"distance":2036},{"is_transit":false,"i_lat":-6.1587309999999995,"station_id":"TKO","line":5,"i_long":106.756522,"time":2,"station_name":"Taman Kota","transit":false,"distance":1614},{"distance":2334,"station_name":"Bojongindah","line":5,"station_id":"BOI","i_lat":-6.159876,"transit":false,"i_long":106.737035,"time":2,"is_transit":false},{"station_id":"RW","line":5,"distance":1152,"i_lat":-6.162758,"i_long":106.723064,"time":4,"is_transit":false,"transit":false,"station_name":"Rawa Buaya"},{"time":3,"is_transit":false,"transit":false,"line":5,"station_id":"KDS","distance":2504,"i_lat":-6.166068,"i_long":106.701612,"station_name":"Kalideres"},{"line":5,"distance":2548,"i_long":106.679458,"i_lat":-6.169933,"transit":false,"time":3,"station_name":"Poris","is_transit":false,"station_id":"PI"},{"station_id":"BPR","i_lat":-6.171811,"time":3,"line":5,"is_transit":false,"station_name":"Batuceper","transit":false,"distance":1834,"i_long":106.665036},{"distance":2028,"station_name":"Tanah Tinggi","time":3,"transit":false,"i_lat":-6.17331,"line":5,"i_long":106.64657,"is_transit":false,"station_id":"TTI"},{"is_transit":false,"time":3,"i_lat":-6.176583,"distance":1547,"station_id":"TNG","transit":false,"line":5,"i_long":106.632761,"station_name":"Tangerang"}]]}