{"data":[[{"distance":0,"station_id":"CBN","line":0,"transit":false,"time":0,"station_name":"Cibinong","i_lat":-6.46424,"i_long":106.851978,"is_transit":false},{"station_name":"Citayam","distance":6740,"station_id":"CTA","is_transit":true,"time":10,"i_long":106.800298,"transit":false,"i_lat":-6.448811,"line":1},{"station_name":"Depok","time":6,"i_lat":-6.405256,"i_long":106.816926,"transit":false,"station_id":"DP","line":0,"is_transit":false,"distance":5084},{"station_id":"DPB","time":3,"transit":false,"is_transit":false,"station_name":"Depokbaru","i_lat":-6.391065,"distance":1584,"i_long":106.819451,"line":0},{"time":4,"transit":false,"line":2,"station_id":"POC","i_lat":-6.369073,"i_long":106.831114,"station_name":"Pondok Cina","is_transit":false,"distance":2727},{"line":2,"is_transit":false,"i_long":106.831474,"time":2,"transit":false,"station_name":"Univ. Indonesia","i_lat":-6.360749,"station_id":"UI","distance":1109},{"i_lat":-6.339291,"time":3,"is_transit":false,"station_id":"UP","i_long":106.834175,"line":2,"transit":false,"station_name":"Univ. Pancasila","distance":2264},{"station_name":"Lenteng Agung","time":2,"transit":false,"i_long":106.832616,"is_transit":false,"station_id":"LNA","distance":1029,"line":2,"i_lat":-6.330363},{"time":3,"distance":2671,"is_transit":false,"i_lat":-6.3080680000000005,"i_long":106.838896,"line":2,"station_id":"TNT","transit":false,"station_name":"Tanjung Barat"},{"line":2,"is_transit":false,"i_long":106.843999,"station_id":"PSM","time":4,"i_lat":-6.2842400000000005,"station_name":"Pasar Minggu","distance":2820,"transit":false},{"line":2,"i_long":106.851577,"is_transit":false,"transit":false,"i_lat":-6.263214,"station_id":"PSMB","distance":2380,"time":2,"station_name":"Pasar Minggu Baru"},{"transit":false,"i_lat":-6.255332,"i_long":106.85449,"station_id":"DRN","line":0,"is_transit":false,"station_name":"Duren Kalibata","time":2,"distance":824},{"distance":1546,"i_lat":-6.242512,"time":3,"i_long":106.856607,"station_name":"Cawang","is_transit":false,"transit":false,"line":0,"station_id":"CW"},{"station_name":"Tebet","i_long":106.857948,"is_transit":false,"i_lat":-6.226659,"station_id":"TEB","time":2,"line":2,"distance":1230,"transit":false},{"time":4,"i_lat":-6.209883,"is_transit":true,"station_name":"Manggarai","station_id":"MRI","i_long":106.84912,"distance":2610,"transit":true,"line":0},{"line":1,"i_lat":-6.202263,"transit":false,"station_name":"Sudirman","station_id":"SUD","time":4,"i_long":106.822649,"distance":3186,"is_transit":false},{"i_long":106.819881,"transit":false,"line":1,"time":1,"distance":280,"station_name":"Sudirman Baru","i_lat":-6.201433,"is_transit":false,"station_id":"SUDB"},{"i_long":106.816351,"line":1,"distance":471,"station_name":"Karet","transit":false,"i_lat":-6.20132,"station_id":"KAT","time":1,"is_transit":false},{"station_id":"THB","i_long":106.811091,"transit":false,"line":1,"is_transit":true,"station_name":"Tanah Abang","i_lat":-6.185545,"distance":2029,"time":5},{"i_lat":-6.155215,"station_id":"DU","transit":true,"i_long":106.800832,"time":8,"distance":3632,"station_name":"Duri","is_transit":true,"line":1},{"station_id":"GGL","line":5,"is_transit":false,"station_name":"Grogol","transit":false,"time":3,"distance":1700,"i_long":106.788277,"i_lat":-6.162021},{"i_lat":-6.161433,"is_transit":false,"time":2,"station_name":"Pesing","i_long":106.771379,"transit":false,"distance":2036,"line":5,"station_id":"PSG"}],[{"i_lat":-6.46424,"station_id":"CBN","station_name":"Cibinong","transit":false,"time":0,"i_long":106.851978,"distance":0,"is_transit":false,"line":0},{"i_long":106.800298,"station_id":"CTA","transit":false,"i_lat":-6.448811,"line":1,"station_name":"Citayam","distance":6740,"is_transit":true,"time":10},{"time":6,"transit":false,"station_name":"Depok","distance":5084,"line":0,"is_transit":false,"i_lat":-6.405256,"i_long":106.816926,"station_id":"DP"},{"is_transit":false,"station_id":"DPB","transit":false,"line":0,"station_name":"Depokbaru","time":3,"distance":1584,"i_lat":-6.391065,"i_long":106.819451},{"is_transit":false,"i_lat":-6.369073,"distance":2727,"i_long":106.831114,"station_id":"POC","time":4,"transit":false,"station_name":"Pondok Cina","line":2},{"i_long":106.831474,"i_lat":-6.360749,"distance":1109,"station_name":"Univ. Indonesia","transit":false,"line":2,"station_id":"UI","is_transit":false,"time":2},{"is_transit":false,"i_lat":-6.339291,"station_id":"UP","i_long":106.834175,"transit":false,"station_name":"Univ. Pancasila","time":3,"distance":2264,"line":2},{"i_lat":-6.330363,"station_id":"LNA","is_transit":false,"time":2,"line":2,"i_long":106.832616,"distance":1029,"station_name":"Lenteng Agung","transit":false},{"station_id":"TNT","transit":false,"i_lat":-6.3080680000000005,"line":2,"station_name":"Tanjung Barat","i_long":106.838896,"distance":2671,"is_transit":false,"time":3},{"i_lat":-6.2842400000000005,"is_transit":false,"time":4,"distance":2820,"transit":false,"station_name":"Pasar Minggu","i_long":106.843999,"station_id":"PSM","line":2},{"is_transit":false,"station_name":"Pasar Minggu Baru","line":2,"station_id":"PSMB","distance":2380,"i_long":106.851577,"time":2,"transit":false,"i_lat":-6.263214},{"line":0,"time":2,"i_long":106.85449,"is_transit":false,"distance":824,"i_lat":-6.255332,"transit":false,"station_name":"Duren Kalibata","station_id":"DRN"},{"station_id":"CW","time":3,"transit":false,"i_lat":-6.242512,"distance":1546,"station_name":"Cawang","is_transit":false,"i_long":106.856607,"line":0},{"station_id":"TEB","is_transit":false,"i_long":106.857948,"distance":1230,"station_name":"Tebet","line":2,"transit":false,"time":2,"i_lat":-6.226659},{"i_long":106.84912,"line":0,"station_name":"Manggarai","station_id":"MRI","distance":2610,"i_lat":-6.209883,"transit":true,"is_transit":true,"time":4},{"station_id":"CKI","line":0,"transit":false,"is_transit":false,"time":4,"i_lat":-6.198556,"station_name":"Cikini","i_long":106.840169,"distance":1590},{"transit":false,"time":3,"distance":1750,"is_transit":false,"i_lat":-6.186295,"i_long":106.832183,"station_id":"GDD","station_name":"Gondangdia","line":2},{"time":4,"is_transit":false,"transit":false,"line":2,"station_name":"Juanda","i_lat":-6.166716,"distance":2015,"i_long":106.828284,"station_id":"JUA"},{"i_long":106.827103,"station_id":"SW","time":2,"distance":1149,"i_lat":-6.160725,"transit":false,"is_transit":false,"station_name":"Sawah Besar","line":2},{"is_transit":false,"station_id":"MGB","i_lat":-6.149769,"station_name":"Manggabesar","i_long":106.82482,"transit":false,"distance":906,"time":2,"line":2},{"is_transit":false,"transit":false,"i_lat":-6.141205,"i_long":106.820901,"station_id":"JAY","line":7,"station_name":"Jayakarta","time":2,"distance":1080},{"i_lat":-6.137569,"transit":true,"station_name":"Jakarta Kota","line":0,"i_long":106.812439,"time":4,"distance":1264,"is_transit":true,"station_id":"JAKK"},{"time":3,"station_name":"Kampung Bandan","i_long":106.826365,"distance":1364,"transit":false,"i_lat":-6.132549,"line":0,"is_transit":true,"station_id":"KPB"},{"distance":4102,"station_id":"AK","i_lat":-6.144674,"line":0,"i_long":106.79867,"time":9,"is_transit":false,"transit":false,"station_name":"Angke"},{"is_transit":true,"line":1,"transit":true,"i_long":106.800832,"station_id":"DU","distance":1230,"station_name":"Duri","time":4,"i_lat":-6.155215},{"i_long":106.788277,"line":5,"transit":false,"is_transit":false,"station_name":"Grogol","station_id":"GGL","time":3,"distance":1700,"i_lat":-6.162021},{"line":5,"distance":2036,"is_transit":false,"i_lat":-6.161433,"station_name":"Pesing","i_long":106.771379,"transit":false,"time":2,"station_id":"PSG"}],[{"i_long":106.851978,"transit":false,"i_lat":-6.46424,"station_name":"Cibinong","station_id":"CBN","time":0,"line":0,"is_transit":false,"distance":0},{"i_long":106.800298,"station_id":"CTA","line":1,"transit":false,"time":10,"distance":6740,"station_name":"Citayam","is_transit":true,"i_lat":-6.448811},{"is_transit":false,"transit":false,"station_name":"Depok","distance":5084,"i_lat":-6.405256,"station_id":"DP","i_long":106.816926,"line":0,"time":6},{"transit":false,"line":0,"station_name":"Depokbaru","i_long":106.819451,"time":3,"station_id":"DPB","i_lat":-6.391065,"is_transit":false,"distance":1584},{"distance":2727,"i_lat":-6.369073,"line":2,"transit":false,"i_long":106.831114,"is_transit":false,"station_id":"POC","time":4,"station_name":"Pondok Cina"},{"time":2,"transit":false,"station_name":"Univ. Indonesia","is_transit":false,"distance":1109,"i_long":106.831474,"line":2,"i_lat":-6.360749,"station_id":"UI"},{"time":3,"transit":false,"line":2,"station_name":"Univ. Pancasila","distance":2264,"is_transit":false,"i_lat":-6.339291,"i_long":106.834175,"station_id":"UP"},{"distance":1029,"station_name":"Lenteng Agung","station_id":"LNA","is_transit":false,"time":2,"i_long":106.832616,"i_lat":-6.330363,"transit":false,"line":2},{"station_id":"TNT","station_name":"Tanjung Barat","time":3,"distance":2671,"line":2,"is_transit":false,"transit":false,"i_lat":-6.3080680000000005,"i_long":106.838896},{"station_id":"PSM","i_long":106.843999,"distance":2820,"transit":false,"i_lat":-6.2842400000000005,"line":2,"is_transit":false,"time":4,"station_name":"Pasar Minggu"},{"station_id":"PSMB","time":2,"distance":2380,"station_name":"Pasar Minggu Baru","is_transit":false,"i_lat":-6.263214,"transit":false,"i_long":106.851577,"line":2},{"transit":false,"i_long":106.85449,"distance":824,"station_id":"DRN","station_name":"Duren Kalibata","time":2,"i_lat":-6.255332,"is_transit":false,"line":0},{"is_transit":false,"transit":false,"i_lat":-6.242512,"time":3,"distance":1546,"i_long":106.856607,"station_id":"CW","line":0,"station_name":"Cawang"},{"i_lat":-6.226659,"i_long":106.857948,"distance":1230,"line":2,"transit":false,"station_id":"TEB","station_name":"Tebet","time":2,"is_transit":false},{"line":0,"station_id":"MRI","station_name":"Manggarai","i_lat":-6.209883,"is_transit":true,"time":4,"distance":2610,"i_long":106.84912,"transit":true},{"station_id":"MTR","time":2,"is_transit":false,"i_long":106.858896,"distance":1275,"i_lat":-6.212485,"station_name":"Matraman","line":1,"transit":false},{"distance":1377,"is_transit":true,"i_lat":-6.215091,"transit":true,"station_name":"Jatinegara","line":0,"time":8,"i_long":106.86807400000001,"station_id":"JNG"},{"distance":1236,"i_lat":-6.209188,"line":11,"station_name":"Pondok Jati","is_transit":false,"i_long":106.861737,"station_id":"POK","transit":false,"time":2},{"distance":1829,"line":11,"i_long":106.855437,"i_lat":-6.193792,"station_id":"KMT","transit":false,"is_transit":false,"station_name":"Kramat","time":2},{"time":1,"i_long":106.850107,"i_lat":-6.185975,"is_transit":false,"line":11,"transit":false,"station_id":"GST","station_name":"Gang Sentiong","distance":973},{"distance":1567,"i_long":106.84368,"time":8,"station_name":"Pasar Senen","is_transit":false,"station_id":"PSE","line":11,"i_lat":-6.174784,"transit":false},{"station_name":"Kemayoran","i_lat":-6.161728,"distance":1436,"line":11,"i_long":106.839204,"transit":false,"station_id":"KMO","time":4,"is_transit":false},{"station_name":"Rajawali","i_long":106.836569,"is_transit":false,"transit":false,"station_id":"RJW","time":5,"i_lat":-6.14505,"line":11,"distance":1901},{"time":3,"station_id":"KPB","station_name":"Kampung Bandan","transit":true,"is_transit":true,"i_lat":-6.132549,"line":0,"distance":1444,"i_long":106.826365},{"distance":4102,"station_id":"AK","station_name":"Angke","line":0,"time":9,"is_transit":false,"i_long":106.79867,"i_lat":-6.144674,"transit":false},{"is_transit":true,"transit":true,"i_long":106.800832,"distance":1230,"i_lat":-6.155215,"station_name":"Duri","time":4,"station_id":"DU","line":1},{"station_id":"GGL","station_name":"Grogol","distance":1700,"i_lat":-6.162021,"line":5,"is_transit":false,"time":3,"i_long":106.788277,"transit":false},{"i_long":106.771379,"transit":false,"time":2,"i_lat":-6.161433,"distance":2036,"is_transit":false,"station_name":"Pesing","line":5,"station_id":"PSG"}]]}