{"data":[[{"i_lat":-6.46424,"i_long":106.851978,"line":21,"distance":0,"station_name":"Cibinong","station_id":"CBN","transit":false,"is_transit":false,"time":0},{"transit":false,"station_id":"PDRG","time":0,"distance":0,"i_long":106.824374,"line":21,"station_name":"Pondok Rajeg","is_transit":false,"i_lat":-6.460735},{"time":0,"line":2,"transit":true,"station_name":"Citayam","i_long":106.800298,"is_transit":true,"station_id":"CTA","distance":0,"i_lat":-6.448811},{"is_transit":false,"i_lat":-6.405256,"distance":5084,"line":2,"i_long":106.816926,"transit":false,"station_name":"Depok","station_id":"DP","time":6},{"is_transit":false,"i_lat":-6.391065,"time":3,"station_name":"Depokbaru","i_long":106.819451,"station_id":"DPB","distance":1584,"line":2,"transit":false},{"station_name":"Pondok Cina","distance":2727,"is_transit":false,"i_lat":-6.369073,"line":2,"transit":false,"i_long":106.831114,"time":4,"station_id":"POC"},{"i_long":106.831474,"time":2,"line":2,"transit":false,"station_name":"Univ. Indonesia","distance":1109,"station_id":"UI","i_lat":-6.360749,"is_transit":false},{"is_transit":false,"transit":false,"station_name":"Univ. Pancasila","line":2,"distance":2264,"station_id":"UP","time":3,"i_lat":-6.339291,"i_long":106.834175},{"distance":1029,"is_transit":false,"station_id":"LNA","time":2,"i_lat":-6.330363,"i_long":106.832616,"line":2,"station_name":"Lenteng Agung","transit":false},{"time":3,"i_long":106.838896,"station_id":"TNT","is_transit":false,"i_lat":-6.3080680000000005,"line":2,"station_name":"Tanjung Barat","distance":2671,"transit":false},{"transit":false,"station_id":"PSM","distance":2820,"is_transit":false,"i_lat":-6.2842400000000005,"time":4,"i_long":106.843999,"line":2,"station_name":"Pasar Minggu"},{"station_name":"Pasar Minggu Baru","time":2,"transit":false,"i_lat":-6.263214,"distance":2380,"station_id":"PSMB","i_long":106.851577,"line":2,"is_transit":false},{"is_transit":false,"station_id":"DRN","time":2,"i_lat":-6.255332,"transit":false,"i_long":106.85449,"line":2,"distance":824,"station_name":"Duren Kalibata"},{"i_lat":-6.242512,"line":2,"transit":false,"i_long":106.856607,"station_id":"CW","time":3,"distance":1546,"is_transit":false,"station_name":"Cawang"},{"distance":1230,"station_name":"Tebet","is_transit":false,"i_lat":-6.226659,"time":2,"transit":false,"station_id":"TEB","i_long":106.857948,"line":2},{"i_lat":-6.209883,"line":2,"time":4,"transit":true,"is_transit":true,"station_name":"Manggarai","distance":2610,"station_id":"MRI","i_long":106.84912},{"i_lat":-6.202263,"i_long":106.822649,"line":1,"transit":false,"time":4,"distance":3186,"station_id":"SUD","station_name":"Sudirman","is_transit":false},{"station_id":"SUDB","line":1,"time":1,"i_lat":-6.201433,"i_long":106.819881,"is_transit":false,"station_name":"Sudirman Baru","distance":280,"transit":false},{"transit":false,"distance":471,"i_long":106.816351,"station_id":"KAT","time":1,"i_lat":-6.20132,"line":1,"is_transit":false,"station_name":"Karet"},{"i_lat":-6.185545,"is_transit":false,"i_long":106.811091,"transit":false,"line":1,"time":5,"distance":2029,"station_id":"THB","station_name":"Tanah Abang"}],[{"line":21,"station_name":"Cibinong","transit":false,"station_id":"CBN","i_lat":-6.46424,"i_long":106.851978,"distance":0,"is_transit":false,"time":0},{"i_lat":-6.460735,"i_long":106.824374,"station_name":"Pondok Rajeg","distance":0,"line":21,"time":0,"transit":false,"station_id":"PDRG","is_transit":false},{"i_long":106.800298,"i_lat":-6.448811,"line":2,"station_name":"Citayam","transit":true,"distance":0,"is_transit":true,"station_id":"CTA","time":0},{"is_transit":false,"transit":false,"station_id":"DP","distance":5084,"time":6,"station_name":"Depok","i_long":106.816926,"line":2,"i_lat":-6.405256},{"transit":false,"station_id":"DPB","distance":1584,"is_transit":false,"i_lat":-6.391065,"station_name":"Depokbaru","time":3,"line":2,"i_long":106.819451},{"time":4,"station_id":"POC","distance":2727,"transit":false,"i_lat":-6.369073,"station_name":"Pondok Cina","line":2,"is_transit":false,"i_long":106.831114},{"is_transit":false,"distance":1109,"transit":false,"station_name":"Univ. Indonesia","station_id":"UI","time":2,"line":2,"i_lat":-6.360749,"i_long":106.831474},{"time":3,"station_name":"Univ. Pancasila","i_lat":-6.339291,"distance":2264,"is_transit":false,"transit":false,"station_id":"UP","i_long":106.834175,"line":2},{"is_transit":false,"distance":1029,"time":2,"transit":false,"station_name":"Lenteng Agung","i_lat":-6.330363,"i_long":106.832616,"station_id":"LNA","line":2},{"station_name":"Tanjung Barat","transit":false,"station_id":"TNT","i_long":106.838896,"i_lat":-6.3080680000000005,"time":3,"distance":2671,"line":2,"is_transit":false},{"distance":2820,"is_transit":false,"i_lat":-6.2842400000000005,"transit":false,"time":4,"station_id":"PSM","station_name":"Pasar Minggu","i_long":106.843999,"line":2},{"station_name":"Pasar Minggu Baru","is_transit":false,"time":2,"transit":false,"i_lat":-6.263214,"station_id":"PSMB","line":2,"distance":2380,"i_long":106.851577},{"line":2,"distance":824,"i_long":106.85449,"is_transit":false,"station_id":"DRN","i_lat":-6.255332,"time":2,"station_name":"Duren Kalibata","transit":false},{"station_id":"CW","time":3,"is_transit":false,"transit":false,"distance":1546,"station_name":"Cawang","i_long":106.856607,"i_lat":-6.242512,"line":2},{"i_long":106.857948,"i_lat":-6.226659,"station_name":"Tebet","distance":1230,"is_transit":false,"line":2,"transit":false,"station_id":"TEB","time":2},{"is_transit":false,"transit":false,"station_id":"MRI","line":2,"i_long":106.84912,"station_name":"Manggarai","time":4,"distance":2610,"i_lat":-6.209883},{"station_name":"Cikini","distance":1590,"i_lat":-6.198556,"transit":false,"line":2,"station_id":"CKI","is_transit":false,"i_long":106.840169,"time":4},{"station_id":"GDD","time":3,"station_name":"Gondangdia","i_long":106.832183,"is_transit":false,"line":2,"transit":false,"distance":1750,"i_lat":-6.186295},{"i_lat":-6.166716,"line":2,"time":4,"station_name":"Juanda","transit":false,"distance":2015,"is_transit":false,"station_id":"JUA","i_long":106.828284},{"station_name":"Sawah Besar","is_transit":false,"distance":1149,"time":2,"transit":false,"i_lat":-6.160725,"i_long":106.827103,"line":2,"station_id":"SW"},{"is_transit":false,"i_long":106.82482,"i_lat":-6.149769,"transit":false,"station_id":"MGB","station_name":"Manggabesar","time":2,"line":2,"distance":906},{"station_id":"JAY","line":2,"i_lat":-6.141205,"i_long":106.820901,"is_transit":false,"station_name":"Jayakarta","distance":1080,"time":2,"transit":false},{"station_id":"JAKK","transit":true,"distance":1264,"i_long":106.812439,"is_transit":true,"line":2,"station_name":"Jakarta Kota","time":4,"i_lat":-6.137569},{"time":3,"station_id":"KPB","i_long":106.826365,"station_name":"Kampung Bandan","distance":1364,"is_transit":true,"line":4,"i_lat":-6.132549,"transit":true},{"transit":false,"is_transit":false,"station_id":"AK","distance":4102,"i_lat":-6.144674,"i_long":106.79867,"line":1,"station_name":"Angke","time":9},{"i_lat":-6.155215,"distance":1230,"transit":false,"station_id":"DU","time":4,"is_transit":false,"station_name":"Duri","line":1,"i_long":106.800832},{"i_lat":-6.185545,"station_id":"THB","transit":false,"station_name":"Tanah Abang","i_long":106.811091,"is_transit":false,"time":8,"line":1,"distance":3632}],[{"station_id":"CBN","i_long":106.851978,"station_name":"Cibinong","transit":false,"time":0,"distance":0,"i_lat":-6.46424,"line":21,"is_transit":false},{"distance":0,"i_long":106.824374,"is_transit":false,"i_lat":-6.460735,"transit":false,"station_id":"PDRG","station_name":"Pondok Rajeg","time":0,"line":21},{"station_name":"Citayam","distance":0,"i_lat":-6.448811,"line":2,"is_transit":true,"station_id":"CTA","transit":true,"i_long":106.800298,"time":0},{"distance":5084,"transit":false,"station_name":"Depok","i_long":106.816926,"station_id":"DP","line":2,"is_transit":false,"time":6,"i_lat":-6.405256},{"is_transit":false,"station_id":"DPB","line":2,"i_long":106.819451,"i_lat":-6.391065,"distance":1584,"transit":false,"time":3,"station_name":"Depokbaru"},{"station_id":"POC","i_long":106.831114,"is_transit":false,"station_name":"Pondok Cina","distance":2727,"time":4,"i_lat":-6.369073,"line":2,"transit":false},{"time":2,"i_long":106.831474,"transit":false,"station_id":"UI","is_transit":false,"station_name":"Univ. Indonesia","line":2,"distance":1109,"i_lat":-6.360749},{"transit":false,"station_id":"UP","distance":2264,"time":3,"line":2,"i_lat":-6.339291,"station_name":"Univ. Pancasila","i_long":106.834175,"is_transit":false},{"i_lat":-6.330363,"transit":false,"station_name":"Lenteng Agung","time":2,"distance":1029,"is_transit":false,"station_id":"LNA","line":2,"i_long":106.832616},{"station_name":"Tanjung Barat","distance":2671,"transit":false,"i_lat":-6.3080680000000005,"is_transit":false,"time":3,"i_long":106.838896,"station_id":"TNT","line":2},{"i_lat":-6.2842400000000005,"line":2,"transit":false,"station_name":"Pasar Minggu","station_id":"PSM","distance":2820,"time":4,"is_transit":false,"i_long":106.843999},{"is_transit":false,"transit":false,"station_name":"Pasar Minggu Baru","i_long":106.851577,"distance":2380,"i_lat":-6.263214,"time":2,"line":2,"station_id":"PSMB"},{"i_long":106.85449,"line":2,"transit":false,"distance":824,"is_transit":false,"station_name":"Duren Kalibata","station_id":"DRN","time":2,"i_lat":-6.255332},{"station_name":"Cawang","transit":false,"is_transit":false,"line":2,"i_long":106.856607,"i_lat":-6.242512,"time":3,"distance":1546,"station_id":"CW"},{"distance":1230,"transit":false,"time":2,"station_id":"TEB","i_long":106.857948,"i_lat":-6.226659,"line":2,"is_transit":false,"station_name":"Tebet"},{"i_lat":-6.209883,"line":2,"distance":2610,"station_id":"MRI","transit":true,"time":4,"station_name":"Manggarai","i_long":106.84912,"is_transit":true},{"distance":1275,"transit":false,"is_transit":false,"time":2,"i_lat":-6.212485,"i_long":106.858896,"station_id":"MTR","station_name":"Matraman","line":1},{"station_name":"Jatinegara","i_lat":-6.215091,"i_long":106.86807400000001,"time":8,"line":1,"station_id":"JNG","is_transit":true,"distance":1377,"transit":true},{"i_lat":-6.209188,"transit":false,"line":11,"time":2,"station_name":"Pondok Jati","is_transit":false,"station_id":"POK","i_long":106.861737,"distance":1236},{"transit":false,"line":11,"i_long":106.855437,"station_name":"Kramat","i_lat":-6.193792,"is_transit":false,"time":2,"distance":1829,"station_id":"KMT"},{"distance":973,"station_id":"GST","i_lat":-6.185975,"transit":false,"i_long":106.850107,"is_transit":false,"line":11,"station_name":"Gang Sentiong","time":1},{"time":8,"transit":false,"station_id":"PSE","i_lat":-6.174784,"is_transit":false,"station_name":"Pasar Senen","i_long":106.84368,"line":11,"distance":1567},{"station_id":"KMO","station_name":"Kemayoran","time":4,"i_lat":-6.161728,"i_long":106.839204,"transit":false,"line":11,"distance":1436,"is_transit":false},{"transit":false,"i_long":106.836569,"line":11,"station_id":"RJW","is_transit":false,"i_lat":-6.14505,"station_name":"Rajawali","time":5,"distance":1901},{"i_lat":-6.132549,"line":4,"transit":true,"i_long":106.826365,"station_name":"Kampung Bandan","station_id":"KPB","time":3,"is_transit":true,"distance":1444},{"transit":false,"station_name":"Angke","time":9,"i_lat":-6.144674,"i_long":106.79867,"is_transit":false,"line":1,"station_id":"AK","distance":4102},{"line":1,"station_id":"DU","time":4,"distance":1230,"transit":false,"station_name":"Duri","i_lat":-6.155215,"i_long":106.800832,"is_transit":false},{"transit":false,"station_name":"Tanah Abang","time":8,"i_lat":-6.185545,"distance":3632,"i_long":106.811091,"is_transit":false,"station_id":"THB","line":1}]]}