{"data":[[{"line":0,"is_transit":false,"transit":false,"i_long":106.851978,"i_lat":-6.46424,"station_id":"CBN","time":0,"station_name":"Cibinong","distance":0},{"station_id":"CTA","time":10,"is_transit":true,"distance":6740,"station_name":"Citayam","transit":false,"i_long":106.800298,"i_lat":-6.448811,"line":1},{"time":6,"i_lat":-6.405256,"station_id":"DP","station_name":"Depok","distance":5084,"line":0,"is_transit":false,"transit":false,"i_long":106.816926},{"distance":1584,"transit":false,"i_long":106.819451,"line":0,"i_lat":-6.391065,"station_name":"Depokbaru","station_id":"DPB","time":3,"is_transit":false},{"distance":2727,"i_long":106.831114,"line":2,"time":4,"station_id":"POC","transit":false,"station_name":"Pondok Cina","i_lat":-6.369073,"is_transit":false},{"transit":false,"time":2,"i_long":106.831474,"i_lat":-6.360749,"station_name":"Univ. Indonesia","station_id":"UI","line":2,"distance":1109,"is_transit":false},{"is_transit":false,"line":2,"station_id":"UP","i_long":106.834175,"distance":2264,"i_lat":-6.339291,"time":3,"station_name":"Univ. Pancasila","transit":false},{"station_id":"LNA","station_name":"Lenteng Agung","transit":false,"i_lat":-6.330363,"distance":1029,"i_long":106.832616,"time":2,"is_transit":false,"line":2},{"time":3,"transit":false,"i_long":106.838896,"station_id":"TNT","is_transit":false,"distance":2671,"i_lat":-6.3080680000000005,"line":2,"station_name":"Tanjung Barat"},{"time":4,"station_id":"PSM","transit":false,"station_name":"Pasar Minggu","i_long":106.843999,"i_lat":-6.2842400000000005,"line":2,"distance":2820,"is_transit":false},{"distance":2380,"time":2,"i_lat":-6.263214,"station_name":"Pasar Minggu Baru","station_id":"PSMB","line":2,"is_transit":false,"i_long":106.851577,"transit":false},{"transit":false,"i_lat":-6.255332,"station_id":"DRN","i_long":106.85449,"time":2,"is_transit":false,"distance":824,"station_name":"Duren Kalibata","line":0},{"i_lat":-6.242512,"i_long":106.856607,"distance":1546,"transit":false,"station_id":"CW","line":0,"is_transit":false,"station_name":"Cawang","time":3},{"i_long":106.857948,"station_id":"TEB","i_lat":-6.226659,"is_transit":false,"line":2,"time":2,"distance":1230,"transit":false,"station_name":"Tebet"},{"station_id":"MRI","time":4,"i_long":106.84912,"is_transit":true,"distance":2610,"station_name":"Manggarai","i_lat":-6.209883,"line":0,"transit":true},{"is_transit":false,"time":4,"i_lat":-6.202263,"station_id":"SUD","station_name":"Sudirman","distance":3186,"transit":false,"line":1,"i_long":106.822649},{"line":1,"station_name":"Sudirman Baru","is_transit":false,"distance":280,"transit":false,"station_id":"SUDB","time":1,"i_lat":-6.201433,"i_long":106.819881},{"i_lat":-6.20132,"transit":false,"i_long":106.816351,"line":1,"station_name":"Karet","distance":471,"station_id":"KAT","is_transit":false,"time":1},{"station_id":"THB","distance":2029,"i_lat":-6.185545,"time":5,"i_long":106.811091,"is_transit":true,"line":1,"station_name":"Tanah Abang","transit":false},{"line":1,"is_transit":true,"transit":true,"time":8,"distance":3632,"station_name":"Duri","i_lat":-6.155215,"i_long":106.800832,"station_id":"DU"},{"line":5,"time":3,"station_id":"GGL","i_long":106.788277,"transit":false,"is_transit":false,"station_name":"Grogol","i_lat":-6.162021,"distance":1700},{"station_name":"Pesing","station_id":"PSG","i_lat":-6.161433,"transit":false,"i_long":106.771379,"line":5,"is_transit":false,"time":2,"distance":2036},{"is_transit":false,"time":2,"station_name":"Taman Kota","transit":false,"station_id":"TKO","line":5,"distance":1614,"i_long":106.756522,"i_lat":-6.1587309999999995},{"i_lat":-6.159876,"distance":2334,"time":2,"transit":false,"station_id":"BOI","i_long":106.737035,"is_transit":false,"station_name":"Bojongindah","line":0}],[{"i_lat":-6.46424,"transit":false,"station_name":"Cibinong","i_long":106.851978,"is_transit":false,"line":0,"distance":0,"time":0,"station_id":"CBN"},{"station_id":"CTA","is_transit":true,"distance":6740,"transit":false,"i_long":106.800298,"line":1,"time":10,"i_lat":-6.448811,"station_name":"Citayam"},{"i_lat":-6.405256,"station_name":"Depok","station_id":"DP","is_transit":false,"distance":5084,"i_long":106.816926,"transit":false,"line":0,"time":6},{"i_lat":-6.391065,"time":3,"i_long":106.819451,"line":0,"station_name":"Depokbaru","is_transit":false,"distance":1584,"station_id":"DPB","transit":false},{"i_lat":-6.369073,"is_transit":false,"station_name":"Pondok Cina","distance":2727,"i_long":106.831114,"line":2,"transit":false,"station_id":"POC","time":4},{"i_lat":-6.360749,"i_long":106.831474,"line":2,"is_transit":false,"station_id":"UI","time":2,"station_name":"Univ. Indonesia","distance":1109,"transit":false},{"i_lat":-6.339291,"line":2,"station_id":"UP","time":3,"station_name":"Univ. Pancasila","is_transit":false,"transit":false,"distance":2264,"i_long":106.834175},{"station_id":"LNA","distance":1029,"i_long":106.832616,"is_transit":false,"line":2,"transit":false,"time":2,"station_name":"Lenteng Agung","i_lat":-6.330363},{"is_transit":false,"time":3,"distance":2671,"transit":false,"i_lat":-6.3080680000000005,"i_long":106.838896,"line":2,"station_id":"TNT","station_name":"Tanjung Barat"},{"i_long":106.843999,"station_name":"Pasar Minggu","line":2,"distance":2820,"is_transit":false,"station_id":"PSM","i_lat":-6.2842400000000005,"transit":false,"time":4},{"distance":2380,"i_long":106.851577,"time":2,"line":2,"station_name":"Pasar Minggu Baru","transit":false,"i_lat":-6.263214,"station_id":"PSMB","is_transit":false},{"station_name":"Duren Kalibata","i_lat":-6.255332,"transit":false,"i_long":106.85449,"is_transit":false,"distance":824,"time":2,"line":0,"station_id":"DRN"},{"line":0,"distance":1546,"station_name":"Cawang","is_transit":false,"i_long":106.856607,"station_id":"CW","i_lat":-6.242512,"time":3,"transit":false},{"is_transit":false,"station_name":"Tebet","i_lat":-6.226659,"station_id":"TEB","transit":false,"line":2,"i_long":106.857948,"distance":1230,"time":2},{"i_long":106.84912,"transit":true,"line":0,"time":4,"is_transit":true,"station_name":"Manggarai","i_lat":-6.209883,"distance":2610,"station_id":"MRI"},{"i_long":106.840169,"line":0,"transit":false,"station_id":"CKI","time":4,"is_transit":false,"distance":1590,"i_lat":-6.198556,"station_name":"Cikini"},{"is_transit":false,"station_id":"GDD","i_lat":-6.186295,"i_long":106.832183,"time":3,"line":2,"station_name":"Gondangdia","distance":1750,"transit":false},{"distance":2015,"station_name":"Juanda","time":4,"i_long":106.828284,"station_id":"JUA","line":2,"transit":false,"is_transit":false,"i_lat":-6.166716},{"i_long":106.827103,"time":2,"station_name":"Sawah Besar","transit":false,"station_id":"SW","distance":1149,"i_lat":-6.160725,"line":2,"is_transit":false},{"transit":false,"is_transit":false,"line":2,"i_long":106.82482,"station_id":"MGB","time":2,"station_name":"Manggabesar","distance":906,"i_lat":-6.149769},{"i_long":106.820901,"transit":false,"line":7,"distance":1080,"station_id":"JAY","time":2,"i_lat":-6.141205,"is_transit":false,"station_name":"Jayakarta"},{"transit":true,"i_long":106.812439,"distance":1264,"station_name":"Jakarta Kota","is_transit":true,"station_id":"JAKK","i_lat":-6.137569,"time":4,"line":0},{"distance":1364,"i_long":106.826365,"i_lat":-6.132549,"station_id":"KPB","is_transit":true,"station_name":"Kampung Bandan","transit":false,"time":3,"line":0},{"line":0,"station_id":"AK","is_transit":false,"distance":4102,"station_name":"Angke","i_lat":-6.144674,"time":9,"transit":false,"i_long":106.79867},{"i_lat":-6.155215,"line":1,"transit":true,"i_long":106.800832,"distance":1230,"station_id":"DU","is_transit":true,"station_name":"Duri","time":4},{"is_transit":false,"station_id":"GGL","i_lat":-6.162021,"station_name":"Grogol","i_long":106.788277,"line":5,"time":3,"distance":1700,"transit":false},{"station_name":"Pesing","time":2,"line":5,"i_lat":-6.161433,"i_long":106.771379,"distance":2036,"transit":false,"station_id":"PSG","is_transit":false},{"line":5,"distance":1614,"station_id":"TKO","station_name":"Taman Kota","is_transit":false,"i_long":106.756522,"time":2,"transit":false,"i_lat":-6.1587309999999995},{"i_lat":-6.159876,"time":2,"station_id":"BOI","station_name":"Bojongindah","line":0,"i_long":106.737035,"distance":2334,"transit":false,"is_transit":false}],[{"distance":0,"is_transit":false,"i_lat":-6.46424,"station_name":"Cibinong","line":0,"station_id":"CBN","time":0,"transit":false,"i_long":106.851978},{"transit":false,"station_name":"Citayam","distance":6740,"i_long":106.800298,"line":1,"is_transit":true,"i_lat":-6.448811,"station_id":"CTA","time":10},{"i_long":106.816926,"is_transit":false,"station_name":"Depok","station_id":"DP","distance":5084,"line":0,"i_lat":-6.405256,"transit":false,"time":6},{"station_id":"DPB","transit":false,"i_long":106.819451,"time":3,"distance":1584,"line":0,"i_lat":-6.391065,"is_transit":false,"station_name":"Depokbaru"},{"station_name":"Pondok Cina","distance":2727,"station_id":"POC","is_transit":false,"transit":false,"time":4,"i_long":106.831114,"line":2,"i_lat":-6.369073},{"transit":false,"line":2,"i_lat":-6.360749,"i_long":106.831474,"station_name":"Univ. Indonesia","is_transit":false,"time":2,"distance":1109,"station_id":"UI"},{"station_id":"UP","time":3,"station_name":"Univ. Pancasila","transit":false,"line":2,"distance":2264,"i_lat":-6.339291,"is_transit":false,"i_long":106.834175},{"i_lat":-6.330363,"station_id":"LNA","transit":false,"i_long":106.832616,"time":2,"is_transit":false,"distance":1029,"line":2,"station_name":"Lenteng Agung"},{"line":2,"station_name":"Tanjung Barat","transit":false,"i_lat":-6.3080680000000005,"i_long":106.838896,"time":3,"distance":2671,"station_id":"TNT","is_transit":false},{"line":2,"time":4,"station_id":"PSM","i_long":106.843999,"station_name":"Pasar Minggu","distance":2820,"transit":false,"i_lat":-6.2842400000000005,"is_transit":false},{"station_id":"PSMB","is_transit":false,"distance":2380,"transit":false,"i_lat":-6.263214,"i_long":106.851577,"time":2,"station_name":"Pasar Minggu Baru","line":2},{"station_name":"Duren Kalibata","line":0,"station_id":"DRN","is_transit":false,"distance":824,"i_lat":-6.255332,"time":2,"transit":false,"i_long":106.85449},{"line":0,"station_name":"Cawang","time":3,"is_transit":false,"i_long":106.856607,"transit":false,"i_lat":-6.242512,"distance":1546,"station_id":"CW"},{"line":2,"is_transit":false,"station_name":"Tebet","time":2,"transit":false,"i_long":106.857948,"i_lat":-6.226659,"station_id":"TEB","distance":1230},{"i_lat":-6.209883,"station_id":"MRI","time":4,"is_transit":true,"distance":2610,"transit":true,"line":0,"i_long":106.84912,"station_name":"Manggarai"},{"i_lat":-6.212485,"distance":1275,"is_transit":false,"station_name":"Matraman","station_id":"MTR","time":2,"i_long":106.858896,"line":1,"transit":false},{"time":8,"line":0,"distance":1377,"is_transit":true,"i_long":106.86807400000001,"i_lat":-6.215091,"station_id":"JNG","station_name":"Jatinegara","transit":true},{"distance":1236,"station_name":"Pondok Jati","transit":false,"line":11,"is_transit":false,"time":2,"i_long":106.861737,"station_id":"POK","i_lat":-6.209188},{"i_long":106.855437,"transit":false,"line":11,"i_lat":-6.193792,"station_id":"KMT","station_name":"Kramat","distance":1829,"is_transit":false,"time":2},{"i_lat":-6.185975,"line":11,"i_long":106.850107,"is_transit":false,"station_id":"GST","time":1,"distance":973,"station_name":"Gang Sentiong","transit":false},{"distance":1567,"i_long":106.84368,"line":11,"time":8,"station_name":"Pasar Senen","transit":false,"i_lat":-6.174784,"is_transit":false,"station_id":"PSE"},{"line":11,"distance":1436,"time":4,"is_transit":false,"transit":false,"i_long":106.839204,"i_lat":-6.161728,"station_id":"KMO","station_name":"Kemayoran"},{"time":5,"i_long":106.836569,"i_lat":-6.14505,"line":11,"station_name":"Rajawali","transit":false,"is_transit":false,"distance":1901,"station_id":"RJW"},{"i_long":106.826365,"line":0,"time":3,"station_name":"Kampung Bandan","transit":true,"i_lat":-6.132549,"distance":1444,"is_transit":true,"station_id":"KPB"},{"time":9,"is_transit":false,"station_id":"AK","distance":4102,"transit":false,"line":0,"i_lat":-6.144674,"station_name":"Angke","i_long":106.79867},{"station_id":"DU","i_long":106.800832,"transit":true,"is_transit":true,"distance":1230,"time":4,"i_lat":-6.155215,"line":1,"station_name":"Duri"},{"line":5,"station_name":"Grogol","distance":1700,"i_long":106.788277,"transit":false,"station_id":"GGL","is_transit":false,"time":3,"i_lat":-6.162021},{"is_transit":false,"transit":false,"time":2,"distance":2036,"i_lat":-6.161433,"line":5,"station_id":"PSG","station_name":"Pesing","i_long":106.771379},{"distance":1614,"time":2,"station_id":"TKO","transit":false,"is_transit":false,"line":5,"station_name":"Taman Kota","i_long":106.756522,"i_lat":-6.1587309999999995},{"station_id":"BOI","i_lat":-6.159876,"station_name":"Bojongindah","is_transit":false,"i_long":106.737035,"distance":2334,"transit":false,"line":0,"time":2}]]}