{"data":[[{"transit":false,"line":21,"station_id":"CBN","i_lat":-6.46424,"i_long":106.851978,"time":0,"is_transit":false,"distance":0,"station_name":"Cibinong"},{"transit":false,"line":21,"time":0,"station_id":"PDRG","i_lat":-6.460735,"is_transit":false,"station_name":"Pondok Rajeg","i_long":106.824374,"distance":0},{"station_id":"CTA","i_long":106.800298,"time":0,"transit":true,"distance":0,"station_name":"Citayam","line":2,"i_lat":-6.448811,"is_transit":true},{"transit":false,"is_transit":false,"i_long":106.816926,"station_name":"Depok","station_id":"DP","i_lat":-6.405256,"time":6,"line":2,"distance":5084},{"transit":false,"is_transit":false,"i_lat":-6.391065,"time":3,"station_name":"Depokbaru","i_long":106.819451,"line":2,"distance":1584,"station_id":"DPB"},{"i_long":106.831114,"is_transit":false,"distance":2727,"i_lat":-6.369073,"time":4,"line":2,"transit":false,"station_id":"POC","station_name":"Pondok Cina"},{"station_id":"UI","time":2,"is_transit":false,"distance":1109,"transit":false,"i_lat":-6.360749,"i_long":106.831474,"station_name":"Univ. Indonesia","line":2},{"is_transit":false,"time":3,"line":2,"distance":2264,"i_lat":-6.339291,"i_long":106.834175,"station_id":"UP","transit":false,"station_name":"Univ. Pancasila"},{"line":2,"station_id":"LNA","transit":false,"is_transit":false,"i_lat":-6.330363,"i_long":106.832616,"time":2,"station_name":"Lenteng Agung","distance":1029},{"transit":false,"i_lat":-6.3080680000000005,"station_name":"Tanjung Barat","time":3,"distance":2671,"station_id":"TNT","is_transit":false,"line":2,"i_long":106.838896},{"is_transit":false,"i_long":106.843999,"transit":false,"distance":2820,"i_lat":-6.2842400000000005,"line":2,"time":4,"station_id":"PSM","station_name":"Pasar Minggu"}]]}