{"data":[[{"distance":0,"i_lat":-6.46424,"is_transit":false,"transit":false,"time":0,"line":0,"station_id":"CBN","station_name":"Cibinong","i_long":106.851978},{"transit":false,"i_long":106.800298,"is_transit":true,"distance":6740,"i_lat":-6.448811,"line":1,"station_id":"CTA","time":10,"station_name":"Citayam"},{"i_lat":-6.405256,"line":0,"is_transit":false,"transit":false,"distance":5084,"station_id":"DP","station_name":"Depok","time":6,"i_long":106.816926},{"is_transit":false,"time":3,"distance":1584,"station_name":"Depokbaru","i_long":106.819451,"transit":false,"station_id":"DPB","i_lat":-6.391065,"line":0},{"distance":2727,"time":4,"station_id":"POC","i_long":106.831114,"line":2,"is_transit":false,"transit":false,"i_lat":-6.369073,"station_name":"Pondok Cina"},{"station_id":"UI","transit":false,"i_lat":-6.360749,"station_name":"Univ. Indonesia","line":2,"distance":1109,"time":2,"i_long":106.831474,"is_transit":false},{"station_id":"UP","time":3,"station_name":"Univ. Pancasila","i_lat":-6.339291,"is_transit":false,"i_long":106.834175,"distance":2264,"transit":false,"line":2},{"station_id":"LNA","distance":1029,"i_long":106.832616,"is_transit":false,"station_name":"Lenteng Agung","time":2,"line":2,"i_lat":-6.330363,"transit":false},{"distance":2671,"station_name":"Tanjung Barat","station_id":"TNT","transit":false,"i_lat":-6.3080680000000005,"is_transit":false,"line":2,"i_long":106.838896,"time":3},{"station_name":"Pasar Minggu","line":2,"time":4,"i_lat":-6.2842400000000005,"transit":false,"distance":2820,"station_id":"PSM","is_transit":false,"i_long":106.843999},{"station_id":"PSMB","line":2,"distance":2380,"station_name":"Pasar Minggu Baru","i_lat":-6.263214,"i_long":106.851577,"is_transit":false,"transit":false,"time":2},{"i_lat":-6.255332,"time":2,"distance":824,"transit":false,"i_long":106.85449,"line":0,"station_name":"Duren Kalibata","is_transit":false,"station_id":"DRN"},{"i_long":106.856607,"transit":false,"line":0,"station_name":"Cawang","station_id":"CW","distance":1546,"time":3,"is_transit":false,"i_lat":-6.242512},{"i_lat":-6.226659,"station_id":"TEB","station_name":"Tebet","distance":1230,"line":2,"time":2,"i_long":106.857948,"is_transit":false,"transit":false},{"i_lat":-6.209883,"distance":2610,"transit":true,"i_long":106.84912,"time":4,"station_id":"MRI","station_name":"Manggarai","line":0,"is_transit":true},{"station_id":"SUD","distance":3186,"time":4,"i_lat":-6.202263,"is_transit":false,"station_name":"Sudirman","i_long":106.822649,"transit":false,"line":1},{"is_transit":false,"i_lat":-6.201433,"transit":false,"line":1,"distance":280,"station_id":"SUDB","time":1,"station_name":"Sudirman Baru","i_long":106.819881},{"i_long":106.816351,"time":1,"is_transit":false,"distance":471,"transit":false,"line":1,"station_name":"Karet","i_lat":-6.20132,"station_id":"KAT"},{"distance":2029,"i_lat":-6.185545,"is_transit":true,"line":1,"time":5,"station_name":"Tanah Abang","station_id":"THB","i_long":106.811091,"transit":false},{"i_lat":-6.155215,"transit":true,"line":1,"station_id":"DU","time":8,"distance":3632,"i_long":106.800832,"is_transit":true,"station_name":"Duri"},{"time":3,"station_name":"Grogol","i_long":106.788277,"transit":false,"station_id":"GGL","i_lat":-6.162021,"is_transit":false,"line":5,"distance":1700},{"transit":false,"i_lat":-6.161433,"station_id":"PSG","distance":2036,"line":5,"station_name":"Pesing","i_long":106.771379,"time":2,"is_transit":false},{"line":5,"station_id":"TKO","is_transit":false,"time":2,"i_long":106.756522,"i_lat":-6.1587309999999995,"station_name":"Taman Kota","distance":1614,"transit":false},{"line":0,"i_lat":-6.159876,"time":2,"i_long":106.737035,"station_name":"Bojongindah","station_id":"BOI","is_transit":false,"distance":2334,"transit":false},{"station_id":"RW","station_name":"Rawa Buaya","transit":false,"i_long":106.723064,"line":5,"distance":1152,"i_lat":-6.162758,"is_transit":false,"time":4},{"is_transit":false,"distance":2504,"station_name":"Kalideres","transit":false,"i_lat":-6.166068,"time":3,"i_long":106.701612,"station_id":"KDS","line":5},{"station_id":"PI","i_lat":-6.169933,"distance":2548,"transit":false,"station_name":"Poris","is_transit":false,"i_long":106.679458,"line":5,"time":3},{"is_transit":false,"line":0,"time":3,"i_lat":-6.171811,"station_id":"BPR","transit":false,"i_long":106.665036,"distance":1834,"station_name":"Batuceper"}],[{"is_transit":false,"distance":0,"i_lat":-6.46424,"i_long":106.851978,"line":0,"transit":false,"time":0,"station_id":"CBN","station_name":"Cibinong"},{"i_lat":-6.448811,"time":10,"distance":6740,"is_transit":true,"transit":false,"i_long":106.800298,"line":1,"station_name":"Citayam","station_id":"CTA"},{"line":0,"i_lat":-6.405256,"is_transit":false,"station_id":"DP","station_name":"Depok","i_long":106.816926,"distance":5084,"time":6,"transit":false},{"i_lat":-6.391065,"station_id":"DPB","is_transit":false,"time":3,"station_name":"Depokbaru","distance":1584,"transit":false,"line":0,"i_long":106.819451},{"transit":false,"station_name":"Pondok Cina","is_transit":false,"distance":2727,"time":4,"i_long":106.831114,"station_id":"POC","line":2,"i_lat":-6.369073},{"distance":1109,"station_name":"Univ. Indonesia","i_lat":-6.360749,"transit":false,"time":2,"station_id":"UI","i_long":106.831474,"line":2,"is_transit":false},{"line":2,"distance":2264,"i_long":106.834175,"station_id":"UP","station_name":"Univ. Pancasila","time":3,"transit":false,"is_transit":false,"i_lat":-6.339291},{"i_long":106.832616,"i_lat":-6.330363,"station_id":"LNA","station_name":"Lenteng Agung","distance":1029,"is_transit":false,"transit":false,"line":2,"time":2},{"time":3,"is_transit":false,"distance":2671,"i_lat":-6.3080680000000005,"transit":false,"station_id":"TNT","line":2,"i_long":106.838896,"station_name":"Tanjung Barat"},{"is_transit":false,"time":4,"transit":false,"line":2,"i_long":106.843999,"i_lat":-6.2842400000000005,"station_id":"PSM","distance":2820,"station_name":"Pasar Minggu"},{"line":2,"is_transit":false,"distance":2380,"i_lat":-6.263214,"time":2,"station_name":"Pasar Minggu Baru","transit":false,"station_id":"PSMB","i_long":106.851577},{"i_long":106.85449,"distance":824,"time":2,"line":0,"is_transit":false,"station_name":"Duren Kalibata","i_lat":-6.255332,"transit":false,"station_id":"DRN"},{"station_id":"CW","transit":false,"i_long":106.856607,"time":3,"distance":1546,"i_lat":-6.242512,"line":0,"is_transit":false,"station_name":"Cawang"},{"distance":1230,"is_transit":false,"station_name":"Tebet","i_long":106.857948,"line":2,"time":2,"transit":false,"station_id":"TEB","i_lat":-6.226659},{"transit":true,"time":4,"i_lat":-6.209883,"line":0,"distance":2610,"station_name":"Manggarai","is_transit":true,"i_long":106.84912,"station_id":"MRI"},{"i_lat":-6.198556,"station_id":"CKI","station_name":"Cikini","time":4,"i_long":106.840169,"is_transit":false,"distance":1590,"transit":false,"line":0},{"i_lat":-6.186295,"i_long":106.832183,"is_transit":false,"line":2,"station_id":"GDD","time":3,"station_name":"Gondangdia","distance":1750,"transit":false},{"time":4,"is_transit":false,"i_long":106.828284,"transit":false,"distance":2015,"i_lat":-6.166716,"line":2,"station_id":"JUA","station_name":"Juanda"},{"distance":1149,"transit":false,"is_transit":false,"line":2,"i_lat":-6.160725,"station_id":"SW","i_long":106.827103,"station_name":"Sawah Besar","time":2},{"is_transit":false,"transit":false,"station_name":"Manggabesar","distance":906,"i_long":106.82482,"i_lat":-6.149769,"line":2,"time":2,"station_id":"MGB"},{"is_transit":false,"distance":1080,"transit":false,"i_lat":-6.141205,"station_id":"JAY","time":2,"i_long":106.820901,"station_name":"Jayakarta","line":7},{"station_id":"JAKK","distance":1264,"station_name":"Jakarta Kota","i_long":106.812439,"time":4,"is_transit":true,"line":0,"transit":true,"i_lat":-6.137569},{"transit":false,"i_long":106.826365,"distance":1364,"station_id":"KPB","is_transit":true,"i_lat":-6.132549,"time":3,"line":0,"station_name":"Kampung Bandan"},{"transit":false,"station_name":"Angke","is_transit":false,"time":9,"i_lat":-6.144674,"i_long":106.79867,"station_id":"AK","distance":4102,"line":0},{"station_id":"DU","time":4,"distance":1230,"i_long":106.800832,"is_transit":true,"transit":true,"i_lat":-6.155215,"line":1,"station_name":"Duri"},{"station_name":"Grogol","station_id":"GGL","i_long":106.788277,"line":5,"time":3,"distance":1700,"i_lat":-6.162021,"transit":false,"is_transit":false},{"station_id":"PSG","is_transit":false,"distance":2036,"i_lat":-6.161433,"station_name":"Pesing","transit":false,"line":5,"time":2,"i_long":106.771379},{"time":2,"transit":false,"i_lat":-6.1587309999999995,"is_transit":false,"station_name":"Taman Kota","i_long":106.756522,"distance":1614,"line":5,"station_id":"TKO"},{"is_transit":false,"distance":2334,"i_long":106.737035,"line":0,"station_id":"BOI","time":2,"i_lat":-6.159876,"station_name":"Bojongindah","transit":false},{"i_long":106.723064,"line":5,"station_name":"Rawa Buaya","distance":1152,"transit":false,"station_id":"RW","time":4,"i_lat":-6.162758,"is_transit":false},{"i_lat":-6.166068,"time":3,"i_long":106.701612,"station_id":"KDS","station_name":"Kalideres","distance":2504,"line":5,"is_transit":false,"transit":false},{"line":5,"distance":2548,"i_long":106.679458,"is_transit":false,"time":3,"i_lat":-6.169933,"station_id":"PI","station_name":"Poris","transit":false},{"station_id":"BPR","time":3,"i_lat":-6.171811,"i_long":106.665036,"station_name":"Batuceper","is_transit":false,"transit":false,"distance":1834,"line":0}],[{"line":0,"i_long":106.851978,"station_id":"CBN","is_transit":false,"time":0,"i_lat":-6.46424,"distance":0,"station_name":"Cibinong","transit":false},{"i_long":106.800298,"time":10,"distance":6740,"station_name":"Citayam","station_id":"CTA","i_lat":-6.448811,"is_transit":true,"transit":false,"line":1},{"transit":false,"distance":5084,"i_long":106.816926,"time":6,"station_id":"DP","line":0,"is_transit":false,"i_lat":-6.405256,"station_name":"Depok"},{"i_lat":-6.391065,"i_long":106.819451,"line":0,"is_transit":false,"distance":1584,"transit":false,"time":3,"station_name":"Depokbaru","station_id":"DPB"},{"is_transit":false,"station_id":"POC","line":2,"i_long":106.831114,"distance":2727,"time":4,"station_name":"Pondok Cina","transit":false,"i_lat":-6.369073},{"station_id":"UI","time":2,"i_lat":-6.360749,"distance":1109,"i_long":106.831474,"station_name":"Univ. Indonesia","transit":false,"line":2,"is_transit":false},{"station_name":"Univ. Pancasila","transit":false,"line":2,"station_id":"UP","is_transit":false,"time":3,"distance":2264,"i_lat":-6.339291,"i_long":106.834175},{"transit":false,"station_id":"LNA","is_transit":false,"station_name":"Lenteng Agung","line":2,"i_long":106.832616,"i_lat":-6.330363,"time":2,"distance":1029},{"i_long":106.838896,"line":2,"transit":false,"distance":2671,"i_lat":-6.3080680000000005,"time":3,"station_name":"Tanjung Barat","station_id":"TNT","is_transit":false},{"time":4,"line":2,"i_lat":-6.2842400000000005,"station_name":"Pasar Minggu","is_transit":false,"station_id":"PSM","distance":2820,"i_long":106.843999,"transit":false},{"i_lat":-6.263214,"line":2,"time":2,"is_transit":false,"transit":false,"distance":2380,"i_long":106.851577,"station_id":"PSMB","station_name":"Pasar Minggu Baru"},{"transit":false,"station_id":"DRN","i_lat":-6.255332,"station_name":"Duren Kalibata","line":0,"i_long":106.85449,"distance":824,"is_transit":false,"time":2},{"station_id":"CW","transit":false,"i_lat":-6.242512,"station_name":"Cawang","i_long":106.856607,"line":0,"distance":1546,"is_transit":false,"time":3},{"transit":false,"time":2,"i_long":106.857948,"line":2,"distance":1230,"station_id":"TEB","is_transit":false,"station_name":"Tebet","i_lat":-6.226659},{"time":4,"i_long":106.84912,"distance":2610,"station_id":"MRI","line":0,"transit":true,"i_lat":-6.209883,"is_transit":true,"station_name":"Manggarai"},{"transit":false,"i_lat":-6.212485,"station_name":"Matraman","distance":1275,"line":1,"station_id":"MTR","i_long":106.858896,"time":2,"is_transit":false},{"transit":true,"is_transit":true,"station_id":"JNG","time":8,"i_long":106.86807400000001,"i_lat":-6.215091,"station_name":"Jatinegara","line":0,"distance":1377},{"station_name":"Pondok Jati","i_lat":-6.209188,"distance":1236,"i_long":106.861737,"time":2,"transit":false,"line":11,"station_id":"POK","is_transit":false},{"transit":false,"station_id":"KMT","is_transit":false,"time":2,"i_lat":-6.193792,"distance":1829,"line":11,"i_long":106.855437,"station_name":"Kramat"},{"time":1,"station_id":"GST","distance":973,"station_name":"Gang Sentiong","is_transit":false,"i_lat":-6.185975,"line":11,"transit":false,"i_long":106.850107},{"distance":1567,"i_lat":-6.174784,"line":11,"is_transit":false,"i_long":106.84368,"transit":false,"station_name":"Pasar Senen","time":8,"station_id":"PSE"},{"time":4,"distance":1436,"i_lat":-6.161728,"transit":false,"is_transit":false,"station_name":"Kemayoran","i_long":106.839204,"line":11,"station_id":"KMO"},{"transit":false,"is_transit":false,"distance":1901,"station_name":"Rajawali","i_lat":-6.14505,"i_long":106.836569,"station_id":"RJW","time":5,"line":11},{"transit":true,"time":3,"is_transit":true,"i_long":106.826365,"line":0,"station_id":"KPB","i_lat":-6.132549,"distance":1444,"station_name":"Kampung Bandan"},{"station_name":"Angke","station_id":"AK","transit":false,"i_long":106.79867,"time":9,"i_lat":-6.144674,"line":0,"is_transit":false,"distance":4102},{"distance":1230,"transit":true,"station_id":"DU","is_transit":true,"line":1,"i_lat":-6.155215,"station_name":"Duri","i_long":106.800832,"time":4},{"station_id":"GGL","transit":false,"i_lat":-6.162021,"distance":1700,"station_name":"Grogol","line":5,"time":3,"i_long":106.788277,"is_transit":false},{"station_name":"Pesing","transit":false,"line":5,"is_transit":false,"station_id":"PSG","i_lat":-6.161433,"time":2,"distance":2036,"i_long":106.771379},{"is_transit":false,"station_id":"TKO","distance":1614,"transit":false,"station_name":"Taman Kota","time":2,"i_lat":-6.1587309999999995,"line":5,"i_long":106.756522},{"is_transit":false,"distance":2334,"station_name":"Bojongindah","i_lat":-6.159876,"i_long":106.737035,"station_id":"BOI","time":2,"transit":false,"line":0},{"station_id":"RW","transit":false,"time":4,"i_lat":-6.162758,"station_name":"Rawa Buaya","is_transit":false,"i_long":106.723064,"line":5,"distance":1152},{"time":3,"i_lat":-6.166068,"station_id":"KDS","station_name":"Kalideres","transit":false,"distance":2504,"i_long":106.701612,"is_transit":false,"line":5},{"time":3,"station_name":"Poris","is_transit":false,"transit":false,"i_long":106.679458,"line":5,"distance":2548,"i_lat":-6.169933,"station_id":"PI"},{"is_transit":false,"transit":false,"time":3,"i_lat":-6.171811,"line":0,"station_name":"Batuceper","station_id":"BPR","distance":1834,"i_long":106.665036}]]}