{"data":[[{"station_name":"Cibinong","line":21,"time":0,"station_id":"CBN","i_lat":-6.46424,"i_long":106.851978,"distance":0,"is_transit":false,"transit":false},{"i_long":106.824374,"line":21,"station_id":"PDRG","station_name":"Pondok Rajeg","i_lat":-6.460735,"time":0,"transit":false,"distance":0,"is_transit":false},{"transit":true,"distance":0,"i_long":106.800298,"time":0,"is_transit":true,"station_id":"CTA","i_lat":-6.448811,"line":2,"station_name":"Citayam"},{"station_id":"DP","station_name":"Depok","i_lat":-6.405256,"line":2,"transit":false,"i_long":106.816926,"is_transit":false,"time":6,"distance":5084},{"time":3,"station_name":"Depokbaru","distance":1584,"station_id":"DPB","i_lat":-6.391065,"is_transit":false,"transit":false,"i_long":106.819451,"line":2},{"is_transit":false,"time":4,"station_name":"Pondok Cina","station_id":"POC","i_long":106.831114,"distance":2727,"line":2,"i_lat":-6.369073,"transit":false},{"is_transit":false,"distance":1109,"time":2,"transit":false,"i_lat":-6.360749,"i_long":106.831474,"station_id":"UI","line":2,"station_name":"Univ. Indonesia"},{"distance":2264,"i_lat":-6.339291,"is_transit":false,"time":3,"station_id":"UP","transit":false,"i_long":106.834175,"station_name":"Univ. Pancasila","line":2},{"transit":false,"is_transit":false,"line":2,"time":2,"station_id":"LNA","station_name":"Lenteng Agung","i_long":106.832616,"distance":1029,"i_lat":-6.330363},{"transit":false,"station_id":"TNT","station_name":"Tanjung Barat","line":2,"i_lat":-6.3080680000000005,"time":3,"is_transit":false,"i_long":106.838896,"distance":2671},{"is_transit":false,"i_long":106.843999,"line":2,"station_name":"Pasar Minggu","i_lat":-6.2842400000000005,"station_id":"PSM","transit":false,"time":4,"distance":2820},{"i_lat":-6.263214,"distance":2380,"transit":false,"station_name":"Pasar Minggu Baru","i_long":106.851577,"station_id":"PSMB","line":2,"time":2,"is_transit":false},{"is_transit":false,"station_name":"Duren Kalibata","station_id":"DRN","i_lat":-6.255332,"line":2,"distance":824,"time":2,"transit":false,"i_long":106.85449},{"time":3,"is_transit":false,"line":2,"i_long":106.856607,"transit":false,"station_id":"CW","station_name":"Cawang","i_lat":-6.242512,"distance":1546},{"line":2,"is_transit":false,"i_long":106.857948,"station_name":"Tebet","time":2,"distance":1230,"transit":false,"station_id":"TEB","i_lat":-6.226659},{"time":4,"transit":true,"station_name":"Manggarai","i_lat":-6.209883,"is_transit":true,"distance":2610,"station_id":"MRI","i_long":106.84912,"line":2},{"distance":1275,"transit":false,"i_lat":-6.212485,"is_transit":false,"i_long":106.858896,"line":1,"station_name":"Matraman","station_id":"MTR","time":2},{"distance":1377,"line":1,"station_name":"Jatinegara","time":8,"station_id":"JNG","i_lat":-6.215091,"i_long":106.86807400000001,"transit":false,"is_transit":false},{"i_lat":-6.2135,"station_id":"KLD","distance":3395,"transit":false,"station_name":"Klender","time":3,"is_transit":false,"line":1,"i_long":106.899548}],[{"station_name":"Cibinong","i_lat":-6.46424,"transit":false,"is_transit":false,"distance":0,"i_long":106.851978,"station_id":"CBN","time":0,"line":21},{"distance":0,"transit":false,"station_id":"PDRG","time":0,"line":21,"is_transit":false,"i_lat":-6.460735,"station_name":"Pondok Rajeg","i_long":106.824374},{"is_transit":true,"time":0,"distance":0,"transit":true,"i_long":106.800298,"station_id":"CTA","station_name":"Citayam","i_lat":-6.448811,"line":2},{"time":6,"is_transit":false,"station_name":"Depok","transit":false,"i_long":106.816926,"station_id":"DP","distance":5084,"i_lat":-6.405256,"line":2},{"time":3,"transit":false,"station_name":"Depokbaru","station_id":"DPB","i_lat":-6.391065,"is_transit":false,"distance":1584,"i_long":106.819451,"line":2},{"i_lat":-6.369073,"station_id":"POC","is_transit":false,"time":4,"distance":2727,"line":2,"i_long":106.831114,"station_name":"Pondok Cina","transit":false},{"i_lat":-6.360749,"station_name":"Univ. Indonesia","time":2,"distance":1109,"i_long":106.831474,"station_id":"UI","is_transit":false,"line":2,"transit":false},{"i_long":106.834175,"time":3,"line":2,"i_lat":-6.339291,"distance":2264,"is_transit":false,"transit":false,"station_name":"Univ. Pancasila","station_id":"UP"},{"i_lat":-6.330363,"i_long":106.832616,"station_id":"LNA","line":2,"station_name":"Lenteng Agung","is_transit":false,"distance":1029,"time":2,"transit":false},{"i_long":106.838896,"i_lat":-6.3080680000000005,"transit":false,"station_id":"TNT","is_transit":false,"distance":2671,"line":2,"station_name":"Tanjung Barat","time":3},{"station_name":"Pasar Minggu","distance":2820,"line":2,"is_transit":false,"i_lat":-6.2842400000000005,"station_id":"PSM","transit":false,"time":4,"i_long":106.843999},{"i_long":106.851577,"time":2,"station_name":"Pasar Minggu Baru","station_id":"PSMB","line":2,"distance":2380,"transit":false,"is_transit":false,"i_lat":-6.263214},{"station_id":"DRN","line":2,"distance":824,"station_name":"Duren Kalibata","i_long":106.85449,"i_lat":-6.255332,"is_transit":false,"time":2,"transit":false},{"i_long":106.856607,"transit":false,"i_lat":-6.242512,"time":3,"station_id":"CW","line":2,"distance":1546,"is_transit":false,"station_name":"Cawang"},{"i_long":106.857948,"line":2,"station_name":"Tebet","station_id":"TEB","i_lat":-6.226659,"distance":1230,"transit":false,"time":2,"is_transit":false},{"time":4,"station_id":"MRI","line":2,"transit":true,"i_lat":-6.209883,"i_long":106.84912,"is_transit":true,"distance":2610,"station_name":"Manggarai"},{"transit":false,"station_id":"SUD","is_transit":false,"time":4,"station_name":"Sudirman","i_lat":-6.202263,"line":1,"distance":3186,"i_long":106.822649},{"station_name":"Sudirman Baru","distance":280,"station_id":"SUDB","transit":false,"is_transit":false,"i_long":106.819881,"line":1,"i_lat":-6.201433,"time":1},{"i_lat":-6.20132,"is_transit":false,"i_long":106.816351,"distance":471,"time":1,"station_name":"Karet","transit":false,"station_id":"KAT","line":1},{"is_transit":false,"i_long":106.811091,"station_id":"THB","station_name":"Tanah Abang","line":1,"distance":2029,"i_lat":-6.185545,"time":5,"transit":false},{"i_long":106.800832,"line":1,"station_name":"Duri","transit":false,"distance":3632,"i_lat":-6.155215,"is_transit":false,"station_id":"DU","time":8},{"i_lat":-6.144674,"i_long":106.79867,"transit":false,"station_id":"AK","distance":1230,"line":1,"is_transit":false,"time":4,"station_name":"Angke"},{"line":4,"distance":4102,"time":9,"i_long":106.826365,"is_transit":true,"i_lat":-6.132549,"station_id":"KPB","transit":true,"station_name":"Kampung Bandan"},{"is_transit":false,"line":11,"station_name":"Rajawali","station_id":"RJW","distance":1444,"i_long":106.836569,"transit":false,"i_lat":-6.14505,"time":3},{"i_lat":-6.161728,"i_long":106.839204,"is_transit":false,"station_name":"Kemayoran","transit":false,"station_id":"KMO","line":11,"distance":1901,"time":5},{"time":4,"distance":1436,"i_long":106.84368,"is_transit":false,"station_id":"PSE","transit":false,"i_lat":-6.174784,"line":11,"station_name":"Pasar Senen"},{"i_lat":-6.185975,"is_transit":false,"time":8,"i_long":106.850107,"station_id":"GST","station_name":"Gang Sentiong","transit":false,"line":11,"distance":1567},{"distance":973,"station_id":"KMT","i_lat":-6.193792,"time":1,"i_long":106.855437,"line":11,"is_transit":false,"station_name":"Kramat","transit":false},{"transit":false,"time":2,"i_lat":-6.209188,"i_long":106.861737,"is_transit":false,"distance":1829,"station_id":"POK","line":11,"station_name":"Pondok Jati"},{"station_name":"Jatinegara","i_lat":-6.215091,"is_transit":true,"distance":1236,"transit":true,"time":9,"i_long":106.86807400000001,"station_id":"JNG","line":1},{"time":3,"station_id":"KLD","distance":3395,"transit":false,"i_lat":-6.2135,"line":1,"is_transit":false,"i_long":106.899548,"station_name":"Klender"}],[{"distance":0,"line":21,"is_transit":false,"transit":false,"time":0,"station_id":"CBN","i_lat":-6.46424,"i_long":106.851978,"station_name":"Cibinong"},{"transit":false,"station_id":"PDRG","time":0,"station_name":"Pondok Rajeg","line":21,"is_transit":false,"i_long":106.824374,"i_lat":-6.460735,"distance":0},{"i_long":106.800298,"line":2,"station_name":"Citayam","distance":0,"station_id":"CTA","time":0,"is_transit":true,"transit":true,"i_lat":-6.448811},{"station_name":"Depok","transit":false,"station_id":"DP","time":6,"distance":5084,"i_long":106.816926,"is_transit":false,"i_lat":-6.405256,"line":2},{"i_lat":-6.391065,"i_long":106.819451,"is_transit":false,"distance":1584,"station_name":"Depokbaru","line":2,"transit":false,"station_id":"DPB","time":3},{"line":2,"is_transit":false,"distance":2727,"time":4,"i_lat":-6.369073,"i_long":106.831114,"station_name":"Pondok Cina","station_id":"POC","transit":false},{"distance":1109,"transit":false,"station_id":"UI","i_lat":-6.360749,"is_transit":false,"time":2,"i_long":106.831474,"station_name":"Univ. Indonesia","line":2},{"is_transit":false,"distance":2264,"i_lat":-6.339291,"line":2,"transit":false,"station_name":"Univ. Pancasila","time":3,"i_long":106.834175,"station_id":"UP"},{"i_long":106.832616,"transit":false,"time":2,"station_name":"Lenteng Agung","is_transit":false,"distance":1029,"station_id":"LNA","line":2,"i_lat":-6.330363},{"time":3,"line":2,"station_id":"TNT","distance":2671,"i_lat":-6.3080680000000005,"i_long":106.838896,"transit":false,"is_transit":false,"station_name":"Tanjung Barat"},{"time":4,"distance":2820,"i_lat":-6.2842400000000005,"i_long":106.843999,"line":2,"station_name":"Pasar Minggu","transit":false,"is_transit":false,"station_id":"PSM"},{"transit":false,"station_name":"Pasar Minggu Baru","i_long":106.851577,"station_id":"PSMB","i_lat":-6.263214,"line":2,"distance":2380,"time":2,"is_transit":false},{"station_name":"Duren Kalibata","is_transit":false,"time":2,"station_id":"DRN","i_lat":-6.255332,"transit":false,"i_long":106.85449,"line":2,"distance":824},{"time":3,"i_long":106.856607,"i_lat":-6.242512,"transit":false,"distance":1546,"station_id":"CW","station_name":"Cawang","line":2,"is_transit":false},{"distance":1230,"station_name":"Tebet","is_transit":false,"station_id":"TEB","line":2,"time":2,"i_lat":-6.226659,"transit":false,"i_long":106.857948},{"time":4,"i_lat":-6.209883,"is_transit":false,"distance":2610,"station_name":"Manggarai","line":2,"i_long":106.84912,"transit":false,"station_id":"MRI"},{"distance":1590,"i_lat":-6.198556,"station_id":"CKI","station_name":"Cikini","time":4,"i_long":106.840169,"line":2,"is_transit":false,"transit":false},{"station_id":"GDD","line":2,"is_transit":false,"distance":1750,"station_name":"Gondangdia","i_lat":-6.186295,"time":3,"i_long":106.832183,"transit":false},{"distance":2015,"transit":false,"i_long":106.828284,"station_name":"Juanda","station_id":"JUA","line":2,"is_transit":false,"time":4,"i_lat":-6.166716},{"is_transit":false,"i_lat":-6.160725,"transit":false,"distance":1149,"station_name":"Sawah Besar","station_id":"SW","i_long":106.827103,"line":2,"time":2},{"i_lat":-6.149769,"transit":false,"station_id":"MGB","station_name":"Manggabesar","distance":906,"line":2,"time":2,"i_long":106.82482,"is_transit":false},{"station_id":"JAY","time":2,"distance":1080,"station_name":"Jayakarta","transit":false,"i_long":106.820901,"line":2,"i_lat":-6.141205,"is_transit":false},{"i_lat":-6.137569,"line":2,"time":4,"transit":true,"station_name":"Jakarta Kota","distance":1264,"i_long":106.812439,"station_id":"JAKK","is_transit":true},{"is_transit":true,"time":3,"station_id":"KPB","distance":1364,"i_long":106.826365,"line":4,"transit":true,"i_lat":-6.132549,"station_name":"Kampung Bandan"},{"transit":false,"distance":1444,"station_id":"RJW","line":11,"is_transit":false,"i_lat":-6.14505,"station_name":"Rajawali","time":3,"i_long":106.836569},{"station_id":"KMO","distance":1901,"is_transit":false,"time":5,"i_long":106.839204,"line":11,"i_lat":-6.161728,"station_name":"Kemayoran","transit":false},{"time":4,"distance":1436,"station_name":"Pasar Senen","transit":false,"i_lat":-6.174784,"i_long":106.84368,"line":11,"is_transit":false,"station_id":"PSE"},{"i_long":106.850107,"transit":false,"station_name":"Gang Sentiong","line":11,"distance":1567,"i_lat":-6.185975,"station_id":"GST","is_transit":false,"time":8},{"station_name":"Kramat","distance":973,"station_id":"KMT","transit":false,"is_transit":false,"i_lat":-6.193792,"i_long":106.855437,"line":11,"time":1},{"station_name":"Pondok Jati","i_long":106.861737,"transit":false,"i_lat":-6.209188,"station_id":"POK","is_transit":false,"time":2,"line":11,"distance":1829},{"is_transit":true,"time":9,"distance":1236,"station_name":"Jatinegara","i_lat":-6.215091,"i_long":106.86807400000001,"line":1,"station_id":"JNG","transit":true},{"i_long":106.899548,"line":1,"station_id":"KLD","is_transit":false,"distance":3395,"station_name":"Klender","i_lat":-6.2135,"time":3,"transit":false}]]}