{"data":[[{"time":0,"station_name":"Cibinong","i_lat":-6.46424,"i_long":106.851978,"station_id":"CBN","transit":false,"distance":0,"line":21,"is_transit":false},{"i_lat":-6.460735,"transit":false,"time":0,"is_transit":false,"station_name":"Pondok Rajeg","station_id":"PDRG","i_long":106.824374,"distance":0,"line":21},{"i_lat":-6.448811,"distance":0,"station_id":"CTA","time":0,"is_transit":true,"line":2,"transit":true,"station_name":"Citayam","i_long":106.800298},{"is_transit":false,"line":2,"transit":false,"i_lat":-6.405256,"time":6,"station_id":"DP","i_long":106.816926,"distance":5084,"station_name":"Depok"},{"station_name":"Depokbaru","transit":false,"station_id":"DPB","time":3,"i_lat":-6.391065,"i_long":106.819451,"line":2,"distance":1584,"is_transit":false},{"i_long":106.831114,"line":2,"station_name":"Pondok Cina","is_transit":false,"time":4,"distance":2727,"i_lat":-6.369073,"station_id":"POC","transit":false},{"distance":1109,"i_lat":-6.360749,"station_name":"Univ. Indonesia","is_transit":false,"i_long":106.831474,"line":2,"transit":false,"time":2,"station_id":"UI"},{"station_name":"Univ. Pancasila","time":3,"station_id":"UP","is_transit":false,"i_long":106.834175,"i_lat":-6.339291,"distance":2264,"transit":false,"line":2}]]}