{"data":[[{"station_id":"CBN","time":0,"line":21,"i_lat":-6.46424,"i_long":106.851978,"station_name":"Cibinong","transit":false,"is_transit":false,"distance":0},{"i_lat":-6.460735,"time":0,"station_id":"PDRG","transit":false,"distance":0,"i_long":106.824374,"line":21,"is_transit":false,"station_name":"Pondok Rajeg"},{"time":0,"distance":0,"i_lat":-6.448811,"is_transit":true,"station_id":"CTA","station_name":"Citayam","i_long":106.800298,"transit":true,"line":2},{"is_transit":false,"i_long":106.816926,"i_lat":-6.405256,"line":2,"station_id":"DP","time":6,"transit":false,"distance":5084,"station_name":"Depok"},{"time":3,"station_name":"Depokbaru","transit":false,"i_lat":-6.391065,"station_id":"DPB","i_long":106.819451,"is_transit":false,"distance":1584,"line":2},{"is_transit":false,"station_name":"Pondok Cina","station_id":"POC","i_long":106.831114,"time":4,"distance":2727,"i_lat":-6.369073,"transit":false,"line":2},{"distance":1109,"station_name":"Univ. Indonesia","station_id":"UI","time":2,"transit":false,"line":2,"is_transit":false,"i_long":106.831474,"i_lat":-6.360749},{"is_transit":false,"transit":false,"distance":2264,"i_lat":-6.339291,"i_long":106.834175,"line":2,"station_name":"Univ. Pancasila","station_id":"UP","time":3},{"i_lat":-6.330363,"i_long":106.832616,"transit":false,"time":2,"station_name":"Lenteng Agung","station_id":"LNA","is_transit":false,"line":2,"distance":1029},{"time":3,"i_long":106.838896,"i_lat":-6.3080680000000005,"transit":false,"is_transit":false,"station_name":"Tanjung Barat","station_id":"TNT","distance":2671,"line":2},{"station_name":"Pasar Minggu","transit":false,"distance":2820,"line":2,"is_transit":false,"i_lat":-6.2842400000000005,"i_long":106.843999,"time":4,"station_id":"PSM"},{"distance":2380,"i_long":106.851577,"station_name":"Pasar Minggu Baru","time":2,"is_transit":false,"line":2,"station_id":"PSMB","i_lat":-6.263214,"transit":false},{"time":2,"distance":824,"station_name":"Duren Kalibata","i_lat":-6.255332,"line":2,"station_id":"DRN","is_transit":false,"i_long":106.85449,"transit":false},{"time":3,"i_lat":-6.242512,"line":2,"station_name":"Cawang","transit":false,"is_transit":false,"distance":1546,"i_long":106.856607,"station_id":"CW"},{"station_name":"Tebet","distance":1230,"i_lat":-6.226659,"station_id":"TEB","transit":false,"line":2,"is_transit":false,"time":2,"i_long":106.857948},{"transit":true,"time":4,"is_transit":true,"distance":2610,"station_name":"Manggarai","i_lat":-6.209883,"i_long":106.84912,"station_id":"MRI","line":2},{"time":2,"i_lat":-6.212485,"line":1,"station_id":"MTR","i_long":106.858896,"distance":1275,"transit":false,"is_transit":false,"station_name":"Matraman"},{"time":8,"station_id":"JNG","line":1,"station_name":"Jatinegara","i_long":106.86807400000001,"is_transit":false,"distance":1377,"i_lat":-6.215091,"transit":false},{"time":3,"station_name":"Klender","i_long":106.899548,"line":1,"transit":false,"is_transit":false,"station_id":"KLD","distance":3395,"i_lat":-6.2135},{"i_long":106.922662,"i_lat":-6.215568,"is_transit":false,"distance":3100,"station_name":"Buaran","transit":false,"time":2,"line":1,"station_id":"BUA"},{"i_long":106.939679,"station_id":"KLDB","is_transit":false,"distance":1305,"time":1,"i_lat":-6.217455,"station_name":"Klenderbaru","transit":false,"line":1},{"station_id":"CUK","time":8,"transit":false,"i_lat":-6.219053,"distance":1385,"is_transit":false,"station_name":"Cakung","line":1,"i_long":106.951283},{"time":3,"i_long":106.977657,"distance":3097,"transit":false,"is_transit":false,"line":1,"i_lat":-6.224515,"station_name":"Kranji","station_id":"KRI"},{"transit":false,"is_transit":false,"i_lat":-6.236616,"station_name":"Bekasi","distance":2520,"time":4,"line":1,"i_long":106.997013,"station_id":"BKS"}],[{"is_transit":false,"i_lat":-6.46424,"i_long":106.851978,"time":0,"line":21,"distance":0,"station_id":"CBN","station_name":"Cibinong","transit":false},{"time":0,"station_name":"Pondok Rajeg","i_long":106.824374,"line":21,"station_id":"PDRG","transit":false,"is_transit":false,"distance":0,"i_lat":-6.460735},{"distance":0,"station_name":"Citayam","i_lat":-6.448811,"line":2,"station_id":"CTA","i_long":106.800298,"transit":true,"time":0,"is_transit":true},{"station_id":"DP","station_name":"Depok","i_long":106.816926,"time":6,"is_transit":false,"line":2,"i_lat":-6.405256,"transit":false,"distance":5084},{"i_long":106.819451,"time":3,"i_lat":-6.391065,"line":2,"station_name":"Depokbaru","is_transit":false,"distance":1584,"station_id":"DPB","transit":false},{"station_id":"POC","i_long":106.831114,"distance":2727,"i_lat":-6.369073,"is_transit":false,"station_name":"Pondok Cina","line":2,"transit":false,"time":4},{"i_long":106.831474,"station_id":"UI","line":2,"i_lat":-6.360749,"transit":false,"is_transit":false,"station_name":"Univ. Indonesia","distance":1109,"time":2},{"transit":false,"i_lat":-6.339291,"i_long":106.834175,"time":3,"line":2,"is_transit":false,"station_id":"UP","station_name":"Univ. Pancasila","distance":2264},{"i_lat":-6.330363,"station_id":"LNA","line":2,"station_name":"Lenteng Agung","transit":false,"i_long":106.832616,"distance":1029,"is_transit":false,"time":2},{"station_id":"TNT","transit":false,"i_long":106.838896,"line":2,"distance":2671,"i_lat":-6.3080680000000005,"is_transit":false,"station_name":"Tanjung Barat","time":3},{"transit":false,"distance":2820,"line":2,"station_name":"Pasar Minggu","i_long":106.843999,"time":4,"i_lat":-6.2842400000000005,"station_id":"PSM","is_transit":false},{"distance":2380,"station_id":"PSMB","time":2,"i_lat":-6.263214,"line":2,"is_transit":false,"transit":false,"i_long":106.851577,"station_name":"Pasar Minggu Baru"},{"i_lat":-6.255332,"line":2,"i_long":106.85449,"time":2,"station_name":"Duren Kalibata","distance":824,"station_id":"DRN","is_transit":false,"transit":false},{"is_transit":false,"station_name":"Cawang","line":2,"transit":false,"distance":1546,"station_id":"CW","i_lat":-6.242512,"i_long":106.856607,"time":3},{"line":2,"i_lat":-6.226659,"distance":1230,"station_name":"Tebet","i_long":106.857948,"time":2,"transit":false,"is_transit":false,"station_id":"TEB"},{"distance":2610,"station_id":"MRI","line":2,"station_name":"Manggarai","transit":true,"time":4,"i_long":106.84912,"i_lat":-6.209883,"is_transit":true},{"i_long":106.822649,"time":4,"station_name":"Sudirman","distance":3186,"is_transit":false,"line":1,"transit":false,"station_id":"SUD","i_lat":-6.202263},{"line":1,"is_transit":false,"distance":280,"i_long":106.819881,"i_lat":-6.201433,"station_id":"SUDB","time":1,"transit":false,"station_name":"Sudirman Baru"},{"i_lat":-6.20132,"station_name":"Karet","line":1,"station_id":"KAT","i_long":106.816351,"is_transit":false,"time":1,"distance":471,"transit":false},{"i_lat":-6.185545,"station_name":"Tanah Abang","time":5,"transit":false,"is_transit":false,"station_id":"THB","i_long":106.811091,"distance":2029,"line":1},{"time":8,"station_id":"DU","i_lat":-6.155215,"line":1,"is_transit":false,"distance":3632,"station_name":"Duri","transit":false,"i_long":106.800832},{"is_transit":false,"station_id":"AK","time":4,"transit":false,"station_name":"Angke","i_lat":-6.144674,"i_long":106.79867,"line":1,"distance":1230},{"is_transit":true,"transit":true,"i_long":106.826365,"station_name":"Kampung Bandan","station_id":"KPB","i_lat":-6.132549,"line":4,"time":9,"distance":4102},{"line":11,"i_long":106.836569,"is_transit":false,"time":3,"station_name":"Rajawali","station_id":"RJW","transit":false,"distance":1444,"i_lat":-6.14505},{"line":11,"station_name":"Kemayoran","i_lat":-6.161728,"distance":1901,"i_long":106.839204,"transit":false,"time":5,"station_id":"KMO","is_transit":false},{"i_lat":-6.174784,"i_long":106.84368,"transit":false,"station_id":"PSE","is_transit":false,"station_name":"Pasar Senen","line":11,"time":4,"distance":1436},{"distance":1567,"is_transit":false,"time":8,"i_lat":-6.185975,"i_long":106.850107,"line":11,"station_name":"Gang Sentiong","station_id":"GST","transit":false},{"time":1,"distance":973,"is_transit":false,"station_id":"KMT","i_lat":-6.193792,"station_name":"Kramat","transit":false,"i_long":106.855437,"line":11},{"i_lat":-6.209188,"time":2,"i_long":106.861737,"line":11,"station_id":"POK","transit":false,"station_name":"Pondok Jati","distance":1829,"is_transit":false},{"station_id":"JNG","station_name":"Jatinegara","transit":true,"i_lat":-6.215091,"i_long":106.86807400000001,"time":9,"is_transit":true,"distance":1236,"line":1},{"i_long":106.899548,"transit":false,"station_id":"KLD","station_name":"Klender","is_transit":false,"distance":3395,"line":1,"time":3,"i_lat":-6.2135},{"i_lat":-6.215568,"time":2,"station_name":"Buaran","i_long":106.922662,"line":1,"station_id":"BUA","transit":false,"distance":3100,"is_transit":false},{"station_name":"Klenderbaru","time":1,"distance":1305,"i_lat":-6.217455,"station_id":"KLDB","i_long":106.939679,"line":1,"transit":false,"is_transit":false},{"station_id":"CUK","time":8,"is_transit":false,"i_lat":-6.219053,"i_long":106.951283,"transit":false,"distance":1385,"station_name":"Cakung","line":1},{"i_lat":-6.224515,"station_name":"Kranji","line":1,"distance":3097,"station_id":"KRI","transit":false,"i_long":106.977657,"is_transit":false,"time":3},{"i_lat":-6.236616,"station_id":"BKS","station_name":"Bekasi","is_transit":false,"transit":false,"line":1,"i_long":106.997013,"time":4,"distance":2520}],[{"time":0,"distance":0,"is_transit":false,"i_long":106.851978,"i_lat":-6.46424,"line":21,"station_id":"CBN","transit":false,"station_name":"Cibinong"},{"i_lat":-6.460735,"line":21,"time":0,"is_transit":false,"station_id":"PDRG","i_long":106.824374,"station_name":"Pondok Rajeg","distance":0,"transit":false},{"i_long":106.800298,"line":2,"transit":true,"is_transit":true,"distance":0,"station_name":"Citayam","time":0,"station_id":"CTA","i_lat":-6.448811},{"time":6,"distance":5084,"transit":false,"i_long":106.816926,"station_name":"Depok","i_lat":-6.405256,"station_id":"DP","line":2,"is_transit":false},{"time":3,"transit":false,"distance":1584,"station_name":"Depokbaru","line":2,"station_id":"DPB","i_lat":-6.391065,"i_long":106.819451,"is_transit":false},{"line":2,"i_long":106.831114,"station_id":"POC","station_name":"Pondok Cina","distance":2727,"transit":false,"is_transit":false,"time":4,"i_lat":-6.369073},{"station_id":"UI","station_name":"Univ. Indonesia","time":2,"transit":false,"i_lat":-6.360749,"distance":1109,"line":2,"is_transit":false,"i_long":106.831474},{"i_lat":-6.339291,"is_transit":false,"station_name":"Univ. Pancasila","distance":2264,"i_long":106.834175,"station_id":"UP","line":2,"transit":false,"time":3},{"line":2,"transit":false,"station_id":"LNA","is_transit":false,"i_long":106.832616,"time":2,"i_lat":-6.330363,"station_name":"Lenteng Agung","distance":1029},{"station_name":"Tanjung Barat","transit":false,"line":2,"i_long":106.838896,"is_transit":false,"station_id":"TNT","i_lat":-6.3080680000000005,"distance":2671,"time":3},{"time":4,"line":2,"transit":false,"distance":2820,"station_id":"PSM","i_lat":-6.2842400000000005,"station_name":"Pasar Minggu","i_long":106.843999,"is_transit":false},{"station_id":"PSMB","is_transit":false,"time":2,"i_lat":-6.263214,"transit":false,"station_name":"Pasar Minggu Baru","i_long":106.851577,"line":2,"distance":2380},{"station_id":"DRN","i_long":106.85449,"station_name":"Duren Kalibata","is_transit":false,"line":2,"transit":false,"time":2,"i_lat":-6.255332,"distance":824},{"is_transit":false,"transit":false,"time":3,"i_lat":-6.242512,"i_long":106.856607,"station_name":"Cawang","distance":1546,"line":2,"station_id":"CW"},{"is_transit":false,"distance":1230,"i_lat":-6.226659,"transit":false,"line":2,"time":2,"station_id":"TEB","i_long":106.857948,"station_name":"Tebet"},{"station_id":"MRI","i_long":106.84912,"i_lat":-6.209883,"transit":false,"distance":2610,"time":4,"line":2,"station_name":"Manggarai","is_transit":false},{"line":2,"station_name":"Cikini","is_transit":false,"distance":1590,"i_lat":-6.198556,"time":4,"transit":false,"station_id":"CKI","i_long":106.840169},{"i_lat":-6.186295,"line":2,"time":3,"station_id":"GDD","station_name":"Gondangdia","distance":1750,"i_long":106.832183,"transit":false,"is_transit":false},{"i_long":106.828284,"station_id":"JUA","station_name":"Juanda","i_lat":-6.166716,"time":4,"transit":false,"is_transit":false,"line":2,"distance":2015},{"time":2,"line":2,"i_lat":-6.160725,"transit":false,"i_long":106.827103,"is_transit":false,"station_id":"SW","distance":1149,"station_name":"Sawah Besar"},{"transit":false,"line":2,"time":2,"i_long":106.82482,"is_transit":false,"station_id":"MGB","station_name":"Manggabesar","i_lat":-6.149769,"distance":906},{"is_transit":false,"station_name":"Jayakarta","i_lat":-6.141205,"station_id":"JAY","distance":1080,"i_long":106.820901,"transit":false,"time":2,"line":2},{"is_transit":true,"distance":1264,"i_long":106.812439,"line":2,"station_id":"JAKK","transit":true,"i_lat":-6.137569,"time":4,"station_name":"Jakarta Kota"},{"i_lat":-6.132549,"line":4,"station_name":"Kampung Bandan","time":3,"transit":true,"station_id":"KPB","is_transit":true,"i_long":106.826365,"distance":1364},{"i_long":106.836569,"line":11,"time":3,"transit":false,"is_transit":false,"station_id":"RJW","distance":1444,"station_name":"Rajawali","i_lat":-6.14505},{"is_transit":false,"station_name":"Kemayoran","i_lat":-6.161728,"time":5,"distance":1901,"transit":false,"station_id":"KMO","line":11,"i_long":106.839204},{"transit":false,"i_lat":-6.174784,"line":11,"station_name":"Pasar Senen","time":4,"distance":1436,"i_long":106.84368,"station_id":"PSE","is_transit":false},{"station_name":"Gang Sentiong","transit":false,"distance":1567,"line":11,"is_transit":false,"station_id":"GST","i_long":106.850107,"time":8,"i_lat":-6.185975},{"station_name":"Kramat","station_id":"KMT","time":1,"i_lat":-6.193792,"i_long":106.855437,"line":11,"transit":false,"distance":973,"is_transit":false},{"i_lat":-6.209188,"distance":1829,"i_long":106.861737,"station_id":"POK","is_transit":false,"line":11,"transit":false,"time":2,"station_name":"Pondok Jati"},{"i_long":106.86807400000001,"station_id":"JNG","time":9,"station_name":"Jatinegara","is_transit":true,"line":1,"i_lat":-6.215091,"transit":true,"distance":1236},{"transit":false,"is_transit":false,"distance":3395,"station_id":"KLD","i_lat":-6.2135,"line":1,"station_name":"Klender","i_long":106.899548,"time":3},{"station_name":"Buaran","i_long":106.922662,"line":1,"time":2,"is_transit":false,"transit":false,"i_lat":-6.215568,"station_id":"BUA","distance":3100},{"line":1,"station_id":"KLDB","time":1,"i_lat":-6.217455,"station_name":"Klenderbaru","transit":false,"is_transit":false,"distance":1305,"i_long":106.939679},{"transit":false,"distance":1385,"line":1,"i_long":106.951283,"station_id":"CUK","is_transit":false,"station_name":"Cakung","i_lat":-6.219053,"time":8},{"distance":3097,"is_transit":false,"transit":false,"station_id":"KRI","station_name":"Kranji","i_long":106.977657,"line":1,"i_lat":-6.224515,"time":3},{"transit":false,"station_id":"BKS","is_transit":false,"distance":2520,"i_lat":-6.236616,"line":1,"i_long":106.997013,"station_name":"Bekasi","time":4}]]}