{"data":[[{"i_lat":-6.46424,"distance":0,"is_transit":false,"station_id":"CBN","station_name":"Cibinong","transit":false,"line":0,"i_long":106.851978,"time":0},{"is_transit":true,"station_id":"CTA","distance":6740,"transit":false,"i_long":106.800298,"line":1,"time":10,"station_name":"Citayam","i_lat":-6.448811},{"is_transit":false,"time":6,"station_id":"DP","distance":5084,"i_long":106.816926,"station_name":"Depok","i_lat":-6.405256,"line":0,"transit":false},{"i_lat":-6.391065,"time":3,"distance":1584,"station_name":"Depokbaru","is_transit":false,"i_long":106.819451,"line":0,"station_id":"DPB","transit":false},{"distance":2727,"station_id":"POC","i_long":106.831114,"station_name":"Pondok Cina","transit":false,"line":2,"time":4,"is_transit":false,"i_lat":-6.369073},{"transit":false,"i_lat":-6.360749,"i_long":106.831474,"line":2,"distance":1109,"station_name":"Univ. Indonesia","time":2,"is_transit":false,"station_id":"UI"},{"station_name":"Univ. Pancasila","i_lat":-6.339291,"i_long":106.834175,"distance":2264,"time":3,"station_id":"UP","transit":false,"line":2,"is_transit":false},{"time":2,"is_transit":false,"transit":false,"station_id":"LNA","line":2,"station_name":"Lenteng Agung","i_lat":-6.330363,"distance":1029,"i_long":106.832616},{"time":3,"line":2,"is_transit":false,"transit":false,"station_id":"TNT","i_lat":-6.3080680000000005,"station_name":"Tanjung Barat","distance":2671,"i_long":106.838896},{"i_long":106.843999,"station_id":"PSM","time":4,"distance":2820,"i_lat":-6.2842400000000005,"transit":false,"line":2,"station_name":"Pasar Minggu","is_transit":false},{"is_transit":false,"time":2,"i_lat":-6.263214,"i_long":106.851577,"station_name":"Pasar Minggu Baru","transit":false,"station_id":"PSMB","line":2,"distance":2380},{"line":0,"i_lat":-6.255332,"i_long":106.85449,"time":2,"is_transit":false,"station_id":"DRN","distance":824,"station_name":"Duren Kalibata","transit":false},{"distance":1546,"i_lat":-6.242512,"is_transit":false,"station_id":"CW","time":3,"transit":false,"line":0,"station_name":"Cawang","i_long":106.856607},{"i_lat":-6.226659,"i_long":106.857948,"station_id":"TEB","is_transit":false,"distance":1230,"station_name":"Tebet","line":2,"transit":false,"time":2},{"station_name":"Manggarai","transit":true,"distance":2610,"is_transit":true,"time":4,"i_lat":-6.209883,"line":0,"i_long":106.84912,"station_id":"MRI"},{"line":1,"transit":false,"station_name":"Sudirman","time":4,"station_id":"SUD","distance":3186,"i_lat":-6.202263,"is_transit":false,"i_long":106.822649},{"distance":280,"station_id":"SUDB","time":1,"station_name":"Sudirman Baru","i_long":106.819881,"transit":false,"line":1,"is_transit":false,"i_lat":-6.201433},{"time":1,"is_transit":false,"station_id":"KAT","station_name":"Karet","transit":false,"line":1,"i_lat":-6.20132,"i_long":106.816351,"distance":471},{"station_id":"THB","distance":2029,"line":1,"is_transit":true,"time":5,"station_name":"Tanah Abang","transit":true,"i_lat":-6.185545,"i_long":106.811091},{"time":6,"transit":false,"i_lat":-6.207404,"i_long":106.79689,"distance":3191,"station_id":"PLM","is_transit":false,"line":6,"station_name":"Palmerah"}],[{"line":0,"i_long":106.851978,"transit":false,"station_name":"Cibinong","i_lat":-6.46424,"time":0,"is_transit":false,"station_id":"CBN","distance":0},{"time":10,"is_transit":true,"distance":6740,"i_long":106.800298,"transit":false,"i_lat":-6.448811,"station_id":"CTA","station_name":"Citayam","line":1},{"line":0,"station_id":"DP","i_long":106.816926,"time":6,"distance":5084,"is_transit":false,"station_name":"Depok","transit":false,"i_lat":-6.405256},{"line":0,"station_id":"DPB","station_name":"Depokbaru","i_long":106.819451,"is_transit":false,"distance":1584,"transit":false,"i_lat":-6.391065,"time":3},{"station_name":"Pondok Cina","station_id":"POC","i_long":106.831114,"is_transit":false,"i_lat":-6.369073,"line":2,"transit":false,"time":4,"distance":2727},{"time":2,"station_name":"Univ. Indonesia","i_lat":-6.360749,"station_id":"UI","line":2,"i_long":106.831474,"transit":false,"distance":1109,"is_transit":false},{"distance":2264,"i_long":106.834175,"transit":false,"station_id":"UP","time":3,"line":2,"station_name":"Univ. Pancasila","i_lat":-6.339291,"is_transit":false},{"time":2,"i_long":106.832616,"transit":false,"i_lat":-6.330363,"station_id":"LNA","station_name":"Lenteng Agung","is_transit":false,"distance":1029,"line":2},{"station_name":"Tanjung Barat","distance":2671,"transit":false,"time":3,"i_lat":-6.3080680000000005,"station_id":"TNT","is_transit":false,"line":2,"i_long":106.838896},{"distance":2820,"station_name":"Pasar Minggu","transit":false,"i_long":106.843999,"line":2,"i_lat":-6.2842400000000005,"is_transit":false,"station_id":"PSM","time":4},{"is_transit":false,"i_long":106.851577,"station_name":"Pasar Minggu Baru","line":2,"transit":false,"station_id":"PSMB","time":2,"distance":2380,"i_lat":-6.263214},{"station_id":"DRN","station_name":"Duren Kalibata","time":2,"transit":false,"i_lat":-6.255332,"is_transit":false,"distance":824,"i_long":106.85449,"line":0},{"i_lat":-6.242512,"time":3,"is_transit":false,"i_long":106.856607,"station_id":"CW","station_name":"Cawang","distance":1546,"transit":false,"line":0},{"time":2,"i_lat":-6.226659,"line":2,"i_long":106.857948,"is_transit":false,"transit":false,"station_id":"TEB","station_name":"Tebet","distance":1230},{"transit":true,"i_long":106.84912,"i_lat":-6.209883,"distance":2610,"station_id":"MRI","time":4,"station_name":"Manggarai","is_transit":true,"line":0},{"distance":1590,"i_lat":-6.198556,"line":0,"station_name":"Cikini","time":4,"transit":false,"i_long":106.840169,"is_transit":false,"station_id":"CKI"},{"station_name":"Gondangdia","distance":1750,"i_lat":-6.186295,"line":2,"i_long":106.832183,"transit":false,"time":3,"station_id":"GDD","is_transit":false},{"station_id":"JUA","time":4,"is_transit":false,"distance":2015,"transit":false,"i_lat":-6.166716,"i_long":106.828284,"line":2,"station_name":"Juanda"},{"station_id":"SW","time":2,"i_lat":-6.160725,"distance":1149,"transit":false,"line":2,"station_name":"Sawah Besar","i_long":106.827103,"is_transit":false},{"is_transit":false,"transit":false,"line":2,"station_id":"MGB","station_name":"Manggabesar","distance":906,"i_long":106.82482,"time":2,"i_lat":-6.149769},{"i_lat":-6.141205,"time":2,"is_transit":false,"i_long":106.820901,"transit":false,"line":7,"station_id":"JAY","distance":1080,"station_name":"Jayakarta"},{"transit":true,"station_name":"Jakarta Kota","i_lat":-6.137569,"time":4,"distance":1264,"station_id":"JAKK","i_long":106.812439,"is_transit":true,"line":0},{"station_id":"KPB","time":3,"transit":false,"line":0,"i_long":106.826365,"station_name":"Kampung Bandan","is_transit":true,"distance":1364,"i_lat":-6.132549},{"is_transit":false,"station_name":"Angke","station_id":"AK","distance":4102,"transit":false,"i_lat":-6.144674,"line":0,"time":9,"i_long":106.79867},{"transit":true,"station_id":"DU","i_lat":-6.155215,"i_long":106.800832,"station_name":"Duri","is_transit":true,"time":4,"line":1,"distance":1230},{"transit":true,"station_id":"THB","is_transit":true,"time":8,"line":1,"station_name":"Tanah Abang","distance":3632,"i_lat":-6.185545,"i_long":106.811091},{"is_transit":false,"i_long":106.79689,"line":6,"station_id":"PLM","distance":3191,"time":6,"transit":false,"i_lat":-6.207404,"station_name":"Palmerah"}],[{"station_id":"CBN","time":0,"i_lat":-6.46424,"line":0,"distance":0,"station_name":"Cibinong","transit":false,"is_transit":false,"i_long":106.851978},{"is_transit":true,"station_id":"CTA","time":10,"station_name":"Citayam","distance":6740,"line":1,"transit":false,"i_lat":-6.448811,"i_long":106.800298},{"line":0,"station_id":"DP","i_lat":-6.405256,"distance":5084,"time":6,"is_transit":false,"transit":false,"i_long":106.816926,"station_name":"Depok"},{"station_name":"Depokbaru","is_transit":false,"time":3,"distance":1584,"transit":false,"line":0,"i_lat":-6.391065,"i_long":106.819451,"station_id":"DPB"},{"station_name":"Pondok Cina","transit":false,"station_id":"POC","distance":2727,"i_long":106.831114,"line":2,"time":4,"i_lat":-6.369073,"is_transit":false},{"station_name":"Univ. Indonesia","time":2,"line":2,"is_transit":false,"station_id":"UI","distance":1109,"transit":false,"i_lat":-6.360749,"i_long":106.831474},{"transit":false,"is_transit":false,"time":3,"station_name":"Univ. Pancasila","i_lat":-6.339291,"i_long":106.834175,"line":2,"station_id":"UP","distance":2264},{"station_id":"LNA","station_name":"Lenteng Agung","i_lat":-6.330363,"time":2,"line":2,"transit":false,"distance":1029,"i_long":106.832616,"is_transit":false},{"station_id":"TNT","transit":false,"is_transit":false,"time":3,"distance":2671,"i_lat":-6.3080680000000005,"i_long":106.838896,"line":2,"station_name":"Tanjung Barat"},{"distance":2820,"station_name":"Pasar Minggu","line":2,"i_long":106.843999,"transit":false,"time":4,"i_lat":-6.2842400000000005,"station_id":"PSM","is_transit":false},{"line":2,"time":2,"is_transit":false,"station_id":"PSMB","station_name":"Pasar Minggu Baru","i_long":106.851577,"transit":false,"i_lat":-6.263214,"distance":2380},{"distance":824,"transit":false,"time":2,"i_lat":-6.255332,"i_long":106.85449,"line":0,"station_name":"Duren Kalibata","is_transit":false,"station_id":"DRN"},{"line":0,"time":3,"is_transit":false,"distance":1546,"transit":false,"i_long":106.856607,"station_id":"CW","station_name":"Cawang","i_lat":-6.242512},{"station_name":"Tebet","distance":1230,"i_lat":-6.226659,"station_id":"TEB","line":2,"is_transit":false,"i_long":106.857948,"transit":false,"time":2},{"transit":true,"distance":2610,"station_name":"Manggarai","i_lat":-6.209883,"station_id":"MRI","time":4,"i_long":106.84912,"is_transit":true,"line":0},{"is_transit":false,"transit":false,"station_id":"MTR","i_long":106.858896,"i_lat":-6.212485,"time":2,"distance":1275,"station_name":"Matraman","line":1},{"time":8,"i_lat":-6.215091,"is_transit":true,"station_id":"JNG","distance":1377,"i_long":106.86807400000001,"line":0,"transit":true,"station_name":"Jatinegara"},{"transit":false,"distance":1236,"i_lat":-6.209188,"time":2,"station_id":"POK","line":11,"station_name":"Pondok Jati","is_transit":false,"i_long":106.861737},{"station_name":"Kramat","line":11,"distance":1829,"time":2,"i_lat":-6.193792,"i_long":106.855437,"is_transit":false,"transit":false,"station_id":"KMT"},{"is_transit":false,"station_id":"GST","time":1,"transit":false,"i_long":106.850107,"i_lat":-6.185975,"distance":973,"station_name":"Gang Sentiong","line":11},{"time":8,"distance":1567,"station_name":"Pasar Senen","station_id":"PSE","transit":false,"i_long":106.84368,"is_transit":false,"i_lat":-6.174784,"line":11},{"is_transit":false,"transit":false,"time":4,"distance":1436,"i_lat":-6.161728,"station_name":"Kemayoran","i_long":106.839204,"line":11,"station_id":"KMO"},{"time":5,"i_long":106.836569,"transit":false,"station_id":"RJW","is_transit":false,"i_lat":-6.14505,"station_name":"Rajawali","line":11,"distance":1901},{"time":3,"transit":true,"station_name":"Kampung Bandan","line":0,"distance":1444,"is_transit":true,"i_lat":-6.132549,"station_id":"KPB","i_long":106.826365},{"time":9,"transit":false,"station_id":"AK","station_name":"Angke","i_lat":-6.144674,"line":0,"is_transit":false,"distance":4102,"i_long":106.79867},{"line":1,"distance":1230,"station_name":"Duri","station_id":"DU","is_transit":true,"i_long":106.800832,"time":4,"transit":true,"i_lat":-6.155215},{"transit":true,"station_id":"THB","station_name":"Tanah Abang","i_long":106.811091,"line":1,"i_lat":-6.185545,"time":8,"is_transit":true,"distance":3632},{"station_id":"PLM","line":6,"i_long":106.79689,"station_name":"Palmerah","transit":false,"time":6,"is_transit":false,"distance":3191,"i_lat":-6.207404}]]}