{"data":[[{"station_id":"CC","time":0,"is_transit":false,"distance":0,"i_lat":-6.329547,"line":3,"station_name":"Cicayur","i_long":106.617853,"transit":false},{"is_transit":false,"station_id":"CSK","i_lat":-6.32484,"distance":2519,"station_name":"Cisauk","line":3,"transit":false,"i_long":106.640411,"time":4},{"station_id":"SRP","i_lat":-6.319871,"line":6,"i_long":106.66566,"time":4,"is_transit":false,"station_name":"Serpong","transit":false,"distance":1784},{"i_long":106.675475,"is_transit":false,"i_lat":-6.314823,"station_name":"Rawa Buntu","distance":2413,"transit":false,"station_id":"RU","time":4,"line":6},{"time":6,"station_id":"SDM","i_long":106.712277,"station_name":"Sudimara","distance":4566,"line":6,"transit":false,"is_transit":false,"i_lat":-6.296963},{"line":6,"is_transit":false,"transit":false,"station_id":"JMU","time":4,"distance":1994,"station_name":"Jurangmangu","i_long":106.728916,"i_lat":-6.288927},{"distance":2179,"transit":false,"station_id":"PDJ","i_lat":-6.276362,"line":6,"i_long":106.74273,"station_name":"Pondokranji","time":3,"is_transit":false},{"is_transit":false,"station_name":"Kebayoran","line":6,"time":8,"i_lat":-6.237242,"distance":6218,"transit":false,"station_id":"KBY","i_long":106.780334},{"i_long":106.79689,"distance":3737,"station_name":"Palmerah","line":6,"transit":false,"is_transit":false,"i_lat":-6.207404,"station_id":"PLM","time":7},{"distance":3191,"station_id":"THB","transit":true,"i_long":106.811091,"line":1,"time":6,"is_transit":true,"i_lat":-6.185545,"station_name":"Tanah Abang"},{"i_lat":-6.155215,"line":1,"distance":3632,"station_id":"DU","time":8,"transit":false,"station_name":"Duri","is_transit":false,"i_long":106.800832},{"station_id":"AK","station_name":"Angke","time":4,"transit":false,"distance":1230,"is_transit":false,"i_lat":-6.144674,"line":1,"i_long":106.79867}],[{"transit":false,"distance":0,"station_name":"Cicayur","is_transit":false,"time":0,"station_id":"CC","i_lat":-6.329547,"line":3,"i_long":106.617853},{"is_transit":false,"station_id":"CSK","distance":2519,"transit":false,"line":3,"station_name":"Cisauk","time":4,"i_long":106.640411,"i_lat":-6.32484},{"transit":false,"line":6,"distance":1784,"time":4,"is_transit":false,"station_id":"SRP","i_long":106.66566,"station_name":"Serpong","i_lat":-6.319871},{"line":6,"transit":false,"i_lat":-6.314823,"i_long":106.675475,"time":4,"station_name":"Rawa Buntu","is_transit":false,"distance":2413,"station_id":"RU"},{"i_lat":-6.296963,"i_long":106.712277,"line":6,"distance":4566,"transit":false,"is_transit":false,"station_name":"Sudimara","time":6,"station_id":"SDM"},{"distance":1994,"is_transit":false,"time":4,"station_id":"JMU","i_lat":-6.288927,"line":6,"station_name":"Jurangmangu","transit":false,"i_long":106.728916},{"is_transit":false,"i_long":106.74273,"transit":false,"distance":2179,"line":6,"time":3,"station_id":"PDJ","i_lat":-6.276362,"station_name":"Pondokranji"},{"station_name":"Kebayoran","i_long":106.780334,"station_id":"KBY","time":8,"transit":false,"distance":6218,"i_lat":-6.237242,"is_transit":false,"line":6},{"station_id":"PLM","distance":3737,"time":7,"i_long":106.79689,"station_name":"Palmerah","transit":false,"is_transit":false,"line":6,"i_lat":-6.207404},{"station_name":"Tanah Abang","i_long":106.811091,"is_transit":true,"time":6,"station_id":"THB","i_lat":-6.185545,"line":1,"transit":true,"distance":3191},{"station_id":"KAT","is_transit":false,"transit":false,"distance":2029,"time":5,"line":1,"i_lat":-6.20132,"station_name":"Karet","i_long":106.816351},{"station_id":"SUDB","station_name":"Sudirman Baru","distance":471,"transit":false,"time":1,"is_transit":false,"i_long":106.819881,"i_lat":-6.201433,"line":1},{"is_transit":false,"distance":280,"station_name":"Sudirman","time":1,"station_id":"SUD","i_lat":-6.202263,"transit":false,"i_long":106.822649,"line":1},{"time":4,"station_id":"MRI","is_transit":true,"distance":3186,"station_name":"Manggarai","transit":true,"i_lat":-6.209883,"i_long":106.84912,"line":2},{"line":2,"i_lat":-6.198556,"transit":false,"time":4,"i_long":106.840169,"distance":1590,"station_id":"CKI","station_name":"Cikini","is_transit":false},{"distance":1750,"is_transit":false,"station_name":"Gondangdia","transit":false,"i_lat":-6.186295,"time":3,"station_id":"GDD","i_long":106.832183,"line":2},{"line":2,"station_name":"Juanda","is_transit":false,"distance":2015,"i_long":106.828284,"transit":false,"time":4,"station_id":"JUA","i_lat":-6.166716},{"station_name":"Sawah Besar","station_id":"SW","time":2,"line":2,"transit":false,"i_long":106.827103,"i_lat":-6.160725,"is_transit":false,"distance":1149},{"i_lat":-6.149769,"i_long":106.82482,"time":2,"transit":false,"is_transit":false,"station_name":"Manggabesar","distance":906,"line":2,"station_id":"MGB"},{"station_name":"Jayakarta","transit":false,"time":2,"station_id":"JAY","distance":1080,"line":2,"is_transit":false,"i_long":106.820901,"i_lat":-6.141205},{"is_transit":true,"distance":1264,"transit":true,"station_id":"JAKK","i_lat":-6.137569,"line":2,"i_long":106.812439,"time":4,"station_name":"Jakarta Kota"},{"transit":true,"is_transit":true,"i_lat":-6.132549,"time":3,"station_id":"KPB","distance":1364,"station_name":"Kampung Bandan","i_long":106.826365,"line":4},{"station_id":"AK","distance":4102,"station_name":"Angke","time":9,"i_long":106.79867,"is_transit":false,"transit":false,"i_lat":-6.144674,"line":1}],[{"is_transit":false,"station_name":"Cicayur","time":0,"station_id":"CC","i_lat":-6.329547,"i_long":106.617853,"distance":0,"transit":false,"line":3},{"i_lat":-6.32484,"time":4,"is_transit":false,"i_long":106.640411,"station_name":"Cisauk","station_id":"CSK","line":3,"transit":false,"distance":2519},{"i_lat":-6.319871,"station_name":"Serpong","line":6,"i_long":106.66566,"is_transit":false,"time":4,"transit":false,"station_id":"SRP","distance":1784},{"transit":false,"i_long":106.675475,"line":6,"station_name":"Rawa Buntu","distance":2413,"i_lat":-6.314823,"time":4,"station_id":"RU","is_transit":false},{"distance":4566,"transit":false,"i_lat":-6.296963,"i_long":106.712277,"station_id":"SDM","station_name":"Sudimara","line":6,"is_transit":false,"time":6},{"station_name":"Jurangmangu","transit":false,"distance":1994,"time":4,"i_lat":-6.288927,"i_long":106.728916,"line":6,"station_id":"JMU","is_transit":false},{"station_id":"PDJ","distance":2179,"i_lat":-6.276362,"i_long":106.74273,"is_transit":false,"transit":false,"station_name":"Pondokranji","time":3,"line":6},{"line":6,"i_long":106.780334,"station_id":"KBY","station_name":"Kebayoran","is_transit":false,"time":8,"distance":6218,"transit":false,"i_lat":-6.237242},{"i_lat":-6.207404,"line":6,"time":7,"i_long":106.79689,"is_transit":false,"distance":3737,"station_id":"PLM","transit":false,"station_name":"Palmerah"},{"transit":true,"line":1,"time":6,"i_lat":-6.185545,"station_name":"Tanah Abang","distance":3191,"i_long":106.811091,"is_transit":true,"station_id":"THB"},{"line":1,"time":5,"i_long":106.816351,"station_name":"Karet","is_transit":false,"transit":false,"i_lat":-6.20132,"distance":2029,"station_id":"KAT"},{"station_name":"Sudirman Baru","distance":471,"station_id":"SUDB","i_lat":-6.201433,"is_transit":false,"line":1,"i_long":106.819881,"transit":false,"time":1},{"i_long":106.822649,"line":1,"station_id":"SUD","is_transit":false,"time":1,"transit":false,"i_lat":-6.202263,"station_name":"Sudirman","distance":280},{"time":4,"station_id":"MRI","i_lat":-6.209883,"line":2,"station_name":"Manggarai","distance":3186,"is_transit":false,"i_long":106.84912,"transit":false},{"station_id":"MTR","transit":false,"time":2,"distance":1275,"i_lat":-6.212485,"i_long":106.858896,"is_transit":false,"line":1,"station_name":"Matraman"},{"time":8,"station_name":"Jatinegara","i_long":106.86807400000001,"distance":1377,"line":1,"i_lat":-6.215091,"is_transit":true,"station_id":"JNG","transit":true},{"line":11,"time":2,"i_long":106.861737,"station_name":"Pondok Jati","transit":false,"distance":1236,"station_id":"POK","i_lat":-6.209188,"is_transit":false},{"station_name":"Kramat","time":2,"distance":1829,"station_id":"KMT","transit":false,"i_lat":-6.193792,"i_long":106.855437,"line":11,"is_transit":false},{"station_id":"GST","line":11,"time":1,"distance":973,"i_lat":-6.185975,"station_name":"Gang Sentiong","i_long":106.850107,"is_transit":false,"transit":false},{"is_transit":false,"i_lat":-6.174784,"i_long":106.84368,"line":11,"time":8,"transit":false,"station_id":"PSE","distance":1567,"station_name":"Pasar Senen"},{"is_transit":false,"i_long":106.839204,"time":4,"transit":false,"station_id":"KMO","station_name":"Kemayoran","distance":1436,"i_lat":-6.161728,"line":11},{"transit":false,"is_transit":false,"i_lat":-6.14505,"line":11,"i_long":106.836569,"time":5,"station_name":"Rajawali","distance":1901,"station_id":"RJW"},{"line":4,"station_id":"KPB","i_lat":-6.132549,"distance":1444,"time":3,"transit":true,"is_transit":true,"i_long":106.826365,"station_name":"Kampung Bandan"},{"i_lat":-6.144674,"station_name":"Angke","transit":false,"station_id":"AK","is_transit":false,"distance":4102,"i_long":106.79867,"line":1,"time":9}]]}