{"data":[[{"line":3,"is_transit":false,"i_lat":-6.329547,"transit":false,"station_id":"CC","time":0,"station_name":"Cicayur","distance":0,"i_long":106.617853},{"transit":false,"station_name":"Cisauk","station_id":"CSK","is_transit":false,"i_long":106.640411,"distance":2519,"i_lat":-6.32484,"time":4,"line":3},{"i_long":106.66566,"line":6,"transit":false,"time":4,"station_id":"SRP","is_transit":false,"distance":1784,"station_name":"Serpong","i_lat":-6.319871},{"time":4,"i_long":106.675475,"transit":false,"is_transit":false,"distance":2413,"line":6,"i_lat":-6.314823,"station_id":"RU","station_name":"Rawa Buntu"},{"time":6,"station_name":"Sudimara","i_lat":-6.296963,"i_long":106.712277,"line":6,"is_transit":false,"transit":false,"distance":4566,"station_id":"SDM"},{"distance":1994,"station_id":"JMU","i_lat":-6.288927,"transit":false,"i_long":106.728916,"station_name":"Jurangmangu","line":6,"is_transit":false,"time":4},{"i_lat":-6.276362,"i_long":106.74273,"station_name":"Pondokranji","time":3,"line":6,"station_id":"PDJ","transit":false,"is_transit":false,"distance":2179},{"station_name":"Kebayoran","i_lat":-6.237242,"station_id":"KBY","transit":false,"line":6,"is_transit":false,"distance":6218,"time":8,"i_long":106.780334},{"distance":3737,"is_transit":false,"transit":false,"line":6,"i_lat":-6.207404,"station_name":"Palmerah","time":7,"i_long":106.79689,"station_id":"PLM"},{"distance":3191,"i_long":106.811091,"i_lat":-6.185545,"station_name":"Tanah Abang","is_transit":true,"transit":true,"line":1,"time":6,"station_id":"THB"},{"is_transit":false,"time":8,"line":1,"i_long":106.800832,"transit":false,"distance":3632,"i_lat":-6.155215,"station_name":"Duri","station_id":"DU"},{"station_id":"AK","station_name":"Angke","is_transit":false,"i_lat":-6.144674,"i_long":106.79867,"time":4,"transit":false,"distance":1230,"line":1}],[{"time":0,"i_lat":-6.329547,"i_long":106.617853,"station_name":"Cicayur","transit":false,"station_id":"CC","is_transit":false,"distance":0,"line":3},{"is_transit":false,"station_name":"Cisauk","transit":false,"i_lat":-6.32484,"i_long":106.640411,"line":3,"station_id":"CSK","distance":2519,"time":4},{"i_long":106.66566,"is_transit":false,"station_id":"SRP","time":4,"distance":1784,"i_lat":-6.319871,"line":6,"station_name":"Serpong","transit":false},{"transit":false,"is_transit":false,"time":4,"i_long":106.675475,"line":6,"station_name":"Rawa Buntu","i_lat":-6.314823,"distance":2413,"station_id":"RU"},{"transit":false,"i_lat":-6.296963,"station_name":"Sudimara","i_long":106.712277,"line":6,"time":6,"is_transit":false,"station_id":"SDM","distance":4566},{"time":4,"distance":1994,"i_lat":-6.288927,"i_long":106.728916,"line":6,"transit":false,"station_name":"Jurangmangu","station_id":"JMU","is_transit":false},{"i_long":106.74273,"station_name":"Pondokranji","distance":2179,"transit":false,"is_transit":false,"i_lat":-6.276362,"station_id":"PDJ","line":6,"time":3},{"distance":6218,"station_id":"KBY","line":6,"i_lat":-6.237242,"time":8,"transit":false,"station_name":"Kebayoran","i_long":106.780334,"is_transit":false},{"line":6,"station_id":"PLM","distance":3737,"station_name":"Palmerah","is_transit":false,"time":7,"i_lat":-6.207404,"i_long":106.79689,"transit":false},{"line":1,"distance":3191,"i_lat":-6.185545,"time":6,"i_long":106.811091,"transit":true,"station_name":"Tanah Abang","is_transit":true,"station_id":"THB"},{"i_long":106.816351,"transit":false,"line":1,"time":5,"is_transit":false,"i_lat":-6.20132,"station_name":"Karet","station_id":"KAT","distance":2029},{"time":1,"station_name":"Sudirman Baru","station_id":"SUDB","distance":471,"i_lat":-6.201433,"transit":false,"i_long":106.819881,"line":1,"is_transit":false},{"i_lat":-6.202263,"distance":280,"line":1,"transit":false,"station_name":"Sudirman","i_long":106.822649,"station_id":"SUD","is_transit":false,"time":1},{"station_name":"Manggarai","station_id":"MRI","transit":true,"time":4,"distance":3186,"is_transit":true,"i_long":106.84912,"i_lat":-6.209883,"line":2},{"i_lat":-6.198556,"is_transit":false,"distance":1590,"station_name":"Cikini","station_id":"CKI","time":4,"i_long":106.840169,"line":2,"transit":false},{"i_long":106.832183,"station_name":"Gondangdia","line":2,"time":3,"is_transit":false,"distance":1750,"station_id":"GDD","transit":false,"i_lat":-6.186295},{"line":2,"distance":2015,"i_lat":-6.166716,"is_transit":false,"i_long":106.828284,"station_name":"Juanda","station_id":"JUA","time":4,"transit":false},{"is_transit":false,"time":2,"distance":1149,"station_name":"Sawah Besar","i_lat":-6.160725,"station_id":"SW","transit":false,"line":2,"i_long":106.827103},{"time":2,"is_transit":false,"i_lat":-6.149769,"i_long":106.82482,"line":2,"station_id":"MGB","distance":906,"transit":false,"station_name":"Manggabesar"},{"station_name":"Jayakarta","distance":1080,"time":2,"i_long":106.820901,"line":2,"transit":false,"i_lat":-6.141205,"station_id":"JAY","is_transit":false},{"transit":true,"station_name":"Jakarta Kota","station_id":"JAKK","is_transit":true,"time":4,"i_long":106.812439,"i_lat":-6.137569,"line":2,"distance":1264},{"station_id":"KPB","is_transit":true,"transit":true,"distance":1364,"time":3,"i_long":106.826365,"station_name":"Kampung Bandan","line":4,"i_lat":-6.132549},{"station_name":"Angke","time":9,"transit":false,"is_transit":false,"distance":4102,"i_lat":-6.144674,"line":1,"station_id":"AK","i_long":106.79867}],[{"station_id":"CC","station_name":"Cicayur","i_long":106.617853,"i_lat":-6.329547,"distance":0,"line":3,"transit":false,"is_transit":false,"time":0},{"distance":2519,"i_lat":-6.32484,"transit":false,"line":3,"is_transit":false,"time":4,"station_name":"Cisauk","i_long":106.640411,"station_id":"CSK"},{"time":4,"station_id":"SRP","station_name":"Serpong","is_transit":false,"distance":1784,"transit":false,"i_lat":-6.319871,"i_long":106.66566,"line":6},{"is_transit":false,"line":6,"distance":2413,"station_id":"RU","station_name":"Rawa Buntu","transit":false,"time":4,"i_long":106.675475,"i_lat":-6.314823},{"i_long":106.712277,"line":6,"transit":false,"station_id":"SDM","time":6,"i_lat":-6.296963,"station_name":"Sudimara","is_transit":false,"distance":4566},{"station_name":"Jurangmangu","transit":false,"i_long":106.728916,"line":6,"distance":1994,"time":4,"is_transit":false,"station_id":"JMU","i_lat":-6.288927},{"transit":false,"station_id":"PDJ","line":6,"distance":2179,"i_lat":-6.276362,"time":3,"is_transit":false,"station_name":"Pondokranji","i_long":106.74273},{"station_name":"Kebayoran","is_transit":false,"station_id":"KBY","line":6,"distance":6218,"transit":false,"i_lat":-6.237242,"time":8,"i_long":106.780334},{"distance":3737,"transit":false,"station_id":"PLM","i_long":106.79689,"station_name":"Palmerah","line":6,"i_lat":-6.207404,"is_transit":false,"time":7},{"is_transit":true,"distance":3191,"i_lat":-6.185545,"time":6,"line":1,"i_long":106.811091,"station_name":"Tanah Abang","transit":true,"station_id":"THB"},{"station_name":"Karet","station_id":"KAT","is_transit":false,"time":5,"i_lat":-6.20132,"i_long":106.816351,"transit":false,"line":1,"distance":2029},{"distance":471,"station_id":"SUDB","i_lat":-6.201433,"line":1,"transit":false,"time":1,"station_name":"Sudirman Baru","is_transit":false,"i_long":106.819881},{"i_lat":-6.202263,"station_name":"Sudirman","station_id":"SUD","distance":280,"i_long":106.822649,"is_transit":false,"time":1,"line":1,"transit":false},{"line":2,"is_transit":false,"station_name":"Manggarai","distance":3186,"transit":false,"station_id":"MRI","time":4,"i_lat":-6.209883,"i_long":106.84912},{"station_id":"MTR","is_transit":false,"distance":1275,"i_long":106.858896,"transit":false,"line":1,"station_name":"Matraman","time":2,"i_lat":-6.212485},{"i_lat":-6.215091,"transit":true,"station_name":"Jatinegara","time":8,"distance":1377,"i_long":106.86807400000001,"station_id":"JNG","is_transit":true,"line":1},{"transit":false,"line":11,"is_transit":false,"station_id":"POK","distance":1236,"i_lat":-6.209188,"station_name":"Pondok Jati","i_long":106.861737,"time":2},{"time":2,"transit":false,"station_name":"Kramat","distance":1829,"i_lat":-6.193792,"line":11,"i_long":106.855437,"station_id":"KMT","is_transit":false},{"distance":973,"i_long":106.850107,"i_lat":-6.185975,"station_id":"GST","time":1,"line":11,"station_name":"Gang Sentiong","transit":false,"is_transit":false},{"line":11,"i_long":106.84368,"station_id":"PSE","i_lat":-6.174784,"distance":1567,"station_name":"Pasar Senen","time":8,"is_transit":false,"transit":false},{"time":4,"distance":1436,"i_lat":-6.161728,"line":11,"station_name":"Kemayoran","station_id":"KMO","i_long":106.839204,"is_transit":false,"transit":false},{"station_id":"RJW","line":11,"is_transit":false,"distance":1901,"i_lat":-6.14505,"i_long":106.836569,"transit":false,"station_name":"Rajawali","time":5},{"transit":true,"distance":1444,"station_name":"Kampung Bandan","i_lat":-6.132549,"station_id":"KPB","is_transit":true,"time":3,"i_long":106.826365,"line":4},{"station_name":"Angke","i_lat":-6.144674,"line":1,"transit":false,"is_transit":false,"distance":4102,"i_long":106.79867,"time":9,"station_id":"AK"}]]}