{"data":[[{"time":0,"distance":0,"line":3,"station_name":"Cicayur","i_lat":-6.329547,"is_transit":false,"station_id":"CC","transit":false,"i_long":106.617853},{"time":4,"distance":2519,"transit":false,"station_id":"CSK","line":3,"i_lat":-6.32484,"i_long":106.640411,"station_name":"Cisauk","is_transit":false},{"is_transit":false,"i_long":106.66566,"i_lat":-6.319871,"transit":false,"time":4,"station_name":"Serpong","distance":1784,"line":6,"station_id":"SRP"},{"is_transit":false,"station_name":"Rawa Buntu","i_long":106.675475,"line":6,"i_lat":-6.314823,"transit":false,"time":4,"distance":2413,"station_id":"RU"},{"line":6,"transit":false,"i_lat":-6.296963,"station_name":"Sudimara","distance":4566,"i_long":106.712277,"time":6,"station_id":"SDM","is_transit":false},{"transit":false,"station_id":"JMU","i_lat":-6.288927,"station_name":"Jurangmangu","time":4,"line":6,"i_long":106.728916,"distance":1994,"is_transit":false},{"line":6,"time":3,"station_id":"PDJ","is_transit":false,"distance":2179,"i_lat":-6.276362,"transit":false,"i_long":106.74273,"station_name":"Pondokranji"},{"station_name":"Kebayoran","i_lat":-6.237242,"time":8,"is_transit":false,"line":6,"transit":false,"i_long":106.780334,"distance":6218,"station_id":"KBY"},{"i_long":106.79689,"transit":false,"time":7,"station_name":"Palmerah","station_id":"PLM","is_transit":false,"i_lat":-6.207404,"line":6,"distance":3737},{"i_long":106.811091,"transit":true,"time":6,"distance":3191,"station_id":"THB","i_lat":-6.185545,"is_transit":true,"line":1,"station_name":"Tanah Abang"},{"i_lat":-6.155215,"line":1,"i_long":106.800832,"station_name":"Duri","transit":false,"distance":3632,"is_transit":false,"time":8,"station_id":"DU"},{"is_transit":false,"transit":false,"i_long":106.79867,"line":1,"station_name":"Angke","i_lat":-6.144674,"time":4,"distance":1230,"station_id":"AK"}],[{"station_name":"Cicayur","is_transit":false,"time":0,"i_lat":-6.329547,"line":3,"distance":0,"station_id":"CC","transit":false,"i_long":106.617853},{"station_id":"CSK","distance":2519,"time":4,"transit":false,"is_transit":false,"i_lat":-6.32484,"i_long":106.640411,"line":3,"station_name":"Cisauk"},{"transit":false,"i_long":106.66566,"time":4,"station_name":"Serpong","distance":1784,"line":6,"i_lat":-6.319871,"station_id":"SRP","is_transit":false},{"distance":2413,"station_id":"RU","i_lat":-6.314823,"i_long":106.675475,"transit":false,"time":4,"station_name":"Rawa Buntu","is_transit":false,"line":6},{"transit":false,"station_name":"Sudimara","time":6,"station_id":"SDM","i_long":106.712277,"is_transit":false,"distance":4566,"i_lat":-6.296963,"line":6},{"time":4,"transit":false,"i_lat":-6.288927,"i_long":106.728916,"station_id":"JMU","station_name":"Jurangmangu","is_transit":false,"distance":1994,"line":6},{"transit":false,"is_transit":false,"station_id":"PDJ","i_long":106.74273,"i_lat":-6.276362,"line":6,"time":3,"distance":2179,"station_name":"Pondokranji"},{"transit":false,"line":6,"time":8,"distance":6218,"station_name":"Kebayoran","i_lat":-6.237242,"i_long":106.780334,"is_transit":false,"station_id":"KBY"},{"station_name":"Palmerah","is_transit":false,"transit":false,"distance":3737,"i_lat":-6.207404,"i_long":106.79689,"time":7,"station_id":"PLM","line":6},{"station_id":"THB","station_name":"Tanah Abang","i_long":106.811091,"transit":true,"i_lat":-6.185545,"distance":3191,"is_transit":true,"line":1,"time":6},{"is_transit":false,"line":1,"distance":2029,"time":5,"station_id":"KAT","station_name":"Karet","transit":false,"i_lat":-6.20132,"i_long":106.816351},{"station_id":"SUDB","is_transit":false,"i_long":106.819881,"transit":false,"line":1,"distance":471,"time":1,"station_name":"Sudirman Baru","i_lat":-6.201433},{"line":1,"station_name":"Sudirman","is_transit":false,"i_long":106.822649,"distance":280,"time":1,"transit":false,"i_lat":-6.202263,"station_id":"SUD"},{"transit":true,"i_long":106.84912,"i_lat":-6.209883,"time":4,"distance":3186,"station_id":"MRI","is_transit":true,"station_name":"Manggarai","line":2},{"i_long":106.840169,"line":2,"station_id":"CKI","time":4,"station_name":"Cikini","is_transit":false,"transit":false,"i_lat":-6.198556,"distance":1590},{"station_id":"GDD","distance":1750,"i_long":106.832183,"line":2,"i_lat":-6.186295,"time":3,"transit":false,"is_transit":false,"station_name":"Gondangdia"},{"line":2,"station_name":"Juanda","distance":2015,"is_transit":false,"i_long":106.828284,"time":4,"station_id":"JUA","transit":false,"i_lat":-6.166716},{"i_long":106.827103,"station_name":"Sawah Besar","i_lat":-6.160725,"time":2,"line":2,"distance":1149,"is_transit":false,"station_id":"SW","transit":false},{"is_transit":false,"transit":false,"line":2,"i_lat":-6.149769,"distance":906,"station_id":"MGB","station_name":"Manggabesar","i_long":106.82482,"time":2},{"transit":false,"time":2,"station_id":"JAY","is_transit":false,"i_lat":-6.141205,"line":2,"i_long":106.820901,"station_name":"Jayakarta","distance":1080},{"is_transit":true,"line":2,"i_long":106.812439,"transit":true,"i_lat":-6.137569,"distance":1264,"station_name":"Jakarta Kota","time":4,"station_id":"JAKK"},{"station_name":"Kampung Bandan","i_long":106.826365,"i_lat":-6.132549,"line":4,"time":3,"transit":true,"station_id":"KPB","distance":1364,"is_transit":true},{"line":1,"is_transit":false,"i_long":106.79867,"transit":false,"i_lat":-6.144674,"distance":4102,"station_name":"Angke","time":9,"station_id":"AK"}],[{"time":0,"station_id":"CC","station_name":"Cicayur","i_long":106.617853,"distance":0,"transit":false,"line":3,"i_lat":-6.329547,"is_transit":false},{"transit":false,"i_lat":-6.32484,"station_id":"CSK","time":4,"line":3,"is_transit":false,"station_name":"Cisauk","i_long":106.640411,"distance":2519},{"distance":1784,"station_name":"Serpong","line":6,"transit":false,"i_long":106.66566,"i_lat":-6.319871,"station_id":"SRP","is_transit":false,"time":4},{"station_id":"RU","i_lat":-6.314823,"distance":2413,"transit":false,"i_long":106.675475,"line":6,"time":4,"station_name":"Rawa Buntu","is_transit":false},{"i_lat":-6.296963,"i_long":106.712277,"station_id":"SDM","transit":false,"is_transit":false,"line":6,"distance":4566,"time":6,"station_name":"Sudimara"},{"time":4,"station_id":"JMU","transit":false,"i_long":106.728916,"i_lat":-6.288927,"line":6,"distance":1994,"station_name":"Jurangmangu","is_transit":false},{"station_id":"PDJ","transit":false,"line":6,"i_lat":-6.276362,"time":3,"i_long":106.74273,"is_transit":false,"distance":2179,"station_name":"Pondokranji"},{"station_name":"Kebayoran","i_long":106.780334,"time":8,"distance":6218,"is_transit":false,"line":6,"i_lat":-6.237242,"station_id":"KBY","transit":false},{"i_lat":-6.207404,"station_id":"PLM","station_name":"Palmerah","is_transit":false,"transit":false,"line":6,"i_long":106.79689,"distance":3737,"time":7},{"time":6,"transit":true,"line":1,"is_transit":true,"i_lat":-6.185545,"distance":3191,"station_id":"THB","station_name":"Tanah Abang","i_long":106.811091},{"distance":2029,"station_name":"Karet","transit":false,"line":1,"is_transit":false,"time":5,"i_lat":-6.20132,"station_id":"KAT","i_long":106.816351},{"transit":false,"i_long":106.819881,"is_transit":false,"station_id":"SUDB","i_lat":-6.201433,"station_name":"Sudirman Baru","distance":471,"line":1,"time":1},{"i_lat":-6.202263,"distance":280,"transit":false,"line":1,"is_transit":false,"i_long":106.822649,"time":1,"station_id":"SUD","station_name":"Sudirman"},{"line":2,"is_transit":false,"station_id":"MRI","transit":false,"time":4,"station_name":"Manggarai","i_lat":-6.209883,"distance":3186,"i_long":106.84912},{"time":2,"transit":false,"i_lat":-6.212485,"station_name":"Matraman","is_transit":false,"line":1,"i_long":106.858896,"station_id":"MTR","distance":1275},{"time":8,"i_long":106.86807400000001,"distance":1377,"station_id":"JNG","is_transit":true,"station_name":"Jatinegara","i_lat":-6.215091,"transit":true,"line":1},{"distance":1236,"i_long":106.861737,"time":2,"station_id":"POK","i_lat":-6.209188,"transit":false,"is_transit":false,"station_name":"Pondok Jati","line":11},{"line":11,"station_id":"KMT","i_long":106.855437,"distance":1829,"station_name":"Kramat","i_lat":-6.193792,"time":2,"transit":false,"is_transit":false},{"transit":false,"distance":973,"i_lat":-6.185975,"is_transit":false,"station_id":"GST","i_long":106.850107,"time":1,"station_name":"Gang Sentiong","line":11},{"station_id":"PSE","is_transit":false,"transit":false,"i_long":106.84368,"line":11,"station_name":"Pasar Senen","distance":1567,"i_lat":-6.174784,"time":8},{"time":4,"i_long":106.839204,"station_id":"KMO","transit":false,"i_lat":-6.161728,"distance":1436,"line":11,"is_transit":false,"station_name":"Kemayoran"},{"station_name":"Rajawali","time":5,"line":11,"station_id":"RJW","transit":false,"is_transit":false,"i_lat":-6.14505,"i_long":106.836569,"distance":1901},{"distance":1444,"is_transit":true,"station_id":"KPB","i_long":106.826365,"time":3,"station_name":"Kampung Bandan","line":4,"transit":true,"i_lat":-6.132549},{"distance":4102,"station_name":"Angke","transit":false,"line":1,"station_id":"AK","is_transit":false,"i_long":106.79867,"i_lat":-6.144674,"time":9}]]}