{"data":[[{"time":0,"is_transit":false,"station_id":"CC","distance":0,"line":3,"i_long":106.617853,"station_name":"Cicayur","transit":false,"i_lat":-6.329547},{"distance":2519,"i_lat":-6.32484,"is_transit":false,"station_id":"CSK","station_name":"Cisauk","transit":false,"time":4,"i_long":106.640411,"line":3},{"i_lat":-6.319871,"transit":false,"is_transit":false,"line":6,"station_id":"SRP","time":4,"station_name":"Serpong","i_long":106.66566,"distance":1784},{"station_name":"Rawa Buntu","i_lat":-6.314823,"time":4,"station_id":"RU","i_long":106.675475,"transit":false,"distance":2413,"is_transit":false,"line":6},{"line":6,"transit":false,"station_name":"Sudimara","is_transit":false,"distance":4566,"station_id":"SDM","i_lat":-6.296963,"time":6,"i_long":106.712277},{"line":6,"time":4,"i_long":106.728916,"distance":1994,"station_id":"JMU","station_name":"Jurangmangu","is_transit":false,"i_lat":-6.288927,"transit":false},{"i_long":106.74273,"station_id":"PDJ","is_transit":false,"station_name":"Pondokranji","i_lat":-6.276362,"time":3,"line":6,"transit":false,"distance":2179},{"transit":false,"line":6,"station_name":"Kebayoran","i_lat":-6.237242,"time":8,"distance":6218,"station_id":"KBY","is_transit":false,"i_long":106.780334},{"i_lat":-6.207404,"i_long":106.79689,"line":6,"distance":3737,"time":7,"is_transit":false,"transit":false,"station_id":"PLM","station_name":"Palmerah"},{"station_id":"THB","station_name":"Tanah Abang","transit":true,"i_lat":-6.185545,"is_transit":true,"line":1,"i_long":106.811091,"time":6,"distance":3191},{"distance":2029,"transit":false,"i_long":106.816351,"line":1,"i_lat":-6.20132,"time":5,"is_transit":false,"station_name":"Karet","station_id":"KAT"},{"is_transit":false,"line":1,"transit":false,"distance":471,"time":1,"station_name":"Sudirman Baru","station_id":"SUDB","i_lat":-6.201433,"i_long":106.819881},{"line":1,"station_id":"SUD","transit":false,"station_name":"Sudirman","distance":280,"i_lat":-6.202263,"i_long":106.822649,"time":1,"is_transit":false},{"line":2,"is_transit":false,"distance":3186,"station_id":"MRI","station_name":"Manggarai","i_long":106.84912,"i_lat":-6.209883,"transit":false,"time":4},{"station_name":"Matraman","station_id":"MTR","is_transit":false,"i_long":106.858896,"time":2,"line":1,"transit":false,"distance":1275,"i_lat":-6.212485},{"station_name":"Jatinegara","transit":false,"distance":1377,"time":8,"line":1,"station_id":"JNG","i_long":106.86807400000001,"i_lat":-6.215091,"is_transit":false},{"i_lat":-6.2135,"station_name":"Klender","is_transit":false,"i_long":106.899548,"time":3,"distance":3395,"transit":false,"station_id":"KLD","line":1},{"station_name":"Buaran","i_lat":-6.215568,"time":2,"station_id":"BUA","distance":3100,"transit":false,"i_long":106.922662,"line":1,"is_transit":false},{"station_id":"KLDB","is_transit":false,"time":1,"transit":false,"i_lat":-6.217455,"i_long":106.939679,"line":1,"station_name":"Klenderbaru","distance":1305},{"i_lat":-6.219053,"i_long":106.951283,"station_name":"Cakung","is_transit":false,"distance":1385,"time":8,"line":1,"transit":false,"station_id":"CUK"},{"i_lat":-6.224515,"is_transit":false,"distance":3097,"line":1,"station_id":"KRI","i_long":106.977657,"transit":false,"station_name":"Kranji","time":3},{"station_id":"BKS","station_name":"Bekasi","time":4,"line":1,"is_transit":false,"distance":2520,"i_long":106.997013,"i_lat":-6.236616,"transit":false}],[{"i_lat":-6.329547,"line":3,"i_long":106.617853,"station_id":"CC","is_transit":false,"station_name":"Cicayur","time":0,"distance":0,"transit":false},{"station_name":"Cisauk","time":4,"distance":2519,"line":3,"transit":false,"station_id":"CSK","is_transit":false,"i_long":106.640411,"i_lat":-6.32484},{"transit":false,"station_id":"SRP","distance":1784,"is_transit":false,"i_lat":-6.319871,"line":6,"station_name":"Serpong","time":4,"i_long":106.66566},{"is_transit":false,"line":6,"time":4,"station_id":"RU","transit":false,"i_long":106.675475,"station_name":"Rawa Buntu","i_lat":-6.314823,"distance":2413},{"line":6,"station_name":"Sudimara","station_id":"SDM","distance":4566,"time":6,"i_lat":-6.296963,"i_long":106.712277,"transit":false,"is_transit":false},{"station_id":"JMU","distance":1994,"time":4,"i_lat":-6.288927,"transit":false,"is_transit":false,"station_name":"Jurangmangu","i_long":106.728916,"line":6},{"distance":2179,"station_name":"Pondokranji","time":3,"i_long":106.74273,"line":6,"station_id":"PDJ","i_lat":-6.276362,"transit":false,"is_transit":false},{"transit":false,"station_name":"Kebayoran","i_long":106.780334,"line":6,"is_transit":false,"station_id":"KBY","distance":6218,"i_lat":-6.237242,"time":8},{"i_lat":-6.207404,"line":6,"time":7,"is_transit":false,"distance":3737,"i_long":106.79689,"station_id":"PLM","transit":false,"station_name":"Palmerah"},{"transit":true,"station_name":"Tanah Abang","is_transit":true,"i_long":106.811091,"time":6,"line":1,"station_id":"THB","i_lat":-6.185545,"distance":3191},{"is_transit":false,"i_long":106.800832,"station_name":"Duri","distance":3632,"transit":false,"station_id":"DU","time":8,"line":1,"i_lat":-6.155215},{"station_name":"Angke","is_transit":false,"line":1,"i_lat":-6.144674,"distance":1230,"station_id":"AK","time":4,"i_long":106.79867,"transit":false},{"time":9,"i_long":106.826365,"station_name":"Kampung Bandan","i_lat":-6.132549,"station_id":"KPB","is_transit":true,"line":4,"transit":true,"distance":4102},{"station_id":"RJW","transit":false,"station_name":"Rajawali","is_transit":false,"line":11,"time":3,"i_long":106.836569,"i_lat":-6.14505,"distance":1444},{"i_lat":-6.161728,"time":5,"i_long":106.839204,"station_name":"Kemayoran","distance":1901,"transit":false,"station_id":"KMO","is_transit":false,"line":11},{"transit":false,"distance":1436,"is_transit":false,"i_long":106.84368,"station_name":"Pasar Senen","i_lat":-6.174784,"station_id":"PSE","line":11,"time":4},{"time":8,"i_long":106.850107,"i_lat":-6.185975,"station_id":"GST","station_name":"Gang Sentiong","line":11,"transit":false,"distance":1567,"is_transit":false},{"transit":false,"station_name":"Kramat","time":1,"distance":973,"station_id":"KMT","i_lat":-6.193792,"is_transit":false,"line":11,"i_long":106.855437},{"transit":false,"distance":1829,"station_name":"Pondok Jati","station_id":"POK","is_transit":false,"time":2,"i_lat":-6.209188,"i_long":106.861737,"line":11},{"i_lat":-6.215091,"i_long":106.86807400000001,"transit":true,"line":1,"time":9,"distance":1236,"station_name":"Jatinegara","station_id":"JNG","is_transit":true},{"time":3,"station_id":"KLD","line":1,"distance":3395,"i_long":106.899548,"i_lat":-6.2135,"station_name":"Klender","transit":false,"is_transit":false},{"i_lat":-6.215568,"i_long":106.922662,"station_name":"Buaran","transit":false,"is_transit":false,"distance":3100,"station_id":"BUA","time":2,"line":1},{"station_id":"KLDB","line":1,"station_name":"Klenderbaru","distance":1305,"i_lat":-6.217455,"i_long":106.939679,"time":1,"is_transit":false,"transit":false},{"transit":false,"i_lat":-6.219053,"time":8,"line":1,"is_transit":false,"station_name":"Cakung","station_id":"CUK","distance":1385,"i_long":106.951283},{"i_long":106.977657,"transit":false,"station_id":"KRI","station_name":"Kranji","distance":3097,"i_lat":-6.224515,"time":3,"line":1,"is_transit":false},{"transit":false,"station_id":"BKS","is_transit":false,"distance":2520,"time":4,"station_name":"Bekasi","i_lat":-6.236616,"i_long":106.997013,"line":1}],[{"line":3,"transit":false,"time":0,"i_long":106.617853,"is_transit":false,"station_name":"Cicayur","distance":0,"station_id":"CC","i_lat":-6.329547},{"station_name":"Cisauk","is_transit":false,"transit":false,"station_id":"CSK","time":4,"i_long":106.640411,"line":3,"distance":2519,"i_lat":-6.32484},{"station_id":"SRP","time":4,"line":6,"distance":1784,"i_long":106.66566,"station_name":"Serpong","i_lat":-6.319871,"transit":false,"is_transit":false},{"distance":2413,"station_id":"RU","time":4,"i_lat":-6.314823,"i_long":106.675475,"station_name":"Rawa Buntu","transit":false,"is_transit":false,"line":6},{"i_lat":-6.296963,"station_name":"Sudimara","station_id":"SDM","i_long":106.712277,"is_transit":false,"line":6,"transit":false,"distance":4566,"time":6},{"station_name":"Jurangmangu","distance":1994,"line":6,"transit":false,"time":4,"i_long":106.728916,"station_id":"JMU","is_transit":false,"i_lat":-6.288927},{"station_id":"PDJ","is_transit":false,"distance":2179,"i_lat":-6.276362,"line":6,"i_long":106.74273,"station_name":"Pondokranji","time":3,"transit":false},{"station_id":"KBY","i_long":106.780334,"i_lat":-6.237242,"transit":false,"station_name":"Kebayoran","distance":6218,"is_transit":false,"time":8,"line":6},{"station_id":"PLM","station_name":"Palmerah","i_lat":-6.207404,"i_long":106.79689,"is_transit":false,"distance":3737,"time":7,"transit":false,"line":6},{"distance":3191,"station_id":"THB","i_long":106.811091,"time":6,"line":1,"transit":true,"is_transit":true,"station_name":"Tanah Abang","i_lat":-6.185545},{"line":1,"i_lat":-6.155215,"time":8,"transit":false,"distance":3632,"i_long":106.800832,"station_name":"Duri","station_id":"DU","is_transit":false},{"distance":1230,"line":1,"transit":false,"station_id":"AK","station_name":"Angke","time":4,"i_long":106.79867,"is_transit":false,"i_lat":-6.144674},{"station_name":"Kampung Bandan","is_transit":true,"line":4,"distance":4102,"transit":true,"i_lat":-6.132549,"i_long":106.826365,"time":9,"station_id":"KPB"},{"is_transit":true,"i_long":106.812439,"line":2,"transit":true,"station_id":"JAKK","station_name":"Jakarta Kota","time":3,"i_lat":-6.137569,"distance":1364},{"station_id":"JAY","time":4,"transit":false,"distance":1264,"i_lat":-6.141205,"line":2,"is_transit":false,"station_name":"Jayakarta","i_long":106.820901},{"distance":1080,"i_lat":-6.149769,"station_id":"MGB","transit":false,"is_transit":false,"time":2,"station_name":"Manggabesar","line":2,"i_long":106.82482},{"i_lat":-6.160725,"station_id":"SW","i_long":106.827103,"time":2,"line":2,"transit":false,"station_name":"Sawah Besar","is_transit":false,"distance":906},{"line":2,"i_lat":-6.166716,"is_transit":false,"distance":1149,"i_long":106.828284,"station_name":"Juanda","station_id":"JUA","time":2,"transit":false},{"i_lat":-6.186295,"time":4,"line":2,"i_long":106.832183,"is_transit":false,"transit":false,"station_id":"GDD","station_name":"Gondangdia","distance":2015},{"station_name":"Cikini","i_long":106.840169,"line":2,"station_id":"CKI","is_transit":false,"distance":1750,"time":3,"i_lat":-6.198556,"transit":false},{"station_name":"Manggarai","station_id":"MRI","line":2,"time":4,"i_lat":-6.209883,"i_long":106.84912,"transit":true,"is_transit":true,"distance":1590},{"distance":1275,"i_long":106.858896,"line":1,"station_id":"MTR","is_transit":false,"transit":false,"station_name":"Matraman","time":2,"i_lat":-6.212485},{"transit":false,"station_name":"Jatinegara","i_long":106.86807400000001,"i_lat":-6.215091,"time":8,"distance":1377,"station_id":"JNG","is_transit":false,"line":1},{"i_lat":-6.2135,"distance":3395,"transit":false,"time":3,"i_long":106.899548,"is_transit":false,"station_name":"Klender","line":1,"station_id":"KLD"},{"i_long":106.922662,"station_id":"BUA","is_transit":false,"distance":3100,"time":2,"line":1,"station_name":"Buaran","i_lat":-6.215568,"transit":false},{"i_lat":-6.217455,"is_transit":false,"time":1,"line":1,"transit":false,"station_id":"KLDB","station_name":"Klenderbaru","distance":1305,"i_long":106.939679},{"transit":false,"station_id":"CUK","i_lat":-6.219053,"is_transit":false,"line":1,"distance":1385,"station_name":"Cakung","time":8,"i_long":106.951283},{"transit":false,"distance":3097,"i_long":106.977657,"station_name":"Kranji","is_transit":false,"station_id":"KRI","line":1,"time":3,"i_lat":-6.224515},{"i_long":106.997013,"i_lat":-6.236616,"is_transit":false,"station_id":"BKS","station_name":"Bekasi","time":4,"transit":false,"distance":2520,"line":1}],[{"distance":0,"line":3,"transit":false,"is_transit":false,"station_id":"CC","i_lat":-6.329547,"time":0,"station_name":"Cicayur","i_long":106.617853},{"station_id":"CSK","line":3,"time":4,"is_transit":false,"i_lat":-6.32484,"distance":2519,"i_long":106.640411,"transit":false,"station_name":"Cisauk"},{"station_id":"SRP","line":6,"transit":false,"time":4,"station_name":"Serpong","i_long":106.66566,"i_lat":-6.319871,"distance":1784,"is_transit":false},{"station_name":"Rawa Buntu","is_transit":false,"i_long":106.675475,"line":6,"station_id":"RU","i_lat":-6.314823,"transit":false,"time":4,"distance":2413},{"i_long":106.712277,"station_name":"Sudimara","distance":4566,"transit":false,"i_lat":-6.296963,"line":6,"station_id":"SDM","is_transit":false,"time":6},{"station_name":"Jurangmangu","is_transit":false,"i_long":106.728916,"station_id":"JMU","distance":1994,"i_lat":-6.288927,"line":6,"transit":false,"time":4},{"is_transit":false,"station_id":"PDJ","line":6,"time":3,"transit":false,"station_name":"Pondokranji","distance":2179,"i_long":106.74273,"i_lat":-6.276362},{"transit":false,"station_id":"KBY","is_transit":false,"time":8,"distance":6218,"i_lat":-6.237242,"i_long":106.780334,"station_name":"Kebayoran","line":6},{"line":6,"is_transit":false,"time":7,"i_long":106.79689,"transit":false,"station_id":"PLM","station_name":"Palmerah","distance":3737,"i_lat":-6.207404},{"time":6,"transit":true,"station_name":"Tanah Abang","is_transit":true,"i_lat":-6.185545,"station_id":"THB","i_long":106.811091,"distance":3191,"line":1},{"station_id":"KAT","transit":false,"is_transit":false,"time":5,"distance":2029,"station_name":"Karet","i_lat":-6.20132,"i_long":106.816351,"line":1},{"transit":false,"time":1,"distance":471,"line":1,"station_name":"Sudirman Baru","i_lat":-6.201433,"i_long":106.819881,"station_id":"SUDB","is_transit":false},{"i_long":106.822649,"line":1,"is_transit":false,"transit":false,"distance":280,"station_id":"SUD","i_lat":-6.202263,"station_name":"Sudirman","time":1},{"station_name":"Manggarai","time":4,"is_transit":true,"i_lat":-6.209883,"distance":3186,"station_id":"MRI","i_long":106.84912,"line":2,"transit":true},{"i_lat":-6.198556,"transit":false,"distance":1590,"station_id":"CKI","is_transit":false,"i_long":106.840169,"station_name":"Cikini","line":2,"time":4},{"transit":false,"station_id":"GDD","is_transit":false,"time":3,"line":2,"station_name":"Gondangdia","distance":1750,"i_lat":-6.186295,"i_long":106.832183},{"is_transit":false,"station_name":"Juanda","distance":2015,"i_long":106.828284,"line":2,"time":4,"station_id":"JUA","i_lat":-6.166716,"transit":false},{"time":2,"line":2,"i_long":106.827103,"station_id":"SW","station_name":"Sawah Besar","i_lat":-6.160725,"is_transit":false,"distance":1149,"transit":false},{"time":2,"station_name":"Manggabesar","transit":false,"is_transit":false,"distance":906,"i_lat":-6.149769,"i_long":106.82482,"line":2,"station_id":"MGB"},{"station_name":"Jayakarta","time":2,"station_id":"JAY","distance":1080,"transit":false,"i_long":106.820901,"line":2,"is_transit":false,"i_lat":-6.141205},{"line":2,"is_transit":true,"transit":true,"station_id":"JAKK","i_lat":-6.137569,"station_name":"Jakarta Kota","distance":1264,"time":4,"i_long":106.812439},{"transit":true,"distance":1364,"line":4,"station_id":"KPB","i_lat":-6.132549,"i_long":106.826365,"is_transit":true,"time":3,"station_name":"Kampung Bandan"},{"transit":false,"i_lat":-6.14505,"station_id":"RJW","is_transit":false,"line":11,"distance":1444,"i_long":106.836569,"station_name":"Rajawali","time":3},{"time":5,"i_lat":-6.161728,"line":11,"transit":false,"i_long":106.839204,"station_name":"Kemayoran","distance":1901,"station_id":"KMO","is_transit":false},{"is_transit":false,"station_id":"PSE","station_name":"Pasar Senen","time":4,"distance":1436,"line":11,"i_lat":-6.174784,"transit":false,"i_long":106.84368},{"i_lat":-6.185975,"station_id":"GST","time":8,"line":11,"is_transit":false,"distance":1567,"i_long":106.850107,"transit":false,"station_name":"Gang Sentiong"},{"station_id":"KMT","line":11,"transit":false,"station_name":"Kramat","time":1,"is_transit":false,"i_long":106.855437,"distance":973,"i_lat":-6.193792},{"is_transit":false,"i_long":106.861737,"transit":false,"station_id":"POK","i_lat":-6.209188,"station_name":"Pondok Jati","distance":1829,"time":2,"line":11},{"i_long":106.86807400000001,"time":9,"i_lat":-6.215091,"transit":true,"distance":1236,"is_transit":true,"line":1,"station_name":"Jatinegara","station_id":"JNG"},{"station_name":"Klender","distance":3395,"i_long":106.899548,"time":3,"i_lat":-6.2135,"transit":false,"is_transit":false,"station_id":"KLD","line":1},{"time":2,"station_name":"Buaran","line":1,"i_lat":-6.215568,"distance":3100,"transit":false,"is_transit":false,"station_id":"BUA","i_long":106.922662},{"station_name":"Klenderbaru","is_transit":false,"time":1,"i_long":106.939679,"line":1,"i_lat":-6.217455,"station_id":"KLDB","transit":false,"distance":1305},{"station_name":"Cakung","distance":1385,"station_id":"CUK","is_transit":false,"transit":false,"time":8,"i_lat":-6.219053,"i_long":106.951283,"line":1},{"i_long":106.977657,"station_id":"KRI","transit":false,"line":1,"station_name":"Kranji","is_transit":false,"i_lat":-6.224515,"time":3,"distance":3097},{"is_transit":false,"transit":false,"i_lat":-6.236616,"distance":2520,"station_name":"Bekasi","i_long":106.997013,"line":1,"time":4,"station_id":"BKS"}]]}