{"data":[[{"station_id":"CC","station_name":"Cicayur","i_long":106.617853,"line":3,"distance":0,"transit":false,"is_transit":false,"time":0,"i_lat":-6.329547},{"transit":false,"distance":2519,"i_long":106.640411,"station_name":"Cisauk","line":3,"time":4,"i_lat":-6.32484,"station_id":"CSK","is_transit":false},{"i_lat":-6.319871,"i_long":106.66566,"line":6,"is_transit":false,"time":4,"transit":false,"station_name":"Serpong","station_id":"SRP","distance":1784},{"i_long":106.675475,"is_transit":false,"time":4,"i_lat":-6.314823,"distance":2413,"station_name":"Rawa Buntu","transit":false,"line":6,"station_id":"RU"},{"line":6,"is_transit":false,"station_name":"Sudimara","station_id":"SDM","distance":4566,"transit":false,"i_lat":-6.296963,"time":6,"i_long":106.712277},{"i_long":106.728916,"transit":false,"line":6,"distance":1994,"station_name":"Jurangmangu","station_id":"JMU","is_transit":false,"time":4,"i_lat":-6.288927},{"transit":false,"i_long":106.74273,"station_name":"Pondokranji","is_transit":false,"station_id":"PDJ","line":6,"time":3,"distance":2179,"i_lat":-6.276362},{"station_id":"KBY","is_transit":false,"time":8,"line":6,"i_long":106.780334,"i_lat":-6.237242,"station_name":"Kebayoran","distance":6218,"transit":false},{"time":7,"i_long":106.79689,"line":6,"i_lat":-6.207404,"station_id":"PLM","transit":false,"station_name":"Palmerah","distance":3737,"is_transit":false},{"is_transit":true,"distance":3191,"i_lat":-6.185545,"transit":true,"time":6,"station_id":"THB","station_name":"Tanah Abang","i_long":106.811091,"line":1},{"transit":false,"station_name":"Karet","distance":2029,"i_long":106.816351,"time":5,"station_id":"KAT","i_lat":-6.20132,"line":1,"is_transit":false},{"station_id":"SUDB","i_long":106.819881,"time":1,"i_lat":-6.201433,"is_transit":false,"transit":false,"station_name":"Sudirman Baru","line":1,"distance":471},{"station_name":"Sudirman","line":1,"station_id":"SUD","is_transit":false,"time":1,"i_lat":-6.202263,"transit":false,"i_long":106.822649,"distance":280},{"is_transit":false,"distance":3186,"station_id":"MRI","transit":false,"i_lat":-6.209883,"line":2,"time":4,"i_long":106.84912,"station_name":"Manggarai"},{"transit":false,"distance":1275,"station_name":"Matraman","is_transit":false,"station_id":"MTR","i_lat":-6.212485,"line":1,"time":2,"i_long":106.858896},{"transit":false,"time":8,"line":1,"i_long":106.86807400000001,"distance":1377,"i_lat":-6.215091,"station_name":"Jatinegara","station_id":"JNG","is_transit":false},{"distance":3395,"transit":false,"station_id":"KLD","i_lat":-6.2135,"line":1,"i_long":106.899548,"station_name":"Klender","time":3,"is_transit":false},{"line":1,"distance":3100,"station_name":"Buaran","is_transit":false,"time":2,"i_lat":-6.215568,"station_id":"BUA","transit":false,"i_long":106.922662},{"i_lat":-6.217455,"i_long":106.939679,"station_name":"Klenderbaru","line":1,"distance":1305,"is_transit":false,"transit":false,"station_id":"KLDB","time":1},{"transit":false,"line":1,"distance":1385,"station_id":"CUK","is_transit":false,"i_lat":-6.219053,"station_name":"Cakung","i_long":106.951283,"time":8},{"distance":3097,"time":3,"station_name":"Kranji","i_long":106.977657,"i_lat":-6.224515,"line":1,"station_id":"KRI","is_transit":false,"transit":false},{"station_name":"Bekasi","is_transit":false,"i_lat":-6.236616,"i_long":106.997013,"distance":2520,"time":4,"station_id":"BKS","line":1,"transit":false}],[{"distance":0,"i_long":106.617853,"line":3,"is_transit":false,"i_lat":-6.329547,"transit":false,"station_name":"Cicayur","time":0,"station_id":"CC"},{"distance":2519,"i_lat":-6.32484,"i_long":106.640411,"station_id":"CSK","time":4,"transit":false,"station_name":"Cisauk","is_transit":false,"line":3},{"line":6,"time":4,"station_id":"SRP","i_long":106.66566,"station_name":"Serpong","transit":false,"i_lat":-6.319871,"distance":1784,"is_transit":false},{"is_transit":false,"station_name":"Rawa Buntu","station_id":"RU","time":4,"i_lat":-6.314823,"i_long":106.675475,"transit":false,"line":6,"distance":2413},{"time":6,"station_id":"SDM","i_lat":-6.296963,"i_long":106.712277,"transit":false,"station_name":"Sudimara","is_transit":false,"distance":4566,"line":6},{"is_transit":false,"station_id":"JMU","transit":false,"time":4,"distance":1994,"line":6,"i_lat":-6.288927,"station_name":"Jurangmangu","i_long":106.728916},{"transit":false,"station_name":"Pondokranji","station_id":"PDJ","distance":2179,"line":6,"i_long":106.74273,"is_transit":false,"i_lat":-6.276362,"time":3},{"distance":6218,"line":6,"time":8,"i_lat":-6.237242,"station_id":"KBY","station_name":"Kebayoran","is_transit":false,"i_long":106.780334,"transit":false},{"i_long":106.79689,"station_name":"Palmerah","station_id":"PLM","is_transit":false,"i_lat":-6.207404,"time":7,"transit":false,"distance":3737,"line":6},{"distance":3191,"i_lat":-6.185545,"is_transit":true,"time":6,"transit":true,"line":1,"station_name":"Tanah Abang","station_id":"THB","i_long":106.811091},{"i_lat":-6.155215,"line":1,"is_transit":false,"station_name":"Duri","time":8,"distance":3632,"i_long":106.800832,"transit":false,"station_id":"DU"},{"i_lat":-6.144674,"distance":1230,"time":4,"i_long":106.79867,"station_name":"Angke","is_transit":false,"transit":false,"line":1,"station_id":"AK"},{"station_id":"KPB","station_name":"Kampung Bandan","i_long":106.826365,"transit":true,"time":9,"i_lat":-6.132549,"distance":4102,"line":4,"is_transit":true},{"distance":1444,"i_lat":-6.14505,"line":11,"station_id":"RJW","i_long":106.836569,"transit":false,"time":3,"station_name":"Rajawali","is_transit":false},{"is_transit":false,"i_lat":-6.161728,"i_long":106.839204,"line":11,"station_id":"KMO","time":5,"distance":1901,"transit":false,"station_name":"Kemayoran"},{"transit":false,"time":4,"is_transit":false,"station_id":"PSE","distance":1436,"i_lat":-6.174784,"line":11,"station_name":"Pasar Senen","i_long":106.84368},{"station_name":"Gang Sentiong","distance":1567,"i_lat":-6.185975,"station_id":"GST","is_transit":false,"time":8,"i_long":106.850107,"line":11,"transit":false},{"station_name":"Kramat","station_id":"KMT","i_lat":-6.193792,"is_transit":false,"distance":973,"i_long":106.855437,"time":1,"line":11,"transit":false},{"distance":1829,"station_id":"POK","time":2,"transit":false,"line":11,"i_long":106.861737,"is_transit":false,"i_lat":-6.209188,"station_name":"Pondok Jati"},{"line":1,"station_name":"Jatinegara","distance":1236,"transit":true,"station_id":"JNG","is_transit":true,"i_lat":-6.215091,"i_long":106.86807400000001,"time":9},{"station_id":"KLD","transit":false,"i_long":106.899548,"time":3,"distance":3395,"station_name":"Klender","is_transit":false,"i_lat":-6.2135,"line":1},{"is_transit":false,"distance":3100,"i_long":106.922662,"time":2,"line":1,"i_lat":-6.215568,"transit":false,"station_name":"Buaran","station_id":"BUA"},{"i_lat":-6.217455,"i_long":106.939679,"time":1,"station_name":"Klenderbaru","station_id":"KLDB","line":1,"transit":false,"is_transit":false,"distance":1305},{"station_id":"CUK","time":8,"i_lat":-6.219053,"is_transit":false,"i_long":106.951283,"station_name":"Cakung","transit":false,"distance":1385,"line":1},{"i_lat":-6.224515,"distance":3097,"i_long":106.977657,"is_transit":false,"station_name":"Kranji","station_id":"KRI","time":3,"line":1,"transit":false},{"i_lat":-6.236616,"transit":false,"time":4,"distance":2520,"station_name":"Bekasi","is_transit":false,"i_long":106.997013,"line":1,"station_id":"BKS"}],[{"transit":false,"time":0,"i_long":106.617853,"station_name":"Cicayur","station_id":"CC","distance":0,"is_transit":false,"i_lat":-6.329547,"line":3},{"line":3,"i_long":106.640411,"distance":2519,"is_transit":false,"i_lat":-6.32484,"time":4,"station_id":"CSK","transit":false,"station_name":"Cisauk"},{"time":4,"distance":1784,"i_lat":-6.319871,"station_id":"SRP","transit":false,"i_long":106.66566,"is_transit":false,"line":6,"station_name":"Serpong"},{"i_long":106.675475,"time":4,"i_lat":-6.314823,"transit":false,"station_id":"RU","station_name":"Rawa Buntu","line":6,"distance":2413,"is_transit":false},{"time":6,"station_id":"SDM","distance":4566,"i_lat":-6.296963,"i_long":106.712277,"station_name":"Sudimara","transit":false,"line":6,"is_transit":false},{"is_transit":false,"line":6,"transit":false,"station_name":"Jurangmangu","distance":1994,"i_lat":-6.288927,"i_long":106.728916,"time":4,"station_id":"JMU"},{"transit":false,"station_id":"PDJ","time":3,"distance":2179,"i_lat":-6.276362,"station_name":"Pondokranji","line":6,"is_transit":false,"i_long":106.74273},{"i_long":106.780334,"i_lat":-6.237242,"station_id":"KBY","is_transit":false,"time":8,"transit":false,"distance":6218,"line":6,"station_name":"Kebayoran"},{"station_name":"Palmerah","line":6,"transit":false,"is_transit":false,"i_long":106.79689,"time":7,"i_lat":-6.207404,"station_id":"PLM","distance":3737},{"line":1,"is_transit":true,"i_long":106.811091,"station_id":"THB","transit":true,"time":6,"i_lat":-6.185545,"distance":3191,"station_name":"Tanah Abang"},{"is_transit":false,"station_id":"DU","distance":3632,"line":1,"station_name":"Duri","i_lat":-6.155215,"time":8,"i_long":106.800832,"transit":false},{"is_transit":false,"i_lat":-6.144674,"station_name":"Angke","transit":false,"station_id":"AK","i_long":106.79867,"line":1,"time":4,"distance":1230},{"is_transit":true,"line":4,"i_long":106.826365,"station_id":"KPB","i_lat":-6.132549,"distance":4102,"station_name":"Kampung Bandan","time":9,"transit":true},{"line":2,"is_transit":true,"station_name":"Jakarta Kota","time":3,"transit":true,"distance":1364,"i_long":106.812439,"i_lat":-6.137569,"station_id":"JAKK"},{"is_transit":false,"station_name":"Jayakarta","line":2,"transit":false,"distance":1264,"i_long":106.820901,"station_id":"JAY","i_lat":-6.141205,"time":4},{"transit":false,"i_lat":-6.149769,"station_name":"Manggabesar","distance":1080,"is_transit":false,"time":2,"i_long":106.82482,"line":2,"station_id":"MGB"},{"distance":906,"i_lat":-6.160725,"station_name":"Sawah Besar","station_id":"SW","time":2,"transit":false,"i_long":106.827103,"line":2,"is_transit":false},{"station_name":"Juanda","is_transit":false,"line":2,"time":2,"i_long":106.828284,"transit":false,"station_id":"JUA","i_lat":-6.166716,"distance":1149},{"i_long":106.832183,"distance":2015,"station_id":"GDD","line":2,"transit":false,"is_transit":false,"i_lat":-6.186295,"time":4,"station_name":"Gondangdia"},{"transit":false,"line":2,"i_lat":-6.198556,"time":3,"distance":1750,"station_id":"CKI","is_transit":false,"i_long":106.840169,"station_name":"Cikini"},{"station_id":"MRI","time":4,"line":2,"i_lat":-6.209883,"i_long":106.84912,"station_name":"Manggarai","is_transit":true,"distance":1590,"transit":true},{"station_name":"Matraman","station_id":"MTR","distance":1275,"i_long":106.858896,"transit":false,"i_lat":-6.212485,"is_transit":false,"line":1,"time":2},{"transit":false,"station_name":"Jatinegara","i_lat":-6.215091,"is_transit":false,"line":1,"time":8,"i_long":106.86807400000001,"station_id":"JNG","distance":1377},{"station_id":"KLD","is_transit":false,"line":1,"distance":3395,"time":3,"i_long":106.899548,"transit":false,"station_name":"Klender","i_lat":-6.2135},{"i_long":106.922662,"transit":false,"station_id":"BUA","i_lat":-6.215568,"time":2,"station_name":"Buaran","distance":3100,"is_transit":false,"line":1},{"station_name":"Klenderbaru","i_lat":-6.217455,"distance":1305,"time":1,"station_id":"KLDB","i_long":106.939679,"is_transit":false,"line":1,"transit":false},{"time":8,"station_id":"CUK","i_long":106.951283,"station_name":"Cakung","line":1,"i_lat":-6.219053,"distance":1385,"transit":false,"is_transit":false},{"i_long":106.977657,"line":1,"distance":3097,"station_id":"KRI","is_transit":false,"transit":false,"station_name":"Kranji","time":3,"i_lat":-6.224515},{"station_name":"Bekasi","station_id":"BKS","is_transit":false,"distance":2520,"i_lat":-6.236616,"i_long":106.997013,"time":4,"transit":false,"line":1}],[{"station_id":"CC","i_long":106.617853,"station_name":"Cicayur","time":0,"is_transit":false,"i_lat":-6.329547,"distance":0,"transit":false,"line":3},{"station_id":"CSK","i_long":106.640411,"time":4,"transit":false,"line":3,"is_transit":false,"distance":2519,"i_lat":-6.32484,"station_name":"Cisauk"},{"transit":false,"line":6,"i_lat":-6.319871,"station_id":"SRP","station_name":"Serpong","i_long":106.66566,"is_transit":false,"distance":1784,"time":4},{"time":4,"transit":false,"is_transit":false,"line":6,"distance":2413,"i_long":106.675475,"i_lat":-6.314823,"station_id":"RU","station_name":"Rawa Buntu"},{"distance":4566,"i_lat":-6.296963,"i_long":106.712277,"time":6,"station_name":"Sudimara","is_transit":false,"line":6,"transit":false,"station_id":"SDM"},{"i_long":106.728916,"station_id":"JMU","is_transit":false,"i_lat":-6.288927,"line":6,"transit":false,"station_name":"Jurangmangu","distance":1994,"time":4},{"station_id":"PDJ","is_transit":false,"distance":2179,"time":3,"i_long":106.74273,"station_name":"Pondokranji","transit":false,"line":6,"i_lat":-6.276362},{"station_name":"Kebayoran","time":8,"i_lat":-6.237242,"i_long":106.780334,"transit":false,"is_transit":false,"distance":6218,"station_id":"KBY","line":6},{"time":7,"distance":3737,"line":6,"is_transit":false,"transit":false,"station_id":"PLM","i_lat":-6.207404,"i_long":106.79689,"station_name":"Palmerah"},{"time":6,"distance":3191,"line":1,"transit":true,"station_id":"THB","station_name":"Tanah Abang","i_long":106.811091,"is_transit":true,"i_lat":-6.185545},{"station_name":"Karet","transit":false,"i_lat":-6.20132,"is_transit":false,"time":5,"distance":2029,"station_id":"KAT","line":1,"i_long":106.816351},{"i_long":106.819881,"line":1,"station_id":"SUDB","is_transit":false,"time":1,"distance":471,"transit":false,"station_name":"Sudirman Baru","i_lat":-6.201433},{"i_long":106.822649,"is_transit":false,"distance":280,"i_lat":-6.202263,"time":1,"line":1,"transit":false,"station_name":"Sudirman","station_id":"SUD"},{"i_lat":-6.209883,"distance":3186,"is_transit":true,"station_name":"Manggarai","station_id":"MRI","transit":true,"line":2,"time":4,"i_long":106.84912},{"station_id":"CKI","distance":1590,"is_transit":false,"i_long":106.840169,"time":4,"i_lat":-6.198556,"line":2,"station_name":"Cikini","transit":false},{"transit":false,"i_long":106.832183,"time":3,"station_id":"GDD","line":2,"distance":1750,"station_name":"Gondangdia","is_transit":false,"i_lat":-6.186295},{"transit":false,"time":4,"i_lat":-6.166716,"distance":2015,"i_long":106.828284,"station_name":"Juanda","station_id":"JUA","is_transit":false,"line":2},{"is_transit":false,"time":2,"transit":false,"station_name":"Sawah Besar","i_lat":-6.160725,"station_id":"SW","line":2,"distance":1149,"i_long":106.827103},{"station_id":"MGB","i_lat":-6.149769,"time":2,"station_name":"Manggabesar","i_long":106.82482,"transit":false,"distance":906,"line":2,"is_transit":false},{"time":2,"station_name":"Jayakarta","i_long":106.820901,"is_transit":false,"transit":false,"station_id":"JAY","distance":1080,"i_lat":-6.141205,"line":2},{"i_long":106.812439,"line":2,"i_lat":-6.137569,"time":4,"transit":true,"station_name":"Jakarta Kota","station_id":"JAKK","distance":1264,"is_transit":true},{"is_transit":true,"time":3,"distance":1364,"line":4,"station_id":"KPB","transit":true,"station_name":"Kampung Bandan","i_lat":-6.132549,"i_long":106.826365},{"i_long":106.836569,"line":11,"transit":false,"station_name":"Rajawali","is_transit":false,"distance":1444,"time":3,"i_lat":-6.14505,"station_id":"RJW"},{"is_transit":false,"time":5,"station_id":"KMO","i_lat":-6.161728,"station_name":"Kemayoran","i_long":106.839204,"line":11,"distance":1901,"transit":false},{"station_id":"PSE","i_lat":-6.174784,"is_transit":false,"time":4,"distance":1436,"station_name":"Pasar Senen","i_long":106.84368,"transit":false,"line":11},{"station_id":"GST","time":8,"transit":false,"distance":1567,"station_name":"Gang Sentiong","i_long":106.850107,"line":11,"i_lat":-6.185975,"is_transit":false},{"transit":false,"station_id":"KMT","is_transit":false,"time":1,"distance":973,"i_lat":-6.193792,"i_long":106.855437,"station_name":"Kramat","line":11},{"time":2,"distance":1829,"i_long":106.861737,"station_id":"POK","line":11,"station_name":"Pondok Jati","is_transit":false,"i_lat":-6.209188,"transit":false},{"line":1,"station_id":"JNG","time":9,"i_lat":-6.215091,"is_transit":true,"distance":1236,"transit":true,"station_name":"Jatinegara","i_long":106.86807400000001},{"time":3,"transit":false,"line":1,"is_transit":false,"station_name":"Klender","distance":3395,"i_lat":-6.2135,"i_long":106.899548,"station_id":"KLD"},{"distance":3100,"is_transit":false,"line":1,"station_name":"Buaran","i_lat":-6.215568,"transit":false,"time":2,"i_long":106.922662,"station_id":"BUA"},{"i_long":106.939679,"i_lat":-6.217455,"line":1,"station_id":"KLDB","transit":false,"station_name":"Klenderbaru","distance":1305,"is_transit":false,"time":1},{"time":8,"i_lat":-6.219053,"station_id":"CUK","is_transit":false,"i_long":106.951283,"transit":false,"station_name":"Cakung","distance":1385,"line":1},{"station_name":"Kranji","i_lat":-6.224515,"is_transit":false,"i_long":106.977657,"time":3,"line":1,"transit":false,"station_id":"KRI","distance":3097},{"is_transit":false,"distance":2520,"station_id":"BKS","line":1,"i_long":106.997013,"time":4,"transit":false,"station_name":"Bekasi","i_lat":-6.236616}]]}