{"data":[[{"i_long":106.617853,"line":3,"is_transit":false,"distance":0,"time":0,"transit":false,"i_lat":-6.329547,"station_name":"Cicayur","station_id":"CC"},{"is_transit":false,"line":3,"i_lat":-6.32484,"station_id":"CSK","transit":false,"station_name":"Cisauk","distance":2519,"time":4,"i_long":106.640411},{"station_id":"SRP","line":6,"i_long":106.66566,"station_name":"Serpong","transit":false,"time":4,"i_lat":-6.319871,"is_transit":false,"distance":1784},{"station_name":"Rawa Buntu","is_transit":false,"transit":false,"i_long":106.675475,"distance":2413,"time":4,"i_lat":-6.314823,"line":6,"station_id":"RU"},{"distance":4566,"time":6,"transit":false,"is_transit":false,"i_lat":-6.296963,"i_long":106.712277,"station_name":"Sudimara","line":6,"station_id":"SDM"},{"i_long":106.728916,"is_transit":false,"station_id":"JMU","line":6,"transit":false,"distance":1994,"station_name":"Jurangmangu","i_lat":-6.288927,"time":4},{"is_transit":false,"distance":2179,"line":6,"time":3,"i_lat":-6.276362,"station_name":"Pondokranji","transit":false,"i_long":106.74273,"station_id":"PDJ"},{"i_lat":-6.237242,"line":6,"is_transit":false,"transit":false,"station_name":"Kebayoran","i_long":106.780334,"time":8,"distance":6218,"station_id":"KBY"},{"is_transit":false,"station_name":"Palmerah","station_id":"PLM","line":6,"distance":3737,"i_long":106.79689,"transit":false,"i_lat":-6.207404,"time":7},{"i_lat":-6.185545,"station_id":"THB","time":6,"transit":true,"i_long":106.811091,"station_name":"Tanah Abang","line":1,"distance":3191,"is_transit":true},{"transit":false,"i_lat":-6.20132,"i_long":106.816351,"line":1,"time":5,"station_name":"Karet","is_transit":false,"distance":2029,"station_id":"KAT"},{"i_lat":-6.201433,"line":1,"station_id":"SUDB","distance":471,"is_transit":false,"station_name":"Sudirman Baru","time":1,"transit":false,"i_long":106.819881},{"station_name":"Sudirman","is_transit":false,"station_id":"SUD","i_lat":-6.202263,"distance":280,"line":1,"transit":false,"time":1,"i_long":106.822649},{"transit":false,"station_id":"MRI","station_name":"Manggarai","i_long":106.84912,"time":4,"distance":3186,"is_transit":false,"i_lat":-6.209883,"line":2},{"station_name":"Matraman","time":2,"distance":1275,"transit":false,"station_id":"MTR","i_lat":-6.212485,"i_long":106.858896,"line":1,"is_transit":false},{"transit":false,"distance":1377,"station_id":"JNG","line":1,"station_name":"Jatinegara","is_transit":false,"time":8,"i_lat":-6.215091,"i_long":106.86807400000001},{"distance":3395,"is_transit":false,"time":3,"transit":false,"station_id":"KLD","line":1,"station_name":"Klender","i_lat":-6.2135,"i_long":106.899548},{"transit":false,"distance":3100,"is_transit":false,"line":1,"i_long":106.922662,"station_name":"Buaran","i_lat":-6.215568,"station_id":"BUA","time":2},{"i_long":106.939679,"time":1,"is_transit":false,"station_name":"Klenderbaru","distance":1305,"station_id":"KLDB","i_lat":-6.217455,"transit":false,"line":1},{"transit":false,"station_name":"Cakung","line":1,"time":8,"is_transit":false,"distance":1385,"station_id":"CUK","i_long":106.951283,"i_lat":-6.219053},{"station_name":"Kranji","is_transit":false,"distance":3097,"time":3,"line":1,"station_id":"KRI","transit":false,"i_long":106.977657,"i_lat":-6.224515},{"station_id":"BKS","transit":false,"i_lat":-6.236616,"i_long":106.997013,"station_name":"Bekasi","is_transit":false,"time":4,"distance":2520,"line":1}],[{"station_id":"CC","distance":0,"i_lat":-6.329547,"is_transit":false,"station_name":"Cicayur","transit":false,"time":0,"i_long":106.617853,"line":3},{"transit":false,"is_transit":false,"line":3,"i_long":106.640411,"station_id":"CSK","time":4,"distance":2519,"i_lat":-6.32484,"station_name":"Cisauk"},{"i_lat":-6.319871,"i_long":106.66566,"time":4,"is_transit":false,"line":6,"transit":false,"distance":1784,"station_id":"SRP","station_name":"Serpong"},{"line":6,"transit":false,"station_id":"RU","distance":2413,"time":4,"i_long":106.675475,"i_lat":-6.314823,"is_transit":false,"station_name":"Rawa Buntu"},{"is_transit":false,"transit":false,"distance":4566,"station_id":"SDM","time":6,"line":6,"station_name":"Sudimara","i_lat":-6.296963,"i_long":106.712277},{"station_id":"JMU","station_name":"Jurangmangu","is_transit":false,"distance":1994,"i_lat":-6.288927,"time":4,"i_long":106.728916,"line":6,"transit":false},{"is_transit":false,"time":3,"line":6,"distance":2179,"transit":false,"i_lat":-6.276362,"station_id":"PDJ","station_name":"Pondokranji","i_long":106.74273},{"station_id":"KBY","station_name":"Kebayoran","is_transit":false,"distance":6218,"i_lat":-6.237242,"i_long":106.780334,"line":6,"transit":false,"time":8},{"distance":3737,"time":7,"station_name":"Palmerah","line":6,"i_long":106.79689,"station_id":"PLM","transit":false,"is_transit":false,"i_lat":-6.207404},{"is_transit":true,"line":1,"time":6,"distance":3191,"station_id":"THB","i_lat":-6.185545,"i_long":106.811091,"transit":true,"station_name":"Tanah Abang"},{"distance":3632,"line":1,"transit":false,"i_long":106.800832,"station_id":"DU","is_transit":false,"time":8,"i_lat":-6.155215,"station_name":"Duri"},{"distance":1230,"i_lat":-6.144674,"transit":false,"i_long":106.79867,"station_id":"AK","time":4,"is_transit":false,"line":1,"station_name":"Angke"},{"line":4,"i_long":106.826365,"is_transit":true,"transit":true,"time":9,"distance":4102,"i_lat":-6.132549,"station_name":"Kampung Bandan","station_id":"KPB"},{"line":11,"i_lat":-6.14505,"i_long":106.836569,"distance":1444,"station_id":"RJW","transit":false,"is_transit":false,"time":3,"station_name":"Rajawali"},{"i_lat":-6.161728,"time":5,"i_long":106.839204,"is_transit":false,"transit":false,"station_name":"Kemayoran","line":11,"distance":1901,"station_id":"KMO"},{"station_name":"Pasar Senen","is_transit":false,"time":4,"line":11,"transit":false,"distance":1436,"station_id":"PSE","i_long":106.84368,"i_lat":-6.174784},{"line":11,"transit":false,"time":8,"i_lat":-6.185975,"i_long":106.850107,"station_id":"GST","station_name":"Gang Sentiong","distance":1567,"is_transit":false},{"i_lat":-6.193792,"transit":false,"line":11,"is_transit":false,"i_long":106.855437,"station_name":"Kramat","time":1,"station_id":"KMT","distance":973},{"transit":false,"station_id":"POK","i_lat":-6.209188,"time":2,"i_long":106.861737,"distance":1829,"line":11,"station_name":"Pondok Jati","is_transit":false},{"station_id":"JNG","is_transit":true,"station_name":"Jatinegara","time":9,"distance":1236,"i_lat":-6.215091,"i_long":106.86807400000001,"transit":true,"line":1},{"time":3,"station_id":"KLD","station_name":"Klender","is_transit":false,"i_lat":-6.2135,"i_long":106.899548,"line":1,"transit":false,"distance":3395},{"transit":false,"is_transit":false,"distance":3100,"time":2,"station_id":"BUA","i_lat":-6.215568,"line":1,"i_long":106.922662,"station_name":"Buaran"},{"station_name":"Klenderbaru","i_long":106.939679,"station_id":"KLDB","line":1,"time":1,"i_lat":-6.217455,"distance":1305,"transit":false,"is_transit":false},{"time":8,"is_transit":false,"distance":1385,"station_name":"Cakung","i_long":106.951283,"station_id":"CUK","i_lat":-6.219053,"transit":false,"line":1},{"station_id":"KRI","distance":3097,"i_lat":-6.224515,"line":1,"station_name":"Kranji","transit":false,"time":3,"i_long":106.977657,"is_transit":false},{"is_transit":false,"line":1,"station_name":"Bekasi","station_id":"BKS","time":4,"distance":2520,"i_lat":-6.236616,"transit":false,"i_long":106.997013}],[{"i_long":106.617853,"station_name":"Cicayur","time":0,"distance":0,"is_transit":false,"station_id":"CC","i_lat":-6.329547,"transit":false,"line":3},{"time":4,"i_long":106.640411,"is_transit":false,"station_name":"Cisauk","transit":false,"distance":2519,"station_id":"CSK","line":3,"i_lat":-6.32484},{"is_transit":false,"station_id":"SRP","station_name":"Serpong","time":4,"i_long":106.66566,"transit":false,"distance":1784,"line":6,"i_lat":-6.319871},{"is_transit":false,"distance":2413,"i_lat":-6.314823,"line":6,"i_long":106.675475,"transit":false,"time":4,"station_id":"RU","station_name":"Rawa Buntu"},{"station_name":"Sudimara","time":6,"transit":false,"distance":4566,"station_id":"SDM","i_lat":-6.296963,"i_long":106.712277,"is_transit":false,"line":6},{"i_lat":-6.288927,"i_long":106.728916,"station_name":"Jurangmangu","station_id":"JMU","line":6,"transit":false,"distance":1994,"is_transit":false,"time":4},{"i_lat":-6.276362,"line":6,"distance":2179,"station_name":"Pondokranji","i_long":106.74273,"transit":false,"station_id":"PDJ","is_transit":false,"time":3},{"time":8,"i_lat":-6.237242,"line":6,"distance":6218,"i_long":106.780334,"station_id":"KBY","transit":false,"station_name":"Kebayoran","is_transit":false},{"time":7,"i_lat":-6.207404,"station_id":"PLM","line":6,"distance":3737,"i_long":106.79689,"station_name":"Palmerah","transit":false,"is_transit":false},{"time":6,"i_lat":-6.185545,"station_id":"THB","i_long":106.811091,"distance":3191,"is_transit":true,"line":1,"station_name":"Tanah Abang","transit":true},{"station_name":"Duri","is_transit":false,"distance":3632,"station_id":"DU","line":1,"transit":false,"i_lat":-6.155215,"i_long":106.800832,"time":8},{"distance":1230,"time":4,"is_transit":false,"line":1,"i_lat":-6.144674,"station_id":"AK","station_name":"Angke","i_long":106.79867,"transit":false},{"line":4,"i_long":106.826365,"station_id":"KPB","time":9,"i_lat":-6.132549,"distance":4102,"station_name":"Kampung Bandan","transit":true,"is_transit":true},{"i_long":106.812439,"i_lat":-6.137569,"station_name":"Jakarta Kota","line":2,"distance":1364,"is_transit":true,"station_id":"JAKK","transit":true,"time":3},{"station_name":"Jayakarta","station_id":"JAY","i_long":106.820901,"is_transit":false,"distance":1264,"i_lat":-6.141205,"transit":false,"time":4,"line":2},{"distance":1080,"i_lat":-6.149769,"i_long":106.82482,"is_transit":false,"line":2,"time":2,"transit":false,"station_id":"MGB","station_name":"Manggabesar"},{"time":2,"station_id":"SW","line":2,"distance":906,"transit":false,"i_lat":-6.160725,"station_name":"Sawah Besar","is_transit":false,"i_long":106.827103},{"station_name":"Juanda","line":2,"transit":false,"is_transit":false,"station_id":"JUA","time":2,"distance":1149,"i_long":106.828284,"i_lat":-6.166716},{"time":4,"station_name":"Gondangdia","line":2,"distance":2015,"i_long":106.832183,"station_id":"GDD","transit":false,"is_transit":false,"i_lat":-6.186295},{"station_name":"Cikini","transit":false,"distance":1750,"station_id":"CKI","line":2,"time":3,"is_transit":false,"i_long":106.840169,"i_lat":-6.198556},{"station_id":"MRI","station_name":"Manggarai","i_lat":-6.209883,"line":2,"distance":1590,"i_long":106.84912,"transit":true,"time":4,"is_transit":true},{"station_name":"Matraman","transit":false,"distance":1275,"is_transit":false,"time":2,"i_long":106.858896,"i_lat":-6.212485,"line":1,"station_id":"MTR"},{"time":8,"station_name":"Jatinegara","transit":false,"is_transit":false,"distance":1377,"station_id":"JNG","line":1,"i_lat":-6.215091,"i_long":106.86807400000001},{"station_name":"Klender","line":1,"station_id":"KLD","transit":false,"time":3,"i_lat":-6.2135,"i_long":106.899548,"is_transit":false,"distance":3395},{"transit":false,"time":2,"line":1,"i_long":106.922662,"distance":3100,"station_name":"Buaran","is_transit":false,"station_id":"BUA","i_lat":-6.215568},{"distance":1305,"transit":false,"station_name":"Klenderbaru","is_transit":false,"time":1,"i_lat":-6.217455,"station_id":"KLDB","i_long":106.939679,"line":1},{"i_lat":-6.219053,"i_long":106.951283,"line":1,"transit":false,"distance":1385,"station_id":"CUK","time":8,"station_name":"Cakung","is_transit":false},{"line":1,"distance":3097,"station_id":"KRI","is_transit":false,"i_lat":-6.224515,"time":3,"station_name":"Kranji","transit":false,"i_long":106.977657},{"is_transit":false,"station_name":"Bekasi","i_long":106.997013,"time":4,"transit":false,"distance":2520,"station_id":"BKS","i_lat":-6.236616,"line":1}],[{"is_transit":false,"distance":0,"i_long":106.617853,"station_id":"CC","transit":false,"time":0,"line":3,"i_lat":-6.329547,"station_name":"Cicayur"},{"i_long":106.640411,"time":4,"transit":false,"is_transit":false,"distance":2519,"station_name":"Cisauk","station_id":"CSK","line":3,"i_lat":-6.32484},{"station_id":"SRP","distance":1784,"i_lat":-6.319871,"station_name":"Serpong","time":4,"i_long":106.66566,"transit":false,"is_transit":false,"line":6},{"i_lat":-6.314823,"i_long":106.675475,"time":4,"line":6,"is_transit":false,"distance":2413,"station_id":"RU","station_name":"Rawa Buntu","transit":false},{"station_name":"Sudimara","transit":false,"i_long":106.712277,"is_transit":false,"station_id":"SDM","i_lat":-6.296963,"line":6,"time":6,"distance":4566},{"distance":1994,"station_name":"Jurangmangu","transit":false,"is_transit":false,"i_long":106.728916,"line":6,"i_lat":-6.288927,"time":4,"station_id":"JMU"},{"distance":2179,"transit":false,"station_id":"PDJ","i_lat":-6.276362,"line":6,"station_name":"Pondokranji","time":3,"is_transit":false,"i_long":106.74273},{"station_id":"KBY","station_name":"Kebayoran","is_transit":false,"distance":6218,"i_long":106.780334,"transit":false,"time":8,"i_lat":-6.237242,"line":6},{"time":7,"is_transit":false,"i_lat":-6.207404,"i_long":106.79689,"transit":false,"line":6,"distance":3737,"station_name":"Palmerah","station_id":"PLM"},{"i_long":106.811091,"time":6,"station_name":"Tanah Abang","i_lat":-6.185545,"line":1,"transit":true,"is_transit":true,"station_id":"THB","distance":3191},{"station_name":"Karet","station_id":"KAT","i_long":106.816351,"is_transit":false,"distance":2029,"transit":false,"i_lat":-6.20132,"line":1,"time":5},{"i_long":106.819881,"station_id":"SUDB","i_lat":-6.201433,"transit":false,"station_name":"Sudirman Baru","is_transit":false,"distance":471,"line":1,"time":1},{"transit":false,"time":1,"station_id":"SUD","station_name":"Sudirman","distance":280,"is_transit":false,"i_lat":-6.202263,"line":1,"i_long":106.822649},{"i_lat":-6.209883,"transit":true,"time":4,"is_transit":true,"station_name":"Manggarai","station_id":"MRI","distance":3186,"line":2,"i_long":106.84912},{"i_long":106.840169,"time":4,"station_name":"Cikini","station_id":"CKI","transit":false,"distance":1590,"is_transit":false,"line":2,"i_lat":-6.198556},{"distance":1750,"i_lat":-6.186295,"time":3,"i_long":106.832183,"station_name":"Gondangdia","is_transit":false,"station_id":"GDD","transit":false,"line":2},{"station_id":"JUA","time":4,"is_transit":false,"i_lat":-6.166716,"transit":false,"line":2,"station_name":"Juanda","distance":2015,"i_long":106.828284},{"station_name":"Sawah Besar","time":2,"is_transit":false,"distance":1149,"i_long":106.827103,"station_id":"SW","transit":false,"i_lat":-6.160725,"line":2},{"station_id":"MGB","time":2,"i_lat":-6.149769,"line":2,"station_name":"Manggabesar","is_transit":false,"i_long":106.82482,"transit":false,"distance":906},{"i_lat":-6.141205,"station_id":"JAY","station_name":"Jayakarta","time":2,"transit":false,"is_transit":false,"distance":1080,"i_long":106.820901,"line":2},{"station_name":"Jakarta Kota","distance":1264,"i_long":106.812439,"time":4,"line":2,"i_lat":-6.137569,"transit":true,"is_transit":true,"station_id":"JAKK"},{"line":4,"station_id":"KPB","station_name":"Kampung Bandan","distance":1364,"time":3,"is_transit":true,"transit":true,"i_long":106.826365,"i_lat":-6.132549},{"is_transit":false,"distance":1444,"i_long":106.836569,"station_name":"Rajawali","i_lat":-6.14505,"line":11,"transit":false,"time":3,"station_id":"RJW"},{"station_id":"KMO","time":5,"line":11,"is_transit":false,"station_name":"Kemayoran","transit":false,"i_lat":-6.161728,"distance":1901,"i_long":106.839204},{"time":4,"distance":1436,"transit":false,"station_id":"PSE","i_long":106.84368,"station_name":"Pasar Senen","is_transit":false,"i_lat":-6.174784,"line":11},{"station_id":"GST","distance":1567,"time":8,"line":11,"i_long":106.850107,"transit":false,"is_transit":false,"i_lat":-6.185975,"station_name":"Gang Sentiong"},{"time":1,"station_name":"Kramat","station_id":"KMT","is_transit":false,"transit":false,"i_lat":-6.193792,"distance":973,"i_long":106.855437,"line":11},{"line":11,"is_transit":false,"i_lat":-6.209188,"station_name":"Pondok Jati","time":2,"i_long":106.861737,"transit":false,"distance":1829,"station_id":"POK"},{"i_long":106.86807400000001,"time":9,"line":1,"station_id":"JNG","transit":true,"distance":1236,"station_name":"Jatinegara","is_transit":true,"i_lat":-6.215091},{"transit":false,"is_transit":false,"i_lat":-6.2135,"time":3,"i_long":106.899548,"line":1,"station_id":"KLD","station_name":"Klender","distance":3395},{"distance":3100,"transit":false,"station_id":"BUA","i_lat":-6.215568,"is_transit":false,"time":2,"line":1,"station_name":"Buaran","i_long":106.922662},{"time":1,"transit":false,"is_transit":false,"distance":1305,"i_lat":-6.217455,"line":1,"station_id":"KLDB","station_name":"Klenderbaru","i_long":106.939679},{"time":8,"i_lat":-6.219053,"i_long":106.951283,"station_id":"CUK","line":1,"transit":false,"station_name":"Cakung","is_transit":false,"distance":1385},{"station_name":"Kranji","distance":3097,"station_id":"KRI","i_lat":-6.224515,"i_long":106.977657,"transit":false,"time":3,"is_transit":false,"line":1},{"i_lat":-6.236616,"distance":2520,"station_name":"Bekasi","transit":false,"is_transit":false,"line":1,"time":4,"station_id":"BKS","i_long":106.997013}]]}