{"data":[[{"is_transit":false,"time":0,"i_lat":-6.329547,"line":3,"distance":0,"station_name":"Cicayur","transit":false,"i_long":106.617853,"station_id":"CC"},{"i_lat":-6.32484,"time":4,"station_name":"Cisauk","station_id":"CSK","distance":2519,"i_long":106.640411,"line":3,"is_transit":false,"transit":false},{"distance":1784,"i_long":106.66566,"is_transit":false,"i_lat":-6.319871,"time":4,"station_id":"SRP","transit":false,"line":6,"station_name":"Serpong"},{"i_lat":-6.314823,"station_id":"RU","time":4,"line":6,"station_name":"Rawa Buntu","is_transit":false,"distance":2413,"i_long":106.675475,"transit":false},{"station_id":"SDM","is_transit":false,"station_name":"Sudimara","i_lat":-6.296963,"line":6,"transit":false,"i_long":106.712277,"time":6,"distance":4566},{"station_name":"Jurangmangu","distance":1994,"i_lat":-6.288927,"i_long":106.728916,"line":6,"is_transit":false,"transit":false,"time":4,"station_id":"JMU"},{"transit":false,"is_transit":false,"i_long":106.74273,"distance":2179,"time":3,"i_lat":-6.276362,"line":6,"station_name":"Pondokranji","station_id":"PDJ"},{"distance":6218,"station_id":"KBY","time":8,"i_lat":-6.237242,"line":6,"station_name":"Kebayoran","transit":false,"i_long":106.780334,"is_transit":false},{"is_transit":false,"station_id":"PLM","station_name":"Palmerah","distance":3737,"i_long":106.79689,"line":6,"time":7,"transit":false,"i_lat":-6.207404},{"line":1,"is_transit":true,"i_long":106.811091,"station_name":"Tanah Abang","time":6,"station_id":"THB","transit":true,"distance":3191,"i_lat":-6.185545},{"is_transit":false,"station_name":"Karet","distance":2029,"i_long":106.816351,"line":1,"i_lat":-6.20132,"station_id":"KAT","transit":false,"time":5},{"i_long":106.819881,"i_lat":-6.201433,"station_name":"Sudirman Baru","time":1,"station_id":"SUDB","distance":471,"line":1,"is_transit":false,"transit":false},{"station_id":"SUD","i_long":106.822649,"distance":280,"is_transit":false,"line":1,"transit":false,"time":1,"i_lat":-6.202263,"station_name":"Sudirman"},{"station_id":"MRI","station_name":"Manggarai","line":2,"is_transit":false,"i_lat":-6.209883,"transit":false,"distance":3186,"time":4,"i_long":106.84912},{"line":1,"station_id":"MTR","time":2,"distance":1275,"station_name":"Matraman","i_long":106.858896,"transit":false,"is_transit":false,"i_lat":-6.212485},{"line":1,"is_transit":false,"i_long":106.86807400000001,"station_id":"JNG","i_lat":-6.215091,"distance":1377,"transit":false,"time":8,"station_name":"Jatinegara"},{"distance":3395,"station_id":"KLD","transit":false,"time":3,"is_transit":false,"i_long":106.899548,"station_name":"Klender","i_lat":-6.2135,"line":1},{"time":2,"station_name":"Buaran","i_long":106.922662,"transit":false,"i_lat":-6.215568,"line":1,"distance":3100,"station_id":"BUA","is_transit":false},{"is_transit":false,"transit":false,"time":1,"line":1,"station_name":"Klenderbaru","i_long":106.939679,"distance":1305,"station_id":"KLDB","i_lat":-6.217455},{"i_long":106.951283,"i_lat":-6.219053,"time":8,"distance":1385,"station_id":"CUK","is_transit":false,"line":1,"transit":false,"station_name":"Cakung"},{"i_long":106.977657,"i_lat":-6.224515,"station_id":"KRI","is_transit":false,"transit":false,"line":1,"station_name":"Kranji","time":3,"distance":3097},{"i_long":106.997013,"i_lat":-6.236616,"distance":2520,"is_transit":false,"line":1,"station_id":"BKS","station_name":"Bekasi","time":4,"transit":false},{"i_long":107.016735,"transit":false,"is_transit":false,"time":2,"distance":2368,"line":1,"station_name":"Bekasi Timur","station_id":"BKST","i_lat":-6.248029}],[{"time":0,"is_transit":false,"station_id":"CC","station_name":"Cicayur","i_lat":-6.329547,"line":3,"transit":false,"i_long":106.617853,"distance":0},{"station_name":"Cisauk","time":4,"distance":2519,"transit":false,"i_lat":-6.32484,"station_id":"CSK","i_long":106.640411,"line":3,"is_transit":false},{"transit":false,"i_lat":-6.319871,"line":6,"time":4,"station_id":"SRP","distance":1784,"is_transit":false,"i_long":106.66566,"station_name":"Serpong"},{"distance":2413,"line":6,"station_name":"Rawa Buntu","station_id":"RU","i_long":106.675475,"transit":false,"is_transit":false,"time":4,"i_lat":-6.314823},{"line":6,"station_name":"Sudimara","station_id":"SDM","transit":false,"time":6,"distance":4566,"i_lat":-6.296963,"is_transit":false,"i_long":106.712277},{"distance":1994,"i_lat":-6.288927,"station_name":"Jurangmangu","i_long":106.728916,"transit":false,"time":4,"line":6,"is_transit":false,"station_id":"JMU"},{"i_long":106.74273,"station_name":"Pondokranji","station_id":"PDJ","is_transit":false,"i_lat":-6.276362,"time":3,"transit":false,"distance":2179,"line":6},{"station_id":"KBY","line":6,"i_long":106.780334,"transit":false,"distance":6218,"is_transit":false,"time":8,"i_lat":-6.237242,"station_name":"Kebayoran"},{"is_transit":false,"station_name":"Palmerah","i_long":106.79689,"distance":3737,"i_lat":-6.207404,"station_id":"PLM","time":7,"line":6,"transit":false},{"transit":true,"is_transit":true,"i_long":106.811091,"distance":3191,"station_id":"THB","i_lat":-6.185545,"station_name":"Tanah Abang","time":6,"line":1},{"i_long":106.800832,"line":1,"transit":false,"i_lat":-6.155215,"is_transit":false,"time":8,"distance":3632,"station_id":"DU","station_name":"Duri"},{"time":4,"is_transit":false,"transit":false,"i_lat":-6.144674,"station_id":"AK","i_long":106.79867,"line":1,"distance":1230,"station_name":"Angke"},{"distance":4102,"i_lat":-6.132549,"is_transit":true,"i_long":106.826365,"time":9,"line":4,"station_id":"KPB","station_name":"Kampung Bandan","transit":true},{"i_lat":-6.14505,"transit":false,"is_transit":false,"line":11,"station_name":"Rajawali","distance":1444,"i_long":106.836569,"station_id":"RJW","time":3},{"is_transit":false,"station_id":"KMO","transit":false,"station_name":"Kemayoran","i_lat":-6.161728,"time":5,"distance":1901,"i_long":106.839204,"line":11},{"distance":1436,"line":11,"i_long":106.84368,"station_name":"Pasar Senen","transit":false,"station_id":"PSE","time":4,"is_transit":false,"i_lat":-6.174784},{"station_id":"GST","i_lat":-6.185975,"is_transit":false,"line":11,"station_name":"Gang Sentiong","distance":1567,"time":8,"i_long":106.850107,"transit":false},{"station_id":"KMT","i_lat":-6.193792,"line":11,"distance":973,"i_long":106.855437,"transit":false,"station_name":"Kramat","is_transit":false,"time":1},{"station_id":"POK","distance":1829,"time":2,"station_name":"Pondok Jati","i_long":106.861737,"line":11,"is_transit":false,"transit":false,"i_lat":-6.209188},{"station_name":"Jatinegara","i_lat":-6.215091,"station_id":"JNG","is_transit":true,"distance":1236,"line":1,"time":9,"i_long":106.86807400000001,"transit":true},{"time":3,"station_name":"Klender","station_id":"KLD","distance":3395,"i_lat":-6.2135,"i_long":106.899548,"line":1,"is_transit":false,"transit":false},{"station_name":"Buaran","i_lat":-6.215568,"transit":false,"is_transit":false,"station_id":"BUA","time":2,"line":1,"i_long":106.922662,"distance":3100},{"i_lat":-6.217455,"transit":false,"station_id":"KLDB","is_transit":false,"distance":1305,"line":1,"station_name":"Klenderbaru","i_long":106.939679,"time":1},{"time":8,"line":1,"i_long":106.951283,"transit":false,"distance":1385,"station_name":"Cakung","i_lat":-6.219053,"is_transit":false,"station_id":"CUK"},{"is_transit":false,"time":3,"i_lat":-6.224515,"distance":3097,"i_long":106.977657,"station_id":"KRI","transit":false,"line":1,"station_name":"Kranji"},{"is_transit":false,"station_id":"BKS","i_long":106.997013,"distance":2520,"line":1,"time":4,"transit":false,"station_name":"Bekasi","i_lat":-6.236616},{"distance":2368,"transit":false,"station_id":"BKST","station_name":"Bekasi Timur","i_long":107.016735,"line":1,"time":2,"is_transit":false,"i_lat":-6.248029}],[{"i_long":106.617853,"distance":0,"is_transit":false,"time":0,"i_lat":-6.329547,"line":3,"transit":false,"station_name":"Cicayur","station_id":"CC"},{"time":4,"line":3,"i_lat":-6.32484,"is_transit":false,"transit":false,"station_name":"Cisauk","i_long":106.640411,"distance":2519,"station_id":"CSK"},{"station_id":"SRP","line":6,"transit":false,"station_name":"Serpong","distance":1784,"time":4,"is_transit":false,"i_long":106.66566,"i_lat":-6.319871},{"i_lat":-6.314823,"distance":2413,"line":6,"is_transit":false,"time":4,"station_name":"Rawa Buntu","station_id":"RU","transit":false,"i_long":106.675475},{"line":6,"transit":false,"station_name":"Sudimara","station_id":"SDM","distance":4566,"time":6,"i_lat":-6.296963,"is_transit":false,"i_long":106.712277},{"distance":1994,"is_transit":false,"i_long":106.728916,"line":6,"station_name":"Jurangmangu","transit":false,"i_lat":-6.288927,"station_id":"JMU","time":4},{"distance":2179,"is_transit":false,"i_long":106.74273,"i_lat":-6.276362,"transit":false,"station_name":"Pondokranji","station_id":"PDJ","line":6,"time":3},{"time":8,"is_transit":false,"transit":false,"i_lat":-6.237242,"i_long":106.780334,"line":6,"distance":6218,"station_name":"Kebayoran","station_id":"KBY"},{"is_transit":false,"time":7,"station_name":"Palmerah","transit":false,"line":6,"station_id":"PLM","i_long":106.79689,"distance":3737,"i_lat":-6.207404},{"time":6,"i_lat":-6.185545,"distance":3191,"station_name":"Tanah Abang","i_long":106.811091,"station_id":"THB","transit":true,"line":1,"is_transit":true},{"distance":3632,"line":1,"transit":false,"station_id":"DU","i_lat":-6.155215,"i_long":106.800832,"is_transit":false,"station_name":"Duri","time":8},{"is_transit":false,"time":4,"line":1,"transit":false,"distance":1230,"station_id":"AK","i_long":106.79867,"station_name":"Angke","i_lat":-6.144674},{"station_id":"KPB","i_lat":-6.132549,"line":4,"transit":true,"station_name":"Kampung Bandan","distance":4102,"time":9,"is_transit":true,"i_long":106.826365},{"i_long":106.812439,"is_transit":true,"time":3,"i_lat":-6.137569,"line":2,"transit":true,"station_name":"Jakarta Kota","station_id":"JAKK","distance":1364},{"distance":1264,"station_id":"JAY","i_long":106.820901,"line":2,"station_name":"Jayakarta","i_lat":-6.141205,"transit":false,"is_transit":false,"time":4},{"i_long":106.82482,"line":2,"transit":false,"i_lat":-6.149769,"is_transit":false,"station_id":"MGB","time":2,"distance":1080,"station_name":"Manggabesar"},{"time":2,"station_name":"Sawah Besar","i_lat":-6.160725,"line":2,"station_id":"SW","is_transit":false,"transit":false,"distance":906,"i_long":106.827103},{"station_name":"Juanda","i_lat":-6.166716,"i_long":106.828284,"station_id":"JUA","is_transit":false,"line":2,"distance":1149,"time":2,"transit":false},{"line":2,"i_lat":-6.186295,"station_name":"Gondangdia","is_transit":false,"station_id":"GDD","distance":2015,"time":4,"transit":false,"i_long":106.832183},{"line":2,"is_transit":false,"i_lat":-6.198556,"station_id":"CKI","station_name":"Cikini","distance":1750,"i_long":106.840169,"transit":false,"time":3},{"i_long":106.84912,"transit":true,"station_name":"Manggarai","is_transit":true,"distance":1590,"line":2,"station_id":"MRI","time":4,"i_lat":-6.209883},{"i_lat":-6.212485,"is_transit":false,"time":2,"station_id":"MTR","transit":false,"distance":1275,"i_long":106.858896,"line":1,"station_name":"Matraman"},{"transit":false,"station_id":"JNG","i_lat":-6.215091,"distance":1377,"i_long":106.86807400000001,"line":1,"time":8,"is_transit":false,"station_name":"Jatinegara"},{"station_id":"KLD","i_lat":-6.2135,"time":3,"station_name":"Klender","i_long":106.899548,"transit":false,"is_transit":false,"distance":3395,"line":1},{"distance":3100,"time":2,"is_transit":false,"transit":false,"line":1,"i_lat":-6.215568,"i_long":106.922662,"station_name":"Buaran","station_id":"BUA"},{"i_long":106.939679,"transit":false,"time":1,"distance":1305,"i_lat":-6.217455,"line":1,"is_transit":false,"station_id":"KLDB","station_name":"Klenderbaru"},{"station_name":"Cakung","transit":false,"is_transit":false,"distance":1385,"station_id":"CUK","i_long":106.951283,"time":8,"line":1,"i_lat":-6.219053},{"line":1,"i_lat":-6.224515,"station_id":"KRI","time":3,"i_long":106.977657,"station_name":"Kranji","distance":3097,"is_transit":false,"transit":false},{"transit":false,"station_name":"Bekasi","line":1,"i_lat":-6.236616,"is_transit":false,"time":4,"distance":2520,"station_id":"BKS","i_long":106.997013},{"time":2,"i_lat":-6.248029,"i_long":107.016735,"station_name":"Bekasi Timur","distance":2368,"is_transit":false,"transit":false,"line":1,"station_id":"BKST"}],[{"station_id":"CC","distance":0,"i_long":106.617853,"is_transit":false,"time":0,"i_lat":-6.329547,"transit":false,"station_name":"Cicayur","line":3},{"station_name":"Cisauk","i_long":106.640411,"is_transit":false,"line":3,"distance":2519,"station_id":"CSK","transit":false,"i_lat":-6.32484,"time":4},{"i_lat":-6.319871,"time":4,"i_long":106.66566,"station_id":"SRP","transit":false,"is_transit":false,"station_name":"Serpong","distance":1784,"line":6},{"station_name":"Rawa Buntu","station_id":"RU","i_lat":-6.314823,"line":6,"time":4,"distance":2413,"i_long":106.675475,"transit":false,"is_transit":false},{"station_id":"SDM","is_transit":false,"i_lat":-6.296963,"transit":false,"time":6,"distance":4566,"station_name":"Sudimara","i_long":106.712277,"line":6},{"time":4,"line":6,"is_transit":false,"station_name":"Jurangmangu","i_lat":-6.288927,"i_long":106.728916,"station_id":"JMU","transit":false,"distance":1994},{"line":6,"i_lat":-6.276362,"is_transit":false,"station_id":"PDJ","station_name":"Pondokranji","time":3,"transit":false,"distance":2179,"i_long":106.74273},{"station_id":"KBY","i_long":106.780334,"line":6,"time":8,"distance":6218,"station_name":"Kebayoran","transit":false,"i_lat":-6.237242,"is_transit":false},{"is_transit":false,"station_id":"PLM","time":7,"i_long":106.79689,"station_name":"Palmerah","distance":3737,"line":6,"i_lat":-6.207404,"transit":false},{"i_lat":-6.185545,"is_transit":true,"time":6,"transit":true,"station_name":"Tanah Abang","line":1,"i_long":106.811091,"distance":3191,"station_id":"THB"},{"is_transit":false,"station_id":"KAT","station_name":"Karet","distance":2029,"line":1,"i_lat":-6.20132,"time":5,"i_long":106.816351,"transit":false},{"station_name":"Sudirman Baru","line":1,"is_transit":false,"time":1,"transit":false,"station_id":"SUDB","i_lat":-6.201433,"distance":471,"i_long":106.819881},{"distance":280,"time":1,"i_lat":-6.202263,"station_name":"Sudirman","is_transit":false,"i_long":106.822649,"line":1,"transit":false,"station_id":"SUD"},{"is_transit":true,"distance":3186,"station_id":"MRI","i_lat":-6.209883,"transit":true,"time":4,"line":2,"i_long":106.84912,"station_name":"Manggarai"},{"line":2,"station_id":"CKI","time":4,"is_transit":false,"distance":1590,"station_name":"Cikini","i_lat":-6.198556,"transit":false,"i_long":106.840169},{"i_long":106.832183,"station_name":"Gondangdia","is_transit":false,"transit":false,"station_id":"GDD","time":3,"distance":1750,"line":2,"i_lat":-6.186295},{"station_id":"JUA","station_name":"Juanda","time":4,"i_lat":-6.166716,"is_transit":false,"line":2,"transit":false,"distance":2015,"i_long":106.828284},{"is_transit":false,"station_name":"Sawah Besar","i_long":106.827103,"line":2,"i_lat":-6.160725,"time":2,"transit":false,"distance":1149,"station_id":"SW"},{"distance":906,"station_name":"Manggabesar","is_transit":false,"i_lat":-6.149769,"transit":false,"i_long":106.82482,"time":2,"station_id":"MGB","line":2},{"distance":1080,"is_transit":false,"transit":false,"station_name":"Jayakarta","time":2,"station_id":"JAY","i_lat":-6.141205,"i_long":106.820901,"line":2},{"station_name":"Jakarta Kota","line":2,"station_id":"JAKK","is_transit":true,"i_lat":-6.137569,"transit":true,"time":4,"distance":1264,"i_long":106.812439},{"line":4,"station_name":"Kampung Bandan","i_long":106.826365,"transit":true,"i_lat":-6.132549,"station_id":"KPB","distance":1364,"is_transit":true,"time":3},{"i_long":106.836569,"transit":false,"time":3,"i_lat":-6.14505,"line":11,"station_name":"Rajawali","distance":1444,"is_transit":false,"station_id":"RJW"},{"station_id":"KMO","transit":false,"is_transit":false,"time":5,"distance":1901,"station_name":"Kemayoran","i_lat":-6.161728,"i_long":106.839204,"line":11},{"distance":1436,"line":11,"transit":false,"is_transit":false,"station_name":"Pasar Senen","i_lat":-6.174784,"i_long":106.84368,"station_id":"PSE","time":4},{"station_id":"GST","transit":false,"station_name":"Gang Sentiong","i_lat":-6.185975,"time":8,"is_transit":false,"line":11,"i_long":106.850107,"distance":1567},{"station_name":"Kramat","distance":973,"i_long":106.855437,"i_lat":-6.193792,"line":11,"station_id":"KMT","is_transit":false,"transit":false,"time":1},{"i_long":106.861737,"distance":1829,"time":2,"station_name":"Pondok Jati","is_transit":false,"i_lat":-6.209188,"transit":false,"line":11,"station_id":"POK"},{"time":9,"transit":true,"station_name":"Jatinegara","station_id":"JNG","i_long":106.86807400000001,"is_transit":true,"distance":1236,"line":1,"i_lat":-6.215091},{"time":3,"distance":3395,"station_name":"Klender","i_long":106.899548,"is_transit":false,"i_lat":-6.2135,"line":1,"station_id":"KLD","transit":false},{"time":2,"i_lat":-6.215568,"transit":false,"distance":3100,"is_transit":false,"line":1,"i_long":106.922662,"station_name":"Buaran","station_id":"BUA"},{"transit":false,"i_lat":-6.217455,"time":1,"is_transit":false,"i_long":106.939679,"line":1,"station_name":"Klenderbaru","distance":1305,"station_id":"KLDB"},{"line":1,"station_id":"CUK","transit":false,"i_long":106.951283,"is_transit":false,"station_name":"Cakung","distance":1385,"i_lat":-6.219053,"time":8},{"i_long":106.977657,"is_transit":false,"station_id":"KRI","time":3,"line":1,"i_lat":-6.224515,"distance":3097,"station_name":"Kranji","transit":false},{"time":4,"station_name":"Bekasi","station_id":"BKS","distance":2520,"is_transit":false,"transit":false,"i_lat":-6.236616,"i_long":106.997013,"line":1},{"time":2,"station_name":"Bekasi Timur","distance":2368,"transit":false,"i_lat":-6.248029,"is_transit":false,"station_id":"BKST","i_long":107.016735,"line":1}]]}