{"data":[[{"station_id":"CC","transit":false,"i_long":106.617853,"line":3,"distance":0,"i_lat":-6.329547,"is_transit":false,"station_name":"Cicayur","time":0},{"transit":false,"distance":2519,"line":3,"station_name":"Cisauk","i_long":106.640411,"time":4,"i_lat":-6.32484,"station_id":"CSK","is_transit":false},{"distance":1784,"station_id":"SRP","time":4,"i_lat":-6.319871,"line":6,"is_transit":false,"transit":false,"i_long":106.66566,"station_name":"Serpong"},{"i_lat":-6.314823,"line":6,"i_long":106.675475,"time":4,"distance":2413,"station_name":"Rawa Buntu","station_id":"RU","is_transit":false,"transit":false},{"is_transit":false,"station_name":"Sudimara","line":6,"distance":4566,"transit":false,"station_id":"SDM","i_lat":-6.296963,"i_long":106.712277,"time":6},{"line":6,"i_lat":-6.288927,"distance":1994,"station_name":"Jurangmangu","i_long":106.728916,"time":4,"is_transit":false,"transit":false,"station_id":"JMU"},{"distance":2179,"station_id":"PDJ","line":6,"station_name":"Pondokranji","transit":false,"time":3,"i_long":106.74273,"i_lat":-6.276362,"is_transit":false},{"i_long":106.780334,"distance":6218,"station_name":"Kebayoran","time":8,"is_transit":false,"line":6,"transit":false,"station_id":"KBY","i_lat":-6.237242},{"station_name":"Palmerah","i_lat":-6.207404,"distance":3737,"line":6,"transit":false,"is_transit":false,"station_id":"PLM","i_long":106.79689,"time":7},{"distance":3191,"transit":true,"station_id":"THB","i_lat":-6.185545,"line":1,"i_long":106.811091,"is_transit":true,"time":6,"station_name":"Tanah Abang"},{"is_transit":false,"station_id":"KAT","time":5,"distance":2029,"station_name":"Karet","i_lat":-6.20132,"i_long":106.816351,"transit":false,"line":1},{"distance":471,"station_name":"Sudirman Baru","time":1,"is_transit":false,"i_lat":-6.201433,"i_long":106.819881,"station_id":"SUDB","line":1,"transit":false},{"distance":280,"time":1,"line":1,"transit":false,"station_name":"Sudirman","station_id":"SUD","i_long":106.822649,"is_transit":false,"i_lat":-6.202263},{"i_lat":-6.209883,"station_name":"Manggarai","transit":false,"distance":3186,"i_long":106.84912,"station_id":"MRI","line":2,"is_transit":false,"time":4},{"station_id":"MTR","station_name":"Matraman","distance":1275,"i_long":106.858896,"time":2,"i_lat":-6.212485,"transit":false,"is_transit":false,"line":1},{"i_long":106.86807400000001,"distance":1377,"transit":false,"i_lat":-6.215091,"line":1,"station_name":"Jatinegara","station_id":"JNG","time":8,"is_transit":false},{"station_id":"KLD","station_name":"Klender","i_long":106.899548,"time":3,"i_lat":-6.2135,"is_transit":false,"transit":false,"line":1,"distance":3395},{"distance":3100,"is_transit":false,"time":2,"i_lat":-6.215568,"i_long":106.922662,"line":1,"station_name":"Buaran","station_id":"BUA","transit":false}],[{"distance":0,"time":0,"is_transit":false,"station_id":"CC","i_lat":-6.329547,"station_name":"Cicayur","transit":false,"i_long":106.617853,"line":3},{"i_lat":-6.32484,"time":4,"i_long":106.640411,"line":3,"station_id":"CSK","transit":false,"distance":2519,"station_name":"Cisauk","is_transit":false},{"station_id":"SRP","station_name":"Serpong","transit":false,"i_lat":-6.319871,"i_long":106.66566,"is_transit":false,"time":4,"distance":1784,"line":6},{"i_long":106.675475,"transit":false,"station_id":"RU","distance":2413,"is_transit":false,"station_name":"Rawa Buntu","line":6,"time":4,"i_lat":-6.314823},{"i_lat":-6.296963,"station_name":"Sudimara","time":6,"i_long":106.712277,"line":6,"distance":4566,"station_id":"SDM","transit":false,"is_transit":false},{"station_name":"Jurangmangu","time":4,"distance":1994,"i_lat":-6.288927,"station_id":"JMU","i_long":106.728916,"line":6,"transit":false,"is_transit":false},{"i_lat":-6.276362,"station_id":"PDJ","transit":false,"is_transit":false,"i_long":106.74273,"station_name":"Pondokranji","line":6,"distance":2179,"time":3},{"i_lat":-6.237242,"i_long":106.780334,"station_id":"KBY","station_name":"Kebayoran","transit":false,"line":6,"distance":6218,"is_transit":false,"time":8},{"distance":3737,"station_name":"Palmerah","i_lat":-6.207404,"station_id":"PLM","transit":false,"i_long":106.79689,"line":6,"is_transit":false,"time":7},{"is_transit":true,"station_id":"THB","transit":true,"i_lat":-6.185545,"i_long":106.811091,"station_name":"Tanah Abang","time":6,"distance":3191,"line":1},{"i_long":106.800832,"line":1,"transit":false,"station_id":"DU","i_lat":-6.155215,"is_transit":false,"distance":3632,"time":8,"station_name":"Duri"},{"line":1,"i_lat":-6.144674,"i_long":106.79867,"station_name":"Angke","time":4,"is_transit":false,"station_id":"AK","transit":false,"distance":1230},{"station_name":"Kampung Bandan","transit":true,"i_long":106.826365,"distance":4102,"is_transit":true,"time":9,"line":4,"station_id":"KPB","i_lat":-6.132549},{"station_id":"RJW","i_lat":-6.14505,"i_long":106.836569,"distance":1444,"time":3,"is_transit":false,"line":11,"station_name":"Rajawali","transit":false},{"distance":1901,"is_transit":false,"i_lat":-6.161728,"transit":false,"time":5,"line":11,"station_id":"KMO","station_name":"Kemayoran","i_long":106.839204},{"line":11,"distance":1436,"transit":false,"is_transit":false,"station_name":"Pasar Senen","station_id":"PSE","i_lat":-6.174784,"i_long":106.84368,"time":4},{"station_id":"GST","station_name":"Gang Sentiong","distance":1567,"time":8,"is_transit":false,"line":11,"transit":false,"i_long":106.850107,"i_lat":-6.185975},{"i_lat":-6.193792,"i_long":106.855437,"transit":false,"station_id":"KMT","distance":973,"line":11,"station_name":"Kramat","is_transit":false,"time":1},{"station_name":"Pondok Jati","transit":false,"time":2,"line":11,"distance":1829,"is_transit":false,"station_id":"POK","i_long":106.861737,"i_lat":-6.209188},{"is_transit":true,"station_name":"Jatinegara","distance":1236,"i_lat":-6.215091,"station_id":"JNG","i_long":106.86807400000001,"time":9,"transit":true,"line":1},{"time":3,"i_long":106.899548,"is_transit":false,"i_lat":-6.2135,"station_id":"KLD","distance":3395,"station_name":"Klender","transit":false,"line":1},{"time":2,"i_long":106.922662,"i_lat":-6.215568,"station_name":"Buaran","transit":false,"line":1,"station_id":"BUA","distance":3100,"is_transit":false}],[{"time":0,"station_id":"CC","transit":false,"line":3,"distance":0,"i_long":106.617853,"station_name":"Cicayur","i_lat":-6.329547,"is_transit":false},{"i_long":106.640411,"distance":2519,"station_id":"CSK","line":3,"station_name":"Cisauk","transit":false,"time":4,"is_transit":false,"i_lat":-6.32484},{"transit":false,"station_id":"SRP","i_lat":-6.319871,"time":4,"station_name":"Serpong","is_transit":false,"i_long":106.66566,"distance":1784,"line":6},{"transit":false,"line":6,"i_lat":-6.314823,"distance":2413,"is_transit":false,"station_name":"Rawa Buntu","i_long":106.675475,"time":4,"station_id":"RU"},{"i_lat":-6.296963,"i_long":106.712277,"distance":4566,"station_id":"SDM","transit":false,"time":6,"station_name":"Sudimara","line":6,"is_transit":false},{"line":6,"transit":false,"time":4,"i_long":106.728916,"station_id":"JMU","distance":1994,"is_transit":false,"station_name":"Jurangmangu","i_lat":-6.288927},{"i_lat":-6.276362,"time":3,"station_id":"PDJ","distance":2179,"station_name":"Pondokranji","transit":false,"is_transit":false,"line":6,"i_long":106.74273},{"i_long":106.780334,"station_name":"Kebayoran","i_lat":-6.237242,"line":6,"station_id":"KBY","distance":6218,"is_transit":false,"transit":false,"time":8},{"transit":false,"line":6,"i_lat":-6.207404,"station_id":"PLM","i_long":106.79689,"distance":3737,"is_transit":false,"time":7,"station_name":"Palmerah"},{"time":6,"station_name":"Tanah Abang","i_long":106.811091,"transit":true,"i_lat":-6.185545,"station_id":"THB","is_transit":true,"distance":3191,"line":1},{"station_name":"Duri","time":8,"i_lat":-6.155215,"is_transit":false,"station_id":"DU","i_long":106.800832,"line":1,"transit":false,"distance":3632},{"distance":1230,"i_long":106.79867,"is_transit":false,"station_name":"Angke","time":4,"line":1,"station_id":"AK","transit":false,"i_lat":-6.144674},{"time":9,"station_id":"KPB","i_lat":-6.132549,"transit":true,"i_long":106.826365,"line":4,"distance":4102,"is_transit":true,"station_name":"Kampung Bandan"},{"distance":1364,"station_id":"JAKK","time":3,"i_long":106.812439,"transit":true,"line":2,"is_transit":true,"station_name":"Jakarta Kota","i_lat":-6.137569},{"station_id":"JAY","i_lat":-6.141205,"i_long":106.820901,"distance":1264,"time":4,"station_name":"Jayakarta","line":2,"transit":false,"is_transit":false},{"i_lat":-6.149769,"station_id":"MGB","i_long":106.82482,"line":2,"transit":false,"station_name":"Manggabesar","distance":1080,"time":2,"is_transit":false},{"line":2,"distance":906,"time":2,"station_name":"Sawah Besar","is_transit":false,"i_long":106.827103,"i_lat":-6.160725,"station_id":"SW","transit":false},{"station_name":"Juanda","transit":false,"time":2,"i_long":106.828284,"distance":1149,"is_transit":false,"station_id":"JUA","line":2,"i_lat":-6.166716},{"i_long":106.832183,"distance":2015,"station_id":"GDD","is_transit":false,"station_name":"Gondangdia","i_lat":-6.186295,"time":4,"transit":false,"line":2},{"line":2,"station_name":"Cikini","i_lat":-6.198556,"distance":1750,"is_transit":false,"station_id":"CKI","transit":false,"i_long":106.840169,"time":3},{"station_id":"MRI","i_long":106.84912,"station_name":"Manggarai","distance":1590,"is_transit":true,"transit":true,"time":4,"i_lat":-6.209883,"line":2},{"station_name":"Matraman","transit":false,"is_transit":false,"i_long":106.858896,"distance":1275,"i_lat":-6.212485,"line":1,"station_id":"MTR","time":2},{"is_transit":false,"time":8,"distance":1377,"line":1,"i_long":106.86807400000001,"station_id":"JNG","station_name":"Jatinegara","transit":false,"i_lat":-6.215091},{"i_lat":-6.2135,"distance":3395,"station_name":"Klender","time":3,"transit":false,"is_transit":false,"station_id":"KLD","i_long":106.899548,"line":1},{"time":2,"i_lat":-6.215568,"is_transit":false,"transit":false,"line":1,"station_name":"Buaran","i_long":106.922662,"distance":3100,"station_id":"BUA"}],[{"i_long":106.617853,"line":3,"station_id":"CC","transit":false,"distance":0,"time":0,"i_lat":-6.329547,"is_transit":false,"station_name":"Cicayur"},{"i_long":106.640411,"is_transit":false,"station_name":"Cisauk","i_lat":-6.32484,"distance":2519,"transit":false,"station_id":"CSK","time":4,"line":3},{"station_name":"Serpong","i_lat":-6.319871,"station_id":"SRP","i_long":106.66566,"line":6,"transit":false,"distance":1784,"time":4,"is_transit":false},{"distance":2413,"i_lat":-6.314823,"is_transit":false,"station_name":"Rawa Buntu","station_id":"RU","i_long":106.675475,"line":6,"transit":false,"time":4},{"transit":false,"i_lat":-6.296963,"line":6,"station_name":"Sudimara","is_transit":false,"i_long":106.712277,"distance":4566,"time":6,"station_id":"SDM"},{"station_id":"JMU","time":4,"i_lat":-6.288927,"distance":1994,"station_name":"Jurangmangu","i_long":106.728916,"line":6,"transit":false,"is_transit":false},{"station_name":"Pondokranji","transit":false,"line":6,"distance":2179,"station_id":"PDJ","is_transit":false,"i_lat":-6.276362,"i_long":106.74273,"time":3},{"time":8,"distance":6218,"station_id":"KBY","i_lat":-6.237242,"transit":false,"station_name":"Kebayoran","is_transit":false,"i_long":106.780334,"line":6},{"time":7,"i_long":106.79689,"distance":3737,"station_id":"PLM","transit":false,"station_name":"Palmerah","is_transit":false,"i_lat":-6.207404,"line":6},{"time":6,"transit":true,"station_name":"Tanah Abang","i_long":106.811091,"station_id":"THB","distance":3191,"line":1,"is_transit":true,"i_lat":-6.185545},{"transit":false,"i_long":106.816351,"station_id":"KAT","time":5,"distance":2029,"is_transit":false,"station_name":"Karet","line":1,"i_lat":-6.20132},{"is_transit":false,"station_id":"SUDB","transit":false,"i_lat":-6.201433,"station_name":"Sudirman Baru","time":1,"distance":471,"i_long":106.819881,"line":1},{"transit":false,"station_id":"SUD","distance":280,"is_transit":false,"i_lat":-6.202263,"line":1,"time":1,"i_long":106.822649,"station_name":"Sudirman"},{"station_id":"MRI","transit":true,"i_long":106.84912,"distance":3186,"station_name":"Manggarai","line":2,"time":4,"is_transit":true,"i_lat":-6.209883},{"is_transit":false,"i_lat":-6.198556,"i_long":106.840169,"line":2,"distance":1590,"time":4,"transit":false,"station_id":"CKI","station_name":"Cikini"},{"distance":1750,"is_transit":false,"line":2,"station_id":"GDD","time":3,"i_lat":-6.186295,"i_long":106.832183,"station_name":"Gondangdia","transit":false},{"distance":2015,"station_name":"Juanda","i_long":106.828284,"station_id":"JUA","line":2,"is_transit":false,"i_lat":-6.166716,"transit":false,"time":4},{"i_lat":-6.160725,"line":2,"distance":1149,"station_name":"Sawah Besar","i_long":106.827103,"is_transit":false,"transit":false,"station_id":"SW","time":2},{"line":2,"i_long":106.82482,"station_name":"Manggabesar","distance":906,"is_transit":false,"transit":false,"station_id":"MGB","i_lat":-6.149769,"time":2},{"i_lat":-6.141205,"is_transit":false,"i_long":106.820901,"station_name":"Jayakarta","station_id":"JAY","distance":1080,"line":2,"transit":false,"time":2},{"distance":1264,"line":2,"station_id":"JAKK","station_name":"Jakarta Kota","is_transit":true,"transit":true,"i_lat":-6.137569,"i_long":106.812439,"time":4},{"line":4,"distance":1364,"time":3,"station_name":"Kampung Bandan","i_long":106.826365,"i_lat":-6.132549,"station_id":"KPB","transit":true,"is_transit":true},{"i_lat":-6.14505,"distance":1444,"time":3,"transit":false,"i_long":106.836569,"line":11,"station_id":"RJW","is_transit":false,"station_name":"Rajawali"},{"station_name":"Kemayoran","transit":false,"line":11,"time":5,"distance":1901,"is_transit":false,"i_lat":-6.161728,"i_long":106.839204,"station_id":"KMO"},{"transit":false,"i_lat":-6.174784,"distance":1436,"is_transit":false,"station_id":"PSE","time":4,"i_long":106.84368,"station_name":"Pasar Senen","line":11},{"is_transit":false,"transit":false,"line":11,"station_name":"Gang Sentiong","distance":1567,"time":8,"i_lat":-6.185975,"station_id":"GST","i_long":106.850107},{"distance":973,"station_id":"KMT","i_lat":-6.193792,"line":11,"station_name":"Kramat","is_transit":false,"time":1,"transit":false,"i_long":106.855437},{"i_long":106.861737,"time":2,"station_name":"Pondok Jati","station_id":"POK","i_lat":-6.209188,"transit":false,"line":11,"distance":1829,"is_transit":false},{"station_name":"Jatinegara","transit":true,"line":1,"station_id":"JNG","i_long":106.86807400000001,"time":9,"i_lat":-6.215091,"distance":1236,"is_transit":true},{"station_name":"Klender","is_transit":false,"transit":false,"time":3,"i_lat":-6.2135,"i_long":106.899548,"line":1,"station_id":"KLD","distance":3395},{"is_transit":false,"time":2,"i_long":106.922662,"station_id":"BUA","station_name":"Buaran","i_lat":-6.215568,"distance":3100,"line":1,"transit":false}]]}