{"data":[[{"line":0,"i_long":106.617853,"station_id":"CC","is_transit":false,"station_name":"Cicayur","i_lat":-6.329547,"distance":0,"time":0,"transit":false},{"i_long":106.640411,"station_name":"Cisauk","transit":false,"distance":2519,"line":0,"time":4,"station_id":"CSK","is_transit":false,"i_lat":-6.32484},{"distance":1784,"station_name":"Serpong","is_transit":false,"station_id":"SRP","i_lat":-6.319871,"i_long":106.66566,"transit":false,"line":6,"time":4},{"station_name":"Rawa Buntu","is_transit":false,"time":4,"transit":false,"station_id":"RU","i_long":106.675475,"i_lat":-6.314823,"line":6,"distance":2413},{"i_long":106.712277,"time":6,"transit":false,"i_lat":-6.296963,"station_id":"SDM","station_name":"Sudimara","is_transit":false,"line":6,"distance":4566},{"time":4,"is_transit":false,"i_long":106.728916,"station_name":"Jurangmangu","distance":1994,"transit":false,"i_lat":-6.288927,"line":6,"station_id":"JMU"},{"time":3,"distance":2179,"station_name":"Pondokranji","line":6,"is_transit":false,"i_lat":-6.276362,"transit":false,"station_id":"PDJ","i_long":106.74273},{"i_long":106.780334,"line":6,"is_transit":false,"station_name":"Kebayoran","i_lat":-6.237242,"distance":6218,"transit":false,"time":8,"station_id":"KBY"},{"time":7,"line":6,"station_id":"PLM","is_transit":false,"distance":3737,"transit":false,"i_lat":-6.207404,"i_long":106.79689,"station_name":"Palmerah"},{"time":6,"line":1,"i_lat":-6.185545,"station_id":"THB","is_transit":true,"station_name":"Tanah Abang","transit":true,"distance":3191,"i_long":106.811091},{"station_id":"KAT","line":1,"i_long":106.816351,"i_lat":-6.20132,"distance":2029,"station_name":"Karet","transit":false,"time":5,"is_transit":false},{"is_transit":false,"station_name":"Sudirman Baru","time":1,"station_id":"SUDB","line":1,"i_long":106.819881,"transit":false,"i_lat":-6.201433,"distance":471},{"i_long":106.822649,"time":1,"transit":false,"i_lat":-6.202263,"station_id":"SUD","distance":280,"is_transit":false,"line":1,"station_name":"Sudirman"},{"line":0,"station_name":"Manggarai","distance":3186,"i_lat":-6.209883,"station_id":"MRI","is_transit":true,"i_long":106.84912,"time":4,"transit":false},{"distance":1275,"station_name":"Matraman","is_transit":false,"line":1,"transit":false,"station_id":"MTR","i_lat":-6.212485,"i_long":106.858896,"time":2},{"line":0,"station_id":"JNG","transit":false,"is_transit":true,"i_lat":-6.215091,"i_long":106.86807400000001,"distance":1377,"station_name":"Jatinegara","time":8},{"station_name":"Klender","is_transit":false,"i_long":106.899548,"station_id":"KLD","transit":false,"line":1,"i_lat":-6.2135,"time":3,"distance":3395},{"i_lat":-6.215568,"is_transit":false,"line":0,"transit":false,"station_name":"Buaran","station_id":"BUA","time":2,"distance":3100,"i_long":106.922662}],[{"is_transit":false,"station_id":"CC","line":0,"distance":0,"time":0,"i_long":106.617853,"transit":false,"i_lat":-6.329547,"station_name":"Cicayur"},{"i_lat":-6.32484,"line":0,"station_id":"CSK","distance":2519,"i_long":106.640411,"is_transit":false,"time":4,"station_name":"Cisauk","transit":false},{"line":6,"station_id":"SRP","time":4,"is_transit":false,"i_lat":-6.319871,"i_long":106.66566,"distance":1784,"transit":false,"station_name":"Serpong"},{"distance":2413,"i_lat":-6.314823,"line":6,"i_long":106.675475,"time":4,"station_name":"Rawa Buntu","is_transit":false,"station_id":"RU","transit":false},{"time":6,"line":6,"i_long":106.712277,"i_lat":-6.296963,"station_name":"Sudimara","transit":false,"distance":4566,"is_transit":false,"station_id":"SDM"},{"i_long":106.728916,"time":4,"is_transit":false,"transit":false,"i_lat":-6.288927,"distance":1994,"station_id":"JMU","station_name":"Jurangmangu","line":6},{"distance":2179,"station_id":"PDJ","time":3,"transit":false,"line":6,"i_long":106.74273,"is_transit":false,"i_lat":-6.276362,"station_name":"Pondokranji"},{"is_transit":false,"i_lat":-6.237242,"line":6,"time":8,"transit":false,"station_name":"Kebayoran","station_id":"KBY","distance":6218,"i_long":106.780334},{"station_id":"PLM","i_lat":-6.207404,"time":7,"is_transit":false,"distance":3737,"line":6,"station_name":"Palmerah","i_long":106.79689,"transit":false},{"i_long":106.811091,"station_name":"Tanah Abang","time":6,"is_transit":true,"i_lat":-6.185545,"line":1,"station_id":"THB","distance":3191,"transit":true},{"i_long":106.800832,"time":8,"transit":true,"station_name":"Duri","distance":3632,"line":1,"station_id":"DU","is_transit":true,"i_lat":-6.155215},{"i_lat":-6.144674,"is_transit":false,"station_id":"AK","distance":1230,"time":4,"transit":false,"i_long":106.79867,"station_name":"Angke","line":0},{"line":0,"station_name":"Kampung Bandan","is_transit":true,"i_lat":-6.132549,"i_long":106.826365,"distance":4102,"transit":true,"station_id":"KPB","time":9},{"i_long":106.836569,"line":11,"station_name":"Rajawali","distance":1444,"is_transit":false,"time":3,"transit":false,"i_lat":-6.14505,"station_id":"RJW"},{"i_long":106.839204,"transit":false,"station_id":"KMO","distance":1901,"is_transit":false,"time":5,"line":11,"station_name":"Kemayoran","i_lat":-6.161728},{"distance":1436,"station_id":"PSE","transit":false,"i_lat":-6.174784,"line":11,"station_name":"Pasar Senen","time":4,"i_long":106.84368,"is_transit":false},{"station_id":"GST","i_long":106.850107,"distance":1567,"line":11,"time":8,"is_transit":false,"transit":false,"station_name":"Gang Sentiong","i_lat":-6.185975},{"time":1,"i_long":106.855437,"line":11,"distance":973,"station_name":"Kramat","i_lat":-6.193792,"station_id":"KMT","is_transit":false,"transit":false},{"transit":false,"i_long":106.861737,"i_lat":-6.209188,"line":11,"station_id":"POK","time":2,"is_transit":false,"station_name":"Pondok Jati","distance":1829},{"station_name":"Jatinegara","line":0,"i_long":106.86807400000001,"distance":1236,"i_lat":-6.215091,"is_transit":true,"transit":true,"time":9,"station_id":"JNG"},{"time":3,"station_id":"KLD","distance":3395,"is_transit":false,"transit":false,"station_name":"Klender","i_lat":-6.2135,"line":1,"i_long":106.899548},{"is_transit":false,"station_id":"BUA","transit":false,"station_name":"Buaran","distance":3100,"i_lat":-6.215568,"time":2,"i_long":106.922662,"line":0}],[{"line":0,"station_id":"CC","is_transit":false,"transit":false,"i_long":106.617853,"time":0,"station_name":"Cicayur","i_lat":-6.329547,"distance":0},{"time":4,"is_transit":false,"i_long":106.640411,"station_id":"CSK","i_lat":-6.32484,"transit":false,"distance":2519,"station_name":"Cisauk","line":0},{"i_lat":-6.319871,"station_name":"Serpong","station_id":"SRP","is_transit":false,"i_long":106.66566,"line":6,"distance":1784,"transit":false,"time":4},{"is_transit":false,"station_id":"RU","distance":2413,"time":4,"transit":false,"station_name":"Rawa Buntu","i_long":106.675475,"i_lat":-6.314823,"line":6},{"station_id":"SDM","distance":4566,"i_long":106.712277,"line":6,"is_transit":false,"time":6,"station_name":"Sudimara","i_lat":-6.296963,"transit":false},{"station_id":"JMU","i_long":106.728916,"is_transit":false,"station_name":"Jurangmangu","time":4,"distance":1994,"transit":false,"i_lat":-6.288927,"line":6},{"time":3,"distance":2179,"transit":false,"i_lat":-6.276362,"is_transit":false,"station_id":"PDJ","station_name":"Pondokranji","i_long":106.74273,"line":6},{"station_name":"Kebayoran","time":8,"distance":6218,"transit":false,"i_lat":-6.237242,"i_long":106.780334,"line":6,"station_id":"KBY","is_transit":false},{"station_id":"PLM","time":7,"distance":3737,"is_transit":false,"station_name":"Palmerah","i_lat":-6.207404,"i_long":106.79689,"transit":false,"line":6},{"station_name":"Tanah Abang","time":6,"distance":3191,"is_transit":true,"transit":true,"i_long":106.811091,"station_id":"THB","i_lat":-6.185545,"line":1},{"i_long":106.800832,"is_transit":true,"time":8,"i_lat":-6.155215,"line":1,"station_id":"DU","distance":3632,"transit":true,"station_name":"Duri"},{"time":4,"station_name":"Angke","i_lat":-6.144674,"i_long":106.79867,"is_transit":false,"distance":1230,"line":0,"station_id":"AK","transit":false},{"station_id":"KPB","i_lat":-6.132549,"line":0,"time":9,"distance":4102,"station_name":"Kampung Bandan","is_transit":true,"transit":false,"i_long":106.826365},{"transit":true,"line":0,"time":3,"station_name":"Jakarta Kota","i_lat":-6.137569,"is_transit":true,"station_id":"JAKK","i_long":106.812439,"distance":1364},{"distance":1264,"i_long":106.820901,"line":7,"station_id":"JAY","time":4,"transit":false,"is_transit":false,"station_name":"Jayakarta","i_lat":-6.141205},{"i_long":106.82482,"is_transit":false,"time":2,"transit":false,"station_name":"Manggabesar","i_lat":-6.149769,"distance":1080,"station_id":"MGB","line":2},{"station_name":"Sawah Besar","distance":906,"is_transit":false,"time":2,"transit":false,"line":2,"station_id":"SW","i_lat":-6.160725,"i_long":106.827103},{"i_lat":-6.166716,"is_transit":false,"station_name":"Juanda","line":2,"transit":false,"station_id":"JUA","distance":1149,"i_long":106.828284,"time":2},{"is_transit":false,"distance":2015,"time":4,"station_name":"Gondangdia","station_id":"GDD","line":2,"transit":false,"i_lat":-6.186295,"i_long":106.832183},{"distance":1750,"is_transit":false,"i_long":106.840169,"line":0,"station_name":"Cikini","transit":false,"i_lat":-6.198556,"time":3,"station_id":"CKI"},{"is_transit":true,"distance":1590,"station_name":"Manggarai","line":0,"i_long":106.84912,"transit":true,"i_lat":-6.209883,"time":4,"station_id":"MRI"},{"i_lat":-6.212485,"station_id":"MTR","line":1,"time":2,"distance":1275,"is_transit":false,"i_long":106.858896,"transit":false,"station_name":"Matraman"},{"distance":1377,"station_id":"JNG","time":8,"line":0,"is_transit":true,"station_name":"Jatinegara","transit":false,"i_lat":-6.215091,"i_long":106.86807400000001},{"is_transit":false,"station_id":"KLD","line":1,"distance":3395,"i_lat":-6.2135,"i_long":106.899548,"time":3,"transit":false,"station_name":"Klender"},{"distance":3100,"station_name":"Buaran","transit":false,"time":2,"i_long":106.922662,"i_lat":-6.215568,"is_transit":false,"station_id":"BUA","line":0}],[{"time":0,"i_lat":-6.329547,"distance":0,"transit":false,"station_id":"CC","is_transit":false,"station_name":"Cicayur","i_long":106.617853,"line":0},{"station_name":"Cisauk","distance":2519,"line":0,"is_transit":false,"station_id":"CSK","i_lat":-6.32484,"i_long":106.640411,"time":4,"transit":false},{"time":4,"i_long":106.66566,"station_id":"SRP","distance":1784,"station_name":"Serpong","is_transit":false,"i_lat":-6.319871,"line":6,"transit":false},{"station_name":"Rawa Buntu","i_long":106.675475,"line":6,"is_transit":false,"distance":2413,"i_lat":-6.314823,"station_id":"RU","transit":false,"time":4},{"i_long":106.712277,"distance":4566,"station_id":"SDM","i_lat":-6.296963,"is_transit":false,"transit":false,"station_name":"Sudimara","time":6,"line":6},{"transit":false,"station_name":"Jurangmangu","station_id":"JMU","time":4,"i_lat":-6.288927,"i_long":106.728916,"distance":1994,"is_transit":false,"line":6},{"station_id":"PDJ","station_name":"Pondokranji","line":6,"is_transit":false,"time":3,"i_long":106.74273,"i_lat":-6.276362,"transit":false,"distance":2179},{"is_transit":false,"station_id":"KBY","transit":false,"station_name":"Kebayoran","line":6,"i_long":106.780334,"time":8,"i_lat":-6.237242,"distance":6218},{"station_name":"Palmerah","i_long":106.79689,"line":6,"i_lat":-6.207404,"station_id":"PLM","time":7,"distance":3737,"is_transit":false,"transit":false},{"is_transit":true,"i_long":106.811091,"station_name":"Tanah Abang","distance":3191,"station_id":"THB","i_lat":-6.185545,"line":1,"time":6,"transit":true},{"station_id":"KAT","time":5,"transit":false,"is_transit":false,"i_lat":-6.20132,"line":1,"distance":2029,"i_long":106.816351,"station_name":"Karet"},{"i_long":106.819881,"is_transit":false,"station_id":"SUDB","distance":471,"transit":false,"station_name":"Sudirman Baru","line":1,"i_lat":-6.201433,"time":1},{"i_lat":-6.202263,"distance":280,"transit":false,"station_name":"Sudirman","i_long":106.822649,"time":1,"line":1,"station_id":"SUD","is_transit":false},{"i_long":106.84912,"line":0,"station_id":"MRI","transit":true,"i_lat":-6.209883,"time":4,"distance":3186,"is_transit":true,"station_name":"Manggarai"},{"time":4,"is_transit":false,"i_lat":-6.198556,"line":0,"transit":false,"station_id":"CKI","distance":1590,"i_long":106.840169,"station_name":"Cikini"},{"is_transit":false,"distance":1750,"time":3,"transit":false,"station_name":"Gondangdia","i_lat":-6.186295,"station_id":"GDD","i_long":106.832183,"line":2},{"transit":false,"i_long":106.828284,"line":2,"station_id":"JUA","time":4,"station_name":"Juanda","distance":2015,"is_transit":false,"i_lat":-6.166716},{"i_lat":-6.160725,"is_transit":false,"station_id":"SW","distance":1149,"i_long":106.827103,"line":2,"time":2,"station_name":"Sawah Besar","transit":false},{"time":2,"is_transit":false,"i_lat":-6.149769,"line":2,"distance":906,"transit":false,"station_id":"MGB","i_long":106.82482,"station_name":"Manggabesar"},{"line":7,"time":2,"is_transit":false,"station_name":"Jayakarta","transit":false,"i_lat":-6.141205,"i_long":106.820901,"station_id":"JAY","distance":1080},{"station_id":"JAKK","transit":true,"time":4,"i_lat":-6.137569,"distance":1264,"station_name":"Jakarta Kota","line":0,"is_transit":true,"i_long":106.812439},{"distance":1364,"station_name":"Kampung Bandan","transit":true,"i_long":106.826365,"i_lat":-6.132549,"line":0,"station_id":"KPB","time":3,"is_transit":true},{"is_transit":false,"i_lat":-6.14505,"station_name":"Rajawali","time":3,"i_long":106.836569,"station_id":"RJW","distance":1444,"transit":false,"line":11},{"i_long":106.839204,"station_id":"KMO","is_transit":false,"i_lat":-6.161728,"distance":1901,"line":11,"station_name":"Kemayoran","transit":false,"time":5},{"station_id":"PSE","i_lat":-6.174784,"is_transit":false,"distance":1436,"transit":false,"station_name":"Pasar Senen","time":4,"i_long":106.84368,"line":11},{"station_name":"Gang Sentiong","time":8,"line":11,"transit":false,"is_transit":false,"i_lat":-6.185975,"station_id":"GST","distance":1567,"i_long":106.850107},{"station_name":"Kramat","line":11,"is_transit":false,"station_id":"KMT","i_long":106.855437,"i_lat":-6.193792,"transit":false,"distance":973,"time":1},{"station_name":"Pondok Jati","i_long":106.861737,"station_id":"POK","is_transit":false,"line":11,"transit":false,"distance":1829,"i_lat":-6.209188,"time":2},{"time":9,"station_name":"Jatinegara","station_id":"JNG","distance":1236,"i_long":106.86807400000001,"is_transit":true,"transit":true,"line":0,"i_lat":-6.215091},{"station_name":"Klender","station_id":"KLD","i_long":106.899548,"line":1,"distance":3395,"transit":false,"time":3,"i_lat":-6.2135,"is_transit":false},{"transit":false,"i_lat":-6.215568,"line":0,"time":2,"distance":3100,"is_transit":false,"station_id":"BUA","i_long":106.922662,"station_name":"Buaran"}]]}