{"data":[[{"line":3,"time":0,"station_id":"CC","i_long":106.617853,"is_transit":false,"i_lat":-6.329547,"distance":0,"transit":false,"station_name":"Cicayur"},{"is_transit":false,"transit":false,"time":4,"distance":2519,"line":3,"i_lat":-6.32484,"i_long":106.640411,"station_name":"Cisauk","station_id":"CSK"},{"station_name":"Serpong","is_transit":false,"transit":false,"i_long":106.66566,"i_lat":-6.319871,"time":4,"distance":1784,"station_id":"SRP","line":6},{"transit":false,"i_lat":-6.314823,"time":4,"line":6,"station_name":"Rawa Buntu","station_id":"RU","distance":2413,"i_long":106.675475,"is_transit":false},{"is_transit":false,"line":6,"distance":4566,"station_id":"SDM","transit":false,"station_name":"Sudimara","time":6,"i_lat":-6.296963,"i_long":106.712277},{"distance":1994,"station_id":"JMU","i_long":106.728916,"transit":false,"i_lat":-6.288927,"is_transit":false,"line":6,"station_name":"Jurangmangu","time":4},{"i_long":106.74273,"line":6,"station_name":"Pondokranji","station_id":"PDJ","is_transit":false,"time":3,"distance":2179,"transit":false,"i_lat":-6.276362},{"i_lat":-6.237242,"station_id":"KBY","is_transit":false,"transit":false,"distance":6218,"i_long":106.780334,"station_name":"Kebayoran","line":6,"time":8},{"time":7,"is_transit":false,"distance":3737,"line":6,"i_lat":-6.207404,"station_name":"Palmerah","station_id":"PLM","transit":false,"i_long":106.79689},{"i_lat":-6.185545,"is_transit":true,"station_id":"THB","line":1,"time":6,"station_name":"Tanah Abang","distance":3191,"transit":true,"i_long":106.811091},{"is_transit":false,"distance":2029,"i_lat":-6.20132,"i_long":106.816351,"line":1,"station_id":"KAT","transit":false,"time":5,"station_name":"Karet"},{"i_lat":-6.201433,"distance":471,"station_id":"SUDB","station_name":"Sudirman Baru","i_long":106.819881,"transit":false,"is_transit":false,"time":1,"line":1},{"station_name":"Sudirman","time":1,"station_id":"SUD","i_lat":-6.202263,"is_transit":false,"distance":280,"line":1,"transit":false,"i_long":106.822649},{"time":4,"i_long":106.84912,"line":2,"distance":3186,"station_id":"MRI","i_lat":-6.209883,"is_transit":false,"station_name":"Manggarai","transit":false},{"i_long":106.858896,"station_id":"MTR","distance":1275,"is_transit":false,"time":2,"i_lat":-6.212485,"line":1,"station_name":"Matraman","transit":false},{"transit":false,"line":1,"station_name":"Jatinegara","i_long":106.86807400000001,"distance":1377,"station_id":"JNG","time":8,"i_lat":-6.215091,"is_transit":false},{"station_name":"Klender","time":3,"distance":3395,"i_lat":-6.2135,"i_long":106.899548,"transit":false,"is_transit":false,"line":1,"station_id":"KLD"},{"time":2,"i_long":106.922662,"station_name":"Buaran","is_transit":false,"distance":3100,"i_lat":-6.215568,"line":1,"transit":false,"station_id":"BUA"},{"station_name":"Klenderbaru","i_lat":-6.217455,"line":1,"time":1,"i_long":106.939679,"distance":1305,"is_transit":false,"transit":false,"station_id":"KLDB"},{"time":8,"station_id":"CUK","is_transit":false,"station_name":"Cakung","distance":1385,"line":1,"transit":false,"i_lat":-6.219053,"i_long":106.951283},{"i_lat":-6.224515,"is_transit":false,"i_long":106.977657,"line":1,"transit":false,"station_name":"Kranji","time":3,"distance":3097,"station_id":"KRI"},{"line":1,"i_long":106.997013,"station_name":"Bekasi","station_id":"BKS","time":4,"transit":false,"i_lat":-6.236616,"distance":2520,"is_transit":false},{"i_lat":-6.248029,"line":1,"distance":2368,"transit":false,"station_name":"Bekasi Timur","is_transit":false,"station_id":"BKST","i_long":107.016735,"time":2}],[{"transit":false,"station_name":"Cicayur","station_id":"CC","i_lat":-6.329547,"i_long":106.617853,"line":3,"time":0,"distance":0,"is_transit":false},{"i_long":106.640411,"i_lat":-6.32484,"is_transit":false,"station_id":"CSK","distance":2519,"time":4,"station_name":"Cisauk","line":3,"transit":false},{"distance":1784,"transit":false,"station_name":"Serpong","i_lat":-6.319871,"line":6,"time":4,"i_long":106.66566,"is_transit":false,"station_id":"SRP"},{"transit":false,"station_name":"Rawa Buntu","station_id":"RU","time":4,"line":6,"is_transit":false,"distance":2413,"i_long":106.675475,"i_lat":-6.314823},{"i_long":106.712277,"transit":false,"station_name":"Sudimara","time":6,"line":6,"distance":4566,"i_lat":-6.296963,"station_id":"SDM","is_transit":false},{"line":6,"station_id":"JMU","is_transit":false,"distance":1994,"station_name":"Jurangmangu","transit":false,"i_lat":-6.288927,"i_long":106.728916,"time":4},{"i_lat":-6.276362,"is_transit":false,"line":6,"station_name":"Pondokranji","i_long":106.74273,"distance":2179,"station_id":"PDJ","time":3,"transit":false},{"i_lat":-6.237242,"station_name":"Kebayoran","transit":false,"station_id":"KBY","time":8,"is_transit":false,"i_long":106.780334,"line":6,"distance":6218},{"distance":3737,"station_id":"PLM","line":6,"transit":false,"station_name":"Palmerah","time":7,"i_lat":-6.207404,"is_transit":false,"i_long":106.79689},{"time":6,"i_long":106.811091,"i_lat":-6.185545,"station_id":"THB","station_name":"Tanah Abang","line":1,"is_transit":true,"transit":true,"distance":3191},{"station_name":"Duri","distance":3632,"station_id":"DU","is_transit":false,"transit":false,"i_long":106.800832,"line":1,"i_lat":-6.155215,"time":8},{"is_transit":false,"i_lat":-6.144674,"station_name":"Angke","line":1,"distance":1230,"time":4,"transit":false,"station_id":"AK","i_long":106.79867},{"i_lat":-6.132549,"station_name":"Kampung Bandan","time":9,"station_id":"KPB","line":4,"is_transit":true,"transit":true,"distance":4102,"i_long":106.826365},{"time":3,"distance":1444,"line":11,"transit":false,"station_name":"Rajawali","station_id":"RJW","is_transit":false,"i_lat":-6.14505,"i_long":106.836569},{"i_lat":-6.161728,"transit":false,"station_name":"Kemayoran","line":11,"distance":1901,"i_long":106.839204,"is_transit":false,"station_id":"KMO","time":5},{"is_transit":false,"station_id":"PSE","i_lat":-6.174784,"station_name":"Pasar Senen","time":4,"transit":false,"i_long":106.84368,"line":11,"distance":1436},{"station_name":"Gang Sentiong","transit":false,"is_transit":false,"distance":1567,"i_lat":-6.185975,"time":8,"i_long":106.850107,"line":11,"station_id":"GST"},{"station_id":"KMT","is_transit":false,"i_lat":-6.193792,"line":11,"transit":false,"time":1,"station_name":"Kramat","distance":973,"i_long":106.855437},{"distance":1829,"is_transit":false,"line":11,"station_id":"POK","transit":false,"station_name":"Pondok Jati","i_lat":-6.209188,"i_long":106.861737,"time":2},{"i_lat":-6.215091,"is_transit":true,"i_long":106.86807400000001,"line":1,"transit":true,"time":9,"station_name":"Jatinegara","station_id":"JNG","distance":1236},{"transit":false,"is_transit":false,"i_lat":-6.2135,"time":3,"station_name":"Klender","i_long":106.899548,"distance":3395,"line":1,"station_id":"KLD"},{"line":1,"is_transit":false,"i_long":106.922662,"station_name":"Buaran","time":2,"transit":false,"station_id":"BUA","distance":3100,"i_lat":-6.215568},{"distance":1305,"line":1,"station_id":"KLDB","time":1,"i_lat":-6.217455,"station_name":"Klenderbaru","i_long":106.939679,"transit":false,"is_transit":false},{"station_name":"Cakung","i_lat":-6.219053,"transit":false,"i_long":106.951283,"line":1,"station_id":"CUK","distance":1385,"time":8,"is_transit":false},{"time":3,"transit":false,"i_lat":-6.224515,"distance":3097,"station_id":"KRI","is_transit":false,"station_name":"Kranji","i_long":106.977657,"line":1},{"distance":2520,"i_lat":-6.236616,"is_transit":false,"i_long":106.997013,"transit":false,"line":1,"station_name":"Bekasi","station_id":"BKS","time":4},{"station_id":"BKST","station_name":"Bekasi Timur","transit":false,"time":2,"i_long":107.016735,"line":1,"is_transit":false,"i_lat":-6.248029,"distance":2368}],[{"distance":0,"station_id":"CC","transit":false,"i_long":106.617853,"station_name":"Cicayur","line":3,"i_lat":-6.329547,"is_transit":false,"time":0},{"station_name":"Cisauk","transit":false,"i_long":106.640411,"distance":2519,"i_lat":-6.32484,"line":3,"is_transit":false,"time":4,"station_id":"CSK"},{"i_lat":-6.319871,"station_name":"Serpong","i_long":106.66566,"station_id":"SRP","distance":1784,"time":4,"is_transit":false,"transit":false,"line":6},{"i_lat":-6.314823,"time":4,"station_id":"RU","line":6,"distance":2413,"i_long":106.675475,"transit":false,"station_name":"Rawa Buntu","is_transit":false},{"station_id":"SDM","transit":false,"station_name":"Sudimara","i_lat":-6.296963,"time":6,"i_long":106.712277,"is_transit":false,"line":6,"distance":4566},{"transit":false,"time":4,"station_id":"JMU","distance":1994,"is_transit":false,"i_lat":-6.288927,"station_name":"Jurangmangu","line":6,"i_long":106.728916},{"is_transit":false,"time":3,"station_id":"PDJ","i_lat":-6.276362,"line":6,"transit":false,"station_name":"Pondokranji","i_long":106.74273,"distance":2179},{"i_long":106.780334,"is_transit":false,"time":8,"line":6,"station_name":"Kebayoran","station_id":"KBY","i_lat":-6.237242,"transit":false,"distance":6218},{"i_long":106.79689,"station_id":"PLM","i_lat":-6.207404,"line":6,"distance":3737,"time":7,"transit":false,"station_name":"Palmerah","is_transit":false},{"transit":true,"distance":3191,"i_long":106.811091,"is_transit":true,"time":6,"station_name":"Tanah Abang","station_id":"THB","i_lat":-6.185545,"line":1},{"i_lat":-6.155215,"line":1,"station_id":"DU","is_transit":false,"distance":3632,"transit":false,"station_name":"Duri","i_long":106.800832,"time":8},{"distance":1230,"is_transit":false,"transit":false,"i_lat":-6.144674,"station_name":"Angke","time":4,"station_id":"AK","i_long":106.79867,"line":1},{"station_id":"KPB","distance":4102,"is_transit":true,"time":9,"station_name":"Kampung Bandan","transit":true,"i_lat":-6.132549,"i_long":106.826365,"line":4},{"station_name":"Jakarta Kota","distance":1364,"i_lat":-6.137569,"transit":true,"line":2,"time":3,"is_transit":true,"station_id":"JAKK","i_long":106.812439},{"line":2,"time":4,"transit":false,"distance":1264,"station_id":"JAY","is_transit":false,"i_lat":-6.141205,"station_name":"Jayakarta","i_long":106.820901},{"station_name":"Manggabesar","time":2,"distance":1080,"i_lat":-6.149769,"line":2,"i_long":106.82482,"transit":false,"is_transit":false,"station_id":"MGB"},{"i_long":106.827103,"line":2,"distance":906,"station_name":"Sawah Besar","station_id":"SW","time":2,"transit":false,"is_transit":false,"i_lat":-6.160725},{"is_transit":false,"transit":false,"distance":1149,"time":2,"i_lat":-6.166716,"station_name":"Juanda","i_long":106.828284,"station_id":"JUA","line":2},{"distance":2015,"station_id":"GDD","is_transit":false,"i_long":106.832183,"line":2,"transit":false,"station_name":"Gondangdia","i_lat":-6.186295,"time":4},{"station_name":"Cikini","transit":false,"station_id":"CKI","is_transit":false,"i_lat":-6.198556,"i_long":106.840169,"time":3,"line":2,"distance":1750},{"i_long":106.84912,"station_name":"Manggarai","i_lat":-6.209883,"station_id":"MRI","is_transit":true,"time":4,"distance":1590,"line":2,"transit":true},{"station_id":"MTR","i_long":106.858896,"time":2,"i_lat":-6.212485,"line":1,"distance":1275,"transit":false,"station_name":"Matraman","is_transit":false},{"line":1,"station_id":"JNG","transit":false,"station_name":"Jatinegara","time":8,"i_long":106.86807400000001,"is_transit":false,"distance":1377,"i_lat":-6.215091},{"line":1,"distance":3395,"i_lat":-6.2135,"station_name":"Klender","time":3,"station_id":"KLD","i_long":106.899548,"transit":false,"is_transit":false},{"distance":3100,"time":2,"i_lat":-6.215568,"station_id":"BUA","station_name":"Buaran","i_long":106.922662,"line":1,"transit":false,"is_transit":false},{"i_long":106.939679,"transit":false,"station_name":"Klenderbaru","is_transit":false,"distance":1305,"line":1,"i_lat":-6.217455,"time":1,"station_id":"KLDB"},{"is_transit":false,"time":8,"i_long":106.951283,"station_id":"CUK","i_lat":-6.219053,"transit":false,"station_name":"Cakung","distance":1385,"line":1},{"station_name":"Kranji","i_lat":-6.224515,"i_long":106.977657,"is_transit":false,"station_id":"KRI","distance":3097,"line":1,"transit":false,"time":3},{"line":1,"station_name":"Bekasi","time":4,"station_id":"BKS","transit":false,"is_transit":false,"distance":2520,"i_long":106.997013,"i_lat":-6.236616},{"i_long":107.016735,"station_name":"Bekasi Timur","station_id":"BKST","transit":false,"time":2,"is_transit":false,"i_lat":-6.248029,"line":1,"distance":2368}],[{"distance":0,"transit":false,"station_id":"CC","time":0,"is_transit":false,"i_long":106.617853,"station_name":"Cicayur","line":3,"i_lat":-6.329547},{"time":4,"i_lat":-6.32484,"transit":false,"line":3,"distance":2519,"i_long":106.640411,"station_id":"CSK","station_name":"Cisauk","is_transit":false},{"i_long":106.66566,"line":6,"i_lat":-6.319871,"station_name":"Serpong","station_id":"SRP","is_transit":false,"transit":false,"distance":1784,"time":4},{"transit":false,"time":4,"i_long":106.675475,"station_id":"RU","station_name":"Rawa Buntu","distance":2413,"i_lat":-6.314823,"line":6,"is_transit":false},{"is_transit":false,"i_lat":-6.296963,"station_id":"SDM","i_long":106.712277,"station_name":"Sudimara","line":6,"time":6,"transit":false,"distance":4566},{"i_long":106.728916,"time":4,"line":6,"station_id":"JMU","transit":false,"station_name":"Jurangmangu","distance":1994,"i_lat":-6.288927,"is_transit":false},{"transit":false,"i_lat":-6.276362,"station_name":"Pondokranji","i_long":106.74273,"distance":2179,"line":6,"station_id":"PDJ","is_transit":false,"time":3},{"time":8,"line":6,"station_id":"KBY","is_transit":false,"station_name":"Kebayoran","distance":6218,"i_long":106.780334,"transit":false,"i_lat":-6.237242},{"time":7,"i_lat":-6.207404,"line":6,"station_id":"PLM","transit":false,"is_transit":false,"distance":3737,"station_name":"Palmerah","i_long":106.79689},{"line":1,"transit":true,"is_transit":true,"station_name":"Tanah Abang","distance":3191,"i_lat":-6.185545,"time":6,"i_long":106.811091,"station_id":"THB"},{"distance":2029,"i_long":106.816351,"station_id":"KAT","transit":false,"station_name":"Karet","i_lat":-6.20132,"line":1,"is_transit":false,"time":5},{"station_id":"SUDB","time":1,"transit":false,"distance":471,"i_lat":-6.201433,"line":1,"station_name":"Sudirman Baru","is_transit":false,"i_long":106.819881},{"station_id":"SUD","transit":false,"is_transit":false,"time":1,"distance":280,"i_lat":-6.202263,"i_long":106.822649,"line":1,"station_name":"Sudirman"},{"i_lat":-6.209883,"i_long":106.84912,"station_id":"MRI","station_name":"Manggarai","is_transit":true,"time":4,"transit":true,"line":2,"distance":3186},{"distance":1590,"is_transit":false,"i_lat":-6.198556,"i_long":106.840169,"station_id":"CKI","time":4,"transit":false,"station_name":"Cikini","line":2},{"i_long":106.832183,"line":2,"distance":1750,"transit":false,"i_lat":-6.186295,"is_transit":false,"time":3,"station_name":"Gondangdia","station_id":"GDD"},{"is_transit":false,"i_lat":-6.166716,"transit":false,"i_long":106.828284,"station_name":"Juanda","station_id":"JUA","line":2,"time":4,"distance":2015},{"transit":false,"distance":1149,"station_id":"SW","i_long":106.827103,"is_transit":false,"station_name":"Sawah Besar","time":2,"line":2,"i_lat":-6.160725},{"distance":906,"station_id":"MGB","time":2,"transit":false,"i_lat":-6.149769,"is_transit":false,"i_long":106.82482,"line":2,"station_name":"Manggabesar"},{"station_name":"Jayakarta","station_id":"JAY","i_long":106.820901,"transit":false,"line":2,"i_lat":-6.141205,"time":2,"distance":1080,"is_transit":false},{"station_name":"Jakarta Kota","time":4,"transit":true,"station_id":"JAKK","is_transit":true,"distance":1264,"i_long":106.812439,"line":2,"i_lat":-6.137569},{"is_transit":true,"line":4,"i_lat":-6.132549,"distance":1364,"transit":true,"station_id":"KPB","time":3,"station_name":"Kampung Bandan","i_long":106.826365},{"is_transit":false,"transit":false,"station_name":"Rajawali","line":11,"distance":1444,"station_id":"RJW","i_lat":-6.14505,"time":3,"i_long":106.836569},{"i_lat":-6.161728,"line":11,"station_id":"KMO","station_name":"Kemayoran","time":5,"distance":1901,"transit":false,"i_long":106.839204,"is_transit":false},{"is_transit":false,"transit":false,"station_id":"PSE","time":4,"distance":1436,"i_long":106.84368,"i_lat":-6.174784,"station_name":"Pasar Senen","line":11},{"station_id":"GST","is_transit":false,"transit":false,"time":8,"i_lat":-6.185975,"line":11,"distance":1567,"i_long":106.850107,"station_name":"Gang Sentiong"},{"station_id":"KMT","line":11,"station_name":"Kramat","transit":false,"is_transit":false,"time":1,"distance":973,"i_lat":-6.193792,"i_long":106.855437},{"transit":false,"station_name":"Pondok Jati","is_transit":false,"station_id":"POK","time":2,"line":11,"i_long":106.861737,"distance":1829,"i_lat":-6.209188},{"i_lat":-6.215091,"transit":true,"line":1,"station_name":"Jatinegara","is_transit":true,"i_long":106.86807400000001,"time":9,"station_id":"JNG","distance":1236},{"station_id":"KLD","transit":false,"time":3,"is_transit":false,"i_lat":-6.2135,"line":1,"station_name":"Klender","i_long":106.899548,"distance":3395},{"i_long":106.922662,"station_id":"BUA","distance":3100,"line":1,"time":2,"station_name":"Buaran","transit":false,"i_lat":-6.215568,"is_transit":false},{"line":1,"distance":1305,"transit":false,"time":1,"i_long":106.939679,"station_name":"Klenderbaru","station_id":"KLDB","i_lat":-6.217455,"is_transit":false},{"transit":false,"station_name":"Cakung","station_id":"CUK","distance":1385,"is_transit":false,"i_lat":-6.219053,"line":1,"i_long":106.951283,"time":8},{"i_long":106.977657,"line":1,"transit":false,"is_transit":false,"station_name":"Kranji","station_id":"KRI","time":3,"distance":3097,"i_lat":-6.224515},{"station_id":"BKS","line":1,"is_transit":false,"time":4,"i_lat":-6.236616,"i_long":106.997013,"station_name":"Bekasi","distance":2520,"transit":false},{"time":2,"station_name":"Bekasi Timur","is_transit":false,"line":1,"distance":2368,"i_lat":-6.248029,"station_id":"BKST","transit":false,"i_long":107.016735}]]}