{"data":[[{"time":0,"distance":0,"i_lat":-6.329547,"is_transit":false,"transit":false,"i_long":106.617853,"station_id":"CC","line":0,"station_name":"Cicayur"},{"station_id":"CSK","time":4,"distance":2519,"line":0,"is_transit":false,"station_name":"Cisauk","transit":false,"i_lat":-6.32484,"i_long":106.640411},{"distance":1784,"i_lat":-6.319871,"i_long":106.66566,"station_id":"SRP","is_transit":false,"line":6,"time":4,"station_name":"Serpong","transit":false},{"time":4,"station_name":"Rawa Buntu","i_lat":-6.314823,"i_long":106.675475,"station_id":"RU","is_transit":false,"distance":2413,"line":6,"transit":false},{"i_lat":-6.296963,"is_transit":false,"station_id":"SDM","i_long":106.712277,"transit":false,"distance":4566,"station_name":"Sudimara","time":6,"line":6},{"transit":false,"distance":1994,"i_lat":-6.288927,"line":6,"is_transit":false,"time":4,"i_long":106.728916,"station_id":"JMU","station_name":"Jurangmangu"},{"distance":2179,"time":3,"station_id":"PDJ","transit":false,"line":6,"station_name":"Pondokranji","i_lat":-6.276362,"is_transit":false,"i_long":106.74273},{"station_name":"Kebayoran","distance":6218,"transit":false,"time":8,"i_long":106.780334,"i_lat":-6.237242,"station_id":"KBY","is_transit":false,"line":6},{"is_transit":false,"line":6,"station_id":"PLM","station_name":"Palmerah","i_long":106.79689,"i_lat":-6.207404,"time":7,"distance":3737,"transit":false},{"station_id":"THB","is_transit":true,"transit":true,"station_name":"Tanah Abang","i_long":106.811091,"time":6,"i_lat":-6.185545,"distance":3191,"line":1},{"station_name":"Karet","line":1,"station_id":"KAT","distance":2029,"i_long":106.816351,"is_transit":false,"transit":false,"time":5,"i_lat":-6.20132},{"time":1,"station_name":"Sudirman Baru","transit":false,"i_lat":-6.201433,"station_id":"SUDB","is_transit":false,"i_long":106.819881,"line":1,"distance":471},{"transit":false,"station_name":"Sudirman","line":1,"i_long":106.822649,"station_id":"SUD","time":1,"is_transit":false,"i_lat":-6.202263,"distance":280},{"i_lat":-6.209883,"station_name":"Manggarai","time":4,"i_long":106.84912,"distance":3186,"transit":false,"line":0,"station_id":"MRI","is_transit":true},{"is_transit":false,"line":1,"time":2,"distance":1275,"station_id":"MTR","transit":false,"i_lat":-6.212485,"station_name":"Matraman","i_long":106.858896},{"line":0,"is_transit":true,"i_lat":-6.215091,"transit":false,"time":8,"distance":1377,"station_id":"JNG","station_name":"Jatinegara","i_long":106.86807400000001},{"station_id":"KLD","time":3,"station_name":"Klender","distance":3395,"transit":false,"line":1,"i_long":106.899548,"is_transit":false,"i_lat":-6.2135},{"i_long":106.922662,"line":0,"transit":false,"distance":3100,"i_lat":-6.215568,"time":2,"station_name":"Buaran","station_id":"BUA","is_transit":false},{"time":1,"line":1,"i_lat":-6.217455,"station_name":"Klenderbaru","is_transit":false,"station_id":"KLDB","distance":1305,"i_long":106.939679,"transit":false},{"i_lat":-6.219053,"line":0,"time":8,"is_transit":false,"transit":false,"distance":1385,"i_long":106.951283,"station_id":"CUK","station_name":"Cakung"},{"transit":false,"station_id":"KRI","i_lat":-6.224515,"station_name":"Kranji","line":1,"i_long":106.977657,"distance":3097,"is_transit":false,"time":3},{"station_id":"BKS","transit":false,"i_lat":-6.236616,"station_name":"Bekasi","i_long":106.997013,"line":0,"distance":2520,"is_transit":false,"time":4},{"transit":false,"time":2,"i_long":107.016735,"line":0,"distance":2368,"station_id":"BKST","is_transit":false,"station_name":"Bekasi Timur","i_lat":-6.248029}],[{"time":0,"i_long":106.617853,"distance":0,"station_id":"CC","line":0,"transit":false,"i_lat":-6.329547,"is_transit":false,"station_name":"Cicayur"},{"transit":false,"i_lat":-6.32484,"station_name":"Cisauk","distance":2519,"line":0,"station_id":"CSK","i_long":106.640411,"time":4,"is_transit":false},{"transit":false,"is_transit":false,"station_id":"SRP","time":4,"i_long":106.66566,"i_lat":-6.319871,"station_name":"Serpong","line":6,"distance":1784},{"station_name":"Rawa Buntu","i_lat":-6.314823,"distance":2413,"i_long":106.675475,"time":4,"transit":false,"line":6,"station_id":"RU","is_transit":false},{"transit":false,"station_id":"SDM","is_transit":false,"time":6,"i_lat":-6.296963,"distance":4566,"line":6,"i_long":106.712277,"station_name":"Sudimara"},{"time":4,"station_id":"JMU","distance":1994,"station_name":"Jurangmangu","is_transit":false,"i_lat":-6.288927,"line":6,"transit":false,"i_long":106.728916},{"distance":2179,"i_lat":-6.276362,"line":6,"is_transit":false,"i_long":106.74273,"transit":false,"station_name":"Pondokranji","time":3,"station_id":"PDJ"},{"time":8,"distance":6218,"i_lat":-6.237242,"transit":false,"is_transit":false,"station_name":"Kebayoran","i_long":106.780334,"line":6,"station_id":"KBY"},{"transit":false,"is_transit":false,"distance":3737,"station_name":"Palmerah","i_lat":-6.207404,"i_long":106.79689,"station_id":"PLM","time":7,"line":6},{"transit":true,"time":6,"is_transit":true,"i_long":106.811091,"line":1,"station_id":"THB","i_lat":-6.185545,"distance":3191,"station_name":"Tanah Abang"},{"station_name":"Duri","station_id":"DU","transit":true,"i_long":106.800832,"time":8,"i_lat":-6.155215,"line":1,"is_transit":true,"distance":3632},{"distance":1230,"transit":false,"station_id":"AK","is_transit":false,"line":0,"i_lat":-6.144674,"station_name":"Angke","i_long":106.79867,"time":4},{"station_id":"KPB","transit":true,"i_lat":-6.132549,"distance":4102,"station_name":"Kampung Bandan","line":0,"time":9,"i_long":106.826365,"is_transit":true},{"station_name":"Rajawali","transit":false,"line":11,"is_transit":false,"station_id":"RJW","i_lat":-6.14505,"time":3,"distance":1444,"i_long":106.836569},{"is_transit":false,"station_id":"KMO","distance":1901,"transit":false,"station_name":"Kemayoran","time":5,"i_lat":-6.161728,"line":11,"i_long":106.839204},{"is_transit":false,"distance":1436,"station_name":"Pasar Senen","i_lat":-6.174784,"i_long":106.84368,"station_id":"PSE","time":4,"transit":false,"line":11},{"station_id":"GST","transit":false,"time":8,"i_lat":-6.185975,"station_name":"Gang Sentiong","is_transit":false,"i_long":106.850107,"line":11,"distance":1567},{"line":11,"station_id":"KMT","distance":973,"is_transit":false,"station_name":"Kramat","i_long":106.855437,"transit":false,"time":1,"i_lat":-6.193792},{"i_lat":-6.209188,"transit":false,"station_id":"POK","time":2,"i_long":106.861737,"station_name":"Pondok Jati","distance":1829,"is_transit":false,"line":11},{"station_name":"Jatinegara","is_transit":true,"line":0,"distance":1236,"station_id":"JNG","i_long":106.86807400000001,"transit":true,"i_lat":-6.215091,"time":9},{"station_name":"Klender","station_id":"KLD","i_lat":-6.2135,"time":3,"i_long":106.899548,"is_transit":false,"transit":false,"line":1,"distance":3395},{"distance":3100,"line":0,"station_name":"Buaran","is_transit":false,"i_lat":-6.215568,"i_long":106.922662,"station_id":"BUA","time":2,"transit":false},{"i_lat":-6.217455,"i_long":106.939679,"station_name":"Klenderbaru","station_id":"KLDB","is_transit":false,"line":1,"distance":1305,"time":1,"transit":false},{"line":0,"station_id":"CUK","i_long":106.951283,"distance":1385,"i_lat":-6.219053,"is_transit":false,"station_name":"Cakung","transit":false,"time":8},{"i_lat":-6.224515,"line":1,"station_id":"KRI","is_transit":false,"distance":3097,"station_name":"Kranji","transit":false,"time":3,"i_long":106.977657},{"time":4,"i_long":106.997013,"is_transit":false,"distance":2520,"i_lat":-6.236616,"station_id":"BKS","station_name":"Bekasi","line":0,"transit":false},{"transit":false,"station_id":"BKST","station_name":"Bekasi Timur","i_lat":-6.248029,"distance":2368,"is_transit":false,"time":2,"i_long":107.016735,"line":0}],[{"is_transit":false,"line":0,"station_id":"CC","i_long":106.617853,"station_name":"Cicayur","time":0,"distance":0,"i_lat":-6.329547,"transit":false},{"line":0,"station_id":"CSK","time":4,"distance":2519,"station_name":"Cisauk","transit":false,"is_transit":false,"i_long":106.640411,"i_lat":-6.32484},{"is_transit":false,"station_name":"Serpong","i_long":106.66566,"line":6,"transit":false,"time":4,"station_id":"SRP","distance":1784,"i_lat":-6.319871},{"i_long":106.675475,"i_lat":-6.314823,"time":4,"is_transit":false,"line":6,"station_name":"Rawa Buntu","transit":false,"station_id":"RU","distance":2413},{"i_long":106.712277,"transit":false,"i_lat":-6.296963,"is_transit":false,"station_id":"SDM","station_name":"Sudimara","line":6,"distance":4566,"time":6},{"i_long":106.728916,"time":4,"transit":false,"distance":1994,"is_transit":false,"station_id":"JMU","i_lat":-6.288927,"station_name":"Jurangmangu","line":6},{"distance":2179,"station_name":"Pondokranji","transit":false,"i_lat":-6.276362,"line":6,"i_long":106.74273,"station_id":"PDJ","is_transit":false,"time":3},{"i_lat":-6.237242,"time":8,"transit":false,"station_id":"KBY","i_long":106.780334,"station_name":"Kebayoran","is_transit":false,"line":6,"distance":6218},{"station_id":"PLM","i_long":106.79689,"is_transit":false,"distance":3737,"station_name":"Palmerah","time":7,"i_lat":-6.207404,"line":6,"transit":false},{"station_id":"THB","distance":3191,"transit":true,"time":6,"is_transit":true,"station_name":"Tanah Abang","line":1,"i_long":106.811091,"i_lat":-6.185545},{"station_id":"DU","is_transit":true,"i_lat":-6.155215,"time":8,"line":1,"distance":3632,"station_name":"Duri","transit":true,"i_long":106.800832},{"transit":false,"time":4,"station_id":"AK","line":0,"is_transit":false,"station_name":"Angke","i_lat":-6.144674,"i_long":106.79867,"distance":1230},{"line":0,"i_lat":-6.132549,"station_id":"KPB","distance":4102,"i_long":106.826365,"is_transit":true,"time":9,"transit":false,"station_name":"Kampung Bandan"},{"is_transit":true,"time":3,"distance":1364,"i_lat":-6.137569,"i_long":106.812439,"line":0,"station_name":"Jakarta Kota","station_id":"JAKK","transit":true},{"distance":1264,"i_lat":-6.141205,"line":7,"station_name":"Jayakarta","is_transit":false,"time":4,"i_long":106.820901,"transit":false,"station_id":"JAY"},{"time":2,"transit":false,"i_long":106.82482,"is_transit":false,"i_lat":-6.149769,"line":2,"station_id":"MGB","station_name":"Manggabesar","distance":1080},{"line":2,"time":2,"station_id":"SW","transit":false,"i_lat":-6.160725,"distance":906,"i_long":106.827103,"is_transit":false,"station_name":"Sawah Besar"},{"is_transit":false,"i_lat":-6.166716,"transit":false,"station_name":"Juanda","station_id":"JUA","i_long":106.828284,"time":2,"line":2,"distance":1149},{"station_name":"Gondangdia","transit":false,"distance":2015,"station_id":"GDD","is_transit":false,"time":4,"i_long":106.832183,"i_lat":-6.186295,"line":2},{"line":0,"time":3,"i_lat":-6.198556,"station_name":"Cikini","i_long":106.840169,"station_id":"CKI","is_transit":false,"distance":1750,"transit":false},{"station_id":"MRI","distance":1590,"is_transit":true,"time":4,"i_long":106.84912,"line":0,"transit":true,"station_name":"Manggarai","i_lat":-6.209883},{"distance":1275,"transit":false,"i_long":106.858896,"time":2,"station_name":"Matraman","is_transit":false,"line":1,"i_lat":-6.212485,"station_id":"MTR"},{"transit":false,"time":8,"distance":1377,"i_lat":-6.215091,"line":0,"i_long":106.86807400000001,"station_name":"Jatinegara","is_transit":true,"station_id":"JNG"},{"transit":false,"station_id":"KLD","time":3,"i_long":106.899548,"station_name":"Klender","i_lat":-6.2135,"is_transit":false,"distance":3395,"line":1},{"time":2,"distance":3100,"i_long":106.922662,"line":0,"i_lat":-6.215568,"station_id":"BUA","station_name":"Buaran","is_transit":false,"transit":false},{"i_lat":-6.217455,"distance":1305,"time":1,"station_id":"KLDB","line":1,"station_name":"Klenderbaru","transit":false,"is_transit":false,"i_long":106.939679},{"station_id":"CUK","is_transit":false,"i_lat":-6.219053,"distance":1385,"time":8,"i_long":106.951283,"line":0,"transit":false,"station_name":"Cakung"},{"distance":3097,"line":1,"i_lat":-6.224515,"i_long":106.977657,"transit":false,"time":3,"station_name":"Kranji","station_id":"KRI","is_transit":false},{"i_lat":-6.236616,"i_long":106.997013,"distance":2520,"station_id":"BKS","line":0,"is_transit":false,"time":4,"station_name":"Bekasi","transit":false},{"time":2,"station_id":"BKST","is_transit":false,"i_long":107.016735,"i_lat":-6.248029,"transit":false,"distance":2368,"station_name":"Bekasi Timur","line":0}],[{"station_name":"Cicayur","transit":false,"station_id":"CC","time":0,"i_long":106.617853,"is_transit":false,"distance":0,"line":0,"i_lat":-6.329547},{"line":0,"is_transit":false,"i_lat":-6.32484,"station_id":"CSK","transit":false,"distance":2519,"i_long":106.640411,"time":4,"station_name":"Cisauk"},{"is_transit":false,"distance":1784,"time":4,"line":6,"station_name":"Serpong","station_id":"SRP","transit":false,"i_long":106.66566,"i_lat":-6.319871},{"station_id":"RU","distance":2413,"time":4,"i_lat":-6.314823,"i_long":106.675475,"line":6,"is_transit":false,"station_name":"Rawa Buntu","transit":false},{"i_long":106.712277,"station_id":"SDM","is_transit":false,"i_lat":-6.296963,"time":6,"line":6,"distance":4566,"station_name":"Sudimara","transit":false},{"i_lat":-6.288927,"transit":false,"line":6,"station_id":"JMU","time":4,"i_long":106.728916,"is_transit":false,"distance":1994,"station_name":"Jurangmangu"},{"line":6,"i_long":106.74273,"station_id":"PDJ","transit":false,"i_lat":-6.276362,"is_transit":false,"station_name":"Pondokranji","time":3,"distance":2179},{"distance":6218,"transit":false,"station_id":"KBY","i_lat":-6.237242,"time":8,"line":6,"is_transit":false,"station_name":"Kebayoran","i_long":106.780334},{"is_transit":false,"distance":3737,"line":6,"transit":false,"station_id":"PLM","station_name":"Palmerah","i_long":106.79689,"i_lat":-6.207404,"time":7},{"i_long":106.811091,"line":1,"station_id":"THB","station_name":"Tanah Abang","i_lat":-6.185545,"is_transit":true,"distance":3191,"transit":true,"time":6},{"time":5,"station_name":"Karet","transit":false,"line":1,"i_long":106.816351,"station_id":"KAT","is_transit":false,"i_lat":-6.20132,"distance":2029},{"station_id":"SUDB","is_transit":false,"time":1,"station_name":"Sudirman Baru","distance":471,"transit":false,"i_lat":-6.201433,"i_long":106.819881,"line":1},{"station_name":"Sudirman","distance":280,"i_long":106.822649,"station_id":"SUD","i_lat":-6.202263,"transit":false,"time":1,"is_transit":false,"line":1},{"time":4,"is_transit":true,"station_id":"MRI","i_lat":-6.209883,"transit":true,"line":0,"distance":3186,"station_name":"Manggarai","i_long":106.84912},{"line":0,"i_long":106.840169,"time":4,"transit":false,"i_lat":-6.198556,"station_name":"Cikini","is_transit":false,"distance":1590,"station_id":"CKI"},{"distance":1750,"transit":false,"station_name":"Gondangdia","is_transit":false,"time":3,"i_long":106.832183,"line":2,"i_lat":-6.186295,"station_id":"GDD"},{"i_long":106.828284,"line":2,"transit":false,"distance":2015,"station_id":"JUA","i_lat":-6.166716,"time":4,"is_transit":false,"station_name":"Juanda"},{"is_transit":false,"i_long":106.827103,"line":2,"station_id":"SW","i_lat":-6.160725,"distance":1149,"time":2,"station_name":"Sawah Besar","transit":false},{"i_lat":-6.149769,"line":2,"transit":false,"station_name":"Manggabesar","is_transit":false,"time":2,"station_id":"MGB","i_long":106.82482,"distance":906},{"station_name":"Jayakarta","time":2,"line":7,"station_id":"JAY","is_transit":false,"distance":1080,"transit":false,"i_long":106.820901,"i_lat":-6.141205},{"station_name":"Jakarta Kota","i_long":106.812439,"line":0,"transit":true,"station_id":"JAKK","is_transit":true,"time":4,"distance":1264,"i_lat":-6.137569},{"distance":1364,"station_name":"Kampung Bandan","transit":true,"i_lat":-6.132549,"line":0,"i_long":106.826365,"is_transit":true,"time":3,"station_id":"KPB"},{"station_id":"RJW","i_long":106.836569,"time":3,"transit":false,"is_transit":false,"line":11,"i_lat":-6.14505,"distance":1444,"station_name":"Rajawali"},{"line":11,"transit":false,"station_name":"Kemayoran","distance":1901,"i_long":106.839204,"is_transit":false,"time":5,"i_lat":-6.161728,"station_id":"KMO"},{"transit":false,"is_transit":false,"time":4,"distance":1436,"i_lat":-6.174784,"line":11,"i_long":106.84368,"station_name":"Pasar Senen","station_id":"PSE"},{"station_name":"Gang Sentiong","i_long":106.850107,"transit":false,"line":11,"station_id":"GST","distance":1567,"time":8,"is_transit":false,"i_lat":-6.185975},{"transit":false,"is_transit":false,"distance":973,"i_long":106.855437,"time":1,"station_id":"KMT","i_lat":-6.193792,"station_name":"Kramat","line":11},{"station_name":"Pondok Jati","transit":false,"i_long":106.861737,"time":2,"distance":1829,"is_transit":false,"line":11,"station_id":"POK","i_lat":-6.209188},{"time":9,"station_name":"Jatinegara","is_transit":true,"station_id":"JNG","i_lat":-6.215091,"i_long":106.86807400000001,"distance":1236,"transit":true,"line":0},{"station_name":"Klender","i_lat":-6.2135,"line":1,"i_long":106.899548,"time":3,"is_transit":false,"station_id":"KLD","transit":false,"distance":3395},{"i_long":106.922662,"time":2,"line":0,"transit":false,"i_lat":-6.215568,"station_id":"BUA","is_transit":false,"distance":3100,"station_name":"Buaran"},{"station_id":"KLDB","is_transit":false,"i_lat":-6.217455,"station_name":"Klenderbaru","time":1,"line":1,"distance":1305,"transit":false,"i_long":106.939679},{"i_long":106.951283,"distance":1385,"station_id":"CUK","is_transit":false,"station_name":"Cakung","line":0,"transit":false,"time":8,"i_lat":-6.219053},{"distance":3097,"transit":false,"is_transit":false,"station_name":"Kranji","i_long":106.977657,"station_id":"KRI","time":3,"i_lat":-6.224515,"line":1},{"distance":2520,"transit":false,"line":0,"time":4,"station_id":"BKS","i_lat":-6.236616,"i_long":106.997013,"station_name":"Bekasi","is_transit":false},{"distance":2368,"i_lat":-6.248029,"time":2,"line":0,"station_id":"BKST","is_transit":false,"i_long":107.016735,"station_name":"Bekasi Timur","transit":false}]]}