{"data":[[{"station_name":"Cicayur","i_lat":-6.329547,"is_transit":false,"i_long":106.617853,"transit":false,"station_id":"CC","distance":0,"time":0,"line":3},{"i_lat":-6.32484,"station_id":"CSK","is_transit":false,"station_name":"Cisauk","transit":false,"i_long":106.640411,"line":3,"time":4,"distance":2519},{"station_name":"Serpong","transit":false,"i_long":106.66566,"line":6,"station_id":"SRP","i_lat":-6.319871,"is_transit":false,"time":4,"distance":1784},{"transit":false,"distance":2413,"i_long":106.675475,"i_lat":-6.314823,"is_transit":false,"line":6,"station_id":"RU","time":4,"station_name":"Rawa Buntu"},{"line":6,"is_transit":false,"time":6,"i_lat":-6.296963,"distance":4566,"i_long":106.712277,"transit":false,"station_name":"Sudimara","station_id":"SDM"},{"line":6,"station_id":"JMU","transit":false,"time":4,"i_lat":-6.288927,"distance":1994,"station_name":"Jurangmangu","is_transit":false,"i_long":106.728916},{"station_name":"Pondokranji","station_id":"PDJ","time":3,"i_lat":-6.276362,"distance":2179,"i_long":106.74273,"is_transit":false,"transit":false,"line":6},{"i_long":106.780334,"transit":false,"distance":6218,"i_lat":-6.237242,"line":6,"station_name":"Kebayoran","station_id":"KBY","is_transit":false,"time":8},{"distance":3737,"station_id":"PLM","transit":false,"is_transit":false,"i_lat":-6.207404,"i_long":106.79689,"station_name":"Palmerah","line":6,"time":7},{"i_long":106.811091,"line":1,"transit":true,"station_name":"Tanah Abang","station_id":"THB","time":6,"is_transit":true,"distance":3191,"i_lat":-6.185545},{"i_lat":-6.20132,"i_long":106.816351,"transit":false,"station_name":"Karet","distance":2029,"is_transit":false,"station_id":"KAT","time":5,"line":1},{"time":1,"is_transit":false,"station_id":"SUDB","i_lat":-6.201433,"transit":false,"i_long":106.819881,"line":1,"station_name":"Sudirman Baru","distance":471},{"line":1,"i_long":106.822649,"transit":false,"station_name":"Sudirman","station_id":"SUD","i_lat":-6.202263,"time":1,"distance":280,"is_transit":false},{"is_transit":true,"distance":3186,"i_long":106.84912,"line":2,"i_lat":-6.209883,"station_name":"Manggarai","transit":true,"station_id":"MRI","time":4},{"is_transit":false,"station_name":"Cikini","transit":false,"time":4,"i_long":106.840169,"i_lat":-6.198556,"distance":1590,"station_id":"CKI","line":2}],[{"line":3,"i_long":106.617853,"time":0,"i_lat":-6.329547,"distance":0,"station_id":"CC","is_transit":false,"transit":false,"station_name":"Cicayur"},{"transit":false,"i_long":106.640411,"time":4,"distance":2519,"is_transit":false,"i_lat":-6.32484,"line":3,"station_name":"Cisauk","station_id":"CSK"},{"i_lat":-6.319871,"i_long":106.66566,"distance":1784,"station_name":"Serpong","line":6,"is_transit":false,"station_id":"SRP","transit":false,"time":4},{"time":4,"line":6,"transit":false,"i_long":106.675475,"i_lat":-6.314823,"distance":2413,"station_id":"RU","station_name":"Rawa Buntu","is_transit":false},{"line":6,"i_long":106.712277,"transit":false,"is_transit":false,"time":6,"distance":4566,"station_name":"Sudimara","station_id":"SDM","i_lat":-6.296963},{"station_name":"Jurangmangu","i_long":106.728916,"i_lat":-6.288927,"distance":1994,"station_id":"JMU","line":6,"time":4,"is_transit":false,"transit":false},{"distance":2179,"time":3,"station_id":"PDJ","i_long":106.74273,"line":6,"is_transit":false,"i_lat":-6.276362,"station_name":"Pondokranji","transit":false},{"station_id":"KBY","station_name":"Kebayoran","i_long":106.780334,"is_transit":false,"line":6,"time":8,"i_lat":-6.237242,"transit":false,"distance":6218},{"station_name":"Palmerah","distance":3737,"station_id":"PLM","transit":false,"line":6,"i_lat":-6.207404,"time":7,"is_transit":false,"i_long":106.79689},{"is_transit":true,"station_id":"THB","station_name":"Tanah Abang","time":6,"distance":3191,"line":1,"transit":true,"i_lat":-6.185545,"i_long":106.811091},{"i_lat":-6.155215,"i_long":106.800832,"station_name":"Duri","time":8,"station_id":"DU","is_transit":false,"line":1,"distance":3632,"transit":false},{"station_name":"Angke","station_id":"AK","is_transit":false,"i_lat":-6.144674,"line":1,"transit":false,"time":4,"i_long":106.79867,"distance":1230},{"i_lat":-6.132549,"station_id":"KPB","i_long":106.826365,"station_name":"Kampung Bandan","distance":4102,"is_transit":true,"line":4,"transit":true,"time":9},{"station_name":"Jakarta Kota","transit":true,"line":2,"time":3,"station_id":"JAKK","i_long":106.812439,"is_transit":true,"distance":1364,"i_lat":-6.137569},{"time":4,"i_long":106.820901,"line":2,"distance":1264,"i_lat":-6.141205,"transit":false,"is_transit":false,"station_name":"Jayakarta","station_id":"JAY"},{"distance":1080,"i_lat":-6.149769,"is_transit":false,"station_id":"MGB","time":2,"transit":false,"i_long":106.82482,"line":2,"station_name":"Manggabesar"},{"transit":false,"i_lat":-6.160725,"time":2,"i_long":106.827103,"distance":906,"line":2,"station_id":"SW","station_name":"Sawah Besar","is_transit":false},{"is_transit":false,"transit":false,"station_id":"JUA","distance":1149,"i_long":106.828284,"line":2,"time":2,"i_lat":-6.166716,"station_name":"Juanda"},{"is_transit":false,"time":4,"distance":2015,"line":2,"i_lat":-6.186295,"station_id":"GDD","station_name":"Gondangdia","transit":false,"i_long":106.832183},{"transit":false,"station_name":"Cikini","station_id":"CKI","time":3,"distance":1750,"i_long":106.840169,"is_transit":false,"i_lat":-6.198556,"line":2}],[{"i_lat":-6.329547,"station_id":"CC","distance":0,"transit":false,"i_long":106.617853,"line":3,"station_name":"Cicayur","is_transit":false,"time":0},{"line":3,"distance":2519,"station_id":"CSK","transit":false,"is_transit":false,"i_long":106.640411,"i_lat":-6.32484,"station_name":"Cisauk","time":4},{"station_id":"SRP","i_long":106.66566,"distance":1784,"line":6,"is_transit":false,"station_name":"Serpong","time":4,"i_lat":-6.319871,"transit":false},{"station_id":"RU","time":4,"distance":2413,"i_lat":-6.314823,"line":6,"is_transit":false,"transit":false,"station_name":"Rawa Buntu","i_long":106.675475},{"distance":4566,"transit":false,"time":6,"i_lat":-6.296963,"station_id":"SDM","i_long":106.712277,"station_name":"Sudimara","line":6,"is_transit":false},{"station_id":"JMU","line":6,"transit":false,"i_long":106.728916,"is_transit":false,"time":4,"station_name":"Jurangmangu","distance":1994,"i_lat":-6.288927},{"distance":2179,"i_lat":-6.276362,"line":6,"station_name":"Pondokranji","is_transit":false,"i_long":106.74273,"time":3,"station_id":"PDJ","transit":false},{"line":6,"i_lat":-6.237242,"is_transit":false,"i_long":106.780334,"time":8,"station_name":"Kebayoran","distance":6218,"station_id":"KBY","transit":false},{"i_long":106.79689,"line":6,"station_name":"Palmerah","distance":3737,"is_transit":false,"time":7,"i_lat":-6.207404,"transit":false,"station_id":"PLM"},{"is_transit":true,"time":6,"distance":3191,"station_id":"THB","i_long":106.811091,"transit":true,"station_name":"Tanah Abang","line":1,"i_lat":-6.185545},{"transit":false,"distance":3632,"i_long":106.800832,"station_name":"Duri","station_id":"DU","i_lat":-6.155215,"line":1,"time":8,"is_transit":false},{"i_long":106.79867,"line":1,"station_name":"Angke","station_id":"AK","i_lat":-6.144674,"time":4,"distance":1230,"transit":false,"is_transit":false},{"is_transit":true,"time":9,"distance":4102,"i_lat":-6.132549,"transit":true,"station_id":"KPB","station_name":"Kampung Bandan","i_long":106.826365,"line":4},{"is_transit":false,"station_name":"Rajawali","i_long":106.836569,"time":3,"distance":1444,"line":11,"station_id":"RJW","i_lat":-6.14505,"transit":false},{"is_transit":false,"i_long":106.839204,"time":5,"station_name":"Kemayoran","station_id":"KMO","i_lat":-6.161728,"transit":false,"distance":1901,"line":11},{"time":4,"station_name":"Pasar Senen","transit":false,"is_transit":false,"i_long":106.84368,"line":11,"i_lat":-6.174784,"distance":1436,"station_id":"PSE"},{"distance":1567,"i_lat":-6.185975,"line":11,"station_name":"Gang Sentiong","is_transit":false,"transit":false,"i_long":106.850107,"time":8,"station_id":"GST"},{"time":1,"transit":false,"distance":973,"i_lat":-6.193792,"i_long":106.855437,"line":11,"is_transit":false,"station_id":"KMT","station_name":"Kramat"},{"i_long":106.861737,"station_name":"Pondok Jati","transit":false,"station_id":"POK","time":2,"distance":1829,"is_transit":false,"line":11,"i_lat":-6.209188},{"is_transit":true,"time":9,"station_name":"Jatinegara","station_id":"JNG","i_long":106.86807400000001,"distance":1236,"line":1,"i_lat":-6.215091,"transit":true},{"i_long":106.858896,"line":1,"time":2,"transit":false,"i_lat":-6.212485,"station_name":"Matraman","station_id":"MTR","is_transit":false,"distance":1377},{"i_lat":-6.209883,"is_transit":true,"time":2,"i_long":106.84912,"line":2,"station_id":"MRI","distance":1275,"transit":true,"station_name":"Manggarai"},{"transit":false,"station_name":"Cikini","distance":1590,"is_transit":false,"time":4,"i_long":106.840169,"station_id":"CKI","i_lat":-6.198556,"line":2}],[{"is_transit":false,"i_long":106.617853,"i_lat":-6.329547,"distance":0,"station_id":"CC","line":3,"station_name":"Cicayur","transit":false,"time":0},{"transit":false,"line":3,"station_id":"CSK","i_lat":-6.32484,"station_name":"Cisauk","time":4,"distance":2519,"is_transit":false,"i_long":106.640411},{"distance":1784,"transit":false,"is_transit":false,"i_lat":-6.319871,"i_long":106.66566,"station_id":"SRP","station_name":"Serpong","line":6,"time":4},{"is_transit":false,"station_name":"Rawa Buntu","time":4,"station_id":"RU","transit":false,"distance":2413,"line":6,"i_lat":-6.314823,"i_long":106.675475},{"distance":4566,"station_id":"SDM","time":6,"station_name":"Sudimara","transit":false,"i_lat":-6.296963,"i_long":106.712277,"line":6,"is_transit":false},{"is_transit":false,"time":4,"distance":1994,"station_id":"JMU","i_long":106.728916,"i_lat":-6.288927,"station_name":"Jurangmangu","transit":false,"line":6},{"distance":2179,"line":6,"is_transit":false,"station_id":"PDJ","i_lat":-6.276362,"transit":false,"station_name":"Pondokranji","time":3,"i_long":106.74273},{"line":6,"i_lat":-6.237242,"station_id":"KBY","distance":6218,"i_long":106.780334,"is_transit":false,"station_name":"Kebayoran","time":8,"transit":false},{"i_lat":-6.207404,"line":6,"i_long":106.79689,"station_name":"Palmerah","transit":false,"is_transit":false,"station_id":"PLM","time":7,"distance":3737},{"is_transit":true,"i_long":106.811091,"transit":true,"i_lat":-6.185545,"station_name":"Tanah Abang","time":6,"station_id":"THB","distance":3191,"line":1},{"distance":2029,"transit":false,"i_lat":-6.20132,"is_transit":false,"station_name":"Karet","i_long":106.816351,"line":1,"time":5,"station_id":"KAT"},{"distance":471,"time":1,"transit":false,"station_name":"Sudirman Baru","station_id":"SUDB","i_lat":-6.201433,"line":1,"is_transit":false,"i_long":106.819881},{"station_id":"SUD","transit":false,"time":1,"i_lat":-6.202263,"is_transit":false,"distance":280,"station_name":"Sudirman","line":1,"i_long":106.822649},{"i_long":106.84912,"line":2,"time":4,"station_id":"MRI","i_lat":-6.209883,"station_name":"Manggarai","is_transit":false,"distance":3186,"transit":false},{"distance":1275,"station_name":"Matraman","line":1,"i_long":106.858896,"i_lat":-6.212485,"station_id":"MTR","is_transit":false,"time":2,"transit":false},{"is_transit":true,"distance":1377,"line":1,"i_lat":-6.215091,"i_long":106.86807400000001,"transit":true,"station_name":"Jatinegara","time":8,"station_id":"JNG"},{"distance":1236,"station_id":"POK","transit":false,"i_long":106.861737,"station_name":"Pondok Jati","time":2,"is_transit":false,"line":11,"i_lat":-6.209188},{"i_lat":-6.193792,"i_long":106.855437,"station_name":"Kramat","line":11,"station_id":"KMT","is_transit":false,"transit":false,"time":2,"distance":1829},{"i_lat":-6.185975,"line":11,"station_name":"Gang Sentiong","is_transit":false,"station_id":"GST","time":1,"distance":973,"transit":false,"i_long":106.850107},{"is_transit":false,"time":8,"distance":1567,"i_lat":-6.174784,"transit":false,"station_name":"Pasar Senen","station_id":"PSE","line":11,"i_long":106.84368},{"station_id":"KMO","time":4,"distance":1436,"transit":false,"station_name":"Kemayoran","is_transit":false,"line":11,"i_long":106.839204,"i_lat":-6.161728},{"station_name":"Rajawali","i_long":106.836569,"station_id":"RJW","i_lat":-6.14505,"line":11,"time":5,"distance":1901,"is_transit":false,"transit":false},{"i_long":106.826365,"station_name":"Kampung Bandan","station_id":"KPB","time":3,"transit":true,"is_transit":true,"distance":1444,"i_lat":-6.132549,"line":4},{"transit":true,"station_name":"Jakarta Kota","time":3,"i_long":106.812439,"i_lat":-6.137569,"distance":1364,"station_id":"JAKK","is_transit":true,"line":2},{"station_name":"Jayakarta","is_transit":false,"i_lat":-6.141205,"line":2,"station_id":"JAY","distance":1264,"time":4,"transit":false,"i_long":106.820901},{"station_name":"Manggabesar","is_transit":false,"i_lat":-6.149769,"line":2,"transit":false,"distance":1080,"i_long":106.82482,"station_id":"MGB","time":2},{"station_name":"Sawah Besar","distance":906,"i_lat":-6.160725,"line":2,"is_transit":false,"transit":false,"i_long":106.827103,"time":2,"station_id":"SW"},{"station_name":"Juanda","transit":false,"time":2,"i_long":106.828284,"is_transit":false,"distance":1149,"i_lat":-6.166716,"station_id":"JUA","line":2},{"station_name":"Gondangdia","is_transit":false,"i_lat":-6.186295,"distance":2015,"i_long":106.832183,"station_id":"GDD","transit":false,"line":2,"time":4},{"transit":false,"station_name":"Cikini","station_id":"CKI","time":3,"distance":1750,"i_lat":-6.198556,"i_long":106.840169,"line":2,"is_transit":false}]]}