{"data":[[{"is_transit":false,"transit":false,"station_id":"CC","i_lat":-6.329547,"line":3,"distance":0,"station_name":"Cicayur","i_long":106.617853,"time":0},{"time":4,"i_long":106.640411,"is_transit":false,"station_name":"Cisauk","transit":false,"i_lat":-6.32484,"distance":2519,"station_id":"CSK","line":3},{"i_long":106.66566,"i_lat":-6.319871,"transit":false,"time":4,"station_id":"SRP","distance":1784,"is_transit":false,"line":6,"station_name":"Serpong"},{"station_name":"Rawa Buntu","transit":false,"i_long":106.675475,"is_transit":false,"i_lat":-6.314823,"line":6,"station_id":"RU","time":4,"distance":2413},{"distance":4566,"station_name":"Sudimara","line":6,"i_lat":-6.296963,"i_long":106.712277,"station_id":"SDM","is_transit":false,"transit":false,"time":6},{"i_long":106.728916,"line":6,"station_name":"Jurangmangu","station_id":"JMU","time":4,"is_transit":false,"distance":1994,"transit":false,"i_lat":-6.288927},{"station_name":"Pondokranji","is_transit":false,"i_lat":-6.276362,"i_long":106.74273,"time":3,"line":6,"transit":false,"distance":2179,"station_id":"PDJ"},{"is_transit":false,"line":6,"distance":6218,"station_name":"Kebayoran","transit":false,"i_long":106.780334,"i_lat":-6.237242,"time":8,"station_id":"KBY"},{"station_name":"Palmerah","is_transit":false,"distance":3737,"station_id":"PLM","i_long":106.79689,"line":6,"time":7,"i_lat":-6.207404,"transit":false},{"station_name":"Tanah Abang","transit":true,"station_id":"THB","i_lat":-6.185545,"time":6,"line":1,"distance":3191,"is_transit":true,"i_long":106.811091},{"distance":2029,"time":5,"is_transit":false,"i_long":106.816351,"station_name":"Karet","station_id":"KAT","transit":false,"line":1,"i_lat":-6.20132},{"station_name":"Sudirman Baru","is_transit":false,"line":1,"transit":false,"i_long":106.819881,"i_lat":-6.201433,"time":1,"station_id":"SUDB","distance":471},{"station_name":"Sudirman","transit":false,"station_id":"SUD","is_transit":false,"line":1,"time":1,"i_long":106.822649,"distance":280,"i_lat":-6.202263},{"transit":true,"is_transit":true,"i_lat":-6.209883,"line":2,"station_name":"Manggarai","time":4,"distance":3186,"i_long":106.84912,"station_id":"MRI"},{"station_id":"CKI","time":4,"is_transit":false,"distance":1590,"station_name":"Cikini","transit":false,"line":2,"i_long":106.840169,"i_lat":-6.198556}],[{"transit":false,"station_id":"CC","i_lat":-6.329547,"distance":0,"station_name":"Cicayur","time":0,"is_transit":false,"i_long":106.617853,"line":3},{"line":3,"station_name":"Cisauk","i_lat":-6.32484,"time":4,"station_id":"CSK","is_transit":false,"transit":false,"distance":2519,"i_long":106.640411},{"transit":false,"i_lat":-6.319871,"line":6,"distance":1784,"station_id":"SRP","is_transit":false,"i_long":106.66566,"time":4,"station_name":"Serpong"},{"transit":false,"distance":2413,"i_long":106.675475,"i_lat":-6.314823,"time":4,"station_id":"RU","is_transit":false,"station_name":"Rawa Buntu","line":6},{"station_id":"SDM","i_lat":-6.296963,"transit":false,"station_name":"Sudimara","distance":4566,"is_transit":false,"i_long":106.712277,"line":6,"time":6},{"transit":false,"i_long":106.728916,"time":4,"is_transit":false,"line":6,"station_name":"Jurangmangu","i_lat":-6.288927,"distance":1994,"station_id":"JMU"},{"distance":2179,"transit":false,"station_name":"Pondokranji","is_transit":false,"i_lat":-6.276362,"i_long":106.74273,"line":6,"time":3,"station_id":"PDJ"},{"distance":6218,"i_long":106.780334,"line":6,"time":8,"station_id":"KBY","station_name":"Kebayoran","i_lat":-6.237242,"is_transit":false,"transit":false},{"time":7,"station_id":"PLM","i_lat":-6.207404,"i_long":106.79689,"distance":3737,"station_name":"Palmerah","is_transit":false,"transit":false,"line":6},{"transit":true,"is_transit":true,"i_lat":-6.185545,"station_id":"THB","distance":3191,"time":6,"station_name":"Tanah Abang","i_long":106.811091,"line":1},{"distance":3632,"station_id":"DU","line":1,"i_long":106.800832,"time":8,"station_name":"Duri","is_transit":false,"transit":false,"i_lat":-6.155215},{"time":4,"line":1,"i_long":106.79867,"station_name":"Angke","i_lat":-6.144674,"transit":false,"distance":1230,"is_transit":false,"station_id":"AK"},{"i_lat":-6.132549,"distance":4102,"station_name":"Kampung Bandan","is_transit":true,"line":4,"i_long":106.826365,"time":9,"station_id":"KPB","transit":true},{"i_lat":-6.137569,"time":3,"i_long":106.812439,"station_id":"JAKK","is_transit":true,"line":2,"station_name":"Jakarta Kota","distance":1364,"transit":true},{"time":4,"line":2,"i_long":106.820901,"transit":false,"station_id":"JAY","station_name":"Jayakarta","is_transit":false,"distance":1264,"i_lat":-6.141205},{"distance":1080,"is_transit":false,"line":2,"station_name":"Manggabesar","transit":false,"station_id":"MGB","time":2,"i_long":106.82482,"i_lat":-6.149769},{"station_name":"Sawah Besar","is_transit":false,"line":2,"i_lat":-6.160725,"time":2,"station_id":"SW","transit":false,"i_long":106.827103,"distance":906},{"time":2,"transit":false,"station_id":"JUA","i_lat":-6.166716,"is_transit":false,"station_name":"Juanda","i_long":106.828284,"line":2,"distance":1149},{"time":4,"station_id":"GDD","station_name":"Gondangdia","i_lat":-6.186295,"i_long":106.832183,"transit":false,"line":2,"distance":2015,"is_transit":false},{"transit":false,"i_long":106.840169,"line":2,"station_id":"CKI","is_transit":false,"i_lat":-6.198556,"station_name":"Cikini","time":3,"distance":1750}],[{"i_lat":-6.329547,"line":3,"transit":false,"i_long":106.617853,"station_name":"Cicayur","station_id":"CC","time":0,"distance":0,"is_transit":false},{"transit":false,"time":4,"station_name":"Cisauk","i_lat":-6.32484,"i_long":106.640411,"is_transit":false,"line":3,"station_id":"CSK","distance":2519},{"line":6,"time":4,"station_id":"SRP","distance":1784,"transit":false,"station_name":"Serpong","i_lat":-6.319871,"i_long":106.66566,"is_transit":false},{"transit":false,"time":4,"station_name":"Rawa Buntu","i_lat":-6.314823,"distance":2413,"i_long":106.675475,"station_id":"RU","is_transit":false,"line":6},{"i_long":106.712277,"station_id":"SDM","station_name":"Sudimara","distance":4566,"is_transit":false,"time":6,"transit":false,"line":6,"i_lat":-6.296963},{"station_id":"JMU","station_name":"Jurangmangu","i_long":106.728916,"line":6,"time":4,"distance":1994,"transit":false,"is_transit":false,"i_lat":-6.288927},{"line":6,"distance":2179,"station_name":"Pondokranji","station_id":"PDJ","transit":false,"is_transit":false,"time":3,"i_lat":-6.276362,"i_long":106.74273},{"station_id":"KBY","i_long":106.780334,"line":6,"station_name":"Kebayoran","time":8,"transit":false,"i_lat":-6.237242,"distance":6218,"is_transit":false},{"line":6,"is_transit":false,"time":7,"station_name":"Palmerah","i_long":106.79689,"station_id":"PLM","transit":false,"i_lat":-6.207404,"distance":3737},{"distance":3191,"station_id":"THB","i_lat":-6.185545,"station_name":"Tanah Abang","time":6,"transit":true,"i_long":106.811091,"line":1,"is_transit":true},{"transit":false,"time":8,"station_id":"DU","distance":3632,"is_transit":false,"station_name":"Duri","i_lat":-6.155215,"line":1,"i_long":106.800832},{"time":4,"i_lat":-6.144674,"station_id":"AK","transit":false,"station_name":"Angke","i_long":106.79867,"distance":1230,"is_transit":false,"line":1},{"i_lat":-6.132549,"i_long":106.826365,"distance":4102,"line":4,"time":9,"station_name":"Kampung Bandan","transit":true,"is_transit":true,"station_id":"KPB"},{"station_id":"RJW","distance":1444,"transit":false,"i_long":106.836569,"line":11,"is_transit":false,"station_name":"Rajawali","i_lat":-6.14505,"time":3},{"time":5,"distance":1901,"line":11,"i_long":106.839204,"transit":false,"station_id":"KMO","station_name":"Kemayoran","i_lat":-6.161728,"is_transit":false},{"line":11,"station_id":"PSE","station_name":"Pasar Senen","i_lat":-6.174784,"i_long":106.84368,"is_transit":false,"time":4,"transit":false,"distance":1436},{"transit":false,"is_transit":false,"line":11,"station_name":"Gang Sentiong","time":8,"i_lat":-6.185975,"station_id":"GST","i_long":106.850107,"distance":1567},{"station_id":"KMT","distance":973,"line":11,"time":1,"is_transit":false,"i_lat":-6.193792,"transit":false,"i_long":106.855437,"station_name":"Kramat"},{"i_long":106.861737,"line":11,"time":2,"is_transit":false,"transit":false,"station_name":"Pondok Jati","station_id":"POK","i_lat":-6.209188,"distance":1829},{"i_long":106.86807400000001,"is_transit":true,"transit":true,"line":1,"time":9,"station_name":"Jatinegara","i_lat":-6.215091,"distance":1236,"station_id":"JNG"},{"i_long":106.858896,"is_transit":false,"transit":false,"i_lat":-6.212485,"line":1,"time":2,"station_id":"MTR","distance":1377,"station_name":"Matraman"},{"time":2,"transit":true,"is_transit":true,"distance":1275,"line":2,"station_name":"Manggarai","i_lat":-6.209883,"station_id":"MRI","i_long":106.84912},{"station_id":"CKI","is_transit":false,"distance":1590,"transit":false,"station_name":"Cikini","i_lat":-6.198556,"line":2,"i_long":106.840169,"time":4}],[{"station_name":"Cicayur","line":3,"i_long":106.617853,"transit":false,"station_id":"CC","distance":0,"time":0,"is_transit":false,"i_lat":-6.329547},{"station_name":"Cisauk","distance":2519,"i_long":106.640411,"time":4,"is_transit":false,"i_lat":-6.32484,"line":3,"transit":false,"station_id":"CSK"},{"station_name":"Serpong","i_lat":-6.319871,"line":6,"is_transit":false,"i_long":106.66566,"station_id":"SRP","transit":false,"time":4,"distance":1784},{"i_lat":-6.314823,"i_long":106.675475,"is_transit":false,"station_name":"Rawa Buntu","line":6,"station_id":"RU","transit":false,"time":4,"distance":2413},{"station_name":"Sudimara","is_transit":false,"distance":4566,"line":6,"station_id":"SDM","time":6,"transit":false,"i_long":106.712277,"i_lat":-6.296963},{"i_lat":-6.288927,"station_name":"Jurangmangu","line":6,"is_transit":false,"time":4,"distance":1994,"transit":false,"station_id":"JMU","i_long":106.728916},{"i_long":106.74273,"distance":2179,"is_transit":false,"i_lat":-6.276362,"station_name":"Pondokranji","line":6,"transit":false,"station_id":"PDJ","time":3},{"station_name":"Kebayoran","i_long":106.780334,"i_lat":-6.237242,"line":6,"is_transit":false,"time":8,"transit":false,"station_id":"KBY","distance":6218},{"is_transit":false,"distance":3737,"i_lat":-6.207404,"station_id":"PLM","transit":false,"line":6,"i_long":106.79689,"time":7,"station_name":"Palmerah"},{"i_lat":-6.185545,"i_long":106.811091,"line":1,"distance":3191,"station_id":"THB","transit":true,"station_name":"Tanah Abang","is_transit":true,"time":6},{"station_id":"KAT","transit":false,"distance":2029,"is_transit":false,"i_lat":-6.20132,"time":5,"station_name":"Karet","i_long":106.816351,"line":1},{"time":1,"is_transit":false,"transit":false,"station_name":"Sudirman Baru","i_long":106.819881,"distance":471,"line":1,"i_lat":-6.201433,"station_id":"SUDB"},{"distance":280,"station_name":"Sudirman","station_id":"SUD","i_long":106.822649,"time":1,"is_transit":false,"line":1,"transit":false,"i_lat":-6.202263},{"i_long":106.84912,"line":2,"distance":3186,"station_id":"MRI","time":4,"transit":false,"is_transit":false,"station_name":"Manggarai","i_lat":-6.209883},{"distance":1275,"i_lat":-6.212485,"i_long":106.858896,"station_id":"MTR","transit":false,"is_transit":false,"station_name":"Matraman","line":1,"time":2},{"i_long":106.86807400000001,"line":1,"station_name":"Jatinegara","i_lat":-6.215091,"distance":1377,"time":8,"is_transit":true,"transit":true,"station_id":"JNG"},{"i_long":106.861737,"line":11,"transit":false,"station_id":"POK","distance":1236,"station_name":"Pondok Jati","is_transit":false,"time":2,"i_lat":-6.209188},{"station_name":"Kramat","i_lat":-6.193792,"distance":1829,"transit":false,"line":11,"i_long":106.855437,"time":2,"station_id":"KMT","is_transit":false},{"line":11,"i_lat":-6.185975,"distance":973,"transit":false,"station_name":"Gang Sentiong","is_transit":false,"station_id":"GST","i_long":106.850107,"time":1},{"station_id":"PSE","line":11,"is_transit":false,"distance":1567,"i_lat":-6.174784,"station_name":"Pasar Senen","i_long":106.84368,"time":8,"transit":false},{"station_name":"Kemayoran","station_id":"KMO","i_lat":-6.161728,"distance":1436,"i_long":106.839204,"time":4,"is_transit":false,"line":11,"transit":false},{"time":5,"distance":1901,"station_name":"Rajawali","station_id":"RJW","i_lat":-6.14505,"i_long":106.836569,"transit":false,"is_transit":false,"line":11},{"transit":true,"i_lat":-6.132549,"line":4,"i_long":106.826365,"is_transit":true,"station_id":"KPB","distance":1444,"station_name":"Kampung Bandan","time":3},{"is_transit":true,"transit":true,"station_id":"JAKK","distance":1364,"i_lat":-6.137569,"time":3,"line":2,"station_name":"Jakarta Kota","i_long":106.812439},{"transit":false,"distance":1264,"station_id":"JAY","i_lat":-6.141205,"i_long":106.820901,"time":4,"is_transit":false,"station_name":"Jayakarta","line":2},{"i_long":106.82482,"station_name":"Manggabesar","is_transit":false,"i_lat":-6.149769,"line":2,"transit":false,"station_id":"MGB","distance":1080,"time":2},{"time":2,"i_lat":-6.160725,"i_long":106.827103,"transit":false,"distance":906,"station_name":"Sawah Besar","line":2,"station_id":"SW","is_transit":false},{"time":2,"i_lat":-6.166716,"line":2,"i_long":106.828284,"is_transit":false,"transit":false,"station_id":"JUA","distance":1149,"station_name":"Juanda"},{"station_id":"GDD","transit":false,"station_name":"Gondangdia","line":2,"time":4,"i_lat":-6.186295,"i_long":106.832183,"distance":2015,"is_transit":false},{"transit":false,"is_transit":false,"i_lat":-6.198556,"time":3,"station_id":"CKI","station_name":"Cikini","i_long":106.840169,"line":2,"distance":1750}]]}