{"data":[[{"station_id":"CC","is_transit":false,"station_name":"Cicayur","i_lat":-6.329547,"transit":false,"line":3,"distance":0,"time":0,"i_long":106.617853},{"line":3,"is_transit":false,"station_id":"CSK","i_long":106.640411,"time":4,"distance":2519,"i_lat":-6.32484,"station_name":"Cisauk","transit":false},{"transit":false,"distance":1784,"i_lat":-6.319871,"i_long":106.66566,"line":6,"station_name":"Serpong","is_transit":false,"station_id":"SRP","time":4},{"line":6,"i_long":106.675475,"transit":false,"time":4,"distance":2413,"station_id":"RU","is_transit":false,"i_lat":-6.314823,"station_name":"Rawa Buntu"},{"i_lat":-6.296963,"distance":4566,"station_name":"Sudimara","station_id":"SDM","time":6,"line":6,"transit":false,"is_transit":false,"i_long":106.712277},{"station_name":"Jurangmangu","i_long":106.728916,"transit":false,"is_transit":false,"line":6,"time":4,"distance":1994,"station_id":"JMU","i_lat":-6.288927},{"i_lat":-6.276362,"line":6,"station_id":"PDJ","i_long":106.74273,"transit":false,"station_name":"Pondokranji","time":3,"is_transit":false,"distance":2179},{"transit":false,"i_lat":-6.237242,"i_long":106.780334,"station_name":"Kebayoran","distance":6218,"is_transit":false,"station_id":"KBY","time":8,"line":6},{"is_transit":false,"station_name":"Palmerah","distance":3737,"i_lat":-6.207404,"station_id":"PLM","i_long":106.79689,"line":6,"time":7,"transit":false},{"transit":true,"i_lat":-6.185545,"distance":3191,"i_long":106.811091,"time":6,"is_transit":true,"line":1,"station_id":"THB","station_name":"Tanah Abang"},{"i_lat":-6.20132,"line":1,"transit":false,"distance":2029,"i_long":106.816351,"time":5,"station_id":"KAT","station_name":"Karet","is_transit":false},{"station_name":"Sudirman Baru","station_id":"SUDB","time":1,"transit":false,"line":1,"i_long":106.819881,"is_transit":false,"distance":471,"i_lat":-6.201433},{"i_long":106.822649,"time":1,"distance":280,"transit":false,"is_transit":false,"line":1,"station_name":"Sudirman","i_lat":-6.202263,"station_id":"SUD"},{"i_long":106.84912,"line":2,"distance":3186,"station_id":"MRI","transit":false,"time":4,"station_name":"Manggarai","is_transit":false,"i_lat":-6.209883},{"station_name":"Matraman","time":2,"i_lat":-6.212485,"station_id":"MTR","i_long":106.858896,"line":1,"is_transit":false,"transit":false,"distance":1275},{"line":1,"station_name":"Jatinegara","is_transit":false,"distance":1377,"i_long":106.86807400000001,"time":8,"transit":false,"i_lat":-6.215091,"station_id":"JNG"},{"station_name":"Klender","time":3,"i_lat":-6.2135,"station_id":"KLD","distance":3395,"transit":false,"is_transit":false,"i_long":106.899548,"line":1},{"i_lat":-6.215568,"station_id":"BUA","transit":false,"i_long":106.922662,"distance":3100,"line":1,"station_name":"Buaran","is_transit":false,"time":2},{"i_long":106.939679,"transit":false,"is_transit":false,"line":1,"distance":1305,"i_lat":-6.217455,"station_name":"Klenderbaru","station_id":"KLDB","time":1},{"station_id":"CUK","is_transit":false,"transit":false,"station_name":"Cakung","time":8,"i_long":106.951283,"distance":1385,"i_lat":-6.219053,"line":1}],[{"station_name":"Cicayur","is_transit":false,"transit":false,"station_id":"CC","time":0,"distance":0,"i_lat":-6.329547,"line":3,"i_long":106.617853},{"transit":false,"is_transit":false,"time":4,"i_lat":-6.32484,"i_long":106.640411,"line":3,"station_id":"CSK","station_name":"Cisauk","distance":2519},{"station_id":"SRP","line":6,"time":4,"distance":1784,"transit":false,"station_name":"Serpong","is_transit":false,"i_lat":-6.319871,"i_long":106.66566},{"is_transit":false,"line":6,"distance":2413,"transit":false,"station_id":"RU","station_name":"Rawa Buntu","i_lat":-6.314823,"i_long":106.675475,"time":4},{"station_name":"Sudimara","station_id":"SDM","is_transit":false,"time":6,"distance":4566,"i_lat":-6.296963,"transit":false,"i_long":106.712277,"line":6},{"distance":1994,"station_id":"JMU","i_long":106.728916,"is_transit":false,"transit":false,"line":6,"i_lat":-6.288927,"time":4,"station_name":"Jurangmangu"},{"distance":2179,"i_lat":-6.276362,"time":3,"is_transit":false,"line":6,"station_id":"PDJ","transit":false,"i_long":106.74273,"station_name":"Pondokranji"},{"station_id":"KBY","station_name":"Kebayoran","is_transit":false,"distance":6218,"line":6,"i_long":106.780334,"time":8,"i_lat":-6.237242,"transit":false},{"distance":3737,"station_name":"Palmerah","time":7,"station_id":"PLM","i_lat":-6.207404,"transit":false,"is_transit":false,"line":6,"i_long":106.79689},{"i_lat":-6.185545,"line":1,"time":6,"is_transit":true,"transit":true,"i_long":106.811091,"station_name":"Tanah Abang","station_id":"THB","distance":3191},{"station_name":"Duri","i_lat":-6.155215,"distance":3632,"time":8,"transit":false,"i_long":106.800832,"line":1,"station_id":"DU","is_transit":false},{"is_transit":false,"i_long":106.79867,"transit":false,"distance":1230,"time":4,"station_id":"AK","i_lat":-6.144674,"line":1,"station_name":"Angke"},{"time":9,"distance":4102,"station_name":"Kampung Bandan","line":4,"transit":true,"is_transit":true,"i_long":106.826365,"i_lat":-6.132549,"station_id":"KPB"},{"transit":false,"time":3,"station_name":"Rajawali","is_transit":false,"i_lat":-6.14505,"i_long":106.836569,"distance":1444,"line":11,"station_id":"RJW"},{"transit":false,"distance":1901,"time":5,"i_lat":-6.161728,"i_long":106.839204,"is_transit":false,"line":11,"station_id":"KMO","station_name":"Kemayoran"},{"line":11,"time":4,"is_transit":false,"station_name":"Pasar Senen","distance":1436,"i_long":106.84368,"station_id":"PSE","transit":false,"i_lat":-6.174784},{"station_id":"GST","time":8,"distance":1567,"is_transit":false,"transit":false,"i_lat":-6.185975,"line":11,"station_name":"Gang Sentiong","i_long":106.850107},{"line":11,"station_name":"Kramat","time":1,"station_id":"KMT","distance":973,"i_lat":-6.193792,"transit":false,"i_long":106.855437,"is_transit":false},{"line":11,"transit":false,"i_long":106.861737,"station_name":"Pondok Jati","is_transit":false,"station_id":"POK","time":2,"distance":1829,"i_lat":-6.209188},{"time":9,"is_transit":true,"station_name":"Jatinegara","line":1,"distance":1236,"station_id":"JNG","i_lat":-6.215091,"transit":true,"i_long":106.86807400000001},{"station_id":"KLD","i_long":106.899548,"transit":false,"distance":3395,"is_transit":false,"i_lat":-6.2135,"station_name":"Klender","time":3,"line":1},{"i_lat":-6.215568,"is_transit":false,"station_id":"BUA","distance":3100,"transit":false,"i_long":106.922662,"station_name":"Buaran","line":1,"time":2},{"time":1,"i_lat":-6.217455,"distance":1305,"transit":false,"station_name":"Klenderbaru","i_long":106.939679,"line":1,"station_id":"KLDB","is_transit":false},{"station_name":"Cakung","transit":false,"distance":1385,"station_id":"CUK","time":8,"line":1,"i_lat":-6.219053,"is_transit":false,"i_long":106.951283}],[{"is_transit":false,"transit":false,"station_name":"Cicayur","station_id":"CC","distance":0,"i_lat":-6.329547,"line":3,"time":0,"i_long":106.617853},{"station_name":"Cisauk","station_id":"CSK","line":3,"time":4,"transit":false,"is_transit":false,"distance":2519,"i_long":106.640411,"i_lat":-6.32484},{"station_name":"Serpong","transit":false,"is_transit":false,"distance":1784,"i_lat":-6.319871,"time":4,"station_id":"SRP","i_long":106.66566,"line":6},{"is_transit":false,"station_name":"Rawa Buntu","distance":2413,"line":6,"time":4,"station_id":"RU","i_long":106.675475,"transit":false,"i_lat":-6.314823},{"station_id":"SDM","distance":4566,"i_lat":-6.296963,"i_long":106.712277,"station_name":"Sudimara","transit":false,"is_transit":false,"line":6,"time":6},{"is_transit":false,"station_name":"Jurangmangu","distance":1994,"i_long":106.728916,"line":6,"i_lat":-6.288927,"transit":false,"station_id":"JMU","time":4},{"line":6,"station_name":"Pondokranji","transit":false,"i_long":106.74273,"station_id":"PDJ","time":3,"is_transit":false,"i_lat":-6.276362,"distance":2179},{"transit":false,"line":6,"distance":6218,"station_name":"Kebayoran","i_long":106.780334,"is_transit":false,"station_id":"KBY","time":8,"i_lat":-6.237242},{"i_long":106.79689,"station_name":"Palmerah","transit":false,"is_transit":false,"station_id":"PLM","time":7,"i_lat":-6.207404,"line":6,"distance":3737},{"transit":true,"station_id":"THB","line":1,"time":6,"is_transit":true,"distance":3191,"station_name":"Tanah Abang","i_lat":-6.185545,"i_long":106.811091},{"transit":false,"is_transit":false,"distance":3632,"i_lat":-6.155215,"station_name":"Duri","i_long":106.800832,"line":1,"station_id":"DU","time":8},{"station_name":"Angke","distance":1230,"time":4,"line":1,"transit":false,"i_long":106.79867,"i_lat":-6.144674,"station_id":"AK","is_transit":false},{"i_lat":-6.132549,"station_id":"KPB","station_name":"Kampung Bandan","distance":4102,"i_long":106.826365,"transit":true,"line":4,"is_transit":true,"time":9},{"station_id":"JAKK","i_lat":-6.137569,"station_name":"Jakarta Kota","is_transit":true,"line":2,"distance":1364,"time":3,"i_long":106.812439,"transit":true},{"distance":1264,"station_name":"Jayakarta","is_transit":false,"i_lat":-6.141205,"time":4,"i_long":106.820901,"line":2,"station_id":"JAY","transit":false},{"station_id":"MGB","transit":false,"is_transit":false,"distance":1080,"line":2,"time":2,"station_name":"Manggabesar","i_long":106.82482,"i_lat":-6.149769},{"line":2,"is_transit":false,"transit":false,"station_name":"Sawah Besar","station_id":"SW","distance":906,"i_lat":-6.160725,"time":2,"i_long":106.827103},{"station_id":"JUA","time":2,"line":2,"distance":1149,"i_lat":-6.166716,"is_transit":false,"i_long":106.828284,"transit":false,"station_name":"Juanda"},{"line":2,"time":4,"i_long":106.832183,"distance":2015,"is_transit":false,"station_name":"Gondangdia","transit":false,"station_id":"GDD","i_lat":-6.186295},{"i_lat":-6.198556,"transit":false,"line":2,"station_id":"CKI","distance":1750,"time":3,"station_name":"Cikini","is_transit":false,"i_long":106.840169},{"is_transit":true,"station_name":"Manggarai","station_id":"MRI","distance":1590,"i_lat":-6.209883,"i_long":106.84912,"line":2,"transit":true,"time":4},{"i_lat":-6.212485,"is_transit":false,"time":2,"station_name":"Matraman","i_long":106.858896,"distance":1275,"line":1,"transit":false,"station_id":"MTR"},{"station_id":"JNG","distance":1377,"i_long":106.86807400000001,"line":1,"transit":false,"i_lat":-6.215091,"station_name":"Jatinegara","is_transit":false,"time":8},{"distance":3395,"station_id":"KLD","station_name":"Klender","time":3,"i_long":106.899548,"i_lat":-6.2135,"line":1,"transit":false,"is_transit":false},{"station_id":"BUA","transit":false,"i_long":106.922662,"i_lat":-6.215568,"is_transit":false,"line":1,"time":2,"station_name":"Buaran","distance":3100},{"station_name":"Klenderbaru","station_id":"KLDB","i_lat":-6.217455,"distance":1305,"time":1,"i_long":106.939679,"line":1,"transit":false,"is_transit":false},{"station_name":"Cakung","i_lat":-6.219053,"line":1,"transit":false,"station_id":"CUK","time":8,"is_transit":false,"i_long":106.951283,"distance":1385}],[{"line":3,"transit":false,"station_id":"CC","station_name":"Cicayur","time":0,"i_lat":-6.329547,"i_long":106.617853,"distance":0,"is_transit":false},{"i_long":106.640411,"line":3,"station_id":"CSK","time":4,"distance":2519,"is_transit":false,"station_name":"Cisauk","transit":false,"i_lat":-6.32484},{"i_lat":-6.319871,"is_transit":false,"i_long":106.66566,"station_id":"SRP","station_name":"Serpong","time":4,"line":6,"distance":1784,"transit":false},{"station_name":"Rawa Buntu","is_transit":false,"line":6,"i_long":106.675475,"transit":false,"time":4,"distance":2413,"i_lat":-6.314823,"station_id":"RU"},{"line":6,"transit":false,"station_name":"Sudimara","station_id":"SDM","distance":4566,"i_lat":-6.296963,"time":6,"i_long":106.712277,"is_transit":false},{"line":6,"transit":false,"i_lat":-6.288927,"is_transit":false,"time":4,"i_long":106.728916,"station_id":"JMU","station_name":"Jurangmangu","distance":1994},{"i_lat":-6.276362,"station_id":"PDJ","is_transit":false,"line":6,"i_long":106.74273,"station_name":"Pondokranji","distance":2179,"transit":false,"time":3},{"distance":6218,"i_lat":-6.237242,"line":6,"transit":false,"station_id":"KBY","is_transit":false,"station_name":"Kebayoran","time":8,"i_long":106.780334},{"station_name":"Palmerah","transit":false,"distance":3737,"i_lat":-6.207404,"i_long":106.79689,"is_transit":false,"line":6,"station_id":"PLM","time":7},{"i_long":106.811091,"is_transit":true,"transit":true,"station_name":"Tanah Abang","station_id":"THB","time":6,"distance":3191,"i_lat":-6.185545,"line":1},{"transit":false,"distance":2029,"time":5,"station_id":"KAT","station_name":"Karet","i_lat":-6.20132,"i_long":106.816351,"line":1,"is_transit":false},{"i_lat":-6.201433,"station_id":"SUDB","station_name":"Sudirman Baru","time":1,"i_long":106.819881,"line":1,"is_transit":false,"distance":471,"transit":false},{"line":1,"time":1,"distance":280,"i_lat":-6.202263,"i_long":106.822649,"station_id":"SUD","station_name":"Sudirman","transit":false,"is_transit":false},{"time":4,"station_id":"MRI","station_name":"Manggarai","line":2,"i_long":106.84912,"is_transit":true,"transit":true,"distance":3186,"i_lat":-6.209883},{"distance":1590,"station_id":"CKI","i_long":106.840169,"line":2,"transit":false,"station_name":"Cikini","time":4,"is_transit":false,"i_lat":-6.198556},{"distance":1750,"i_long":106.832183,"station_name":"Gondangdia","station_id":"GDD","is_transit":false,"transit":false,"i_lat":-6.186295,"line":2,"time":3},{"station_name":"Juanda","i_lat":-6.166716,"line":2,"is_transit":false,"distance":2015,"transit":false,"station_id":"JUA","time":4,"i_long":106.828284},{"time":2,"transit":false,"line":2,"i_lat":-6.160725,"is_transit":false,"station_id":"SW","station_name":"Sawah Besar","distance":1149,"i_long":106.827103},{"line":2,"time":2,"station_id":"MGB","is_transit":false,"station_name":"Manggabesar","distance":906,"transit":false,"i_lat":-6.149769,"i_long":106.82482},{"line":2,"distance":1080,"station_name":"Jayakarta","time":2,"i_lat":-6.141205,"is_transit":false,"transit":false,"i_long":106.820901,"station_id":"JAY"},{"line":2,"distance":1264,"station_id":"JAKK","is_transit":true,"i_long":106.812439,"station_name":"Jakarta Kota","transit":true,"time":4,"i_lat":-6.137569},{"i_lat":-6.132549,"station_id":"KPB","transit":true,"i_long":106.826365,"line":4,"is_transit":true,"station_name":"Kampung Bandan","distance":1364,"time":3},{"i_lat":-6.14505,"transit":false,"station_name":"Rajawali","time":3,"is_transit":false,"station_id":"RJW","distance":1444,"line":11,"i_long":106.836569},{"station_id":"KMO","line":11,"station_name":"Kemayoran","distance":1901,"i_lat":-6.161728,"transit":false,"time":5,"is_transit":false,"i_long":106.839204},{"transit":false,"station_name":"Pasar Senen","line":11,"time":4,"station_id":"PSE","i_lat":-6.174784,"distance":1436,"is_transit":false,"i_long":106.84368},{"transit":false,"station_id":"GST","is_transit":false,"distance":1567,"time":8,"line":11,"i_lat":-6.185975,"i_long":106.850107,"station_name":"Gang Sentiong"},{"time":1,"station_id":"KMT","i_lat":-6.193792,"line":11,"station_name":"Kramat","transit":false,"i_long":106.855437,"is_transit":false,"distance":973},{"time":2,"is_transit":false,"distance":1829,"i_lat":-6.209188,"i_long":106.861737,"station_name":"Pondok Jati","line":11,"transit":false,"station_id":"POK"},{"transit":true,"distance":1236,"is_transit":true,"line":1,"station_id":"JNG","i_long":106.86807400000001,"station_name":"Jatinegara","time":9,"i_lat":-6.215091},{"time":3,"is_transit":false,"distance":3395,"station_name":"Klender","line":1,"i_lat":-6.2135,"i_long":106.899548,"transit":false,"station_id":"KLD"},{"station_name":"Buaran","is_transit":false,"i_long":106.922662,"line":1,"station_id":"BUA","distance":3100,"i_lat":-6.215568,"transit":false,"time":2},{"transit":false,"time":1,"i_lat":-6.217455,"is_transit":false,"station_name":"Klenderbaru","station_id":"KLDB","distance":1305,"i_long":106.939679,"line":1},{"time":8,"is_transit":false,"line":1,"i_long":106.951283,"distance":1385,"station_name":"Cakung","transit":false,"i_lat":-6.219053,"station_id":"CUK"}]]}