{"data":[[{"line":3,"station_id":"CC","transit":false,"station_name":"Cicayur","i_long":106.617853,"is_transit":false,"time":0,"i_lat":-6.329547,"distance":0},{"i_long":106.640411,"is_transit":false,"i_lat":-6.32484,"distance":2519,"line":3,"station_name":"Cisauk","transit":false,"time":4,"station_id":"CSK"},{"transit":false,"i_long":106.66566,"i_lat":-6.319871,"station_id":"SRP","line":6,"station_name":"Serpong","distance":1784,"is_transit":false,"time":4},{"i_long":106.675475,"is_transit":false,"station_name":"Rawa Buntu","transit":false,"i_lat":-6.314823,"distance":2413,"station_id":"RU","line":6,"time":4},{"i_lat":-6.296963,"station_name":"Sudimara","time":6,"line":6,"distance":4566,"is_transit":false,"i_long":106.712277,"station_id":"SDM","transit":false},{"i_lat":-6.288927,"transit":false,"i_long":106.728916,"station_name":"Jurangmangu","line":6,"time":4,"station_id":"JMU","is_transit":false,"distance":1994},{"distance":2179,"is_transit":false,"station_id":"PDJ","transit":false,"i_long":106.74273,"i_lat":-6.276362,"line":6,"station_name":"Pondokranji","time":3},{"i_long":106.780334,"transit":false,"station_id":"KBY","distance":6218,"line":6,"is_transit":false,"i_lat":-6.237242,"station_name":"Kebayoran","time":8},{"i_long":106.79689,"line":6,"is_transit":false,"time":7,"i_lat":-6.207404,"station_name":"Palmerah","distance":3737,"station_id":"PLM","transit":false},{"station_id":"THB","is_transit":true,"i_lat":-6.185545,"line":1,"i_long":106.811091,"station_name":"Tanah Abang","time":6,"transit":true,"distance":3191},{"transit":false,"line":1,"is_transit":false,"station_id":"KAT","distance":2029,"time":5,"i_lat":-6.20132,"i_long":106.816351,"station_name":"Karet"},{"i_long":106.819881,"time":1,"line":1,"i_lat":-6.201433,"distance":471,"is_transit":false,"station_id":"SUDB","transit":false,"station_name":"Sudirman Baru"},{"station_name":"Sudirman","time":1,"i_long":106.822649,"distance":280,"transit":false,"is_transit":false,"station_id":"SUD","i_lat":-6.202263,"line":1},{"station_id":"MRI","time":4,"station_name":"Manggarai","transit":false,"i_long":106.84912,"line":2,"distance":3186,"i_lat":-6.209883,"is_transit":false},{"distance":1275,"time":2,"is_transit":false,"i_lat":-6.212485,"i_long":106.858896,"line":1,"station_id":"MTR","transit":false,"station_name":"Matraman"},{"distance":1377,"is_transit":false,"i_long":106.86807400000001,"line":1,"time":8,"transit":false,"station_name":"Jatinegara","i_lat":-6.215091,"station_id":"JNG"},{"station_name":"Klender","i_long":106.899548,"is_transit":false,"time":3,"station_id":"KLD","transit":false,"i_lat":-6.2135,"line":1,"distance":3395},{"i_long":106.922662,"i_lat":-6.215568,"line":1,"is_transit":false,"station_id":"BUA","distance":3100,"station_name":"Buaran","transit":false,"time":2},{"distance":1305,"line":1,"station_id":"KLDB","transit":false,"i_long":106.939679,"is_transit":false,"station_name":"Klenderbaru","i_lat":-6.217455,"time":1},{"station_id":"CUK","transit":false,"station_name":"Cakung","i_lat":-6.219053,"is_transit":false,"distance":1385,"i_long":106.951283,"time":8,"line":1}],[{"is_transit":false,"station_id":"CC","line":3,"time":0,"distance":0,"i_lat":-6.329547,"transit":false,"i_long":106.617853,"station_name":"Cicayur"},{"distance":2519,"line":3,"i_long":106.640411,"is_transit":false,"station_id":"CSK","station_name":"Cisauk","time":4,"i_lat":-6.32484,"transit":false},{"line":6,"time":4,"i_lat":-6.319871,"i_long":106.66566,"distance":1784,"station_name":"Serpong","station_id":"SRP","transit":false,"is_transit":false},{"line":6,"time":4,"distance":2413,"i_long":106.675475,"is_transit":false,"i_lat":-6.314823,"transit":false,"station_name":"Rawa Buntu","station_id":"RU"},{"transit":false,"station_name":"Sudimara","station_id":"SDM","i_lat":-6.296963,"i_long":106.712277,"is_transit":false,"distance":4566,"line":6,"time":6},{"station_id":"JMU","transit":false,"distance":1994,"time":4,"station_name":"Jurangmangu","line":6,"is_transit":false,"i_long":106.728916,"i_lat":-6.288927},{"is_transit":false,"station_id":"PDJ","line":6,"transit":false,"time":3,"station_name":"Pondokranji","i_long":106.74273,"distance":2179,"i_lat":-6.276362},{"is_transit":false,"station_name":"Kebayoran","distance":6218,"line":6,"i_lat":-6.237242,"time":8,"station_id":"KBY","transit":false,"i_long":106.780334},{"line":6,"is_transit":false,"i_long":106.79689,"station_name":"Palmerah","transit":false,"station_id":"PLM","distance":3737,"i_lat":-6.207404,"time":7},{"i_long":106.811091,"time":6,"transit":true,"distance":3191,"station_name":"Tanah Abang","line":1,"i_lat":-6.185545,"station_id":"THB","is_transit":true},{"i_lat":-6.155215,"line":1,"i_long":106.800832,"distance":3632,"station_id":"DU","transit":false,"is_transit":false,"time":8,"station_name":"Duri"},{"i_lat":-6.144674,"time":4,"distance":1230,"station_name":"Angke","station_id":"AK","i_long":106.79867,"line":1,"is_transit":false,"transit":false},{"transit":true,"time":9,"line":4,"i_long":106.826365,"is_transit":true,"station_id":"KPB","distance":4102,"station_name":"Kampung Bandan","i_lat":-6.132549},{"i_lat":-6.14505,"station_name":"Rajawali","is_transit":false,"line":11,"i_long":106.836569,"station_id":"RJW","time":3,"transit":false,"distance":1444},{"station_name":"Kemayoran","i_long":106.839204,"line":11,"time":5,"is_transit":false,"distance":1901,"i_lat":-6.161728,"station_id":"KMO","transit":false},{"i_lat":-6.174784,"station_id":"PSE","line":11,"station_name":"Pasar Senen","i_long":106.84368,"is_transit":false,"transit":false,"time":4,"distance":1436},{"is_transit":false,"i_lat":-6.185975,"station_id":"GST","distance":1567,"i_long":106.850107,"transit":false,"time":8,"station_name":"Gang Sentiong","line":11},{"station_name":"Kramat","i_lat":-6.193792,"i_long":106.855437,"station_id":"KMT","time":1,"transit":false,"distance":973,"is_transit":false,"line":11},{"station_name":"Pondok Jati","station_id":"POK","time":2,"i_lat":-6.209188,"i_long":106.861737,"line":11,"distance":1829,"is_transit":false,"transit":false},{"i_long":106.86807400000001,"line":1,"station_id":"JNG","transit":true,"is_transit":true,"time":9,"distance":1236,"station_name":"Jatinegara","i_lat":-6.215091},{"transit":false,"time":3,"station_id":"KLD","distance":3395,"i_long":106.899548,"is_transit":false,"station_name":"Klender","line":1,"i_lat":-6.2135},{"station_id":"BUA","distance":3100,"is_transit":false,"transit":false,"time":2,"i_lat":-6.215568,"station_name":"Buaran","i_long":106.922662,"line":1},{"i_long":106.939679,"line":1,"i_lat":-6.217455,"time":1,"station_id":"KLDB","transit":false,"is_transit":false,"distance":1305,"station_name":"Klenderbaru"},{"is_transit":false,"line":1,"distance":1385,"transit":false,"station_name":"Cakung","i_lat":-6.219053,"i_long":106.951283,"station_id":"CUK","time":8}],[{"line":3,"is_transit":false,"i_long":106.617853,"station_id":"CC","transit":false,"station_name":"Cicayur","i_lat":-6.329547,"distance":0,"time":0},{"station_id":"CSK","i_long":106.640411,"time":4,"is_transit":false,"transit":false,"station_name":"Cisauk","distance":2519,"i_lat":-6.32484,"line":3},{"transit":false,"station_id":"SRP","time":4,"is_transit":false,"i_lat":-6.319871,"line":6,"station_name":"Serpong","distance":1784,"i_long":106.66566},{"station_name":"Rawa Buntu","i_lat":-6.314823,"time":4,"line":6,"station_id":"RU","is_transit":false,"transit":false,"distance":2413,"i_long":106.675475},{"station_name":"Sudimara","i_lat":-6.296963,"station_id":"SDM","time":6,"i_long":106.712277,"line":6,"transit":false,"distance":4566,"is_transit":false},{"station_name":"Jurangmangu","i_lat":-6.288927,"i_long":106.728916,"line":6,"distance":1994,"is_transit":false,"time":4,"transit":false,"station_id":"JMU"},{"station_name":"Pondokranji","line":6,"i_long":106.74273,"is_transit":false,"i_lat":-6.276362,"time":3,"station_id":"PDJ","transit":false,"distance":2179},{"station_id":"KBY","time":8,"i_lat":-6.237242,"transit":false,"station_name":"Kebayoran","i_long":106.780334,"distance":6218,"line":6,"is_transit":false},{"distance":3737,"line":6,"i_lat":-6.207404,"time":7,"station_id":"PLM","transit":false,"station_name":"Palmerah","is_transit":false,"i_long":106.79689},{"distance":3191,"line":1,"station_name":"Tanah Abang","time":6,"i_long":106.811091,"i_lat":-6.185545,"station_id":"THB","is_transit":true,"transit":true},{"station_name":"Duri","time":8,"is_transit":false,"station_id":"DU","i_lat":-6.155215,"i_long":106.800832,"transit":false,"distance":3632,"line":1},{"transit":false,"i_long":106.79867,"is_transit":false,"time":4,"station_id":"AK","station_name":"Angke","line":1,"i_lat":-6.144674,"distance":1230},{"transit":true,"distance":4102,"i_lat":-6.132549,"i_long":106.826365,"line":4,"is_transit":true,"time":9,"station_id":"KPB","station_name":"Kampung Bandan"},{"transit":true,"time":3,"station_name":"Jakarta Kota","is_transit":true,"distance":1364,"i_lat":-6.137569,"i_long":106.812439,"line":2,"station_id":"JAKK"},{"station_id":"JAY","distance":1264,"time":4,"is_transit":false,"i_long":106.820901,"transit":false,"i_lat":-6.141205,"station_name":"Jayakarta","line":2},{"time":2,"station_id":"MGB","is_transit":false,"i_long":106.82482,"station_name":"Manggabesar","line":2,"distance":1080,"transit":false,"i_lat":-6.149769},{"time":2,"station_name":"Sawah Besar","transit":false,"i_lat":-6.160725,"i_long":106.827103,"station_id":"SW","is_transit":false,"distance":906,"line":2},{"is_transit":false,"distance":1149,"i_lat":-6.166716,"line":2,"transit":false,"station_name":"Juanda","station_id":"JUA","time":2,"i_long":106.828284},{"station_name":"Gondangdia","i_lat":-6.186295,"i_long":106.832183,"line":2,"transit":false,"time":4,"distance":2015,"station_id":"GDD","is_transit":false},{"i_long":106.840169,"i_lat":-6.198556,"station_id":"CKI","station_name":"Cikini","is_transit":false,"distance":1750,"transit":false,"time":3,"line":2},{"transit":true,"time":4,"station_name":"Manggarai","distance":1590,"is_transit":true,"line":2,"i_long":106.84912,"station_id":"MRI","i_lat":-6.209883},{"transit":false,"time":2,"distance":1275,"line":1,"station_name":"Matraman","is_transit":false,"i_lat":-6.212485,"i_long":106.858896,"station_id":"MTR"},{"is_transit":false,"distance":1377,"i_long":106.86807400000001,"transit":false,"i_lat":-6.215091,"station_name":"Jatinegara","time":8,"line":1,"station_id":"JNG"},{"i_lat":-6.2135,"station_name":"Klender","line":1,"distance":3395,"station_id":"KLD","is_transit":false,"transit":false,"time":3,"i_long":106.899548},{"distance":3100,"line":1,"transit":false,"station_name":"Buaran","i_lat":-6.215568,"time":2,"i_long":106.922662,"is_transit":false,"station_id":"BUA"},{"is_transit":false,"station_id":"KLDB","distance":1305,"station_name":"Klenderbaru","i_lat":-6.217455,"time":1,"line":1,"i_long":106.939679,"transit":false},{"distance":1385,"is_transit":false,"transit":false,"time":8,"station_name":"Cakung","i_lat":-6.219053,"i_long":106.951283,"station_id":"CUK","line":1}],[{"station_id":"CC","time":0,"is_transit":false,"transit":false,"i_lat":-6.329547,"station_name":"Cicayur","i_long":106.617853,"distance":0,"line":3},{"time":4,"distance":2519,"station_id":"CSK","i_lat":-6.32484,"i_long":106.640411,"line":3,"transit":false,"is_transit":false,"station_name":"Cisauk"},{"station_id":"SRP","time":4,"i_lat":-6.319871,"distance":1784,"station_name":"Serpong","transit":false,"i_long":106.66566,"is_transit":false,"line":6},{"station_id":"RU","transit":false,"time":4,"line":6,"station_name":"Rawa Buntu","distance":2413,"i_long":106.675475,"i_lat":-6.314823,"is_transit":false},{"line":6,"is_transit":false,"time":6,"station_id":"SDM","transit":false,"distance":4566,"station_name":"Sudimara","i_lat":-6.296963,"i_long":106.712277},{"is_transit":false,"station_id":"JMU","transit":false,"time":4,"distance":1994,"line":6,"station_name":"Jurangmangu","i_long":106.728916,"i_lat":-6.288927},{"distance":2179,"i_lat":-6.276362,"time":3,"line":6,"station_name":"Pondokranji","is_transit":false,"transit":false,"i_long":106.74273,"station_id":"PDJ"},{"station_id":"KBY","transit":false,"i_long":106.780334,"station_name":"Kebayoran","distance":6218,"time":8,"is_transit":false,"i_lat":-6.237242,"line":6},{"line":6,"transit":false,"distance":3737,"time":7,"i_long":106.79689,"station_id":"PLM","is_transit":false,"station_name":"Palmerah","i_lat":-6.207404},{"is_transit":true,"i_lat":-6.185545,"time":6,"station_id":"THB","i_long":106.811091,"line":1,"distance":3191,"transit":true,"station_name":"Tanah Abang"},{"i_long":106.816351,"station_id":"KAT","station_name":"Karet","i_lat":-6.20132,"time":5,"is_transit":false,"distance":2029,"transit":false,"line":1},{"station_id":"SUDB","distance":471,"i_lat":-6.201433,"is_transit":false,"time":1,"line":1,"transit":false,"i_long":106.819881,"station_name":"Sudirman Baru"},{"is_transit":false,"i_long":106.822649,"distance":280,"time":1,"line":1,"station_id":"SUD","station_name":"Sudirman","i_lat":-6.202263,"transit":false},{"transit":true,"time":4,"i_long":106.84912,"distance":3186,"is_transit":true,"line":2,"station_name":"Manggarai","station_id":"MRI","i_lat":-6.209883},{"is_transit":false,"i_lat":-6.198556,"station_id":"CKI","distance":1590,"i_long":106.840169,"line":2,"time":4,"transit":false,"station_name":"Cikini"},{"distance":1750,"station_id":"GDD","i_long":106.832183,"is_transit":false,"time":3,"i_lat":-6.186295,"station_name":"Gondangdia","line":2,"transit":false},{"line":2,"i_lat":-6.166716,"i_long":106.828284,"time":4,"is_transit":false,"station_id":"JUA","station_name":"Juanda","transit":false,"distance":2015},{"station_id":"SW","i_long":106.827103,"is_transit":false,"line":2,"time":2,"distance":1149,"transit":false,"station_name":"Sawah Besar","i_lat":-6.160725},{"station_id":"MGB","station_name":"Manggabesar","i_long":106.82482,"i_lat":-6.149769,"distance":906,"line":2,"transit":false,"time":2,"is_transit":false},{"distance":1080,"line":2,"i_lat":-6.141205,"time":2,"station_id":"JAY","is_transit":false,"transit":false,"i_long":106.820901,"station_name":"Jayakarta"},{"i_long":106.812439,"distance":1264,"line":2,"station_name":"Jakarta Kota","i_lat":-6.137569,"is_transit":true,"time":4,"station_id":"JAKK","transit":true},{"transit":true,"line":4,"i_long":106.826365,"is_transit":true,"station_name":"Kampung Bandan","distance":1364,"i_lat":-6.132549,"time":3,"station_id":"KPB"},{"time":3,"i_lat":-6.14505,"i_long":106.836569,"station_id":"RJW","line":11,"is_transit":false,"distance":1444,"station_name":"Rajawali","transit":false},{"transit":false,"i_long":106.839204,"line":11,"is_transit":false,"distance":1901,"time":5,"station_name":"Kemayoran","station_id":"KMO","i_lat":-6.161728},{"distance":1436,"line":11,"transit":false,"i_lat":-6.174784,"i_long":106.84368,"station_name":"Pasar Senen","station_id":"PSE","time":4,"is_transit":false},{"station_name":"Gang Sentiong","station_id":"GST","i_long":106.850107,"line":11,"i_lat":-6.185975,"time":8,"is_transit":false,"distance":1567,"transit":false},{"is_transit":false,"time":1,"i_lat":-6.193792,"distance":973,"line":11,"station_name":"Kramat","i_long":106.855437,"transit":false,"station_id":"KMT"},{"is_transit":false,"distance":1829,"transit":false,"i_lat":-6.209188,"i_long":106.861737,"time":2,"station_id":"POK","station_name":"Pondok Jati","line":11},{"station_name":"Jatinegara","is_transit":true,"i_long":106.86807400000001,"transit":true,"line":1,"time":9,"distance":1236,"i_lat":-6.215091,"station_id":"JNG"},{"i_lat":-6.2135,"time":3,"is_transit":false,"station_name":"Klender","i_long":106.899548,"station_id":"KLD","distance":3395,"line":1,"transit":false},{"distance":3100,"i_lat":-6.215568,"station_id":"BUA","transit":false,"time":2,"i_long":106.922662,"station_name":"Buaran","line":1,"is_transit":false},{"station_id":"KLDB","is_transit":false,"transit":false,"time":1,"distance":1305,"i_long":106.939679,"line":1,"i_lat":-6.217455,"station_name":"Klenderbaru"},{"line":1,"station_name":"Cakung","time":8,"distance":1385,"station_id":"CUK","is_transit":false,"transit":false,"i_lat":-6.219053,"i_long":106.951283}]]}