{"data":[[{"station_name":"Cicayur","transit":false,"i_long":106.617853,"time":0,"station_id":"CC","is_transit":false,"distance":0,"i_lat":-6.329547,"line":0},{"station_id":"CSK","is_transit":false,"transit":false,"i_long":106.640411,"station_name":"Cisauk","distance":2519,"i_lat":-6.32484,"line":0,"time":4},{"station_id":"SRP","station_name":"Serpong","time":4,"distance":1784,"i_long":106.66566,"i_lat":-6.319871,"line":6,"is_transit":false,"transit":false},{"station_name":"Rawa Buntu","station_id":"RU","line":6,"transit":false,"i_long":106.675475,"distance":2413,"time":4,"i_lat":-6.314823,"is_transit":false},{"distance":4566,"time":6,"i_lat":-6.296963,"station_id":"SDM","station_name":"Sudimara","transit":false,"is_transit":false,"line":6,"i_long":106.712277},{"i_lat":-6.288927,"is_transit":false,"line":6,"time":4,"transit":false,"distance":1994,"i_long":106.728916,"station_id":"JMU","station_name":"Jurangmangu"},{"transit":false,"station_id":"PDJ","distance":2179,"time":3,"i_long":106.74273,"i_lat":-6.276362,"station_name":"Pondokranji","is_transit":false,"line":6},{"transit":false,"time":8,"station_name":"Kebayoran","i_long":106.780334,"distance":6218,"line":6,"is_transit":false,"station_id":"KBY","i_lat":-6.237242},{"line":6,"distance":3737,"transit":false,"i_long":106.79689,"i_lat":-6.207404,"station_name":"Palmerah","time":7,"station_id":"PLM","is_transit":false},{"line":1,"distance":3191,"is_transit":true,"station_id":"THB","station_name":"Tanah Abang","transit":true,"time":6,"i_lat":-6.185545,"i_long":106.811091},{"transit":false,"distance":2029,"i_lat":-6.20132,"is_transit":false,"station_id":"KAT","line":1,"i_long":106.816351,"time":5,"station_name":"Karet"},{"i_lat":-6.201433,"is_transit":false,"station_name":"Sudirman Baru","i_long":106.819881,"station_id":"SUDB","transit":false,"time":1,"distance":471,"line":1},{"transit":false,"time":1,"i_long":106.822649,"is_transit":false,"station_id":"SUD","station_name":"Sudirman","i_lat":-6.202263,"line":1,"distance":280},{"line":0,"is_transit":true,"time":4,"transit":true,"i_lat":-6.209883,"station_id":"MRI","station_name":"Manggarai","distance":3186,"i_long":106.84912},{"is_transit":false,"time":4,"i_lat":-6.198556,"distance":1590,"station_name":"Cikini","station_id":"CKI","i_long":106.840169,"transit":false,"line":0}],[{"i_lat":-6.329547,"transit":false,"is_transit":false,"station_name":"Cicayur","line":0,"i_long":106.617853,"distance":0,"time":0,"station_id":"CC"},{"time":4,"distance":2519,"transit":false,"station_id":"CSK","is_transit":false,"i_long":106.640411,"line":0,"station_name":"Cisauk","i_lat":-6.32484},{"is_transit":false,"time":4,"distance":1784,"transit":false,"i_lat":-6.319871,"i_long":106.66566,"line":6,"station_id":"SRP","station_name":"Serpong"},{"station_name":"Rawa Buntu","transit":false,"i_long":106.675475,"distance":2413,"i_lat":-6.314823,"station_id":"RU","time":4,"is_transit":false,"line":6},{"i_lat":-6.296963,"distance":4566,"is_transit":false,"time":6,"i_long":106.712277,"transit":false,"station_name":"Sudimara","line":6,"station_id":"SDM"},{"transit":false,"time":4,"line":6,"station_name":"Jurangmangu","i_lat":-6.288927,"is_transit":false,"i_long":106.728916,"station_id":"JMU","distance":1994},{"i_long":106.74273,"is_transit":false,"transit":false,"station_name":"Pondokranji","line":6,"station_id":"PDJ","distance":2179,"time":3,"i_lat":-6.276362},{"is_transit":false,"station_id":"KBY","distance":6218,"i_lat":-6.237242,"station_name":"Kebayoran","transit":false,"time":8,"line":6,"i_long":106.780334},{"station_id":"PLM","distance":3737,"station_name":"Palmerah","transit":false,"time":7,"i_lat":-6.207404,"i_long":106.79689,"is_transit":false,"line":6},{"distance":3191,"station_name":"Tanah Abang","i_lat":-6.185545,"line":1,"station_id":"THB","transit":true,"i_long":106.811091,"is_transit":true,"time":6},{"i_long":106.800832,"distance":3632,"is_transit":true,"station_name":"Duri","transit":true,"time":8,"line":1,"i_lat":-6.155215,"station_id":"DU"},{"distance":1230,"i_long":106.79867,"i_lat":-6.144674,"line":0,"station_id":"AK","is_transit":false,"transit":false,"time":4,"station_name":"Angke"},{"line":0,"station_id":"KPB","i_long":106.826365,"transit":false,"distance":4102,"station_name":"Kampung Bandan","time":9,"is_transit":true,"i_lat":-6.132549},{"distance":1364,"line":0,"is_transit":true,"time":3,"station_id":"JAKK","i_long":106.812439,"transit":true,"i_lat":-6.137569,"station_name":"Jakarta Kota"},{"is_transit":false,"line":7,"i_lat":-6.141205,"time":4,"station_name":"Jayakarta","transit":false,"station_id":"JAY","distance":1264,"i_long":106.820901},{"transit":false,"is_transit":false,"station_name":"Manggabesar","time":2,"distance":1080,"line":2,"i_lat":-6.149769,"station_id":"MGB","i_long":106.82482},{"station_id":"SW","line":2,"time":2,"distance":906,"station_name":"Sawah Besar","transit":false,"i_lat":-6.160725,"is_transit":false,"i_long":106.827103},{"time":2,"station_name":"Juanda","is_transit":false,"distance":1149,"i_long":106.828284,"line":2,"station_id":"JUA","transit":false,"i_lat":-6.166716},{"is_transit":false,"station_id":"GDD","transit":false,"time":4,"line":2,"distance":2015,"station_name":"Gondangdia","i_lat":-6.186295,"i_long":106.832183},{"i_lat":-6.198556,"time":3,"line":0,"is_transit":false,"station_name":"Cikini","distance":1750,"i_long":106.840169,"transit":false,"station_id":"CKI"}],[{"line":0,"i_long":106.617853,"transit":false,"i_lat":-6.329547,"station_id":"CC","station_name":"Cicayur","distance":0,"is_transit":false,"time":0},{"i_lat":-6.32484,"is_transit":false,"line":0,"station_name":"Cisauk","time":4,"i_long":106.640411,"transit":false,"distance":2519,"station_id":"CSK"},{"distance":1784,"is_transit":false,"i_lat":-6.319871,"i_long":106.66566,"station_id":"SRP","time":4,"station_name":"Serpong","line":6,"transit":false},{"i_long":106.675475,"i_lat":-6.314823,"line":6,"station_id":"RU","transit":false,"time":4,"distance":2413,"station_name":"Rawa Buntu","is_transit":false},{"i_long":106.712277,"line":6,"is_transit":false,"station_id":"SDM","station_name":"Sudimara","transit":false,"i_lat":-6.296963,"distance":4566,"time":6},{"station_name":"Jurangmangu","time":4,"distance":1994,"transit":false,"i_long":106.728916,"line":6,"station_id":"JMU","i_lat":-6.288927,"is_transit":false},{"is_transit":false,"line":6,"i_lat":-6.276362,"distance":2179,"transit":false,"station_id":"PDJ","time":3,"i_long":106.74273,"station_name":"Pondokranji"},{"i_long":106.780334,"i_lat":-6.237242,"line":6,"station_id":"KBY","station_name":"Kebayoran","transit":false,"time":8,"is_transit":false,"distance":6218},{"station_name":"Palmerah","i_lat":-6.207404,"time":7,"distance":3737,"line":6,"station_id":"PLM","transit":false,"i_long":106.79689,"is_transit":false},{"station_name":"Tanah Abang","time":6,"distance":3191,"line":1,"is_transit":true,"transit":true,"i_lat":-6.185545,"i_long":106.811091,"station_id":"THB"},{"is_transit":true,"i_long":106.800832,"transit":true,"time":8,"i_lat":-6.155215,"line":1,"distance":3632,"station_name":"Duri","station_id":"DU"},{"line":0,"is_transit":false,"i_lat":-6.144674,"i_long":106.79867,"station_name":"Angke","time":4,"distance":1230,"station_id":"AK","transit":false},{"distance":4102,"station_id":"KPB","transit":true,"station_name":"Kampung Bandan","i_lat":-6.132549,"line":0,"time":9,"i_long":106.826365,"is_transit":true},{"station_name":"Rajawali","is_transit":false,"i_long":106.836569,"station_id":"RJW","distance":1444,"transit":false,"i_lat":-6.14505,"line":11,"time":3},{"transit":false,"station_name":"Kemayoran","line":11,"i_lat":-6.161728,"i_long":106.839204,"is_transit":false,"time":5,"distance":1901,"station_id":"KMO"},{"line":11,"time":4,"station_name":"Pasar Senen","distance":1436,"station_id":"PSE","is_transit":false,"i_long":106.84368,"i_lat":-6.174784,"transit":false},{"is_transit":false,"distance":1567,"time":8,"i_long":106.850107,"line":11,"station_id":"GST","i_lat":-6.185975,"transit":false,"station_name":"Gang Sentiong"},{"i_lat":-6.193792,"distance":973,"transit":false,"station_id":"KMT","is_transit":false,"station_name":"Kramat","time":1,"i_long":106.855437,"line":11},{"i_long":106.861737,"time":2,"station_id":"POK","station_name":"Pondok Jati","line":11,"distance":1829,"is_transit":false,"transit":false,"i_lat":-6.209188},{"time":9,"is_transit":true,"i_lat":-6.215091,"transit":true,"station_id":"JNG","line":0,"i_long":106.86807400000001,"distance":1236,"station_name":"Jatinegara"},{"line":1,"station_name":"Matraman","i_long":106.858896,"transit":false,"station_id":"MTR","i_lat":-6.212485,"is_transit":false,"distance":1377,"time":2},{"is_transit":true,"time":2,"i_long":106.84912,"line":0,"station_name":"Manggarai","transit":true,"i_lat":-6.209883,"station_id":"MRI","distance":1275},{"station_id":"CKI","transit":false,"line":0,"i_long":106.840169,"distance":1590,"is_transit":false,"i_lat":-6.198556,"station_name":"Cikini","time":4}],[{"distance":0,"station_name":"Cicayur","station_id":"CC","i_lat":-6.329547,"i_long":106.617853,"line":0,"transit":false,"is_transit":false,"time":0},{"distance":2519,"line":0,"i_long":106.640411,"is_transit":false,"i_lat":-6.32484,"station_id":"CSK","station_name":"Cisauk","transit":false,"time":4},{"is_transit":false,"i_lat":-6.319871,"station_id":"SRP","line":6,"i_long":106.66566,"station_name":"Serpong","transit":false,"distance":1784,"time":4},{"station_name":"Rawa Buntu","distance":2413,"i_long":106.675475,"line":6,"is_transit":false,"station_id":"RU","transit":false,"time":4,"i_lat":-6.314823},{"line":6,"i_lat":-6.296963,"is_transit":false,"i_long":106.712277,"distance":4566,"station_id":"SDM","station_name":"Sudimara","transit":false,"time":6},{"station_name":"Jurangmangu","line":6,"station_id":"JMU","i_lat":-6.288927,"transit":false,"time":4,"distance":1994,"is_transit":false,"i_long":106.728916},{"line":6,"station_id":"PDJ","i_long":106.74273,"distance":2179,"is_transit":false,"i_lat":-6.276362,"time":3,"station_name":"Pondokranji","transit":false},{"is_transit":false,"distance":6218,"station_name":"Kebayoran","time":8,"transit":false,"i_long":106.780334,"line":6,"i_lat":-6.237242,"station_id":"KBY"},{"distance":3737,"i_lat":-6.207404,"station_name":"Palmerah","station_id":"PLM","transit":false,"time":7,"i_long":106.79689,"line":6,"is_transit":false},{"station_id":"THB","line":1,"distance":3191,"i_lat":-6.185545,"transit":true,"i_long":106.811091,"station_name":"Tanah Abang","time":6,"is_transit":true},{"is_transit":false,"station_id":"KAT","transit":false,"station_name":"Karet","time":5,"i_lat":-6.20132,"i_long":106.816351,"distance":2029,"line":1},{"transit":false,"line":1,"time":1,"station_name":"Sudirman Baru","i_lat":-6.201433,"i_long":106.819881,"is_transit":false,"station_id":"SUDB","distance":471},{"i_lat":-6.202263,"distance":280,"station_id":"SUD","i_long":106.822649,"time":1,"is_transit":false,"transit":false,"station_name":"Sudirman","line":1},{"line":0,"station_name":"Manggarai","i_long":106.84912,"i_lat":-6.209883,"station_id":"MRI","transit":false,"time":4,"is_transit":true,"distance":3186},{"distance":1275,"line":1,"i_long":106.858896,"station_name":"Matraman","time":2,"station_id":"MTR","i_lat":-6.212485,"transit":false,"is_transit":false},{"distance":1377,"is_transit":true,"station_name":"Jatinegara","line":0,"station_id":"JNG","transit":true,"i_lat":-6.215091,"i_long":106.86807400000001,"time":8},{"transit":false,"time":2,"i_lat":-6.209188,"is_transit":false,"station_name":"Pondok Jati","station_id":"POK","i_long":106.861737,"line":11,"distance":1236},{"i_long":106.855437,"transit":false,"line":11,"station_id":"KMT","station_name":"Kramat","distance":1829,"time":2,"is_transit":false,"i_lat":-6.193792},{"i_long":106.850107,"line":11,"station_id":"GST","is_transit":false,"time":1,"i_lat":-6.185975,"station_name":"Gang Sentiong","transit":false,"distance":973},{"distance":1567,"is_transit":false,"time":8,"i_long":106.84368,"transit":false,"station_id":"PSE","station_name":"Pasar Senen","i_lat":-6.174784,"line":11},{"i_long":106.839204,"line":11,"station_id":"KMO","distance":1436,"station_name":"Kemayoran","transit":false,"time":4,"is_transit":false,"i_lat":-6.161728},{"line":11,"transit":false,"is_transit":false,"distance":1901,"i_long":106.836569,"station_name":"Rajawali","time":5,"i_lat":-6.14505,"station_id":"RJW"},{"transit":true,"time":3,"station_id":"KPB","is_transit":true,"i_lat":-6.132549,"i_long":106.826365,"line":0,"distance":1444,"station_name":"Kampung Bandan"},{"is_transit":true,"distance":1364,"time":3,"transit":true,"i_long":106.812439,"i_lat":-6.137569,"line":0,"station_name":"Jakarta Kota","station_id":"JAKK"},{"distance":1264,"i_lat":-6.141205,"station_name":"Jayakarta","is_transit":false,"i_long":106.820901,"line":7,"time":4,"station_id":"JAY","transit":false},{"is_transit":false,"line":2,"distance":1080,"transit":false,"station_name":"Manggabesar","time":2,"station_id":"MGB","i_lat":-6.149769,"i_long":106.82482},{"i_lat":-6.160725,"station_id":"SW","line":2,"station_name":"Sawah Besar","transit":false,"time":2,"distance":906,"is_transit":false,"i_long":106.827103},{"transit":false,"line":2,"time":2,"is_transit":false,"station_name":"Juanda","i_long":106.828284,"station_id":"JUA","i_lat":-6.166716,"distance":1149},{"i_lat":-6.186295,"time":4,"i_long":106.832183,"station_name":"Gondangdia","line":2,"station_id":"GDD","transit":false,"is_transit":false,"distance":2015},{"time":3,"transit":false,"distance":1750,"station_name":"Cikini","i_long":106.840169,"line":0,"is_transit":false,"i_lat":-6.198556,"station_id":"CKI"}]]}