{"data":[[{"transit":false,"line":0,"station_id":"CC","is_transit":false,"station_name":"Cicayur","i_lat":-6.329547,"time":0,"i_long":106.617853,"distance":0},{"i_long":106.640411,"station_id":"CSK","is_transit":false,"distance":2519,"time":4,"transit":false,"i_lat":-6.32484,"station_name":"Cisauk","line":0},{"station_id":"SRP","is_transit":false,"line":6,"i_long":106.66566,"time":4,"transit":false,"distance":1784,"station_name":"Serpong","i_lat":-6.319871},{"time":4,"distance":2413,"i_lat":-6.314823,"transit":false,"i_long":106.675475,"line":6,"station_id":"RU","is_transit":false,"station_name":"Rawa Buntu"},{"station_name":"Sudimara","i_long":106.712277,"is_transit":false,"transit":false,"line":6,"station_id":"SDM","distance":4566,"time":6,"i_lat":-6.296963},{"is_transit":false,"distance":1994,"i_lat":-6.288927,"time":4,"station_id":"JMU","i_long":106.728916,"line":6,"transit":false,"station_name":"Jurangmangu"},{"station_name":"Pondokranji","distance":2179,"time":3,"station_id":"PDJ","i_lat":-6.276362,"is_transit":false,"i_long":106.74273,"line":6,"transit":false},{"distance":6218,"i_lat":-6.237242,"time":8,"i_long":106.780334,"station_name":"Kebayoran","transit":false,"line":6,"is_transit":false,"station_id":"KBY"},{"is_transit":false,"time":7,"transit":false,"station_id":"PLM","i_long":106.79689,"i_lat":-6.207404,"station_name":"Palmerah","distance":3737,"line":6},{"i_long":106.811091,"transit":true,"i_lat":-6.185545,"line":1,"station_name":"Tanah Abang","station_id":"THB","is_transit":true,"time":6,"distance":3191},{"station_name":"Karet","i_lat":-6.20132,"station_id":"KAT","time":5,"transit":false,"i_long":106.816351,"line":1,"is_transit":false,"distance":2029},{"i_lat":-6.201433,"is_transit":false,"time":1,"i_long":106.819881,"station_name":"Sudirman Baru","distance":471,"line":1,"transit":false,"station_id":"SUDB"},{"station_id":"SUD","transit":false,"station_name":"Sudirman","time":1,"is_transit":false,"distance":280,"i_lat":-6.202263,"line":1,"i_long":106.822649},{"station_name":"Manggarai","transit":false,"i_lat":-6.209883,"i_long":106.84912,"line":0,"is_transit":true,"station_id":"MRI","time":4,"distance":3186},{"time":2,"i_lat":-6.212485,"station_id":"MTR","i_long":106.858896,"is_transit":false,"transit":false,"station_name":"Matraman","distance":1275,"line":1},{"is_transit":true,"distance":1377,"station_name":"Jatinegara","i_long":106.86807400000001,"station_id":"JNG","line":0,"time":8,"transit":false,"i_lat":-6.215091},{"distance":3395,"i_lat":-6.2135,"i_long":106.899548,"time":3,"is_transit":false,"line":1,"station_name":"Klender","transit":false,"station_id":"KLD"},{"i_lat":-6.215568,"distance":3100,"is_transit":false,"station_name":"Buaran","i_long":106.922662,"time":2,"line":0,"transit":false,"station_id":"BUA"},{"station_id":"KLDB","time":1,"distance":1305,"station_name":"Klenderbaru","i_long":106.939679,"is_transit":false,"i_lat":-6.217455,"line":1,"transit":false},{"i_long":106.951283,"is_transit":false,"i_lat":-6.219053,"station_id":"CUK","station_name":"Cakung","transit":false,"time":8,"line":0,"distance":1385}],[{"is_transit":false,"i_long":106.617853,"station_name":"Cicayur","line":0,"station_id":"CC","time":0,"transit":false,"distance":0,"i_lat":-6.329547},{"station_name":"Cisauk","i_lat":-6.32484,"i_long":106.640411,"time":4,"is_transit":false,"transit":false,"distance":2519,"line":0,"station_id":"CSK"},{"transit":false,"i_lat":-6.319871,"i_long":106.66566,"line":6,"station_name":"Serpong","distance":1784,"station_id":"SRP","is_transit":false,"time":4},{"is_transit":false,"transit":false,"i_lat":-6.314823,"line":6,"time":4,"station_name":"Rawa Buntu","station_id":"RU","distance":2413,"i_long":106.675475},{"transit":false,"i_lat":-6.296963,"is_transit":false,"time":6,"station_id":"SDM","station_name":"Sudimara","distance":4566,"i_long":106.712277,"line":6},{"i_lat":-6.288927,"time":4,"station_id":"JMU","station_name":"Jurangmangu","transit":false,"line":6,"distance":1994,"is_transit":false,"i_long":106.728916},{"i_long":106.74273,"station_id":"PDJ","line":6,"distance":2179,"time":3,"i_lat":-6.276362,"station_name":"Pondokranji","is_transit":false,"transit":false},{"line":6,"is_transit":false,"i_long":106.780334,"time":8,"station_name":"Kebayoran","distance":6218,"i_lat":-6.237242,"transit":false,"station_id":"KBY"},{"is_transit":false,"distance":3737,"i_lat":-6.207404,"station_id":"PLM","station_name":"Palmerah","i_long":106.79689,"time":7,"line":6,"transit":false},{"time":6,"is_transit":true,"i_lat":-6.185545,"i_long":106.811091,"station_id":"THB","station_name":"Tanah Abang","distance":3191,"transit":true,"line":1},{"time":8,"is_transit":true,"station_id":"DU","i_long":106.800832,"station_name":"Duri","distance":3632,"i_lat":-6.155215,"line":1,"transit":true},{"line":0,"i_long":106.79867,"distance":1230,"station_name":"Angke","i_lat":-6.144674,"is_transit":false,"transit":false,"station_id":"AK","time":4},{"transit":true,"distance":4102,"station_name":"Kampung Bandan","line":0,"i_long":106.826365,"station_id":"KPB","is_transit":true,"time":9,"i_lat":-6.132549},{"station_name":"Rajawali","line":11,"transit":false,"distance":1444,"time":3,"i_lat":-6.14505,"i_long":106.836569,"station_id":"RJW","is_transit":false},{"distance":1901,"station_name":"Kemayoran","i_lat":-6.161728,"i_long":106.839204,"is_transit":false,"line":11,"transit":false,"station_id":"KMO","time":5},{"station_id":"PSE","time":4,"distance":1436,"station_name":"Pasar Senen","i_lat":-6.174784,"i_long":106.84368,"line":11,"transit":false,"is_transit":false},{"i_long":106.850107,"station_name":"Gang Sentiong","i_lat":-6.185975,"transit":false,"is_transit":false,"time":8,"station_id":"GST","line":11,"distance":1567},{"transit":false,"station_id":"KMT","station_name":"Kramat","line":11,"time":1,"i_long":106.855437,"is_transit":false,"distance":973,"i_lat":-6.193792},{"is_transit":false,"transit":false,"time":2,"i_lat":-6.209188,"line":11,"distance":1829,"station_id":"POK","i_long":106.861737,"station_name":"Pondok Jati"},{"station_name":"Jatinegara","time":9,"is_transit":true,"transit":true,"line":0,"i_lat":-6.215091,"i_long":106.86807400000001,"distance":1236,"station_id":"JNG"},{"is_transit":false,"distance":3395,"station_id":"KLD","i_lat":-6.2135,"line":1,"i_long":106.899548,"station_name":"Klender","transit":false,"time":3},{"distance":3100,"station_name":"Buaran","line":0,"station_id":"BUA","i_lat":-6.215568,"is_transit":false,"time":2,"transit":false,"i_long":106.922662},{"distance":1305,"i_lat":-6.217455,"is_transit":false,"time":1,"station_name":"Klenderbaru","i_long":106.939679,"station_id":"KLDB","transit":false,"line":1},{"i_lat":-6.219053,"is_transit":false,"line":0,"i_long":106.951283,"station_name":"Cakung","time":8,"transit":false,"station_id":"CUK","distance":1385}],[{"i_lat":-6.329547,"station_id":"CC","distance":0,"time":0,"station_name":"Cicayur","line":0,"i_long":106.617853,"is_transit":false,"transit":false},{"station_id":"CSK","is_transit":false,"distance":2519,"station_name":"Cisauk","transit":false,"line":0,"time":4,"i_lat":-6.32484,"i_long":106.640411},{"distance":1784,"line":6,"is_transit":false,"station_id":"SRP","station_name":"Serpong","i_lat":-6.319871,"transit":false,"i_long":106.66566,"time":4},{"is_transit":false,"i_lat":-6.314823,"i_long":106.675475,"station_name":"Rawa Buntu","transit":false,"time":4,"station_id":"RU","line":6,"distance":2413},{"i_long":106.712277,"i_lat":-6.296963,"distance":4566,"line":6,"station_id":"SDM","time":6,"station_name":"Sudimara","transit":false,"is_transit":false},{"time":4,"station_name":"Jurangmangu","i_lat":-6.288927,"is_transit":false,"station_id":"JMU","i_long":106.728916,"line":6,"transit":false,"distance":1994},{"is_transit":false,"line":6,"time":3,"station_name":"Pondokranji","station_id":"PDJ","distance":2179,"transit":false,"i_lat":-6.276362,"i_long":106.74273},{"is_transit":false,"distance":6218,"transit":false,"line":6,"station_name":"Kebayoran","station_id":"KBY","time":8,"i_lat":-6.237242,"i_long":106.780334},{"line":6,"i_lat":-6.207404,"transit":false,"time":7,"i_long":106.79689,"is_transit":false,"distance":3737,"station_name":"Palmerah","station_id":"PLM"},{"i_lat":-6.185545,"i_long":106.811091,"time":6,"distance":3191,"is_transit":true,"station_name":"Tanah Abang","station_id":"THB","transit":true,"line":1},{"station_name":"Duri","i_long":106.800832,"station_id":"DU","time":8,"line":1,"transit":true,"distance":3632,"i_lat":-6.155215,"is_transit":true},{"distance":1230,"station_name":"Angke","i_lat":-6.144674,"transit":false,"is_transit":false,"i_long":106.79867,"line":0,"station_id":"AK","time":4},{"i_long":106.826365,"line":0,"transit":false,"station_id":"KPB","is_transit":true,"i_lat":-6.132549,"time":9,"distance":4102,"station_name":"Kampung Bandan"},{"station_id":"JAKK","line":0,"i_lat":-6.137569,"station_name":"Jakarta Kota","time":3,"transit":true,"i_long":106.812439,"distance":1364,"is_transit":true},{"station_id":"JAY","is_transit":false,"time":4,"transit":false,"i_lat":-6.141205,"i_long":106.820901,"line":7,"distance":1264,"station_name":"Jayakarta"},{"station_id":"MGB","time":2,"station_name":"Manggabesar","i_lat":-6.149769,"is_transit":false,"distance":1080,"line":2,"i_long":106.82482,"transit":false},{"is_transit":false,"distance":906,"i_lat":-6.160725,"station_id":"SW","line":2,"transit":false,"i_long":106.827103,"time":2,"station_name":"Sawah Besar"},{"transit":false,"station_name":"Juanda","i_lat":-6.166716,"is_transit":false,"time":2,"station_id":"JUA","i_long":106.828284,"line":2,"distance":1149},{"transit":false,"i_lat":-6.186295,"i_long":106.832183,"distance":2015,"line":2,"is_transit":false,"time":4,"station_id":"GDD","station_name":"Gondangdia"},{"i_lat":-6.198556,"station_id":"CKI","distance":1750,"i_long":106.840169,"line":0,"is_transit":false,"station_name":"Cikini","time":3,"transit":false},{"transit":true,"i_lat":-6.209883,"time":4,"station_name":"Manggarai","station_id":"MRI","is_transit":true,"line":0,"distance":1590,"i_long":106.84912},{"station_name":"Matraman","station_id":"MTR","is_transit":false,"distance":1275,"i_long":106.858896,"transit":false,"i_lat":-6.212485,"time":2,"line":1},{"i_lat":-6.215091,"transit":false,"time":8,"line":0,"distance":1377,"station_name":"Jatinegara","station_id":"JNG","i_long":106.86807400000001,"is_transit":true},{"time":3,"station_id":"KLD","i_long":106.899548,"i_lat":-6.2135,"transit":false,"distance":3395,"station_name":"Klender","line":1,"is_transit":false},{"i_long":106.922662,"distance":3100,"is_transit":false,"station_id":"BUA","station_name":"Buaran","i_lat":-6.215568,"time":2,"line":0,"transit":false},{"i_long":106.939679,"distance":1305,"station_name":"Klenderbaru","is_transit":false,"time":1,"transit":false,"line":1,"station_id":"KLDB","i_lat":-6.217455},{"is_transit":false,"transit":false,"i_long":106.951283,"distance":1385,"time":8,"station_id":"CUK","i_lat":-6.219053,"station_name":"Cakung","line":0}],[{"line":0,"station_id":"CC","station_name":"Cicayur","is_transit":false,"i_lat":-6.329547,"transit":false,"distance":0,"i_long":106.617853,"time":0},{"station_name":"Cisauk","is_transit":false,"time":4,"i_lat":-6.32484,"distance":2519,"i_long":106.640411,"station_id":"CSK","transit":false,"line":0},{"distance":1784,"line":6,"transit":false,"i_lat":-6.319871,"station_name":"Serpong","station_id":"SRP","is_transit":false,"i_long":106.66566,"time":4},{"station_id":"RU","distance":2413,"station_name":"Rawa Buntu","i_long":106.675475,"transit":false,"is_transit":false,"i_lat":-6.314823,"line":6,"time":4},{"line":6,"station_id":"SDM","time":6,"distance":4566,"station_name":"Sudimara","transit":false,"i_lat":-6.296963,"is_transit":false,"i_long":106.712277},{"distance":1994,"i_lat":-6.288927,"is_transit":false,"station_id":"JMU","time":4,"station_name":"Jurangmangu","transit":false,"i_long":106.728916,"line":6},{"time":3,"line":6,"i_lat":-6.276362,"distance":2179,"is_transit":false,"station_id":"PDJ","station_name":"Pondokranji","transit":false,"i_long":106.74273},{"station_name":"Kebayoran","i_lat":-6.237242,"distance":6218,"line":6,"is_transit":false,"station_id":"KBY","time":8,"transit":false,"i_long":106.780334},{"i_lat":-6.207404,"i_long":106.79689,"time":7,"station_name":"Palmerah","distance":3737,"line":6,"is_transit":false,"station_id":"PLM","transit":false},{"distance":3191,"transit":true,"line":1,"i_lat":-6.185545,"time":6,"station_name":"Tanah Abang","station_id":"THB","is_transit":true,"i_long":106.811091},{"station_name":"Karet","i_long":106.816351,"time":5,"line":1,"is_transit":false,"i_lat":-6.20132,"station_id":"KAT","transit":false,"distance":2029},{"i_long":106.819881,"i_lat":-6.201433,"time":1,"is_transit":false,"station_name":"Sudirman Baru","transit":false,"station_id":"SUDB","distance":471,"line":1},{"i_lat":-6.202263,"station_name":"Sudirman","distance":280,"time":1,"i_long":106.822649,"transit":false,"is_transit":false,"line":1,"station_id":"SUD"},{"line":0,"station_id":"MRI","time":4,"distance":3186,"i_long":106.84912,"is_transit":true,"station_name":"Manggarai","transit":true,"i_lat":-6.209883},{"i_long":106.840169,"time":4,"distance":1590,"station_name":"Cikini","transit":false,"i_lat":-6.198556,"line":0,"is_transit":false,"station_id":"CKI"},{"station_id":"GDD","transit":false,"line":2,"time":3,"distance":1750,"station_name":"Gondangdia","i_lat":-6.186295,"i_long":106.832183,"is_transit":false},{"time":4,"distance":2015,"station_id":"JUA","station_name":"Juanda","transit":false,"line":2,"i_long":106.828284,"i_lat":-6.166716,"is_transit":false},{"transit":false,"is_transit":false,"i_lat":-6.160725,"distance":1149,"station_name":"Sawah Besar","line":2,"station_id":"SW","time":2,"i_long":106.827103},{"station_name":"Manggabesar","is_transit":false,"time":2,"i_lat":-6.149769,"transit":false,"line":2,"station_id":"MGB","distance":906,"i_long":106.82482},{"i_long":106.820901,"line":7,"distance":1080,"station_name":"Jayakarta","transit":false,"is_transit":false,"time":2,"i_lat":-6.141205,"station_id":"JAY"},{"line":0,"station_id":"JAKK","distance":1264,"transit":true,"time":4,"is_transit":true,"i_lat":-6.137569,"station_name":"Jakarta Kota","i_long":106.812439},{"distance":1364,"time":3,"station_id":"KPB","station_name":"Kampung Bandan","i_lat":-6.132549,"i_long":106.826365,"is_transit":true,"transit":true,"line":0},{"transit":false,"distance":1444,"i_long":106.836569,"line":11,"station_name":"Rajawali","i_lat":-6.14505,"is_transit":false,"station_id":"RJW","time":3},{"station_id":"KMO","station_name":"Kemayoran","line":11,"is_transit":false,"i_lat":-6.161728,"transit":false,"time":5,"i_long":106.839204,"distance":1901},{"time":4,"distance":1436,"i_lat":-6.174784,"station_id":"PSE","transit":false,"line":11,"station_name":"Pasar Senen","i_long":106.84368,"is_transit":false},{"station_id":"GST","transit":false,"time":8,"station_name":"Gang Sentiong","i_lat":-6.185975,"i_long":106.850107,"distance":1567,"is_transit":false,"line":11},{"i_long":106.855437,"time":1,"i_lat":-6.193792,"line":11,"distance":973,"station_name":"Kramat","is_transit":false,"transit":false,"station_id":"KMT"},{"station_name":"Pondok Jati","i_lat":-6.209188,"i_long":106.861737,"station_id":"POK","distance":1829,"line":11,"time":2,"transit":false,"is_transit":false},{"distance":1236,"station_name":"Jatinegara","i_lat":-6.215091,"i_long":106.86807400000001,"time":9,"transit":true,"line":0,"station_id":"JNG","is_transit":true},{"station_id":"KLD","is_transit":false,"time":3,"station_name":"Klender","transit":false,"i_long":106.899548,"line":1,"distance":3395,"i_lat":-6.2135},{"is_transit":false,"line":0,"transit":false,"distance":3100,"station_id":"BUA","station_name":"Buaran","i_lat":-6.215568,"time":2,"i_long":106.922662},{"time":1,"station_name":"Klenderbaru","transit":false,"i_lat":-6.217455,"line":1,"distance":1305,"is_transit":false,"i_long":106.939679,"station_id":"KLDB"},{"i_long":106.951283,"i_lat":-6.219053,"station_name":"Cakung","station_id":"CUK","line":0,"distance":1385,"time":8,"transit":false,"is_transit":false}]]}