{"data":[[{"distance":0,"time":0,"transit":false,"line":3,"station_id":"CC","i_lat":-6.329547,"station_name":"Cicayur","i_long":106.617853,"is_transit":false},{"station_id":"CSK","station_name":"Cisauk","i_lat":-6.32484,"line":3,"i_long":106.640411,"time":4,"distance":2519,"is_transit":false,"transit":false},{"distance":1784,"station_name":"Serpong","transit":false,"i_lat":-6.319871,"is_transit":false,"time":4,"line":6,"i_long":106.66566,"station_id":"SRP"},{"i_lat":-6.314823,"line":6,"station_name":"Rawa Buntu","time":4,"is_transit":false,"station_id":"RU","transit":false,"i_long":106.675475,"distance":2413},{"i_lat":-6.296963,"line":6,"distance":4566,"i_long":106.712277,"station_name":"Sudimara","station_id":"SDM","transit":false,"time":6,"is_transit":false},{"transit":false,"i_lat":-6.288927,"i_long":106.728916,"distance":1994,"station_id":"JMU","is_transit":false,"station_name":"Jurangmangu","line":6,"time":4},{"station_name":"Pondokranji","i_long":106.74273,"station_id":"PDJ","transit":false,"i_lat":-6.276362,"line":6,"time":3,"is_transit":false,"distance":2179},{"station_name":"Kebayoran","time":8,"is_transit":false,"i_long":106.780334,"distance":6218,"transit":false,"line":6,"i_lat":-6.237242,"station_id":"KBY"},{"transit":false,"station_name":"Palmerah","i_long":106.79689,"distance":3737,"station_id":"PLM","time":7,"is_transit":false,"line":6,"i_lat":-6.207404},{"i_lat":-6.185545,"transit":true,"line":1,"station_id":"THB","is_transit":true,"station_name":"Tanah Abang","distance":3191,"i_long":106.811091,"time":6},{"line":1,"i_lat":-6.20132,"time":5,"station_id":"KAT","station_name":"Karet","distance":2029,"is_transit":false,"transit":false,"i_long":106.816351},{"transit":false,"station_id":"SUDB","i_lat":-6.201433,"station_name":"Sudirman Baru","time":1,"is_transit":false,"line":1,"i_long":106.819881,"distance":471},{"line":1,"is_transit":false,"station_id":"SUD","i_lat":-6.202263,"time":1,"distance":280,"i_long":106.822649,"station_name":"Sudirman","transit":false},{"distance":3186,"i_long":106.84912,"station_id":"MRI","time":4,"i_lat":-6.209883,"transit":true,"is_transit":true,"line":2,"station_name":"Manggarai"},{"transit":false,"is_transit":false,"distance":1590,"station_name":"Cikini","i_lat":-6.198556,"station_id":"CKI","line":2,"time":4,"i_long":106.840169}],[{"i_lat":-6.329547,"distance":0,"is_transit":false,"time":0,"transit":false,"line":3,"station_id":"CC","station_name":"Cicayur","i_long":106.617853},{"station_name":"Cisauk","is_transit":false,"distance":2519,"station_id":"CSK","time":4,"i_long":106.640411,"line":3,"transit":false,"i_lat":-6.32484},{"is_transit":false,"i_long":106.66566,"transit":false,"time":4,"line":6,"i_lat":-6.319871,"distance":1784,"station_name":"Serpong","station_id":"SRP"},{"transit":false,"is_transit":false,"i_long":106.675475,"station_name":"Rawa Buntu","line":6,"i_lat":-6.314823,"station_id":"RU","distance":2413,"time":4},{"is_transit":false,"transit":false,"station_name":"Sudimara","i_lat":-6.296963,"distance":4566,"line":6,"station_id":"SDM","time":6,"i_long":106.712277},{"i_lat":-6.288927,"time":4,"is_transit":false,"station_id":"JMU","line":6,"transit":false,"station_name":"Jurangmangu","i_long":106.728916,"distance":1994},{"i_lat":-6.276362,"is_transit":false,"time":3,"transit":false,"line":6,"station_id":"PDJ","i_long":106.74273,"station_name":"Pondokranji","distance":2179},{"is_transit":false,"line":6,"transit":false,"station_name":"Kebayoran","station_id":"KBY","distance":6218,"i_long":106.780334,"time":8,"i_lat":-6.237242},{"distance":3737,"line":6,"transit":false,"station_id":"PLM","i_lat":-6.207404,"i_long":106.79689,"is_transit":false,"time":7,"station_name":"Palmerah"},{"i_lat":-6.185545,"line":1,"station_id":"THB","is_transit":true,"distance":3191,"i_long":106.811091,"transit":true,"time":6,"station_name":"Tanah Abang"},{"station_name":"Duri","station_id":"DU","is_transit":false,"transit":false,"i_lat":-6.155215,"time":8,"distance":3632,"line":1,"i_long":106.800832},{"distance":1230,"station_name":"Angke","is_transit":false,"i_lat":-6.144674,"line":1,"transit":false,"i_long":106.79867,"time":4,"station_id":"AK"},{"transit":true,"is_transit":true,"station_name":"Kampung Bandan","i_long":106.826365,"time":9,"line":4,"i_lat":-6.132549,"station_id":"KPB","distance":4102},{"is_transit":true,"distance":1364,"time":3,"transit":true,"i_lat":-6.137569,"station_id":"JAKK","i_long":106.812439,"station_name":"Jakarta Kota","line":2},{"station_name":"Jayakarta","is_transit":false,"station_id":"JAY","time":4,"distance":1264,"transit":false,"i_lat":-6.141205,"i_long":106.820901,"line":2},{"is_transit":false,"time":2,"distance":1080,"i_long":106.82482,"transit":false,"line":2,"station_name":"Manggabesar","i_lat":-6.149769,"station_id":"MGB"},{"i_long":106.827103,"distance":906,"station_name":"Sawah Besar","is_transit":false,"time":2,"station_id":"SW","transit":false,"i_lat":-6.160725,"line":2},{"station_name":"Juanda","line":2,"station_id":"JUA","i_lat":-6.166716,"time":2,"i_long":106.828284,"distance":1149,"is_transit":false,"transit":false},{"is_transit":false,"i_long":106.832183,"distance":2015,"transit":false,"station_id":"GDD","i_lat":-6.186295,"line":2,"station_name":"Gondangdia","time":4},{"is_transit":false,"distance":1750,"i_lat":-6.198556,"transit":false,"i_long":106.840169,"station_name":"Cikini","station_id":"CKI","line":2,"time":3}],[{"i_lat":-6.329547,"station_name":"Cicayur","line":3,"transit":false,"i_long":106.617853,"station_id":"CC","distance":0,"is_transit":false,"time":0},{"time":4,"is_transit":false,"i_long":106.640411,"distance":2519,"line":3,"transit":false,"i_lat":-6.32484,"station_id":"CSK","station_name":"Cisauk"},{"station_name":"Serpong","transit":false,"i_lat":-6.319871,"distance":1784,"station_id":"SRP","i_long":106.66566,"line":6,"time":4,"is_transit":false},{"line":6,"i_long":106.675475,"station_id":"RU","distance":2413,"is_transit":false,"transit":false,"station_name":"Rawa Buntu","i_lat":-6.314823,"time":4},{"transit":false,"i_long":106.712277,"line":6,"distance":4566,"station_name":"Sudimara","i_lat":-6.296963,"station_id":"SDM","time":6,"is_transit":false},{"time":4,"station_name":"Jurangmangu","is_transit":false,"transit":false,"line":6,"i_long":106.728916,"i_lat":-6.288927,"station_id":"JMU","distance":1994},{"station_id":"PDJ","time":3,"is_transit":false,"distance":2179,"i_lat":-6.276362,"i_long":106.74273,"station_name":"Pondokranji","line":6,"transit":false},{"is_transit":false,"i_long":106.780334,"station_name":"Kebayoran","transit":false,"i_lat":-6.237242,"time":8,"line":6,"station_id":"KBY","distance":6218},{"time":7,"is_transit":false,"distance":3737,"station_name":"Palmerah","i_long":106.79689,"station_id":"PLM","line":6,"i_lat":-6.207404,"transit":false},{"i_lat":-6.185545,"station_id":"THB","time":6,"is_transit":true,"distance":3191,"station_name":"Tanah Abang","i_long":106.811091,"line":1,"transit":true},{"distance":3632,"i_long":106.800832,"station_name":"Duri","time":8,"is_transit":false,"i_lat":-6.155215,"station_id":"DU","line":1,"transit":false},{"station_name":"Angke","line":1,"station_id":"AK","distance":1230,"is_transit":false,"i_long":106.79867,"time":4,"transit":false,"i_lat":-6.144674},{"transit":true,"i_lat":-6.132549,"is_transit":true,"station_name":"Kampung Bandan","time":9,"station_id":"KPB","i_long":106.826365,"distance":4102,"line":4},{"is_transit":false,"i_lat":-6.14505,"i_long":106.836569,"station_id":"RJW","line":11,"transit":false,"distance":1444,"station_name":"Rajawali","time":3},{"line":11,"i_lat":-6.161728,"station_id":"KMO","transit":false,"distance":1901,"i_long":106.839204,"time":5,"station_name":"Kemayoran","is_transit":false},{"time":4,"station_id":"PSE","is_transit":false,"transit":false,"distance":1436,"i_long":106.84368,"line":11,"station_name":"Pasar Senen","i_lat":-6.174784},{"is_transit":false,"transit":false,"i_lat":-6.185975,"line":11,"station_id":"GST","i_long":106.850107,"time":8,"station_name":"Gang Sentiong","distance":1567},{"distance":973,"time":1,"station_id":"KMT","station_name":"Kramat","i_lat":-6.193792,"line":11,"is_transit":false,"transit":false,"i_long":106.855437},{"station_name":"Pondok Jati","line":11,"station_id":"POK","i_lat":-6.209188,"i_long":106.861737,"is_transit":false,"transit":false,"distance":1829,"time":2},{"transit":true,"station_name":"Jatinegara","station_id":"JNG","i_long":106.86807400000001,"is_transit":true,"time":9,"i_lat":-6.215091,"line":1,"distance":1236},{"distance":1377,"transit":false,"i_long":106.858896,"line":1,"is_transit":false,"time":2,"i_lat":-6.212485,"station_name":"Matraman","station_id":"MTR"},{"line":2,"i_lat":-6.209883,"distance":1275,"station_id":"MRI","station_name":"Manggarai","time":2,"is_transit":true,"transit":true,"i_long":106.84912},{"i_lat":-6.198556,"transit":false,"is_transit":false,"time":4,"i_long":106.840169,"line":2,"station_id":"CKI","distance":1590,"station_name":"Cikini"}],[{"station_name":"Cicayur","i_lat":-6.329547,"i_long":106.617853,"time":0,"is_transit":false,"station_id":"CC","line":3,"distance":0,"transit":false},{"time":4,"line":3,"station_id":"CSK","station_name":"Cisauk","transit":false,"i_lat":-6.32484,"distance":2519,"is_transit":false,"i_long":106.640411},{"i_long":106.66566,"time":4,"transit":false,"distance":1784,"is_transit":false,"line":6,"station_id":"SRP","i_lat":-6.319871,"station_name":"Serpong"},{"station_id":"RU","station_name":"Rawa Buntu","time":4,"distance":2413,"is_transit":false,"i_long":106.675475,"line":6,"i_lat":-6.314823,"transit":false},{"station_id":"SDM","station_name":"Sudimara","is_transit":false,"transit":false,"distance":4566,"i_lat":-6.296963,"time":6,"i_long":106.712277,"line":6},{"i_lat":-6.288927,"distance":1994,"i_long":106.728916,"line":6,"station_id":"JMU","is_transit":false,"station_name":"Jurangmangu","time":4,"transit":false},{"station_id":"PDJ","line":6,"distance":2179,"time":3,"station_name":"Pondokranji","is_transit":false,"i_lat":-6.276362,"i_long":106.74273,"transit":false},{"station_id":"KBY","is_transit":false,"line":6,"i_lat":-6.237242,"transit":false,"distance":6218,"time":8,"i_long":106.780334,"station_name":"Kebayoran"},{"distance":3737,"i_long":106.79689,"is_transit":false,"time":7,"i_lat":-6.207404,"station_name":"Palmerah","station_id":"PLM","line":6,"transit":false},{"transit":true,"time":6,"station_name":"Tanah Abang","i_lat":-6.185545,"i_long":106.811091,"line":1,"distance":3191,"is_transit":true,"station_id":"THB"},{"i_lat":-6.20132,"line":1,"station_name":"Karet","station_id":"KAT","distance":2029,"is_transit":false,"i_long":106.816351,"transit":false,"time":5},{"i_long":106.819881,"station_id":"SUDB","station_name":"Sudirman Baru","is_transit":false,"transit":false,"distance":471,"i_lat":-6.201433,"line":1,"time":1},{"transit":false,"station_name":"Sudirman","time":1,"i_lat":-6.202263,"station_id":"SUD","is_transit":false,"i_long":106.822649,"distance":280,"line":1},{"line":2,"distance":3186,"station_name":"Manggarai","time":4,"i_long":106.84912,"i_lat":-6.209883,"station_id":"MRI","is_transit":false,"transit":false},{"is_transit":false,"i_lat":-6.212485,"line":1,"station_id":"MTR","time":2,"i_long":106.858896,"station_name":"Matraman","distance":1275,"transit":false},{"is_transit":true,"i_lat":-6.215091,"station_name":"Jatinegara","station_id":"JNG","time":8,"i_long":106.86807400000001,"transit":true,"line":1,"distance":1377},{"line":11,"i_long":106.861737,"station_id":"POK","is_transit":false,"transit":false,"station_name":"Pondok Jati","time":2,"distance":1236,"i_lat":-6.209188},{"line":11,"i_long":106.855437,"station_id":"KMT","distance":1829,"i_lat":-6.193792,"station_name":"Kramat","time":2,"is_transit":false,"transit":false},{"line":11,"i_lat":-6.185975,"station_name":"Gang Sentiong","transit":false,"i_long":106.850107,"is_transit":false,"time":1,"station_id":"GST","distance":973},{"distance":1567,"time":8,"station_name":"Pasar Senen","transit":false,"is_transit":false,"i_long":106.84368,"line":11,"i_lat":-6.174784,"station_id":"PSE"},{"transit":false,"i_long":106.839204,"is_transit":false,"station_id":"KMO","time":4,"station_name":"Kemayoran","i_lat":-6.161728,"distance":1436,"line":11},{"time":5,"i_lat":-6.14505,"distance":1901,"i_long":106.836569,"line":11,"station_name":"Rajawali","is_transit":false,"station_id":"RJW","transit":false},{"distance":1444,"time":3,"station_id":"KPB","station_name":"Kampung Bandan","transit":true,"i_lat":-6.132549,"is_transit":true,"i_long":106.826365,"line":4},{"time":3,"is_transit":true,"transit":true,"i_lat":-6.137569,"station_name":"Jakarta Kota","station_id":"JAKK","line":2,"distance":1364,"i_long":106.812439},{"time":4,"station_id":"JAY","transit":false,"i_long":106.820901,"station_name":"Jayakarta","line":2,"i_lat":-6.141205,"distance":1264,"is_transit":false},{"station_name":"Manggabesar","i_long":106.82482,"is_transit":false,"station_id":"MGB","time":2,"transit":false,"line":2,"distance":1080,"i_lat":-6.149769},{"station_id":"SW","is_transit":false,"distance":906,"station_name":"Sawah Besar","i_lat":-6.160725,"i_long":106.827103,"transit":false,"time":2,"line":2},{"time":2,"station_name":"Juanda","is_transit":false,"station_id":"JUA","distance":1149,"line":2,"transit":false,"i_long":106.828284,"i_lat":-6.166716},{"is_transit":false,"distance":2015,"time":4,"transit":false,"i_long":106.832183,"station_name":"Gondangdia","i_lat":-6.186295,"line":2,"station_id":"GDD"},{"station_name":"Cikini","time":3,"i_lat":-6.198556,"is_transit":false,"station_id":"CKI","i_long":106.840169,"transit":false,"distance":1750,"line":2}]]}