{"data":[[{"line":3,"time":0,"station_id":"CC","station_name":"Cicayur","transit":false,"is_transit":false,"distance":0,"i_lat":-6.329547,"i_long":106.617853},{"station_name":"Cisauk","line":3,"transit":false,"i_lat":-6.32484,"i_long":106.640411,"distance":2519,"station_id":"CSK","time":4,"is_transit":false},{"station_name":"Serpong","is_transit":false,"line":6,"i_long":106.66566,"transit":false,"time":4,"distance":1784,"i_lat":-6.319871,"station_id":"SRP"},{"i_long":106.675475,"distance":2413,"station_name":"Rawa Buntu","time":4,"station_id":"RU","line":6,"i_lat":-6.314823,"is_transit":false,"transit":false},{"distance":4566,"line":6,"transit":false,"time":6,"station_id":"SDM","is_transit":false,"station_name":"Sudimara","i_long":106.712277,"i_lat":-6.296963},{"station_id":"JMU","distance":1994,"i_lat":-6.288927,"line":6,"station_name":"Jurangmangu","is_transit":false,"transit":false,"time":4,"i_long":106.728916},{"station_id":"PDJ","station_name":"Pondokranji","time":3,"i_long":106.74273,"line":6,"is_transit":false,"transit":false,"distance":2179,"i_lat":-6.276362},{"transit":false,"i_lat":-6.237242,"time":8,"distance":6218,"station_name":"Kebayoran","station_id":"KBY","is_transit":false,"i_long":106.780334,"line":6},{"time":7,"is_transit":false,"distance":3737,"station_name":"Palmerah","i_lat":-6.207404,"line":6,"transit":false,"i_long":106.79689,"station_id":"PLM"},{"station_name":"Tanah Abang","line":1,"time":6,"i_lat":-6.185545,"station_id":"THB","i_long":106.811091,"transit":true,"is_transit":true,"distance":3191},{"time":5,"is_transit":false,"i_lat":-6.20132,"station_name":"Karet","transit":false,"station_id":"KAT","i_long":106.816351,"distance":2029,"line":1},{"transit":false,"time":1,"line":1,"distance":471,"i_long":106.819881,"station_id":"SUDB","station_name":"Sudirman Baru","is_transit":false,"i_lat":-6.201433},{"distance":280,"transit":false,"i_lat":-6.202263,"i_long":106.822649,"line":1,"station_name":"Sudirman","time":1,"is_transit":false,"station_id":"SUD"},{"time":4,"i_long":106.84912,"station_name":"Manggarai","line":2,"i_lat":-6.209883,"distance":3186,"station_id":"MRI","is_transit":true,"transit":true},{"time":4,"is_transit":false,"station_id":"TEB","transit":false,"distance":2610,"line":2,"station_name":"Tebet","i_long":106.857948,"i_lat":-6.226659},{"is_transit":false,"station_name":"Cawang","distance":1230,"time":2,"line":2,"i_lat":-6.242512,"transit":false,"i_long":106.856607,"station_id":"CW"},{"distance":1546,"i_long":106.85449,"transit":false,"i_lat":-6.255332,"station_id":"DRN","is_transit":false,"time":3,"station_name":"Duren Kalibata","line":2}],[{"station_name":"Cicayur","i_lat":-6.329547,"transit":false,"distance":0,"line":3,"i_long":106.617853,"time":0,"is_transit":false,"station_id":"CC"},{"time":4,"i_long":106.640411,"transit":false,"distance":2519,"line":3,"is_transit":false,"station_id":"CSK","station_name":"Cisauk","i_lat":-6.32484},{"is_transit":false,"line":6,"station_id":"SRP","station_name":"Serpong","i_lat":-6.319871,"transit":false,"time":4,"distance":1784,"i_long":106.66566},{"is_transit":false,"station_name":"Rawa Buntu","i_long":106.675475,"distance":2413,"station_id":"RU","time":4,"line":6,"transit":false,"i_lat":-6.314823},{"station_id":"SDM","transit":false,"time":6,"distance":4566,"i_long":106.712277,"i_lat":-6.296963,"is_transit":false,"line":6,"station_name":"Sudimara"},{"i_long":106.728916,"line":6,"transit":false,"station_id":"JMU","time":4,"i_lat":-6.288927,"is_transit":false,"distance":1994,"station_name":"Jurangmangu"},{"i_lat":-6.276362,"station_id":"PDJ","i_long":106.74273,"is_transit":false,"time":3,"station_name":"Pondokranji","line":6,"transit":false,"distance":2179},{"station_id":"KBY","is_transit":false,"i_lat":-6.237242,"i_long":106.780334,"station_name":"Kebayoran","line":6,"transit":false,"time":8,"distance":6218},{"i_long":106.79689,"station_name":"Palmerah","distance":3737,"station_id":"PLM","time":7,"i_lat":-6.207404,"is_transit":false,"line":6,"transit":false},{"station_id":"THB","line":1,"time":6,"is_transit":true,"transit":true,"i_long":106.811091,"station_name":"Tanah Abang","i_lat":-6.185545,"distance":3191},{"transit":false,"distance":3632,"i_lat":-6.155215,"i_long":106.800832,"station_name":"Duri","is_transit":false,"time":8,"station_id":"DU","line":1},{"is_transit":false,"i_lat":-6.144674,"line":1,"distance":1230,"i_long":106.79867,"transit":false,"station_id":"AK","time":4,"station_name":"Angke"},{"line":4,"i_lat":-6.132549,"station_id":"KPB","i_long":106.826365,"is_transit":true,"station_name":"Kampung Bandan","distance":4102,"transit":true,"time":9},{"line":2,"i_lat":-6.137569,"transit":true,"time":3,"distance":1364,"i_long":106.812439,"station_id":"JAKK","is_transit":true,"station_name":"Jakarta Kota"},{"time":4,"station_id":"JAY","station_name":"Jayakarta","transit":false,"distance":1264,"i_long":106.820901,"is_transit":false,"i_lat":-6.141205,"line":2},{"is_transit":false,"distance":1080,"station_name":"Manggabesar","i_long":106.82482,"line":2,"time":2,"transit":false,"station_id":"MGB","i_lat":-6.149769},{"i_lat":-6.160725,"line":2,"station_name":"Sawah Besar","time":2,"is_transit":false,"i_long":106.827103,"station_id":"SW","transit":false,"distance":906},{"time":2,"station_name":"Juanda","transit":false,"i_lat":-6.166716,"station_id":"JUA","distance":1149,"line":2,"i_long":106.828284,"is_transit":false},{"i_lat":-6.186295,"transit":false,"is_transit":false,"station_name":"Gondangdia","station_id":"GDD","distance":2015,"line":2,"i_long":106.832183,"time":4},{"i_lat":-6.198556,"line":2,"station_name":"Cikini","distance":1750,"transit":false,"is_transit":false,"time":3,"i_long":106.840169,"station_id":"CKI"},{"i_lat":-6.209883,"station_name":"Manggarai","station_id":"MRI","line":2,"distance":1590,"is_transit":false,"transit":false,"time":4,"i_long":106.84912},{"i_lat":-6.226659,"line":2,"i_long":106.857948,"station_id":"TEB","time":4,"distance":2610,"station_name":"Tebet","is_transit":false,"transit":false},{"line":2,"station_id":"CW","transit":false,"time":2,"is_transit":false,"distance":1230,"i_lat":-6.242512,"i_long":106.856607,"station_name":"Cawang"},{"station_id":"DRN","station_name":"Duren Kalibata","transit":false,"distance":1546,"i_lat":-6.255332,"is_transit":false,"line":2,"i_long":106.85449,"time":3}],[{"station_id":"CC","transit":false,"distance":0,"i_long":106.617853,"line":3,"is_transit":false,"station_name":"Cicayur","time":0,"i_lat":-6.329547},{"is_transit":false,"station_id":"CSK","station_name":"Cisauk","transit":false,"time":4,"i_long":106.640411,"i_lat":-6.32484,"distance":2519,"line":3},{"is_transit":false,"i_long":106.66566,"station_name":"Serpong","i_lat":-6.319871,"line":6,"time":4,"transit":false,"station_id":"SRP","distance":1784},{"is_transit":false,"station_id":"RU","distance":2413,"i_long":106.675475,"time":4,"station_name":"Rawa Buntu","transit":false,"i_lat":-6.314823,"line":6},{"i_lat":-6.296963,"distance":4566,"transit":false,"station_id":"SDM","station_name":"Sudimara","is_transit":false,"time":6,"i_long":106.712277,"line":6},{"i_lat":-6.288927,"station_id":"JMU","is_transit":false,"time":4,"transit":false,"station_name":"Jurangmangu","i_long":106.728916,"distance":1994,"line":6},{"station_id":"PDJ","distance":2179,"i_lat":-6.276362,"i_long":106.74273,"station_name":"Pondokranji","is_transit":false,"transit":false,"time":3,"line":6},{"i_long":106.780334,"transit":false,"i_lat":-6.237242,"line":6,"station_id":"KBY","station_name":"Kebayoran","is_transit":false,"time":8,"distance":6218},{"i_lat":-6.207404,"i_long":106.79689,"line":6,"distance":3737,"station_id":"PLM","time":7,"transit":false,"station_name":"Palmerah","is_transit":false},{"station_id":"THB","time":6,"line":1,"distance":3191,"is_transit":true,"transit":true,"station_name":"Tanah Abang","i_lat":-6.185545,"i_long":106.811091},{"i_long":106.800832,"line":1,"station_id":"DU","i_lat":-6.155215,"is_transit":false,"station_name":"Duri","transit":false,"time":8,"distance":3632},{"station_id":"AK","is_transit":false,"distance":1230,"i_long":106.79867,"station_name":"Angke","time":4,"i_lat":-6.144674,"transit":false,"line":1},{"station_name":"Kampung Bandan","i_long":106.826365,"transit":true,"station_id":"KPB","is_transit":true,"time":9,"i_lat":-6.132549,"line":4,"distance":4102},{"line":11,"i_lat":-6.14505,"i_long":106.836569,"transit":false,"station_id":"RJW","station_name":"Rajawali","distance":1444,"is_transit":false,"time":3},{"line":11,"station_id":"KMO","time":5,"i_lat":-6.161728,"station_name":"Kemayoran","transit":false,"is_transit":false,"distance":1901,"i_long":106.839204},{"transit":false,"distance":1436,"line":11,"i_long":106.84368,"station_id":"PSE","is_transit":false,"station_name":"Pasar Senen","i_lat":-6.174784,"time":4},{"distance":1567,"is_transit":false,"transit":false,"station_id":"GST","station_name":"Gang Sentiong","i_long":106.850107,"line":11,"i_lat":-6.185975,"time":8},{"station_id":"KMT","distance":973,"is_transit":false,"i_lat":-6.193792,"transit":false,"line":11,"station_name":"Kramat","i_long":106.855437,"time":1},{"station_name":"Pondok Jati","i_lat":-6.209188,"transit":false,"i_long":106.861737,"station_id":"POK","is_transit":false,"time":2,"line":11,"distance":1829},{"distance":1236,"time":9,"is_transit":true,"station_id":"JNG","line":1,"i_lat":-6.215091,"transit":true,"station_name":"Jatinegara","i_long":106.86807400000001},{"time":2,"is_transit":false,"i_long":106.858896,"i_lat":-6.212485,"station_name":"Matraman","line":1,"transit":false,"station_id":"MTR","distance":1377},{"i_lat":-6.209883,"distance":1275,"station_id":"MRI","station_name":"Manggarai","line":2,"transit":true,"time":2,"is_transit":true,"i_long":106.84912},{"i_lat":-6.226659,"station_id":"TEB","is_transit":false,"line":2,"i_long":106.857948,"distance":2610,"time":4,"station_name":"Tebet","transit":false},{"i_long":106.856607,"station_name":"Cawang","distance":1230,"transit":false,"is_transit":false,"line":2,"time":2,"i_lat":-6.242512,"station_id":"CW"},{"distance":1546,"line":2,"station_id":"DRN","i_lat":-6.255332,"is_transit":false,"i_long":106.85449,"transit":false,"time":3,"station_name":"Duren Kalibata"}]]}