{"data":[[{"is_transit":false,"i_long":106.617853,"station_name":"Cicayur","distance":0,"station_id":"CC","transit":false,"time":0,"line":3,"i_lat":-6.329547},{"station_name":"Cisauk","transit":false,"line":3,"i_lat":-6.32484,"distance":2519,"station_id":"CSK","time":4,"i_long":106.640411,"is_transit":false},{"time":4,"i_long":106.66566,"station_name":"Serpong","i_lat":-6.319871,"station_id":"SRP","is_transit":false,"line":6,"distance":1784,"transit":false},{"station_id":"RU","station_name":"Rawa Buntu","is_transit":false,"transit":false,"line":6,"time":4,"i_long":106.675475,"i_lat":-6.314823,"distance":2413},{"i_lat":-6.296963,"time":6,"i_long":106.712277,"station_name":"Sudimara","distance":4566,"station_id":"SDM","is_transit":false,"transit":false,"line":6},{"distance":1994,"transit":false,"is_transit":false,"i_long":106.728916,"station_name":"Jurangmangu","i_lat":-6.288927,"station_id":"JMU","line":6,"time":4},{"time":3,"i_long":106.74273,"i_lat":-6.276362,"station_id":"PDJ","station_name":"Pondokranji","line":6,"transit":false,"distance":2179,"is_transit":false},{"time":8,"is_transit":false,"i_lat":-6.237242,"i_long":106.780334,"line":6,"transit":false,"station_name":"Kebayoran","station_id":"KBY","distance":6218},{"i_long":106.79689,"is_transit":false,"distance":3737,"station_name":"Palmerah","station_id":"PLM","time":7,"transit":false,"i_lat":-6.207404,"line":6},{"time":6,"transit":true,"station_name":"Tanah Abang","i_long":106.811091,"line":1,"is_transit":true,"i_lat":-6.185545,"station_id":"THB","distance":3191},{"station_name":"Karet","transit":false,"time":5,"distance":2029,"station_id":"KAT","is_transit":false,"i_lat":-6.20132,"i_long":106.816351,"line":1},{"i_lat":-6.201433,"line":1,"i_long":106.819881,"time":1,"station_name":"Sudirman Baru","transit":false,"is_transit":false,"distance":471,"station_id":"SUDB"},{"station_id":"SUD","is_transit":false,"time":1,"i_long":106.822649,"line":1,"transit":false,"distance":280,"station_name":"Sudirman","i_lat":-6.202263},{"i_lat":-6.209883,"is_transit":true,"transit":true,"i_long":106.84912,"distance":3186,"time":4,"station_id":"MRI","station_name":"Manggarai","line":2},{"line":2,"time":4,"is_transit":false,"transit":false,"i_long":106.857948,"station_id":"TEB","station_name":"Tebet","i_lat":-6.226659,"distance":2610},{"line":2,"distance":1230,"station_name":"Cawang","i_long":106.856607,"station_id":"CW","time":2,"is_transit":false,"transit":false,"i_lat":-6.242512},{"time":3,"station_id":"DRN","distance":1546,"i_lat":-6.255332,"transit":false,"line":2,"station_name":"Duren Kalibata","i_long":106.85449,"is_transit":false}],[{"transit":false,"line":3,"i_lat":-6.329547,"time":0,"is_transit":false,"distance":0,"station_name":"Cicayur","i_long":106.617853,"station_id":"CC"},{"station_id":"CSK","time":4,"i_long":106.640411,"line":3,"distance":2519,"transit":false,"is_transit":false,"station_name":"Cisauk","i_lat":-6.32484},{"transit":false,"station_name":"Serpong","line":6,"i_lat":-6.319871,"i_long":106.66566,"distance":1784,"is_transit":false,"station_id":"SRP","time":4},{"transit":false,"distance":2413,"time":4,"station_id":"RU","station_name":"Rawa Buntu","line":6,"is_transit":false,"i_long":106.675475,"i_lat":-6.314823},{"station_id":"SDM","i_lat":-6.296963,"transit":false,"is_transit":false,"time":6,"line":6,"i_long":106.712277,"station_name":"Sudimara","distance":4566},{"i_long":106.728916,"station_name":"Jurangmangu","is_transit":false,"distance":1994,"transit":false,"i_lat":-6.288927,"station_id":"JMU","time":4,"line":6},{"station_name":"Pondokranji","transit":false,"station_id":"PDJ","is_transit":false,"time":3,"i_long":106.74273,"distance":2179,"i_lat":-6.276362,"line":6},{"time":8,"line":6,"distance":6218,"station_id":"KBY","i_lat":-6.237242,"i_long":106.780334,"station_name":"Kebayoran","transit":false,"is_transit":false},{"transit":false,"i_lat":-6.207404,"station_id":"PLM","line":6,"time":7,"i_long":106.79689,"distance":3737,"is_transit":false,"station_name":"Palmerah"},{"station_name":"Tanah Abang","distance":3191,"i_long":106.811091,"time":6,"station_id":"THB","line":1,"i_lat":-6.185545,"transit":true,"is_transit":true},{"time":8,"i_lat":-6.155215,"station_name":"Duri","line":1,"station_id":"DU","is_transit":false,"transit":false,"i_long":106.800832,"distance":3632},{"i_lat":-6.144674,"station_name":"Angke","time":4,"i_long":106.79867,"line":1,"station_id":"AK","distance":1230,"is_transit":false,"transit":false},{"time":9,"i_lat":-6.132549,"transit":true,"line":4,"station_name":"Kampung Bandan","i_long":106.826365,"station_id":"KPB","distance":4102,"is_transit":true},{"i_long":106.812439,"time":3,"transit":true,"distance":1364,"i_lat":-6.137569,"station_name":"Jakarta Kota","line":2,"is_transit":true,"station_id":"JAKK"},{"time":4,"distance":1264,"line":2,"station_name":"Jayakarta","is_transit":false,"station_id":"JAY","transit":false,"i_lat":-6.141205,"i_long":106.820901},{"station_id":"MGB","time":2,"is_transit":false,"transit":false,"i_lat":-6.149769,"station_name":"Manggabesar","i_long":106.82482,"line":2,"distance":1080},{"is_transit":false,"line":2,"transit":false,"station_name":"Sawah Besar","i_long":106.827103,"i_lat":-6.160725,"distance":906,"time":2,"station_id":"SW"},{"transit":false,"i_long":106.828284,"station_id":"JUA","station_name":"Juanda","time":2,"i_lat":-6.166716,"is_transit":false,"distance":1149,"line":2},{"station_name":"Gondangdia","station_id":"GDD","i_lat":-6.186295,"is_transit":false,"time":4,"line":2,"distance":2015,"i_long":106.832183,"transit":false},{"time":3,"line":2,"i_long":106.840169,"is_transit":false,"distance":1750,"station_id":"CKI","transit":false,"station_name":"Cikini","i_lat":-6.198556},{"station_name":"Manggarai","is_transit":false,"station_id":"MRI","distance":1590,"transit":false,"time":4,"line":2,"i_lat":-6.209883,"i_long":106.84912},{"distance":2610,"time":4,"is_transit":false,"station_name":"Tebet","i_long":106.857948,"i_lat":-6.226659,"station_id":"TEB","line":2,"transit":false},{"line":2,"distance":1230,"i_long":106.856607,"station_name":"Cawang","transit":false,"is_transit":false,"time":2,"i_lat":-6.242512,"station_id":"CW"},{"time":3,"i_lat":-6.255332,"line":2,"is_transit":false,"station_name":"Duren Kalibata","i_long":106.85449,"transit":false,"distance":1546,"station_id":"DRN"}],[{"distance":0,"i_lat":-6.329547,"time":0,"station_name":"Cicayur","transit":false,"station_id":"CC","i_long":106.617853,"line":3,"is_transit":false},{"i_lat":-6.32484,"i_long":106.640411,"station_id":"CSK","line":3,"station_name":"Cisauk","transit":false,"time":4,"distance":2519,"is_transit":false},{"i_lat":-6.319871,"is_transit":false,"line":6,"transit":false,"i_long":106.66566,"station_id":"SRP","station_name":"Serpong","time":4,"distance":1784},{"is_transit":false,"i_long":106.675475,"distance":2413,"line":6,"time":4,"i_lat":-6.314823,"station_name":"Rawa Buntu","station_id":"RU","transit":false},{"station_id":"SDM","i_long":106.712277,"transit":false,"is_transit":false,"time":6,"line":6,"i_lat":-6.296963,"distance":4566,"station_name":"Sudimara"},{"station_id":"JMU","is_transit":false,"line":6,"distance":1994,"i_lat":-6.288927,"station_name":"Jurangmangu","time":4,"i_long":106.728916,"transit":false},{"line":6,"time":3,"is_transit":false,"i_lat":-6.276362,"i_long":106.74273,"transit":false,"distance":2179,"station_name":"Pondokranji","station_id":"PDJ"},{"time":8,"station_name":"Kebayoran","is_transit":false,"line":6,"transit":false,"i_lat":-6.237242,"station_id":"KBY","distance":6218,"i_long":106.780334},{"distance":3737,"is_transit":false,"transit":false,"line":6,"station_name":"Palmerah","i_long":106.79689,"i_lat":-6.207404,"station_id":"PLM","time":7},{"station_name":"Tanah Abang","i_lat":-6.185545,"time":6,"line":1,"station_id":"THB","is_transit":true,"i_long":106.811091,"distance":3191,"transit":true},{"transit":false,"distance":3632,"station_name":"Duri","i_lat":-6.155215,"station_id":"DU","is_transit":false,"line":1,"i_long":106.800832,"time":8},{"i_long":106.79867,"line":1,"is_transit":false,"distance":1230,"station_id":"AK","transit":false,"station_name":"Angke","time":4,"i_lat":-6.144674},{"distance":4102,"station_id":"KPB","station_name":"Kampung Bandan","i_lat":-6.132549,"is_transit":true,"transit":true,"i_long":106.826365,"line":4,"time":9},{"line":11,"distance":1444,"station_name":"Rajawali","is_transit":false,"transit":false,"station_id":"RJW","time":3,"i_lat":-6.14505,"i_long":106.836569},{"transit":false,"station_id":"KMO","i_long":106.839204,"distance":1901,"time":5,"i_lat":-6.161728,"station_name":"Kemayoran","is_transit":false,"line":11},{"station_id":"PSE","transit":false,"station_name":"Pasar Senen","distance":1436,"time":4,"is_transit":false,"line":11,"i_lat":-6.174784,"i_long":106.84368},{"station_name":"Gang Sentiong","i_lat":-6.185975,"distance":1567,"transit":false,"line":11,"i_long":106.850107,"time":8,"station_id":"GST","is_transit":false},{"time":1,"distance":973,"transit":false,"station_id":"KMT","station_name":"Kramat","i_lat":-6.193792,"is_transit":false,"line":11,"i_long":106.855437},{"time":2,"i_long":106.861737,"station_id":"POK","is_transit":false,"transit":false,"line":11,"distance":1829,"station_name":"Pondok Jati","i_lat":-6.209188},{"time":9,"station_id":"JNG","station_name":"Jatinegara","i_lat":-6.215091,"transit":true,"line":1,"i_long":106.86807400000001,"distance":1236,"is_transit":true},{"line":1,"time":2,"distance":1377,"station_name":"Matraman","is_transit":false,"transit":false,"i_lat":-6.212485,"station_id":"MTR","i_long":106.858896},{"time":2,"i_long":106.84912,"distance":1275,"transit":true,"is_transit":true,"line":2,"station_id":"MRI","i_lat":-6.209883,"station_name":"Manggarai"},{"time":4,"station_name":"Tebet","i_lat":-6.226659,"line":2,"transit":false,"is_transit":false,"i_long":106.857948,"distance":2610,"station_id":"TEB"},{"station_id":"CW","i_lat":-6.242512,"is_transit":false,"line":2,"transit":false,"i_long":106.856607,"time":2,"distance":1230,"station_name":"Cawang"},{"is_transit":false,"station_name":"Duren Kalibata","time":3,"i_lat":-6.255332,"i_long":106.85449,"line":2,"distance":1546,"transit":false,"station_id":"DRN"}]]}