{"data":[[{"i_long":106.617853,"i_lat":-6.329547,"station_id":"CC","transit":false,"time":0,"is_transit":false,"line":0,"distance":0,"station_name":"Cicayur"},{"transit":false,"is_transit":false,"i_long":106.640411,"station_name":"Cisauk","i_lat":-6.32484,"station_id":"CSK","time":4,"distance":2519,"line":0},{"transit":false,"distance":1784,"line":6,"is_transit":false,"time":4,"i_lat":-6.319871,"station_name":"Serpong","i_long":106.66566,"station_id":"SRP"},{"i_long":106.675475,"i_lat":-6.314823,"station_name":"Rawa Buntu","distance":2413,"is_transit":false,"transit":false,"line":6,"time":4,"station_id":"RU"},{"time":6,"line":6,"i_lat":-6.296963,"station_id":"SDM","transit":false,"distance":4566,"is_transit":false,"station_name":"Sudimara","i_long":106.712277},{"i_lat":-6.288927,"is_transit":false,"line":6,"station_id":"JMU","time":4,"transit":false,"station_name":"Jurangmangu","i_long":106.728916,"distance":1994},{"transit":false,"station_name":"Pondokranji","i_long":106.74273,"line":6,"station_id":"PDJ","is_transit":false,"distance":2179,"i_lat":-6.276362,"time":3},{"line":6,"station_name":"Kebayoran","transit":false,"distance":6218,"station_id":"KBY","i_lat":-6.237242,"is_transit":false,"time":8,"i_long":106.780334},{"is_transit":false,"transit":false,"station_name":"Palmerah","distance":3737,"i_lat":-6.207404,"i_long":106.79689,"time":7,"station_id":"PLM","line":6},{"station_name":"Tanah Abang","transit":true,"is_transit":true,"i_long":106.811091,"distance":3191,"i_lat":-6.185545,"line":1,"station_id":"THB","time":6},{"distance":2029,"station_name":"Karet","i_lat":-6.20132,"time":5,"station_id":"KAT","line":1,"is_transit":false,"transit":false,"i_long":106.816351},{"time":1,"distance":471,"transit":false,"line":1,"i_long":106.819881,"i_lat":-6.201433,"is_transit":false,"station_id":"SUDB","station_name":"Sudirman Baru"},{"station_name":"Sudirman","line":1,"time":1,"distance":280,"station_id":"SUD","i_long":106.822649,"i_lat":-6.202263,"is_transit":false,"transit":false},{"is_transit":true,"transit":true,"station_name":"Manggarai","i_long":106.84912,"time":4,"distance":3186,"line":0,"station_id":"MRI","i_lat":-6.209883},{"station_id":"TEB","line":2,"distance":2610,"i_lat":-6.226659,"is_transit":false,"station_name":"Tebet","time":4,"i_long":106.857948,"transit":false},{"distance":1230,"is_transit":false,"i_long":106.856607,"time":2,"transit":false,"line":0,"i_lat":-6.242512,"station_name":"Cawang","station_id":"CW"},{"station_id":"DRN","is_transit":false,"station_name":"Duren Kalibata","distance":1546,"i_lat":-6.255332,"time":3,"transit":false,"i_long":106.85449,"line":0}],[{"i_long":106.617853,"line":0,"distance":0,"time":0,"station_name":"Cicayur","transit":false,"i_lat":-6.329547,"station_id":"CC","is_transit":false},{"distance":2519,"i_long":106.640411,"time":4,"is_transit":false,"station_id":"CSK","station_name":"Cisauk","transit":false,"i_lat":-6.32484,"line":0},{"distance":1784,"station_name":"Serpong","time":4,"line":6,"transit":false,"station_id":"SRP","i_lat":-6.319871,"i_long":106.66566,"is_transit":false},{"line":6,"station_name":"Rawa Buntu","i_long":106.675475,"transit":false,"i_lat":-6.314823,"station_id":"RU","distance":2413,"time":4,"is_transit":false},{"station_id":"SDM","i_long":106.712277,"transit":false,"i_lat":-6.296963,"is_transit":false,"distance":4566,"time":6,"line":6,"station_name":"Sudimara"},{"time":4,"station_name":"Jurangmangu","i_long":106.728916,"line":6,"is_transit":false,"i_lat":-6.288927,"transit":false,"distance":1994,"station_id":"JMU"},{"time":3,"station_name":"Pondokranji","line":6,"transit":false,"distance":2179,"station_id":"PDJ","i_long":106.74273,"i_lat":-6.276362,"is_transit":false},{"distance":6218,"station_name":"Kebayoran","i_lat":-6.237242,"line":6,"transit":false,"time":8,"station_id":"KBY","i_long":106.780334,"is_transit":false},{"time":7,"distance":3737,"transit":false,"i_long":106.79689,"line":6,"station_name":"Palmerah","i_lat":-6.207404,"is_transit":false,"station_id":"PLM"},{"distance":3191,"i_lat":-6.185545,"station_name":"Tanah Abang","line":1,"i_long":106.811091,"is_transit":true,"station_id":"THB","time":6,"transit":true},{"is_transit":true,"i_long":106.800832,"time":8,"transit":true,"line":1,"station_name":"Duri","station_id":"DU","i_lat":-6.155215,"distance":3632},{"station_id":"AK","transit":false,"i_long":106.79867,"is_transit":false,"time":4,"line":0,"i_lat":-6.144674,"distance":1230,"station_name":"Angke"},{"station_id":"KPB","station_name":"Kampung Bandan","transit":false,"i_lat":-6.132549,"i_long":106.826365,"distance":4102,"is_transit":true,"time":9,"line":0},{"station_id":"JAKK","i_lat":-6.137569,"is_transit":true,"station_name":"Jakarta Kota","i_long":106.812439,"time":3,"transit":true,"line":0,"distance":1364},{"station_name":"Jayakarta","i_long":106.820901,"station_id":"JAY","transit":false,"i_lat":-6.141205,"line":7,"is_transit":false,"time":4,"distance":1264},{"i_long":106.82482,"distance":1080,"transit":false,"station_name":"Manggabesar","line":2,"is_transit":false,"time":2,"station_id":"MGB","i_lat":-6.149769},{"is_transit":false,"station_id":"SW","time":2,"transit":false,"line":2,"i_lat":-6.160725,"station_name":"Sawah Besar","distance":906,"i_long":106.827103},{"line":2,"i_lat":-6.166716,"distance":1149,"is_transit":false,"i_long":106.828284,"time":2,"transit":false,"station_name":"Juanda","station_id":"JUA"},{"i_long":106.832183,"time":4,"station_name":"Gondangdia","distance":2015,"transit":false,"i_lat":-6.186295,"line":2,"station_id":"GDD","is_transit":false},{"time":3,"station_id":"CKI","is_transit":false,"station_name":"Cikini","distance":1750,"i_lat":-6.198556,"line":0,"transit":false,"i_long":106.840169},{"is_transit":true,"station_id":"MRI","i_lat":-6.209883,"line":0,"distance":1590,"station_name":"Manggarai","transit":true,"time":4,"i_long":106.84912},{"i_lat":-6.226659,"line":2,"time":4,"station_id":"TEB","is_transit":false,"transit":false,"distance":2610,"station_name":"Tebet","i_long":106.857948},{"station_id":"CW","transit":false,"is_transit":false,"time":2,"i_lat":-6.242512,"station_name":"Cawang","i_long":106.856607,"line":0,"distance":1230},{"line":0,"station_id":"DRN","distance":1546,"station_name":"Duren Kalibata","i_long":106.85449,"i_lat":-6.255332,"is_transit":false,"time":3,"transit":false}],[{"transit":false,"station_id":"CC","distance":0,"time":0,"i_lat":-6.329547,"i_long":106.617853,"line":0,"is_transit":false,"station_name":"Cicayur"},{"time":4,"is_transit":false,"station_name":"Cisauk","distance":2519,"station_id":"CSK","i_lat":-6.32484,"line":0,"transit":false,"i_long":106.640411},{"i_long":106.66566,"time":4,"is_transit":false,"transit":false,"distance":1784,"station_name":"Serpong","station_id":"SRP","i_lat":-6.319871,"line":6},{"station_id":"RU","is_transit":false,"time":4,"transit":false,"i_long":106.675475,"i_lat":-6.314823,"line":6,"station_name":"Rawa Buntu","distance":2413},{"line":6,"station_id":"SDM","i_long":106.712277,"is_transit":false,"distance":4566,"transit":false,"time":6,"station_name":"Sudimara","i_lat":-6.296963},{"i_long":106.728916,"line":6,"station_id":"JMU","is_transit":false,"station_name":"Jurangmangu","distance":1994,"time":4,"i_lat":-6.288927,"transit":false},{"is_transit":false,"i_lat":-6.276362,"i_long":106.74273,"distance":2179,"line":6,"time":3,"station_name":"Pondokranji","transit":false,"station_id":"PDJ"},{"is_transit":false,"transit":false,"i_lat":-6.237242,"distance":6218,"time":8,"station_name":"Kebayoran","i_long":106.780334,"line":6,"station_id":"KBY"},{"line":6,"i_long":106.79689,"station_id":"PLM","time":7,"distance":3737,"station_name":"Palmerah","i_lat":-6.207404,"transit":false,"is_transit":false},{"transit":true,"station_id":"THB","i_lat":-6.185545,"distance":3191,"line":1,"i_long":106.811091,"is_transit":true,"time":6,"station_name":"Tanah Abang"},{"i_long":106.800832,"i_lat":-6.155215,"transit":true,"station_id":"DU","is_transit":true,"line":1,"distance":3632,"time":8,"station_name":"Duri"},{"transit":false,"station_name":"Angke","i_long":106.79867,"station_id":"AK","distance":1230,"line":0,"is_transit":false,"time":4,"i_lat":-6.144674},{"distance":4102,"transit":true,"time":9,"station_name":"Kampung Bandan","i_long":106.826365,"is_transit":true,"i_lat":-6.132549,"station_id":"KPB","line":0},{"distance":1444,"i_lat":-6.14505,"is_transit":false,"i_long":106.836569,"line":11,"station_id":"RJW","station_name":"Rajawali","transit":false,"time":3},{"station_name":"Kemayoran","i_lat":-6.161728,"i_long":106.839204,"line":11,"transit":false,"distance":1901,"time":5,"is_transit":false,"station_id":"KMO"},{"time":4,"line":11,"distance":1436,"i_lat":-6.174784,"station_name":"Pasar Senen","transit":false,"station_id":"PSE","is_transit":false,"i_long":106.84368},{"transit":false,"is_transit":false,"i_lat":-6.185975,"line":11,"station_name":"Gang Sentiong","time":8,"distance":1567,"i_long":106.850107,"station_id":"GST"},{"i_lat":-6.193792,"station_name":"Kramat","i_long":106.855437,"station_id":"KMT","distance":973,"line":11,"transit":false,"is_transit":false,"time":1},{"station_name":"Pondok Jati","i_long":106.861737,"is_transit":false,"time":2,"transit":false,"i_lat":-6.209188,"distance":1829,"station_id":"POK","line":11},{"is_transit":true,"i_lat":-6.215091,"station_id":"JNG","station_name":"Jatinegara","time":9,"distance":1236,"transit":true,"i_long":106.86807400000001,"line":0},{"station_name":"Matraman","station_id":"MTR","i_long":106.858896,"transit":false,"is_transit":false,"distance":1377,"i_lat":-6.212485,"line":1,"time":2},{"time":2,"station_name":"Manggarai","line":0,"i_lat":-6.209883,"i_long":106.84912,"distance":1275,"station_id":"MRI","is_transit":true,"transit":true},{"line":2,"station_name":"Tebet","time":4,"i_long":106.857948,"station_id":"TEB","transit":false,"i_lat":-6.226659,"distance":2610,"is_transit":false},{"station_name":"Cawang","line":0,"station_id":"CW","is_transit":false,"distance":1230,"transit":false,"i_long":106.856607,"time":2,"i_lat":-6.242512},{"station_id":"DRN","i_lat":-6.255332,"transit":false,"station_name":"Duren Kalibata","time":3,"i_long":106.85449,"distance":1546,"is_transit":false,"line":0}]]}