{"data":[[{"station_id":"CC","distance":0,"i_lat":-6.329547,"time":0,"i_long":106.617853,"is_transit":false,"transit":false,"station_name":"Cicayur","line":3},{"distance":2519,"transit":false,"time":4,"i_long":106.640411,"line":3,"station_id":"CSK","is_transit":false,"station_name":"Cisauk","i_lat":-6.32484},{"distance":1784,"transit":false,"time":4,"station_name":"Serpong","i_lat":-6.319871,"i_long":106.66566,"is_transit":false,"line":6,"station_id":"SRP"},{"transit":false,"line":6,"i_lat":-6.314823,"station_name":"Rawa Buntu","is_transit":false,"station_id":"RU","time":4,"i_long":106.675475,"distance":2413},{"transit":false,"i_long":106.712277,"line":6,"distance":4566,"i_lat":-6.296963,"is_transit":false,"station_id":"SDM","time":6,"station_name":"Sudimara"},{"is_transit":false,"station_id":"JMU","distance":1994,"transit":false,"i_lat":-6.288927,"line":6,"time":4,"i_long":106.728916,"station_name":"Jurangmangu"},{"i_long":106.74273,"time":3,"distance":2179,"is_transit":false,"station_id":"PDJ","i_lat":-6.276362,"transit":false,"station_name":"Pondokranji","line":6},{"line":6,"distance":6218,"i_lat":-6.237242,"transit":false,"station_name":"Kebayoran","time":8,"i_long":106.780334,"is_transit":false,"station_id":"KBY"},{"station_id":"PLM","station_name":"Palmerah","is_transit":false,"line":6,"i_lat":-6.207404,"distance":3737,"transit":false,"time":7,"i_long":106.79689},{"distance":3191,"time":6,"station_id":"THB","is_transit":true,"transit":true,"station_name":"Tanah Abang","i_lat":-6.185545,"line":1,"i_long":106.811091},{"station_name":"Karet","transit":false,"i_lat":-6.20132,"time":5,"station_id":"KAT","line":1,"distance":2029,"is_transit":false,"i_long":106.816351},{"distance":471,"station_id":"SUDB","i_long":106.819881,"time":1,"is_transit":false,"station_name":"Sudirman Baru","transit":false,"i_lat":-6.201433,"line":1},{"time":1,"station_name":"Sudirman","line":1,"distance":280,"i_lat":-6.202263,"transit":false,"station_id":"SUD","is_transit":false,"i_long":106.822649},{"station_id":"MRI","i_lat":-6.209883,"station_name":"Manggarai","distance":3186,"time":4,"is_transit":true,"i_long":106.84912,"line":2,"transit":true},{"station_id":"TEB","time":4,"distance":2610,"transit":false,"is_transit":false,"i_lat":-6.226659,"i_long":106.857948,"line":2,"station_name":"Tebet"},{"line":2,"is_transit":false,"station_name":"Cawang","i_lat":-6.242512,"distance":1230,"station_id":"CW","time":2,"transit":false,"i_long":106.856607},{"distance":1546,"station_name":"Duren Kalibata","transit":false,"station_id":"DRN","i_lat":-6.255332,"i_long":106.85449,"time":3,"line":2,"is_transit":false}],[{"i_long":106.617853,"transit":false,"station_id":"CC","distance":0,"time":0,"station_name":"Cicayur","is_transit":false,"i_lat":-6.329547,"line":3},{"i_lat":-6.32484,"line":3,"distance":2519,"transit":false,"is_transit":false,"station_name":"Cisauk","i_long":106.640411,"time":4,"station_id":"CSK"},{"distance":1784,"station_id":"SRP","is_transit":false,"i_long":106.66566,"time":4,"line":6,"station_name":"Serpong","transit":false,"i_lat":-6.319871},{"transit":false,"time":4,"station_id":"RU","line":6,"is_transit":false,"station_name":"Rawa Buntu","i_long":106.675475,"distance":2413,"i_lat":-6.314823},{"station_name":"Sudimara","i_lat":-6.296963,"station_id":"SDM","line":6,"is_transit":false,"i_long":106.712277,"distance":4566,"transit":false,"time":6},{"line":6,"time":4,"distance":1994,"is_transit":false,"station_name":"Jurangmangu","transit":false,"i_lat":-6.288927,"i_long":106.728916,"station_id":"JMU"},{"i_lat":-6.276362,"transit":false,"station_name":"Pondokranji","station_id":"PDJ","time":3,"is_transit":false,"i_long":106.74273,"distance":2179,"line":6},{"station_id":"KBY","i_long":106.780334,"distance":6218,"i_lat":-6.237242,"time":8,"line":6,"station_name":"Kebayoran","is_transit":false,"transit":false},{"station_name":"Palmerah","distance":3737,"i_lat":-6.207404,"is_transit":false,"line":6,"i_long":106.79689,"transit":false,"time":7,"station_id":"PLM"},{"is_transit":true,"i_lat":-6.185545,"i_long":106.811091,"line":1,"station_id":"THB","transit":true,"station_name":"Tanah Abang","distance":3191,"time":6},{"line":1,"distance":3632,"i_lat":-6.155215,"station_id":"DU","station_name":"Duri","i_long":106.800832,"transit":false,"time":8,"is_transit":false},{"i_long":106.79867,"time":4,"is_transit":false,"i_lat":-6.144674,"line":1,"transit":false,"station_name":"Angke","station_id":"AK","distance":1230},{"i_long":106.826365,"station_name":"Kampung Bandan","transit":true,"distance":4102,"is_transit":true,"time":9,"i_lat":-6.132549,"line":4,"station_id":"KPB"},{"distance":1364,"i_lat":-6.137569,"station_name":"Jakarta Kota","i_long":106.812439,"time":3,"is_transit":true,"transit":true,"line":2,"station_id":"JAKK"},{"time":4,"distance":1264,"station_id":"JAY","is_transit":false,"line":2,"i_lat":-6.141205,"transit":false,"station_name":"Jayakarta","i_long":106.820901},{"time":2,"i_lat":-6.149769,"transit":false,"i_long":106.82482,"distance":1080,"line":2,"station_id":"MGB","is_transit":false,"station_name":"Manggabesar"},{"i_long":106.827103,"time":2,"i_lat":-6.160725,"distance":906,"transit":false,"station_id":"SW","is_transit":false,"line":2,"station_name":"Sawah Besar"},{"is_transit":false,"station_name":"Juanda","station_id":"JUA","transit":false,"time":2,"i_long":106.828284,"line":2,"distance":1149,"i_lat":-6.166716},{"distance":2015,"is_transit":false,"transit":false,"time":4,"i_long":106.832183,"station_name":"Gondangdia","i_lat":-6.186295,"line":2,"station_id":"GDD"},{"i_lat":-6.198556,"i_long":106.840169,"transit":false,"distance":1750,"is_transit":false,"station_id":"CKI","time":3,"station_name":"Cikini","line":2},{"time":4,"station_name":"Manggarai","transit":false,"station_id":"MRI","is_transit":false,"i_lat":-6.209883,"i_long":106.84912,"line":2,"distance":1590},{"line":2,"time":4,"is_transit":false,"i_lat":-6.226659,"transit":false,"station_id":"TEB","station_name":"Tebet","distance":2610,"i_long":106.857948},{"distance":1230,"station_name":"Cawang","is_transit":false,"time":2,"line":2,"station_id":"CW","i_lat":-6.242512,"transit":false,"i_long":106.856607},{"station_id":"DRN","distance":1546,"is_transit":false,"time":3,"i_long":106.85449,"i_lat":-6.255332,"station_name":"Duren Kalibata","transit":false,"line":2}],[{"is_transit":false,"station_name":"Cicayur","line":3,"transit":false,"i_lat":-6.329547,"distance":0,"i_long":106.617853,"station_id":"CC","time":0},{"i_lat":-6.32484,"distance":2519,"line":3,"i_long":106.640411,"station_name":"Cisauk","transit":false,"time":4,"station_id":"CSK","is_transit":false},{"is_transit":false,"station_id":"SRP","i_long":106.66566,"i_lat":-6.319871,"time":4,"transit":false,"line":6,"distance":1784,"station_name":"Serpong"},{"time":4,"transit":false,"is_transit":false,"station_name":"Rawa Buntu","distance":2413,"i_lat":-6.314823,"station_id":"RU","i_long":106.675475,"line":6},{"time":6,"is_transit":false,"distance":4566,"transit":false,"i_lat":-6.296963,"station_id":"SDM","line":6,"station_name":"Sudimara","i_long":106.712277},{"line":6,"station_id":"JMU","is_transit":false,"station_name":"Jurangmangu","time":4,"i_long":106.728916,"distance":1994,"i_lat":-6.288927,"transit":false},{"i_lat":-6.276362,"i_long":106.74273,"time":3,"is_transit":false,"distance":2179,"station_name":"Pondokranji","line":6,"transit":false,"station_id":"PDJ"},{"station_id":"KBY","i_lat":-6.237242,"station_name":"Kebayoran","distance":6218,"i_long":106.780334,"line":6,"is_transit":false,"transit":false,"time":8},{"station_name":"Palmerah","distance":3737,"i_long":106.79689,"line":6,"time":7,"station_id":"PLM","i_lat":-6.207404,"transit":false,"is_transit":false},{"i_long":106.811091,"line":1,"station_id":"THB","i_lat":-6.185545,"is_transit":true,"distance":3191,"transit":true,"time":6,"station_name":"Tanah Abang"},{"line":1,"i_lat":-6.155215,"station_id":"DU","time":8,"distance":3632,"station_name":"Duri","transit":false,"is_transit":false,"i_long":106.800832},{"line":1,"transit":false,"station_id":"AK","is_transit":false,"distance":1230,"time":4,"station_name":"Angke","i_long":106.79867,"i_lat":-6.144674},{"distance":4102,"station_id":"KPB","time":9,"is_transit":true,"i_long":106.826365,"line":4,"transit":true,"station_name":"Kampung Bandan","i_lat":-6.132549},{"i_long":106.836569,"distance":1444,"i_lat":-6.14505,"station_id":"RJW","transit":false,"is_transit":false,"line":11,"time":3,"station_name":"Rajawali"},{"i_long":106.839204,"distance":1901,"is_transit":false,"station_id":"KMO","transit":false,"time":5,"i_lat":-6.161728,"station_name":"Kemayoran","line":11},{"i_long":106.84368,"i_lat":-6.174784,"line":11,"station_id":"PSE","time":4,"station_name":"Pasar Senen","distance":1436,"transit":false,"is_transit":false},{"distance":1567,"i_lat":-6.185975,"time":8,"i_long":106.850107,"line":11,"station_name":"Gang Sentiong","station_id":"GST","is_transit":false,"transit":false},{"is_transit":false,"time":1,"distance":973,"i_lat":-6.193792,"station_name":"Kramat","i_long":106.855437,"line":11,"transit":false,"station_id":"KMT"},{"station_name":"Pondok Jati","time":2,"line":11,"transit":false,"i_lat":-6.209188,"station_id":"POK","is_transit":false,"i_long":106.861737,"distance":1829},{"i_long":106.86807400000001,"i_lat":-6.215091,"line":1,"distance":1236,"transit":true,"time":9,"is_transit":true,"station_id":"JNG","station_name":"Jatinegara"},{"i_long":106.858896,"station_name":"Matraman","time":2,"transit":false,"distance":1377,"station_id":"MTR","is_transit":false,"i_lat":-6.212485,"line":1},{"line":2,"station_id":"MRI","i_lat":-6.209883,"is_transit":true,"i_long":106.84912,"transit":true,"time":2,"station_name":"Manggarai","distance":1275},{"station_name":"Tebet","transit":false,"station_id":"TEB","line":2,"i_lat":-6.226659,"i_long":106.857948,"is_transit":false,"time":4,"distance":2610},{"i_lat":-6.242512,"i_long":106.856607,"transit":false,"station_id":"CW","time":2,"is_transit":false,"distance":1230,"line":2,"station_name":"Cawang"},{"station_name":"Duren Kalibata","time":3,"distance":1546,"i_lat":-6.255332,"line":2,"is_transit":false,"i_long":106.85449,"station_id":"DRN","transit":false}]]}