{"data":[[{"is_transit":false,"station_name":"Cicayur","distance":0,"time":0,"i_long":106.617853,"i_lat":-6.329547,"station_id":"CC","line":3,"transit":false},{"station_name":"Cisauk","i_lat":-6.32484,"time":4,"line":3,"transit":false,"is_transit":false,"station_id":"CSK","distance":2519,"i_long":106.640411},{"distance":1784,"station_id":"SRP","line":6,"time":4,"i_long":106.66566,"i_lat":-6.319871,"transit":false,"is_transit":false,"station_name":"Serpong"},{"i_long":106.675475,"line":6,"distance":2413,"transit":false,"i_lat":-6.314823,"time":4,"station_name":"Rawa Buntu","station_id":"RU","is_transit":false},{"is_transit":false,"station_name":"Sudimara","station_id":"SDM","distance":4566,"i_long":106.712277,"transit":false,"time":6,"i_lat":-6.296963,"line":6},{"i_lat":-6.288927,"station_name":"Jurangmangu","distance":1994,"i_long":106.728916,"line":6,"transit":false,"is_transit":false,"station_id":"JMU","time":4},{"station_name":"Pondokranji","transit":false,"station_id":"PDJ","i_lat":-6.276362,"i_long":106.74273,"distance":2179,"time":3,"is_transit":false,"line":6},{"time":8,"distance":6218,"station_id":"KBY","station_name":"Kebayoran","i_long":106.780334,"is_transit":false,"i_lat":-6.237242,"line":6,"transit":false},{"time":7,"transit":false,"line":6,"station_name":"Palmerah","i_long":106.79689,"distance":3737,"is_transit":false,"i_lat":-6.207404,"station_id":"PLM"},{"station_id":"THB","distance":3191,"transit":true,"i_long":106.811091,"i_lat":-6.185545,"time":6,"line":1,"station_name":"Tanah Abang","is_transit":true},{"i_lat":-6.20132,"transit":false,"station_name":"Karet","time":5,"i_long":106.816351,"line":1,"station_id":"KAT","distance":2029,"is_transit":false},{"line":1,"i_lat":-6.201433,"i_long":106.819881,"time":1,"station_id":"SUDB","transit":false,"is_transit":false,"station_name":"Sudirman Baru","distance":471},{"station_name":"Sudirman","station_id":"SUD","is_transit":false,"i_long":106.822649,"line":1,"time":1,"i_lat":-6.202263,"transit":false,"distance":280},{"line":2,"station_id":"MRI","transit":true,"is_transit":true,"i_long":106.84912,"time":4,"distance":3186,"i_lat":-6.209883,"station_name":"Manggarai"},{"i_lat":-6.198556,"time":4,"transit":false,"i_long":106.840169,"is_transit":false,"station_id":"CKI","distance":1590,"line":2,"station_name":"Cikini"},{"time":3,"is_transit":false,"i_lat":-6.186295,"transit":false,"i_long":106.832183,"distance":1750,"line":2,"station_name":"Gondangdia","station_id":"GDD"}],[{"i_long":106.617853,"i_lat":-6.329547,"time":0,"is_transit":false,"transit":false,"distance":0,"station_id":"CC","line":3,"station_name":"Cicayur"},{"i_lat":-6.32484,"station_name":"Cisauk","transit":false,"is_transit":false,"i_long":106.640411,"time":4,"line":3,"station_id":"CSK","distance":2519},{"distance":1784,"i_long":106.66566,"transit":false,"line":6,"station_name":"Serpong","is_transit":false,"station_id":"SRP","time":4,"i_lat":-6.319871},{"i_lat":-6.314823,"transit":false,"i_long":106.675475,"time":4,"distance":2413,"station_name":"Rawa Buntu","station_id":"RU","line":6,"is_transit":false},{"i_long":106.712277,"is_transit":false,"distance":4566,"station_id":"SDM","station_name":"Sudimara","time":6,"i_lat":-6.296963,"transit":false,"line":6},{"station_name":"Jurangmangu","is_transit":false,"line":6,"transit":false,"station_id":"JMU","time":4,"i_lat":-6.288927,"distance":1994,"i_long":106.728916},{"transit":false,"station_name":"Pondokranji","station_id":"PDJ","is_transit":false,"time":3,"distance":2179,"i_lat":-6.276362,"i_long":106.74273,"line":6},{"distance":6218,"time":8,"is_transit":false,"station_id":"KBY","i_long":106.780334,"transit":false,"i_lat":-6.237242,"line":6,"station_name":"Kebayoran"},{"time":7,"station_name":"Palmerah","i_lat":-6.207404,"transit":false,"i_long":106.79689,"line":6,"is_transit":false,"distance":3737,"station_id":"PLM"},{"time":6,"is_transit":true,"line":1,"station_name":"Tanah Abang","transit":true,"station_id":"THB","distance":3191,"i_long":106.811091,"i_lat":-6.185545},{"i_lat":-6.155215,"line":1,"i_long":106.800832,"distance":3632,"is_transit":false,"transit":false,"station_name":"Duri","station_id":"DU","time":8},{"distance":1230,"is_transit":false,"i_long":106.79867,"station_id":"AK","line":1,"transit":false,"time":4,"station_name":"Angke","i_lat":-6.144674},{"transit":true,"time":9,"i_lat":-6.132549,"is_transit":true,"distance":4102,"line":4,"station_id":"KPB","i_long":106.826365,"station_name":"Kampung Bandan"},{"transit":true,"line":2,"is_transit":true,"station_name":"Jakarta Kota","time":3,"station_id":"JAKK","i_lat":-6.137569,"i_long":106.812439,"distance":1364},{"distance":1264,"transit":false,"station_id":"JAY","time":4,"line":2,"i_long":106.820901,"is_transit":false,"station_name":"Jayakarta","i_lat":-6.141205},{"i_long":106.82482,"line":2,"station_id":"MGB","station_name":"Manggabesar","i_lat":-6.149769,"transit":false,"time":2,"distance":1080,"is_transit":false},{"distance":906,"i_lat":-6.160725,"line":2,"station_name":"Sawah Besar","is_transit":false,"transit":false,"time":2,"i_long":106.827103,"station_id":"SW"},{"station_name":"Juanda","i_lat":-6.166716,"i_long":106.828284,"time":2,"transit":false,"distance":1149,"line":2,"station_id":"JUA","is_transit":false},{"i_long":106.832183,"line":2,"is_transit":false,"distance":2015,"station_name":"Gondangdia","station_id":"GDD","transit":false,"time":4,"i_lat":-6.186295}],[{"i_long":106.617853,"station_name":"Cicayur","station_id":"CC","transit":false,"time":0,"i_lat":-6.329547,"line":3,"is_transit":false,"distance":0},{"station_id":"CSK","i_lat":-6.32484,"line":3,"time":4,"is_transit":false,"distance":2519,"i_long":106.640411,"transit":false,"station_name":"Cisauk"},{"transit":false,"is_transit":false,"station_name":"Serpong","station_id":"SRP","time":4,"i_long":106.66566,"line":6,"i_lat":-6.319871,"distance":1784},{"is_transit":false,"station_id":"RU","distance":2413,"time":4,"transit":false,"i_lat":-6.314823,"station_name":"Rawa Buntu","i_long":106.675475,"line":6},{"line":6,"station_id":"SDM","is_transit":false,"station_name":"Sudimara","distance":4566,"i_lat":-6.296963,"i_long":106.712277,"transit":false,"time":6},{"time":4,"i_lat":-6.288927,"transit":false,"is_transit":false,"station_id":"JMU","station_name":"Jurangmangu","line":6,"i_long":106.728916,"distance":1994},{"is_transit":false,"station_name":"Pondokranji","time":3,"distance":2179,"line":6,"station_id":"PDJ","i_lat":-6.276362,"i_long":106.74273,"transit":false},{"line":6,"transit":false,"i_lat":-6.237242,"time":8,"distance":6218,"station_id":"KBY","i_long":106.780334,"is_transit":false,"station_name":"Kebayoran"},{"i_long":106.79689,"transit":false,"station_name":"Palmerah","is_transit":false,"i_lat":-6.207404,"line":6,"station_id":"PLM","time":7,"distance":3737},{"transit":true,"i_long":106.811091,"distance":3191,"is_transit":true,"line":1,"i_lat":-6.185545,"station_name":"Tanah Abang","station_id":"THB","time":6},{"transit":false,"i_lat":-6.155215,"station_name":"Duri","station_id":"DU","is_transit":false,"distance":3632,"time":8,"line":1,"i_long":106.800832},{"station_name":"Angke","i_long":106.79867,"station_id":"AK","time":4,"distance":1230,"i_lat":-6.144674,"line":1,"transit":false,"is_transit":false},{"distance":4102,"i_long":106.826365,"time":9,"transit":true,"line":4,"station_id":"KPB","i_lat":-6.132549,"is_transit":true,"station_name":"Kampung Bandan"},{"i_lat":-6.14505,"time":3,"station_id":"RJW","distance":1444,"transit":false,"i_long":106.836569,"station_name":"Rajawali","line":11,"is_transit":false},{"station_name":"Kemayoran","distance":1901,"transit":false,"is_transit":false,"station_id":"KMO","time":5,"line":11,"i_long":106.839204,"i_lat":-6.161728},{"i_lat":-6.174784,"line":11,"transit":false,"station_name":"Pasar Senen","station_id":"PSE","distance":1436,"time":4,"is_transit":false,"i_long":106.84368},{"line":11,"distance":1567,"time":8,"is_transit":false,"station_name":"Gang Sentiong","i_lat":-6.185975,"i_long":106.850107,"transit":false,"station_id":"GST"},{"transit":false,"i_lat":-6.193792,"station_id":"KMT","is_transit":false,"line":11,"time":1,"station_name":"Kramat","distance":973,"i_long":106.855437},{"transit":false,"is_transit":false,"time":2,"station_name":"Pondok Jati","distance":1829,"i_long":106.861737,"line":11,"station_id":"POK","i_lat":-6.209188},{"station_name":"Jatinegara","time":9,"line":1,"i_long":106.86807400000001,"station_id":"JNG","distance":1236,"i_lat":-6.215091,"is_transit":true,"transit":true},{"station_name":"Matraman","i_lat":-6.212485,"distance":1377,"line":1,"transit":false,"is_transit":false,"time":2,"station_id":"MTR","i_long":106.858896},{"station_name":"Manggarai","transit":true,"station_id":"MRI","is_transit":true,"distance":1275,"i_long":106.84912,"line":2,"i_lat":-6.209883,"time":2},{"distance":1590,"line":2,"transit":false,"is_transit":false,"station_id":"CKI","i_long":106.840169,"time":4,"station_name":"Cikini","i_lat":-6.198556},{"distance":1750,"i_long":106.832183,"line":2,"is_transit":false,"time":3,"transit":false,"station_name":"Gondangdia","i_lat":-6.186295,"station_id":"GDD"}],[{"distance":0,"line":3,"station_name":"Cicayur","transit":false,"i_lat":-6.329547,"station_id":"CC","is_transit":false,"time":0,"i_long":106.617853},{"transit":false,"i_lat":-6.32484,"station_name":"Cisauk","is_transit":false,"station_id":"CSK","distance":2519,"i_long":106.640411,"line":3,"time":4},{"is_transit":false,"i_long":106.66566,"transit":false,"i_lat":-6.319871,"station_name":"Serpong","station_id":"SRP","distance":1784,"line":6,"time":4},{"transit":false,"line":6,"i_lat":-6.314823,"station_id":"RU","i_long":106.675475,"station_name":"Rawa Buntu","is_transit":false,"time":4,"distance":2413},{"station_id":"SDM","time":6,"distance":4566,"is_transit":false,"i_long":106.712277,"line":6,"station_name":"Sudimara","i_lat":-6.296963,"transit":false},{"time":4,"line":6,"i_lat":-6.288927,"is_transit":false,"station_id":"JMU","station_name":"Jurangmangu","distance":1994,"i_long":106.728916,"transit":false},{"transit":false,"time":3,"station_id":"PDJ","is_transit":false,"i_lat":-6.276362,"station_name":"Pondokranji","i_long":106.74273,"line":6,"distance":2179},{"i_long":106.780334,"is_transit":false,"line":6,"station_name":"Kebayoran","station_id":"KBY","transit":false,"time":8,"distance":6218,"i_lat":-6.237242},{"station_id":"PLM","line":6,"is_transit":false,"i_lat":-6.207404,"time":7,"distance":3737,"transit":false,"station_name":"Palmerah","i_long":106.79689},{"station_name":"Tanah Abang","time":6,"is_transit":true,"distance":3191,"i_lat":-6.185545,"station_id":"THB","line":1,"transit":true,"i_long":106.811091},{"i_long":106.816351,"is_transit":false,"station_name":"Karet","distance":2029,"transit":false,"line":1,"time":5,"i_lat":-6.20132,"station_id":"KAT"},{"i_lat":-6.201433,"distance":471,"i_long":106.819881,"line":1,"station_name":"Sudirman Baru","is_transit":false,"transit":false,"time":1,"station_id":"SUDB"},{"i_lat":-6.202263,"line":1,"transit":false,"is_transit":false,"station_id":"SUD","i_long":106.822649,"time":1,"distance":280,"station_name":"Sudirman"},{"is_transit":false,"i_long":106.84912,"line":2,"time":4,"i_lat":-6.209883,"station_id":"MRI","transit":false,"station_name":"Manggarai","distance":3186},{"is_transit":false,"transit":false,"station_id":"MTR","distance":1275,"station_name":"Matraman","line":1,"time":2,"i_long":106.858896,"i_lat":-6.212485},{"line":1,"station_id":"JNG","i_long":106.86807400000001,"station_name":"Jatinegara","transit":true,"is_transit":true,"time":8,"i_lat":-6.215091,"distance":1377},{"station_id":"POK","is_transit":false,"station_name":"Pondok Jati","i_lat":-6.209188,"time":2,"line":11,"distance":1236,"i_long":106.861737,"transit":false},{"station_id":"KMT","i_long":106.855437,"line":11,"station_name":"Kramat","distance":1829,"is_transit":false,"transit":false,"time":2,"i_lat":-6.193792},{"station_name":"Gang Sentiong","i_lat":-6.185975,"is_transit":false,"time":1,"transit":false,"i_long":106.850107,"line":11,"station_id":"GST","distance":973},{"i_long":106.84368,"line":11,"transit":false,"is_transit":false,"i_lat":-6.174784,"time":8,"station_name":"Pasar Senen","distance":1567,"station_id":"PSE"},{"time":4,"i_lat":-6.161728,"station_id":"KMO","distance":1436,"is_transit":false,"transit":false,"i_long":106.839204,"station_name":"Kemayoran","line":11},{"transit":false,"is_transit":false,"station_id":"RJW","time":5,"i_lat":-6.14505,"i_long":106.836569,"line":11,"distance":1901,"station_name":"Rajawali"},{"i_lat":-6.132549,"is_transit":true,"transit":true,"station_name":"Kampung Bandan","time":3,"distance":1444,"station_id":"KPB","i_long":106.826365,"line":4},{"time":3,"i_lat":-6.137569,"line":2,"distance":1364,"station_name":"Jakarta Kota","station_id":"JAKK","is_transit":true,"i_long":106.812439,"transit":true},{"time":4,"i_long":106.820901,"is_transit":false,"transit":false,"distance":1264,"i_lat":-6.141205,"station_name":"Jayakarta","line":2,"station_id":"JAY"},{"line":2,"station_id":"MGB","i_long":106.82482,"is_transit":false,"time":2,"transit":false,"station_name":"Manggabesar","distance":1080,"i_lat":-6.149769},{"station_name":"Sawah Besar","time":2,"i_lat":-6.160725,"station_id":"SW","i_long":106.827103,"line":2,"distance":906,"transit":false,"is_transit":false},{"station_id":"JUA","i_lat":-6.166716,"line":2,"is_transit":false,"transit":false,"time":2,"distance":1149,"station_name":"Juanda","i_long":106.828284},{"i_long":106.832183,"distance":2015,"i_lat":-6.186295,"station_name":"Gondangdia","station_id":"GDD","is_transit":false,"time":4,"transit":false,"line":2}]]}