{"data":[[{"is_transit":false,"station_id":"CC","i_lat":-6.329547,"station_name":"Cicayur","time":0,"transit":false,"line":3,"distance":0,"i_long":106.617853},{"is_transit":false,"line":3,"station_name":"Cisauk","time":4,"distance":2519,"transit":false,"station_id":"CSK","i_lat":-6.32484,"i_long":106.640411},{"i_lat":-6.319871,"line":6,"is_transit":false,"i_long":106.66566,"time":4,"transit":false,"station_id":"SRP","station_name":"Serpong","distance":1784},{"line":6,"time":4,"station_name":"Rawa Buntu","i_lat":-6.314823,"distance":2413,"transit":false,"station_id":"RU","i_long":106.675475,"is_transit":false},{"i_long":106.712277,"is_transit":false,"i_lat":-6.296963,"station_id":"SDM","transit":false,"time":6,"distance":4566,"line":6,"station_name":"Sudimara"},{"line":6,"transit":false,"i_lat":-6.288927,"time":4,"i_long":106.728916,"distance":1994,"is_transit":false,"station_id":"JMU","station_name":"Jurangmangu"},{"distance":2179,"i_lat":-6.276362,"time":3,"station_name":"Pondokranji","station_id":"PDJ","transit":false,"is_transit":false,"line":6,"i_long":106.74273},{"distance":6218,"station_name":"Kebayoran","line":6,"time":8,"station_id":"KBY","i_lat":-6.237242,"transit":false,"is_transit":false,"i_long":106.780334},{"i_long":106.79689,"station_name":"Palmerah","line":6,"station_id":"PLM","time":7,"distance":3737,"i_lat":-6.207404,"is_transit":false,"transit":false},{"transit":true,"i_long":106.811091,"station_id":"THB","is_transit":true,"line":1,"distance":3191,"station_name":"Tanah Abang","time":6,"i_lat":-6.185545},{"i_lat":-6.155215,"station_name":"Duri","distance":3632,"i_long":106.800832,"line":1,"time":8,"station_id":"DU","transit":false,"is_transit":false},{"transit":false,"time":4,"distance":1230,"i_lat":-6.144674,"station_id":"AK","station_name":"Angke","line":1,"i_long":106.79867,"is_transit":false},{"station_name":"Kampung Bandan","is_transit":true,"i_lat":-6.132549,"i_long":106.826365,"line":4,"time":9,"transit":true,"distance":4102,"station_id":"KPB"},{"station_id":"RJW","station_name":"Rajawali","is_transit":false,"time":3,"i_lat":-6.14505,"transit":false,"distance":1444,"line":11,"i_long":106.836569},{"station_id":"KMO","line":11,"is_transit":false,"i_long":106.839204,"i_lat":-6.161728,"transit":false,"station_name":"Kemayoran","distance":1901,"time":5},{"transit":false,"is_transit":false,"station_id":"PSE","distance":1436,"time":4,"station_name":"Pasar Senen","i_long":106.84368,"line":11,"i_lat":-6.174784},{"i_lat":-6.185975,"time":8,"transit":false,"distance":1567,"station_id":"GST","is_transit":false,"station_name":"Gang Sentiong","i_long":106.850107,"line":11}],[{"i_long":106.617853,"transit":false,"is_transit":false,"time":0,"station_name":"Cicayur","station_id":"CC","distance":0,"i_lat":-6.329547,"line":3},{"station_name":"Cisauk","is_transit":false,"i_long":106.640411,"line":3,"transit":false,"time":4,"station_id":"CSK","distance":2519,"i_lat":-6.32484},{"transit":false,"i_lat":-6.319871,"i_long":106.66566,"time":4,"station_name":"Serpong","is_transit":false,"line":6,"station_id":"SRP","distance":1784},{"distance":2413,"i_lat":-6.314823,"line":6,"transit":false,"time":4,"is_transit":false,"i_long":106.675475,"station_name":"Rawa Buntu","station_id":"RU"},{"i_lat":-6.296963,"station_id":"SDM","i_long":106.712277,"station_name":"Sudimara","transit":false,"distance":4566,"is_transit":false,"time":6,"line":6},{"i_lat":-6.288927,"transit":false,"station_name":"Jurangmangu","line":6,"station_id":"JMU","time":4,"is_transit":false,"i_long":106.728916,"distance":1994},{"i_long":106.74273,"is_transit":false,"distance":2179,"line":6,"time":3,"transit":false,"station_name":"Pondokranji","station_id":"PDJ","i_lat":-6.276362},{"time":8,"distance":6218,"station_name":"Kebayoran","transit":false,"station_id":"KBY","i_lat":-6.237242,"line":6,"is_transit":false,"i_long":106.780334},{"transit":false,"time":7,"station_id":"PLM","i_lat":-6.207404,"i_long":106.79689,"line":6,"is_transit":false,"station_name":"Palmerah","distance":3737},{"station_id":"THB","transit":true,"i_lat":-6.185545,"i_long":106.811091,"line":1,"time":6,"station_name":"Tanah Abang","is_transit":true,"distance":3191},{"i_lat":-6.20132,"i_long":106.816351,"station_name":"Karet","is_transit":false,"time":5,"line":1,"transit":false,"station_id":"KAT","distance":2029},{"line":1,"time":1,"station_name":"Sudirman Baru","is_transit":false,"transit":false,"distance":471,"i_lat":-6.201433,"i_long":106.819881,"station_id":"SUDB"},{"station_name":"Sudirman","time":1,"i_long":106.822649,"transit":false,"station_id":"SUD","distance":280,"i_lat":-6.202263,"is_transit":false,"line":1},{"transit":false,"station_id":"MRI","station_name":"Manggarai","distance":3186,"i_long":106.84912,"time":4,"is_transit":false,"line":2,"i_lat":-6.209883},{"station_id":"MTR","is_transit":false,"distance":1275,"transit":false,"line":1,"time":2,"station_name":"Matraman","i_long":106.858896,"i_lat":-6.212485},{"time":8,"transit":true,"station_id":"JNG","is_transit":true,"i_long":106.86807400000001,"line":1,"distance":1377,"station_name":"Jatinegara","i_lat":-6.215091},{"i_lat":-6.209188,"i_long":106.861737,"distance":1236,"line":11,"time":2,"station_id":"POK","transit":false,"station_name":"Pondok Jati","is_transit":false},{"i_lat":-6.193792,"station_name":"Kramat","is_transit":false,"distance":1829,"time":2,"i_long":106.855437,"line":11,"transit":false,"station_id":"KMT"},{"station_id":"GST","i_long":106.850107,"station_name":"Gang Sentiong","time":1,"distance":973,"is_transit":false,"i_lat":-6.185975,"line":11,"transit":false}],[{"transit":false,"is_transit":false,"distance":0,"station_id":"CC","i_lat":-6.329547,"line":3,"i_long":106.617853,"time":0,"station_name":"Cicayur"},{"station_id":"CSK","is_transit":false,"distance":2519,"time":4,"station_name":"Cisauk","i_long":106.640411,"transit":false,"i_lat":-6.32484,"line":3},{"station_name":"Serpong","line":6,"transit":false,"distance":1784,"station_id":"SRP","is_transit":false,"i_lat":-6.319871,"i_long":106.66566,"time":4},{"station_name":"Rawa Buntu","line":6,"i_long":106.675475,"station_id":"RU","is_transit":false,"time":4,"transit":false,"distance":2413,"i_lat":-6.314823},{"time":6,"i_long":106.712277,"station_name":"Sudimara","is_transit":false,"i_lat":-6.296963,"transit":false,"distance":4566,"line":6,"station_id":"SDM"},{"distance":1994,"station_id":"JMU","line":6,"transit":false,"time":4,"i_long":106.728916,"i_lat":-6.288927,"station_name":"Jurangmangu","is_transit":false},{"transit":false,"is_transit":false,"distance":2179,"i_lat":-6.276362,"i_long":106.74273,"line":6,"station_id":"PDJ","time":3,"station_name":"Pondokranji"},{"station_name":"Kebayoran","i_lat":-6.237242,"transit":false,"station_id":"KBY","is_transit":false,"i_long":106.780334,"line":6,"time":8,"distance":6218},{"station_id":"PLM","i_long":106.79689,"line":6,"transit":false,"time":7,"station_name":"Palmerah","is_transit":false,"distance":3737,"i_lat":-6.207404},{"i_long":106.811091,"transit":true,"station_name":"Tanah Abang","is_transit":true,"line":1,"distance":3191,"time":6,"station_id":"THB","i_lat":-6.185545},{"i_long":106.800832,"is_transit":false,"transit":false,"time":8,"distance":3632,"i_lat":-6.155215,"station_name":"Duri","line":1,"station_id":"DU"},{"time":4,"transit":false,"station_id":"AK","is_transit":false,"distance":1230,"i_long":106.79867,"line":1,"station_name":"Angke","i_lat":-6.144674},{"station_id":"KPB","i_long":106.826365,"transit":true,"i_lat":-6.132549,"line":4,"time":9,"is_transit":true,"distance":4102,"station_name":"Kampung Bandan"},{"station_id":"JAKK","is_transit":true,"line":2,"time":3,"distance":1364,"i_lat":-6.137569,"i_long":106.812439,"transit":true,"station_name":"Jakarta Kota"},{"station_name":"Jayakarta","transit":false,"distance":1264,"station_id":"JAY","time":4,"line":2,"i_lat":-6.141205,"i_long":106.820901,"is_transit":false},{"station_name":"Manggabesar","station_id":"MGB","i_long":106.82482,"time":2,"is_transit":false,"transit":false,"distance":1080,"i_lat":-6.149769,"line":2},{"time":2,"i_long":106.827103,"line":2,"transit":false,"i_lat":-6.160725,"station_id":"SW","distance":906,"station_name":"Sawah Besar","is_transit":false},{"time":2,"distance":1149,"line":2,"is_transit":false,"i_lat":-6.166716,"i_long":106.828284,"transit":false,"station_id":"JUA","station_name":"Juanda"},{"is_transit":false,"time":4,"line":2,"transit":false,"station_name":"Gondangdia","distance":2015,"i_lat":-6.186295,"station_id":"GDD","i_long":106.832183},{"is_transit":false,"station_name":"Cikini","line":2,"i_long":106.840169,"distance":1750,"i_lat":-6.198556,"transit":false,"time":3,"station_id":"CKI"},{"i_lat":-6.209883,"is_transit":true,"line":2,"station_name":"Manggarai","distance":1590,"time":4,"i_long":106.84912,"station_id":"MRI","transit":true},{"i_lat":-6.212485,"i_long":106.858896,"distance":1275,"station_id":"MTR","line":1,"station_name":"Matraman","transit":false,"time":2,"is_transit":false},{"i_lat":-6.215091,"station_id":"JNG","station_name":"Jatinegara","distance":1377,"is_transit":true,"line":1,"time":8,"transit":true,"i_long":106.86807400000001},{"line":11,"is_transit":false,"transit":false,"i_long":106.861737,"i_lat":-6.209188,"time":2,"station_name":"Pondok Jati","station_id":"POK","distance":1236},{"distance":1829,"station_name":"Kramat","is_transit":false,"transit":false,"i_lat":-6.193792,"i_long":106.855437,"line":11,"station_id":"KMT","time":2},{"transit":false,"time":1,"i_long":106.850107,"station_name":"Gang Sentiong","i_lat":-6.185975,"line":11,"station_id":"GST","distance":973,"is_transit":false}],[{"transit":false,"is_transit":false,"distance":0,"station_name":"Cicayur","line":3,"time":0,"i_long":106.617853,"station_id":"CC","i_lat":-6.329547},{"station_name":"Cisauk","is_transit":false,"line":3,"i_lat":-6.32484,"transit":false,"station_id":"CSK","time":4,"distance":2519,"i_long":106.640411},{"i_lat":-6.319871,"i_long":106.66566,"time":4,"line":6,"distance":1784,"is_transit":false,"station_id":"SRP","station_name":"Serpong","transit":false},{"transit":false,"time":4,"distance":2413,"i_long":106.675475,"is_transit":false,"station_name":"Rawa Buntu","i_lat":-6.314823,"station_id":"RU","line":6},{"distance":4566,"station_id":"SDM","line":6,"i_lat":-6.296963,"station_name":"Sudimara","time":6,"is_transit":false,"i_long":106.712277,"transit":false},{"time":4,"i_long":106.728916,"station_id":"JMU","distance":1994,"i_lat":-6.288927,"line":6,"station_name":"Jurangmangu","is_transit":false,"transit":false},{"station_name":"Pondokranji","i_lat":-6.276362,"time":3,"station_id":"PDJ","distance":2179,"i_long":106.74273,"line":6,"transit":false,"is_transit":false},{"transit":false,"is_transit":false,"time":8,"station_name":"Kebayoran","i_long":106.780334,"station_id":"KBY","distance":6218,"line":6,"i_lat":-6.237242},{"station_name":"Palmerah","is_transit":false,"time":7,"i_long":106.79689,"transit":false,"station_id":"PLM","distance":3737,"line":6,"i_lat":-6.207404},{"time":6,"station_name":"Tanah Abang","distance":3191,"i_lat":-6.185545,"is_transit":true,"line":1,"station_id":"THB","i_long":106.811091,"transit":true},{"is_transit":false,"station_id":"KAT","i_lat":-6.20132,"distance":2029,"transit":false,"station_name":"Karet","i_long":106.816351,"time":5,"line":1},{"line":1,"station_name":"Sudirman Baru","i_long":106.819881,"time":1,"station_id":"SUDB","distance":471,"is_transit":false,"transit":false,"i_lat":-6.201433},{"time":1,"distance":280,"i_long":106.822649,"i_lat":-6.202263,"station_id":"SUD","line":1,"is_transit":false,"station_name":"Sudirman","transit":false},{"time":4,"i_lat":-6.209883,"is_transit":true,"i_long":106.84912,"distance":3186,"transit":true,"station_name":"Manggarai","line":2,"station_id":"MRI"},{"time":4,"station_name":"Cikini","distance":1590,"line":2,"station_id":"CKI","i_long":106.840169,"i_lat":-6.198556,"is_transit":false,"transit":false},{"is_transit":false,"i_long":106.832183,"i_lat":-6.186295,"time":3,"station_name":"Gondangdia","station_id":"GDD","distance":1750,"line":2,"transit":false},{"transit":false,"time":4,"is_transit":false,"station_id":"JUA","station_name":"Juanda","distance":2015,"i_long":106.828284,"line":2,"i_lat":-6.166716},{"distance":1149,"time":2,"station_id":"SW","transit":false,"is_transit":false,"i_lat":-6.160725,"i_long":106.827103,"line":2,"station_name":"Sawah Besar"},{"station_id":"MGB","station_name":"Manggabesar","is_transit":false,"distance":906,"transit":false,"i_long":106.82482,"i_lat":-6.149769,"time":2,"line":2},{"station_name":"Jayakarta","i_lat":-6.141205,"transit":false,"is_transit":false,"i_long":106.820901,"line":2,"station_id":"JAY","distance":1080,"time":2},{"i_long":106.812439,"time":4,"station_name":"Jakarta Kota","station_id":"JAKK","is_transit":true,"distance":1264,"line":2,"i_lat":-6.137569,"transit":true},{"i_long":106.826365,"transit":true,"is_transit":true,"time":3,"i_lat":-6.132549,"station_id":"KPB","station_name":"Kampung Bandan","distance":1364,"line":4},{"line":11,"time":3,"distance":1444,"station_id":"RJW","transit":false,"is_transit":false,"station_name":"Rajawali","i_lat":-6.14505,"i_long":106.836569},{"i_lat":-6.161728,"i_long":106.839204,"transit":false,"station_name":"Kemayoran","is_transit":false,"station_id":"KMO","line":11,"time":5,"distance":1901},{"is_transit":false,"transit":false,"station_name":"Pasar Senen","i_lat":-6.174784,"time":4,"station_id":"PSE","line":11,"i_long":106.84368,"distance":1436},{"is_transit":false,"i_lat":-6.185975,"line":11,"time":8,"station_name":"Gang Sentiong","transit":false,"station_id":"GST","distance":1567,"i_long":106.850107}]]}