{"data":[[{"station_id":"CC","transit":false,"distance":0,"time":0,"i_long":106.617853,"i_lat":-6.329547,"is_transit":false,"line":3,"station_name":"Cicayur"},{"distance":2519,"is_transit":false,"time":4,"line":3,"station_id":"CSK","station_name":"Cisauk","i_lat":-6.32484,"i_long":106.640411,"transit":false},{"station_id":"SRP","is_transit":false,"distance":1784,"transit":false,"time":4,"line":6,"i_long":106.66566,"station_name":"Serpong","i_lat":-6.319871},{"transit":false,"distance":2413,"i_long":106.675475,"station_id":"RU","time":4,"is_transit":false,"line":6,"station_name":"Rawa Buntu","i_lat":-6.314823},{"line":6,"transit":false,"station_name":"Sudimara","i_lat":-6.296963,"is_transit":false,"station_id":"SDM","i_long":106.712277,"time":6,"distance":4566},{"i_long":106.728916,"line":6,"time":4,"distance":1994,"station_id":"JMU","is_transit":false,"transit":false,"station_name":"Jurangmangu","i_lat":-6.288927},{"distance":2179,"station_name":"Pondokranji","i_long":106.74273,"time":3,"line":6,"i_lat":-6.276362,"transit":false,"is_transit":false,"station_id":"PDJ"},{"time":8,"station_id":"KBY","station_name":"Kebayoran","line":6,"transit":false,"i_lat":-6.237242,"distance":6218,"i_long":106.780334,"is_transit":false},{"transit":false,"station_id":"PLM","is_transit":false,"station_name":"Palmerah","i_long":106.79689,"time":7,"i_lat":-6.207404,"line":6,"distance":3737},{"station_id":"THB","line":1,"distance":3191,"station_name":"Tanah Abang","is_transit":true,"time":6,"transit":true,"i_lat":-6.185545,"i_long":106.811091},{"is_transit":false,"i_lat":-6.155215,"i_long":106.800832,"transit":false,"distance":3632,"line":1,"time":8,"station_name":"Duri","station_id":"DU"},{"line":1,"transit":false,"station_name":"Angke","time":4,"is_transit":false,"i_lat":-6.144674,"distance":1230,"station_id":"AK","i_long":106.79867},{"distance":4102,"station_name":"Kampung Bandan","i_lat":-6.132549,"i_long":106.826365,"line":4,"transit":true,"station_id":"KPB","time":9,"is_transit":true},{"transit":false,"is_transit":false,"distance":1444,"time":3,"i_lat":-6.14505,"station_name":"Rajawali","i_long":106.836569,"station_id":"RJW","line":11},{"i_long":106.839204,"time":5,"transit":false,"station_name":"Kemayoran","line":11,"station_id":"KMO","distance":1901,"is_transit":false,"i_lat":-6.161728},{"line":11,"station_id":"PSE","station_name":"Pasar Senen","i_lat":-6.174784,"distance":1436,"time":4,"is_transit":false,"transit":false,"i_long":106.84368},{"line":11,"is_transit":false,"time":8,"i_long":106.850107,"i_lat":-6.185975,"distance":1567,"station_name":"Gang Sentiong","station_id":"GST","transit":false}],[{"distance":0,"time":0,"station_name":"Cicayur","line":3,"station_id":"CC","i_long":106.617853,"is_transit":false,"transit":false,"i_lat":-6.329547},{"line":3,"station_name":"Cisauk","distance":2519,"is_transit":false,"time":4,"station_id":"CSK","transit":false,"i_lat":-6.32484,"i_long":106.640411},{"i_long":106.66566,"i_lat":-6.319871,"station_name":"Serpong","line":6,"distance":1784,"transit":false,"is_transit":false,"time":4,"station_id":"SRP"},{"station_name":"Rawa Buntu","transit":false,"time":4,"i_lat":-6.314823,"station_id":"RU","line":6,"is_transit":false,"i_long":106.675475,"distance":2413},{"i_long":106.712277,"time":6,"line":6,"station_name":"Sudimara","distance":4566,"i_lat":-6.296963,"transit":false,"is_transit":false,"station_id":"SDM"},{"station_name":"Jurangmangu","i_long":106.728916,"station_id":"JMU","i_lat":-6.288927,"line":6,"distance":1994,"time":4,"is_transit":false,"transit":false},{"station_name":"Pondokranji","station_id":"PDJ","i_lat":-6.276362,"line":6,"is_transit":false,"transit":false,"distance":2179,"time":3,"i_long":106.74273},{"line":6,"i_lat":-6.237242,"station_id":"KBY","station_name":"Kebayoran","distance":6218,"is_transit":false,"time":8,"i_long":106.780334,"transit":false},{"time":7,"i_lat":-6.207404,"i_long":106.79689,"station_id":"PLM","distance":3737,"is_transit":false,"transit":false,"station_name":"Palmerah","line":6},{"distance":3191,"line":1,"station_name":"Tanah Abang","time":6,"transit":true,"station_id":"THB","is_transit":true,"i_lat":-6.185545,"i_long":106.811091},{"transit":false,"station_name":"Karet","is_transit":false,"i_long":106.816351,"time":5,"i_lat":-6.20132,"line":1,"distance":2029,"station_id":"KAT"},{"i_lat":-6.201433,"station_id":"SUDB","transit":false,"distance":471,"time":1,"i_long":106.819881,"is_transit":false,"line":1,"station_name":"Sudirman Baru"},{"time":1,"i_long":106.822649,"station_id":"SUD","line":1,"transit":false,"station_name":"Sudirman","is_transit":false,"i_lat":-6.202263,"distance":280},{"transit":false,"is_transit":false,"station_name":"Manggarai","line":2,"station_id":"MRI","i_long":106.84912,"i_lat":-6.209883,"distance":3186,"time":4},{"i_lat":-6.212485,"i_long":106.858896,"transit":false,"station_id":"MTR","is_transit":false,"time":2,"distance":1275,"station_name":"Matraman","line":1},{"distance":1377,"station_id":"JNG","i_lat":-6.215091,"is_transit":true,"line":1,"i_long":106.86807400000001,"transit":true,"time":8,"station_name":"Jatinegara"},{"i_lat":-6.209188,"i_long":106.861737,"time":2,"station_id":"POK","station_name":"Pondok Jati","transit":false,"line":11,"distance":1236,"is_transit":false},{"station_id":"KMT","transit":false,"line":11,"distance":1829,"i_long":106.855437,"is_transit":false,"time":2,"station_name":"Kramat","i_lat":-6.193792},{"i_lat":-6.185975,"station_id":"GST","transit":false,"distance":973,"time":1,"i_long":106.850107,"line":11,"is_transit":false,"station_name":"Gang Sentiong"}],[{"distance":0,"transit":false,"time":0,"i_long":106.617853,"i_lat":-6.329547,"line":3,"station_name":"Cicayur","is_transit":false,"station_id":"CC"},{"transit":false,"i_long":106.640411,"line":3,"station_id":"CSK","is_transit":false,"time":4,"station_name":"Cisauk","i_lat":-6.32484,"distance":2519},{"distance":1784,"line":6,"i_long":106.66566,"is_transit":false,"time":4,"transit":false,"station_name":"Serpong","station_id":"SRP","i_lat":-6.319871},{"distance":2413,"is_transit":false,"transit":false,"i_lat":-6.314823,"time":4,"station_name":"Rawa Buntu","line":6,"i_long":106.675475,"station_id":"RU"},{"i_lat":-6.296963,"station_id":"SDM","transit":false,"time":6,"distance":4566,"station_name":"Sudimara","is_transit":false,"i_long":106.712277,"line":6},{"time":4,"i_long":106.728916,"station_id":"JMU","line":6,"distance":1994,"station_name":"Jurangmangu","is_transit":false,"transit":false,"i_lat":-6.288927},{"is_transit":false,"distance":2179,"transit":false,"i_lat":-6.276362,"station_name":"Pondokranji","station_id":"PDJ","line":6,"i_long":106.74273,"time":3},{"station_id":"KBY","transit":false,"i_lat":-6.237242,"i_long":106.780334,"line":6,"distance":6218,"time":8,"station_name":"Kebayoran","is_transit":false},{"station_id":"PLM","i_lat":-6.207404,"time":7,"transit":false,"is_transit":false,"station_name":"Palmerah","line":6,"distance":3737,"i_long":106.79689},{"is_transit":true,"time":6,"station_name":"Tanah Abang","line":1,"i_lat":-6.185545,"station_id":"THB","transit":true,"distance":3191,"i_long":106.811091},{"time":8,"station_id":"DU","i_lat":-6.155215,"line":1,"transit":false,"distance":3632,"is_transit":false,"station_name":"Duri","i_long":106.800832},{"distance":1230,"is_transit":false,"i_long":106.79867,"i_lat":-6.144674,"station_id":"AK","line":1,"time":4,"station_name":"Angke","transit":false},{"is_transit":true,"i_long":106.826365,"time":9,"distance":4102,"station_id":"KPB","i_lat":-6.132549,"transit":true,"station_name":"Kampung Bandan","line":4},{"station_id":"JAKK","i_long":106.812439,"time":3,"is_transit":true,"line":2,"distance":1364,"transit":true,"station_name":"Jakarta Kota","i_lat":-6.137569},{"distance":1264,"i_lat":-6.141205,"i_long":106.820901,"line":2,"time":4,"is_transit":false,"station_id":"JAY","station_name":"Jayakarta","transit":false},{"time":2,"line":2,"station_id":"MGB","distance":1080,"station_name":"Manggabesar","i_long":106.82482,"transit":false,"is_transit":false,"i_lat":-6.149769},{"time":2,"i_long":106.827103,"station_id":"SW","station_name":"Sawah Besar","i_lat":-6.160725,"distance":906,"line":2,"transit":false,"is_transit":false},{"station_name":"Juanda","i_long":106.828284,"station_id":"JUA","is_transit":false,"time":2,"line":2,"distance":1149,"transit":false,"i_lat":-6.166716},{"transit":false,"i_lat":-6.186295,"station_id":"GDD","distance":2015,"is_transit":false,"i_long":106.832183,"station_name":"Gondangdia","time":4,"line":2},{"transit":false,"station_id":"CKI","line":2,"is_transit":false,"i_long":106.840169,"i_lat":-6.198556,"distance":1750,"time":3,"station_name":"Cikini"},{"distance":1590,"i_long":106.84912,"i_lat":-6.209883,"station_id":"MRI","is_transit":true,"time":4,"line":2,"transit":true,"station_name":"Manggarai"},{"station_name":"Matraman","time":2,"i_lat":-6.212485,"i_long":106.858896,"distance":1275,"station_id":"MTR","is_transit":false,"line":1,"transit":false},{"i_lat":-6.215091,"line":1,"is_transit":true,"distance":1377,"time":8,"i_long":106.86807400000001,"station_id":"JNG","station_name":"Jatinegara","transit":true},{"station_name":"Pondok Jati","time":2,"i_lat":-6.209188,"i_long":106.861737,"transit":false,"line":11,"station_id":"POK","distance":1236,"is_transit":false},{"i_long":106.855437,"station_id":"KMT","line":11,"station_name":"Kramat","is_transit":false,"time":2,"distance":1829,"transit":false,"i_lat":-6.193792},{"i_long":106.850107,"line":11,"station_name":"Gang Sentiong","station_id":"GST","time":1,"i_lat":-6.185975,"distance":973,"is_transit":false,"transit":false}],[{"distance":0,"station_name":"Cicayur","i_long":106.617853,"transit":false,"time":0,"station_id":"CC","i_lat":-6.329547,"line":3,"is_transit":false},{"distance":2519,"is_transit":false,"station_name":"Cisauk","transit":false,"i_lat":-6.32484,"i_long":106.640411,"time":4,"station_id":"CSK","line":3},{"station_name":"Serpong","i_lat":-6.319871,"i_long":106.66566,"line":6,"transit":false,"time":4,"is_transit":false,"station_id":"SRP","distance":1784},{"distance":2413,"station_id":"RU","line":6,"i_long":106.675475,"transit":false,"i_lat":-6.314823,"is_transit":false,"time":4,"station_name":"Rawa Buntu"},{"distance":4566,"station_id":"SDM","station_name":"Sudimara","is_transit":false,"transit":false,"time":6,"i_long":106.712277,"line":6,"i_lat":-6.296963},{"station_id":"JMU","distance":1994,"station_name":"Jurangmangu","i_lat":-6.288927,"i_long":106.728916,"is_transit":false,"line":6,"transit":false,"time":4},{"line":6,"i_lat":-6.276362,"distance":2179,"time":3,"i_long":106.74273,"is_transit":false,"transit":false,"station_id":"PDJ","station_name":"Pondokranji"},{"i_long":106.780334,"i_lat":-6.237242,"time":8,"line":6,"station_name":"Kebayoran","distance":6218,"transit":false,"is_transit":false,"station_id":"KBY"},{"station_id":"PLM","line":6,"is_transit":false,"i_lat":-6.207404,"time":7,"distance":3737,"transit":false,"i_long":106.79689,"station_name":"Palmerah"},{"line":1,"station_id":"THB","time":6,"is_transit":true,"distance":3191,"station_name":"Tanah Abang","i_long":106.811091,"i_lat":-6.185545,"transit":true},{"i_long":106.816351,"station_id":"KAT","distance":2029,"i_lat":-6.20132,"station_name":"Karet","is_transit":false,"line":1,"transit":false,"time":5},{"time":1,"line":1,"i_long":106.819881,"station_name":"Sudirman Baru","is_transit":false,"i_lat":-6.201433,"distance":471,"station_id":"SUDB","transit":false},{"i_long":106.822649,"line":1,"distance":280,"station_id":"SUD","time":1,"station_name":"Sudirman","i_lat":-6.202263,"transit":false,"is_transit":false},{"i_lat":-6.209883,"line":2,"station_name":"Manggarai","station_id":"MRI","i_long":106.84912,"distance":3186,"transit":true,"is_transit":true,"time":4},{"line":2,"distance":1590,"time":4,"station_id":"CKI","i_lat":-6.198556,"transit":false,"i_long":106.840169,"is_transit":false,"station_name":"Cikini"},{"distance":1750,"is_transit":false,"station_name":"Gondangdia","line":2,"time":3,"i_lat":-6.186295,"station_id":"GDD","transit":false,"i_long":106.832183},{"is_transit":false,"time":4,"distance":2015,"station_id":"JUA","transit":false,"station_name":"Juanda","i_lat":-6.166716,"i_long":106.828284,"line":2},{"transit":false,"station_id":"SW","i_lat":-6.160725,"distance":1149,"station_name":"Sawah Besar","line":2,"is_transit":false,"i_long":106.827103,"time":2},{"distance":906,"i_long":106.82482,"line":2,"is_transit":false,"transit":false,"i_lat":-6.149769,"station_id":"MGB","station_name":"Manggabesar","time":2},{"time":2,"is_transit":false,"i_lat":-6.141205,"i_long":106.820901,"transit":false,"station_id":"JAY","station_name":"Jayakarta","distance":1080,"line":2},{"station_name":"Jakarta Kota","i_long":106.812439,"line":2,"i_lat":-6.137569,"transit":true,"station_id":"JAKK","is_transit":true,"distance":1264,"time":4},{"line":4,"distance":1364,"time":3,"is_transit":true,"transit":true,"station_id":"KPB","i_long":106.826365,"i_lat":-6.132549,"station_name":"Kampung Bandan"},{"transit":false,"distance":1444,"time":3,"i_lat":-6.14505,"line":11,"station_id":"RJW","is_transit":false,"i_long":106.836569,"station_name":"Rajawali"},{"i_long":106.839204,"station_id":"KMO","station_name":"Kemayoran","i_lat":-6.161728,"distance":1901,"is_transit":false,"transit":false,"time":5,"line":11},{"line":11,"time":4,"is_transit":false,"i_lat":-6.174784,"station_name":"Pasar Senen","station_id":"PSE","i_long":106.84368,"distance":1436,"transit":false},{"transit":false,"time":8,"station_name":"Gang Sentiong","i_lat":-6.185975,"line":11,"distance":1567,"i_long":106.850107,"station_id":"GST","is_transit":false}]]}