{"data":[[{"is_transit":false,"transit":false,"distance":0,"station_id":"CC","station_name":"Cicayur","i_long":106.617853,"line":0,"time":0,"i_lat":-6.329547},{"time":4,"transit":false,"line":0,"station_id":"CSK","i_lat":-6.32484,"i_long":106.640411,"station_name":"Cisauk","distance":2519,"is_transit":false},{"station_id":"SRP","station_name":"Serpong","i_long":106.66566,"time":4,"is_transit":false,"i_lat":-6.319871,"line":6,"transit":false,"distance":1784},{"station_id":"RU","time":4,"i_long":106.675475,"is_transit":false,"distance":2413,"station_name":"Rawa Buntu","line":6,"i_lat":-6.314823,"transit":false},{"i_lat":-6.296963,"line":6,"station_id":"SDM","time":6,"i_long":106.712277,"station_name":"Sudimara","distance":4566,"transit":false,"is_transit":false},{"line":6,"i_long":106.728916,"is_transit":false,"station_id":"JMU","transit":false,"station_name":"Jurangmangu","time":4,"distance":1994,"i_lat":-6.288927},{"i_long":106.74273,"transit":false,"station_id":"PDJ","i_lat":-6.276362,"line":6,"station_name":"Pondokranji","is_transit":false,"distance":2179,"time":3},{"time":8,"transit":false,"is_transit":false,"station_id":"KBY","line":6,"i_lat":-6.237242,"i_long":106.780334,"distance":6218,"station_name":"Kebayoran"},{"station_id":"PLM","i_lat":-6.207404,"transit":false,"i_long":106.79689,"time":7,"station_name":"Palmerah","line":6,"distance":3737,"is_transit":false},{"is_transit":true,"i_long":106.811091,"station_name":"Tanah Abang","distance":3191,"time":6,"line":1,"i_lat":-6.185545,"station_id":"THB","transit":true},{"transit":true,"station_name":"Duri","i_long":106.800832,"is_transit":true,"station_id":"DU","time":8,"i_lat":-6.155215,"line":1,"distance":3632},{"distance":1230,"line":0,"station_id":"AK","is_transit":false,"station_name":"Angke","i_long":106.79867,"time":4,"transit":false,"i_lat":-6.144674},{"i_lat":-6.132549,"time":9,"i_long":106.826365,"line":0,"station_name":"Kampung Bandan","distance":4102,"is_transit":true,"station_id":"KPB","transit":true},{"station_id":"RJW","i_long":106.836569,"distance":1444,"station_name":"Rajawali","i_lat":-6.14505,"transit":false,"time":3,"line":11,"is_transit":false},{"is_transit":false,"time":5,"i_long":106.839204,"line":11,"distance":1901,"station_id":"KMO","transit":false,"i_lat":-6.161728,"station_name":"Kemayoran"},{"transit":false,"station_name":"Pasar Senen","i_long":106.84368,"i_lat":-6.174784,"line":11,"is_transit":false,"time":4,"distance":1436,"station_id":"PSE"},{"time":8,"station_id":"GST","i_lat":-6.185975,"is_transit":false,"line":11,"transit":false,"station_name":"Gang Sentiong","distance":1567,"i_long":106.850107}],[{"line":0,"is_transit":false,"i_lat":-6.329547,"distance":0,"station_name":"Cicayur","transit":false,"station_id":"CC","i_long":106.617853,"time":0},{"line":0,"transit":false,"i_lat":-6.32484,"i_long":106.640411,"distance":2519,"station_id":"CSK","is_transit":false,"station_name":"Cisauk","time":4},{"station_name":"Serpong","time":4,"i_long":106.66566,"line":6,"transit":false,"station_id":"SRP","is_transit":false,"distance":1784,"i_lat":-6.319871},{"station_id":"RU","transit":false,"distance":2413,"i_long":106.675475,"is_transit":false,"station_name":"Rawa Buntu","i_lat":-6.314823,"time":4,"line":6},{"time":6,"is_transit":false,"i_long":106.712277,"distance":4566,"station_name":"Sudimara","i_lat":-6.296963,"line":6,"transit":false,"station_id":"SDM"},{"is_transit":false,"station_name":"Jurangmangu","transit":false,"time":4,"line":6,"distance":1994,"station_id":"JMU","i_lat":-6.288927,"i_long":106.728916},{"transit":false,"time":3,"is_transit":false,"line":6,"distance":2179,"station_id":"PDJ","i_lat":-6.276362,"i_long":106.74273,"station_name":"Pondokranji"},{"transit":false,"distance":6218,"station_name":"Kebayoran","is_transit":false,"time":8,"i_lat":-6.237242,"i_long":106.780334,"station_id":"KBY","line":6},{"time":7,"transit":false,"station_name":"Palmerah","i_lat":-6.207404,"station_id":"PLM","i_long":106.79689,"distance":3737,"is_transit":false,"line":6},{"is_transit":true,"i_long":106.811091,"station_name":"Tanah Abang","transit":true,"time":6,"distance":3191,"line":1,"station_id":"THB","i_lat":-6.185545},{"transit":false,"time":5,"line":1,"i_lat":-6.20132,"is_transit":false,"station_id":"KAT","i_long":106.816351,"station_name":"Karet","distance":2029},{"is_transit":false,"time":1,"i_lat":-6.201433,"line":1,"transit":false,"station_name":"Sudirman Baru","distance":471,"station_id":"SUDB","i_long":106.819881},{"transit":false,"station_id":"SUD","station_name":"Sudirman","line":1,"time":1,"is_transit":false,"i_lat":-6.202263,"distance":280,"i_long":106.822649},{"is_transit":true,"station_id":"MRI","i_long":106.84912,"line":0,"station_name":"Manggarai","distance":3186,"time":4,"transit":false,"i_lat":-6.209883},{"i_lat":-6.212485,"station_id":"MTR","line":1,"station_name":"Matraman","i_long":106.858896,"distance":1275,"time":2,"is_transit":false,"transit":false},{"station_name":"Jatinegara","i_lat":-6.215091,"time":8,"i_long":106.86807400000001,"line":0,"station_id":"JNG","transit":true,"distance":1377,"is_transit":true},{"i_long":106.861737,"is_transit":false,"line":11,"i_lat":-6.209188,"transit":false,"distance":1236,"time":2,"station_id":"POK","station_name":"Pondok Jati"},{"line":11,"is_transit":false,"station_id":"KMT","transit":false,"time":2,"station_name":"Kramat","i_lat":-6.193792,"i_long":106.855437,"distance":1829},{"i_lat":-6.185975,"station_id":"GST","is_transit":false,"station_name":"Gang Sentiong","distance":973,"line":11,"transit":false,"i_long":106.850107,"time":1}],[{"station_id":"CC","station_name":"Cicayur","i_lat":-6.329547,"is_transit":false,"i_long":106.617853,"line":0,"transit":false,"distance":0,"time":0},{"station_id":"CSK","distance":2519,"is_transit":false,"transit":false,"i_lat":-6.32484,"time":4,"line":0,"i_long":106.640411,"station_name":"Cisauk"},{"station_id":"SRP","i_long":106.66566,"is_transit":false,"station_name":"Serpong","distance":1784,"time":4,"i_lat":-6.319871,"transit":false,"line":6},{"i_lat":-6.314823,"line":6,"distance":2413,"station_id":"RU","is_transit":false,"time":4,"i_long":106.675475,"transit":false,"station_name":"Rawa Buntu"},{"i_long":106.712277,"line":6,"distance":4566,"transit":false,"i_lat":-6.296963,"time":6,"is_transit":false,"station_name":"Sudimara","station_id":"SDM"},{"i_long":106.728916,"station_id":"JMU","time":4,"line":6,"station_name":"Jurangmangu","distance":1994,"transit":false,"is_transit":false,"i_lat":-6.288927},{"station_name":"Pondokranji","is_transit":false,"i_lat":-6.276362,"i_long":106.74273,"station_id":"PDJ","transit":false,"distance":2179,"time":3,"line":6},{"i_long":106.780334,"i_lat":-6.237242,"station_id":"KBY","station_name":"Kebayoran","time":8,"transit":false,"distance":6218,"is_transit":false,"line":6},{"time":7,"station_id":"PLM","station_name":"Palmerah","transit":false,"line":6,"is_transit":false,"i_long":106.79689,"i_lat":-6.207404,"distance":3737},{"station_name":"Tanah Abang","transit":true,"station_id":"THB","i_lat":-6.185545,"distance":3191,"is_transit":true,"i_long":106.811091,"line":1,"time":6},{"station_id":"DU","line":1,"time":8,"station_name":"Duri","i_lat":-6.155215,"is_transit":true,"distance":3632,"transit":true,"i_long":106.800832},{"station_name":"Angke","i_long":106.79867,"i_lat":-6.144674,"is_transit":false,"transit":false,"distance":1230,"station_id":"AK","time":4,"line":0},{"station_name":"Kampung Bandan","distance":4102,"i_long":106.826365,"time":9,"station_id":"KPB","transit":false,"line":0,"is_transit":true,"i_lat":-6.132549},{"line":0,"is_transit":true,"station_id":"JAKK","distance":1364,"transit":true,"time":3,"i_lat":-6.137569,"station_name":"Jakarta Kota","i_long":106.812439},{"station_id":"JAY","transit":false,"i_lat":-6.141205,"i_long":106.820901,"time":4,"distance":1264,"station_name":"Jayakarta","is_transit":false,"line":7},{"i_long":106.82482,"line":2,"time":2,"station_id":"MGB","i_lat":-6.149769,"transit":false,"station_name":"Manggabesar","is_transit":false,"distance":1080},{"time":2,"line":2,"is_transit":false,"i_lat":-6.160725,"station_name":"Sawah Besar","distance":906,"station_id":"SW","i_long":106.827103,"transit":false},{"distance":1149,"is_transit":false,"time":2,"line":2,"station_id":"JUA","transit":false,"i_lat":-6.166716,"i_long":106.828284,"station_name":"Juanda"},{"is_transit":false,"distance":2015,"transit":false,"i_lat":-6.186295,"station_name":"Gondangdia","station_id":"GDD","line":2,"i_long":106.832183,"time":4},{"i_lat":-6.198556,"time":3,"distance":1750,"i_long":106.840169,"line":0,"station_id":"CKI","station_name":"Cikini","transit":false,"is_transit":false},{"station_name":"Manggarai","distance":1590,"time":4,"station_id":"MRI","i_lat":-6.209883,"transit":true,"i_long":106.84912,"is_transit":true,"line":0},{"station_id":"MTR","station_name":"Matraman","transit":false,"is_transit":false,"time":2,"i_long":106.858896,"line":1,"i_lat":-6.212485,"distance":1275},{"is_transit":true,"i_long":106.86807400000001,"station_name":"Jatinegara","i_lat":-6.215091,"line":0,"station_id":"JNG","time":8,"distance":1377,"transit":true},{"time":2,"transit":false,"i_long":106.861737,"line":11,"i_lat":-6.209188,"station_id":"POK","is_transit":false,"distance":1236,"station_name":"Pondok Jati"},{"transit":false,"station_id":"KMT","station_name":"Kramat","distance":1829,"is_transit":false,"time":2,"i_long":106.855437,"line":11,"i_lat":-6.193792},{"is_transit":false,"station_name":"Gang Sentiong","distance":973,"i_lat":-6.185975,"line":11,"i_long":106.850107,"transit":false,"time":1,"station_id":"GST"}],[{"is_transit":false,"station_name":"Cicayur","distance":0,"line":0,"transit":false,"time":0,"station_id":"CC","i_lat":-6.329547,"i_long":106.617853},{"i_lat":-6.32484,"time":4,"is_transit":false,"transit":false,"i_long":106.640411,"line":0,"station_name":"Cisauk","distance":2519,"station_id":"CSK"},{"i_long":106.66566,"transit":false,"station_id":"SRP","station_name":"Serpong","time":4,"distance":1784,"is_transit":false,"line":6,"i_lat":-6.319871},{"station_name":"Rawa Buntu","i_lat":-6.314823,"line":6,"is_transit":false,"i_long":106.675475,"distance":2413,"station_id":"RU","transit":false,"time":4},{"time":6,"transit":false,"i_long":106.712277,"station_name":"Sudimara","station_id":"SDM","i_lat":-6.296963,"distance":4566,"is_transit":false,"line":6},{"i_long":106.728916,"line":6,"distance":1994,"time":4,"station_id":"JMU","transit":false,"i_lat":-6.288927,"station_name":"Jurangmangu","is_transit":false},{"station_name":"Pondokranji","transit":false,"time":3,"distance":2179,"station_id":"PDJ","line":6,"i_long":106.74273,"is_transit":false,"i_lat":-6.276362},{"is_transit":false,"transit":false,"distance":6218,"i_long":106.780334,"station_id":"KBY","line":6,"i_lat":-6.237242,"time":8,"station_name":"Kebayoran"},{"distance":3737,"transit":false,"station_id":"PLM","line":6,"station_name":"Palmerah","i_lat":-6.207404,"i_long":106.79689,"time":7,"is_transit":false},{"time":6,"line":1,"distance":3191,"i_long":106.811091,"is_transit":true,"station_id":"THB","i_lat":-6.185545,"transit":true,"station_name":"Tanah Abang"},{"is_transit":false,"i_lat":-6.20132,"transit":false,"i_long":106.816351,"line":1,"station_id":"KAT","station_name":"Karet","time":5,"distance":2029},{"transit":false,"time":1,"station_id":"SUDB","is_transit":false,"distance":471,"station_name":"Sudirman Baru","i_lat":-6.201433,"i_long":106.819881,"line":1},{"i_long":106.822649,"line":1,"i_lat":-6.202263,"transit":false,"distance":280,"is_transit":false,"time":1,"station_id":"SUD","station_name":"Sudirman"},{"line":0,"transit":true,"distance":3186,"time":4,"i_long":106.84912,"station_id":"MRI","station_name":"Manggarai","is_transit":true,"i_lat":-6.209883},{"time":4,"i_lat":-6.198556,"line":0,"distance":1590,"station_id":"CKI","station_name":"Cikini","i_long":106.840169,"transit":false,"is_transit":false},{"station_name":"Gondangdia","is_transit":false,"i_long":106.832183,"transit":false,"time":3,"distance":1750,"station_id":"GDD","i_lat":-6.186295,"line":2},{"transit":false,"station_id":"JUA","station_name":"Juanda","line":2,"i_lat":-6.166716,"i_long":106.828284,"time":4,"is_transit":false,"distance":2015},{"station_id":"SW","distance":1149,"i_long":106.827103,"i_lat":-6.160725,"line":2,"station_name":"Sawah Besar","transit":false,"time":2,"is_transit":false},{"station_id":"MGB","is_transit":false,"i_long":106.82482,"line":2,"distance":906,"i_lat":-6.149769,"station_name":"Manggabesar","transit":false,"time":2},{"station_id":"JAY","distance":1080,"is_transit":false,"line":7,"transit":false,"station_name":"Jayakarta","time":2,"i_long":106.820901,"i_lat":-6.141205},{"i_long":106.812439,"is_transit":true,"distance":1264,"i_lat":-6.137569,"time":4,"transit":true,"line":0,"station_name":"Jakarta Kota","station_id":"JAKK"},{"transit":true,"is_transit":true,"distance":1364,"station_name":"Kampung Bandan","time":3,"i_lat":-6.132549,"line":0,"station_id":"KPB","i_long":106.826365},{"transit":false,"distance":1444,"station_name":"Rajawali","i_long":106.836569,"station_id":"RJW","is_transit":false,"time":3,"i_lat":-6.14505,"line":11},{"transit":false,"is_transit":false,"line":11,"station_id":"KMO","i_lat":-6.161728,"i_long":106.839204,"distance":1901,"station_name":"Kemayoran","time":5},{"is_transit":false,"line":11,"time":4,"station_id":"PSE","transit":false,"i_lat":-6.174784,"distance":1436,"i_long":106.84368,"station_name":"Pasar Senen"},{"station_name":"Gang Sentiong","i_long":106.850107,"time":8,"distance":1567,"station_id":"GST","line":11,"transit":false,"i_lat":-6.185975,"is_transit":false}]]}