{"data":[[{"time":0,"transit":false,"is_transit":false,"distance":0,"line":3,"i_lat":-6.329547,"station_id":"CC","station_name":"Cicayur","i_long":106.617853},{"i_long":106.640411,"is_transit":false,"distance":2519,"station_id":"CSK","time":4,"station_name":"Cisauk","i_lat":-6.32484,"line":3,"transit":false},{"is_transit":false,"distance":1784,"line":6,"station_id":"SRP","transit":false,"i_long":106.66566,"station_name":"Serpong","time":4,"i_lat":-6.319871},{"transit":false,"line":6,"is_transit":false,"i_lat":-6.314823,"time":4,"station_id":"RU","station_name":"Rawa Buntu","distance":2413,"i_long":106.675475},{"distance":4566,"line":6,"is_transit":false,"time":6,"station_name":"Sudimara","station_id":"SDM","i_long":106.712277,"i_lat":-6.296963,"transit":false},{"station_id":"JMU","i_lat":-6.288927,"time":4,"distance":1994,"line":6,"station_name":"Jurangmangu","transit":false,"i_long":106.728916,"is_transit":false},{"transit":false,"station_name":"Pondokranji","distance":2179,"is_transit":false,"i_long":106.74273,"line":6,"i_lat":-6.276362,"time":3,"station_id":"PDJ"},{"i_long":106.780334,"station_name":"Kebayoran","is_transit":false,"station_id":"KBY","distance":6218,"transit":false,"i_lat":-6.237242,"line":6,"time":8},{"line":6,"station_id":"PLM","station_name":"Palmerah","distance":3737,"i_long":106.79689,"is_transit":false,"transit":false,"time":7,"i_lat":-6.207404},{"station_id":"THB","transit":true,"i_long":106.811091,"time":6,"i_lat":-6.185545,"line":1,"station_name":"Tanah Abang","is_transit":true,"distance":3191},{"station_name":"Duri","transit":false,"i_long":106.800832,"line":1,"is_transit":false,"distance":3632,"station_id":"DU","time":8,"i_lat":-6.155215},{"transit":false,"i_long":106.79867,"station_id":"AK","station_name":"Angke","time":4,"is_transit":false,"line":1,"distance":1230,"i_lat":-6.144674},{"is_transit":true,"distance":4102,"i_lat":-6.132549,"station_name":"Kampung Bandan","transit":true,"time":9,"station_id":"KPB","i_long":106.826365,"line":4},{"i_long":106.836569,"station_id":"RJW","i_lat":-6.14505,"station_name":"Rajawali","distance":1444,"time":3,"is_transit":false,"transit":false,"line":11},{"time":5,"is_transit":false,"i_long":106.839204,"line":11,"transit":false,"i_lat":-6.161728,"station_name":"Kemayoran","distance":1901,"station_id":"KMO"},{"line":11,"i_long":106.84368,"distance":1436,"time":4,"transit":false,"is_transit":false,"station_id":"PSE","station_name":"Pasar Senen","i_lat":-6.174784},{"is_transit":false,"station_name":"Gang Sentiong","i_long":106.850107,"i_lat":-6.185975,"time":8,"transit":false,"line":11,"distance":1567,"station_id":"GST"}],[{"station_id":"CC","i_lat":-6.329547,"time":0,"station_name":"Cicayur","transit":false,"distance":0,"line":3,"i_long":106.617853,"is_transit":false},{"station_id":"CSK","time":4,"is_transit":false,"i_lat":-6.32484,"station_name":"Cisauk","distance":2519,"i_long":106.640411,"line":3,"transit":false},{"time":4,"station_id":"SRP","station_name":"Serpong","distance":1784,"i_lat":-6.319871,"is_transit":false,"i_long":106.66566,"transit":false,"line":6},{"transit":false,"station_id":"RU","is_transit":false,"station_name":"Rawa Buntu","line":6,"time":4,"distance":2413,"i_lat":-6.314823,"i_long":106.675475},{"station_name":"Sudimara","station_id":"SDM","transit":false,"is_transit":false,"i_lat":-6.296963,"line":6,"time":6,"i_long":106.712277,"distance":4566},{"distance":1994,"is_transit":false,"station_id":"JMU","transit":false,"time":4,"station_name":"Jurangmangu","line":6,"i_long":106.728916,"i_lat":-6.288927},{"i_lat":-6.276362,"is_transit":false,"station_name":"Pondokranji","i_long":106.74273,"transit":false,"station_id":"PDJ","line":6,"distance":2179,"time":3},{"time":8,"distance":6218,"station_name":"Kebayoran","is_transit":false,"station_id":"KBY","i_lat":-6.237242,"line":6,"transit":false,"i_long":106.780334},{"station_name":"Palmerah","distance":3737,"line":6,"time":7,"i_long":106.79689,"station_id":"PLM","is_transit":false,"i_lat":-6.207404,"transit":false},{"station_id":"THB","is_transit":true,"time":6,"i_lat":-6.185545,"station_name":"Tanah Abang","transit":true,"distance":3191,"i_long":106.811091,"line":1},{"distance":2029,"transit":false,"is_transit":false,"i_long":106.816351,"line":1,"station_name":"Karet","time":5,"station_id":"KAT","i_lat":-6.20132},{"station_id":"SUDB","i_long":106.819881,"is_transit":false,"i_lat":-6.201433,"transit":false,"time":1,"station_name":"Sudirman Baru","distance":471,"line":1},{"i_long":106.822649,"station_name":"Sudirman","is_transit":false,"time":1,"transit":false,"station_id":"SUD","i_lat":-6.202263,"line":1,"distance":280},{"time":4,"station_name":"Manggarai","distance":3186,"i_lat":-6.209883,"line":2,"i_long":106.84912,"transit":false,"station_id":"MRI","is_transit":false},{"time":2,"distance":1275,"transit":false,"i_long":106.858896,"line":1,"station_name":"Matraman","i_lat":-6.212485,"station_id":"MTR","is_transit":false},{"line":1,"station_name":"Jatinegara","i_lat":-6.215091,"time":8,"i_long":106.86807400000001,"is_transit":true,"distance":1377,"station_id":"JNG","transit":true},{"station_name":"Pondok Jati","i_long":106.861737,"is_transit":false,"time":2,"station_id":"POK","i_lat":-6.209188,"transit":false,"distance":1236,"line":11},{"line":11,"station_id":"KMT","i_lat":-6.193792,"station_name":"Kramat","transit":false,"is_transit":false,"time":2,"distance":1829,"i_long":106.855437},{"distance":973,"time":1,"station_id":"GST","i_lat":-6.185975,"i_long":106.850107,"line":11,"is_transit":false,"station_name":"Gang Sentiong","transit":false}],[{"station_name":"Cicayur","station_id":"CC","is_transit":false,"transit":false,"line":3,"time":0,"distance":0,"i_long":106.617853,"i_lat":-6.329547},{"time":4,"transit":false,"distance":2519,"station_name":"Cisauk","is_transit":false,"i_lat":-6.32484,"i_long":106.640411,"station_id":"CSK","line":3},{"i_lat":-6.319871,"is_transit":false,"time":4,"station_name":"Serpong","i_long":106.66566,"transit":false,"distance":1784,"line":6,"station_id":"SRP"},{"distance":2413,"is_transit":false,"i_long":106.675475,"transit":false,"station_id":"RU","time":4,"station_name":"Rawa Buntu","i_lat":-6.314823,"line":6},{"is_transit":false,"station_name":"Sudimara","time":6,"transit":false,"station_id":"SDM","distance":4566,"i_long":106.712277,"line":6,"i_lat":-6.296963},{"station_id":"JMU","i_lat":-6.288927,"transit":false,"line":6,"distance":1994,"time":4,"is_transit":false,"station_name":"Jurangmangu","i_long":106.728916},{"is_transit":false,"station_id":"PDJ","line":6,"transit":false,"i_lat":-6.276362,"station_name":"Pondokranji","distance":2179,"time":3,"i_long":106.74273},{"station_name":"Kebayoran","transit":false,"i_lat":-6.237242,"i_long":106.780334,"line":6,"time":8,"is_transit":false,"station_id":"KBY","distance":6218},{"transit":false,"line":6,"station_name":"Palmerah","time":7,"i_lat":-6.207404,"i_long":106.79689,"station_id":"PLM","is_transit":false,"distance":3737},{"time":6,"station_id":"THB","i_lat":-6.185545,"i_long":106.811091,"distance":3191,"line":1,"station_name":"Tanah Abang","is_transit":true,"transit":true},{"is_transit":false,"station_name":"Duri","i_long":106.800832,"line":1,"station_id":"DU","distance":3632,"i_lat":-6.155215,"time":8,"transit":false},{"is_transit":false,"station_name":"Angke","distance":1230,"i_long":106.79867,"time":4,"i_lat":-6.144674,"line":1,"station_id":"AK","transit":false},{"line":4,"i_lat":-6.132549,"station_id":"KPB","i_long":106.826365,"time":9,"transit":true,"station_name":"Kampung Bandan","distance":4102,"is_transit":true},{"time":3,"is_transit":true,"station_id":"JAKK","line":2,"station_name":"Jakarta Kota","i_long":106.812439,"transit":true,"i_lat":-6.137569,"distance":1364},{"i_long":106.820901,"distance":1264,"station_name":"Jayakarta","i_lat":-6.141205,"line":2,"is_transit":false,"station_id":"JAY","time":4,"transit":false},{"i_long":106.82482,"line":2,"station_name":"Manggabesar","distance":1080,"is_transit":false,"transit":false,"i_lat":-6.149769,"time":2,"station_id":"MGB"},{"station_name":"Sawah Besar","i_long":106.827103,"line":2,"is_transit":false,"i_lat":-6.160725,"distance":906,"time":2,"transit":false,"station_id":"SW"},{"distance":1149,"station_id":"JUA","i_lat":-6.166716,"station_name":"Juanda","is_transit":false,"i_long":106.828284,"line":2,"transit":false,"time":2},{"distance":2015,"i_lat":-6.186295,"station_id":"GDD","transit":false,"is_transit":false,"line":2,"station_name":"Gondangdia","i_long":106.832183,"time":4},{"station_name":"Cikini","i_long":106.840169,"transit":false,"time":3,"line":2,"is_transit":false,"station_id":"CKI","distance":1750,"i_lat":-6.198556},{"station_name":"Manggarai","i_long":106.84912,"line":2,"station_id":"MRI","is_transit":true,"i_lat":-6.209883,"distance":1590,"transit":true,"time":4},{"distance":1275,"time":2,"is_transit":false,"transit":false,"station_name":"Matraman","i_lat":-6.212485,"line":1,"i_long":106.858896,"station_id":"MTR"},{"i_long":106.86807400000001,"i_lat":-6.215091,"line":1,"is_transit":true,"transit":true,"distance":1377,"station_name":"Jatinegara","station_id":"JNG","time":8},{"is_transit":false,"time":2,"station_name":"Pondok Jati","station_id":"POK","i_lat":-6.209188,"i_long":106.861737,"line":11,"transit":false,"distance":1236},{"i_lat":-6.193792,"transit":false,"station_id":"KMT","line":11,"is_transit":false,"time":2,"station_name":"Kramat","i_long":106.855437,"distance":1829},{"station_name":"Gang Sentiong","i_lat":-6.185975,"i_long":106.850107,"transit":false,"distance":973,"station_id":"GST","time":1,"line":11,"is_transit":false}],[{"station_id":"CC","station_name":"Cicayur","transit":false,"is_transit":false,"i_lat":-6.329547,"line":3,"time":0,"distance":0,"i_long":106.617853},{"transit":false,"time":4,"distance":2519,"i_long":106.640411,"line":3,"i_lat":-6.32484,"is_transit":false,"station_name":"Cisauk","station_id":"CSK"},{"transit":false,"i_lat":-6.319871,"time":4,"is_transit":false,"station_name":"Serpong","station_id":"SRP","line":6,"i_long":106.66566,"distance":1784},{"station_name":"Rawa Buntu","station_id":"RU","distance":2413,"i_lat":-6.314823,"transit":false,"i_long":106.675475,"line":6,"time":4,"is_transit":false},{"is_transit":false,"station_name":"Sudimara","time":6,"i_lat":-6.296963,"transit":false,"station_id":"SDM","distance":4566,"i_long":106.712277,"line":6},{"distance":1994,"i_long":106.728916,"time":4,"station_id":"JMU","transit":false,"i_lat":-6.288927,"is_transit":false,"station_name":"Jurangmangu","line":6},{"time":3,"station_name":"Pondokranji","distance":2179,"line":6,"station_id":"PDJ","is_transit":false,"i_lat":-6.276362,"i_long":106.74273,"transit":false},{"line":6,"time":8,"is_transit":false,"i_lat":-6.237242,"i_long":106.780334,"transit":false,"distance":6218,"station_name":"Kebayoran","station_id":"KBY"},{"station_id":"PLM","i_lat":-6.207404,"distance":3737,"time":7,"i_long":106.79689,"station_name":"Palmerah","line":6,"transit":false,"is_transit":false},{"is_transit":true,"time":6,"i_long":106.811091,"transit":true,"distance":3191,"station_id":"THB","station_name":"Tanah Abang","line":1,"i_lat":-6.185545},{"transit":false,"time":5,"distance":2029,"station_name":"Karet","station_id":"KAT","line":1,"i_lat":-6.20132,"is_transit":false,"i_long":106.816351},{"i_long":106.819881,"station_id":"SUDB","transit":false,"line":1,"station_name":"Sudirman Baru","is_transit":false,"i_lat":-6.201433,"time":1,"distance":471},{"is_transit":false,"transit":false,"i_lat":-6.202263,"distance":280,"station_name":"Sudirman","i_long":106.822649,"line":1,"time":1,"station_id":"SUD"},{"station_id":"MRI","transit":true,"time":4,"i_long":106.84912,"station_name":"Manggarai","i_lat":-6.209883,"distance":3186,"is_transit":true,"line":2},{"is_transit":false,"i_lat":-6.198556,"i_long":106.840169,"transit":false,"station_name":"Cikini","line":2,"time":4,"distance":1590,"station_id":"CKI"},{"station_name":"Gondangdia","distance":1750,"is_transit":false,"station_id":"GDD","i_long":106.832183,"i_lat":-6.186295,"line":2,"time":3,"transit":false},{"distance":2015,"i_long":106.828284,"i_lat":-6.166716,"station_name":"Juanda","station_id":"JUA","line":2,"time":4,"transit":false,"is_transit":false},{"time":2,"transit":false,"distance":1149,"is_transit":false,"station_id":"SW","i_long":106.827103,"line":2,"station_name":"Sawah Besar","i_lat":-6.160725},{"distance":906,"i_lat":-6.149769,"line":2,"transit":false,"time":2,"i_long":106.82482,"is_transit":false,"station_name":"Manggabesar","station_id":"MGB"},{"is_transit":false,"station_id":"JAY","i_lat":-6.141205,"i_long":106.820901,"station_name":"Jayakarta","distance":1080,"line":2,"transit":false,"time":2},{"station_name":"Jakarta Kota","i_long":106.812439,"distance":1264,"line":2,"is_transit":true,"station_id":"JAKK","transit":true,"i_lat":-6.137569,"time":4},{"station_id":"KPB","station_name":"Kampung Bandan","distance":1364,"i_lat":-6.132549,"line":4,"transit":true,"is_transit":true,"time":3,"i_long":106.826365},{"station_name":"Rajawali","is_transit":false,"distance":1444,"station_id":"RJW","time":3,"i_lat":-6.14505,"line":11,"i_long":106.836569,"transit":false},{"distance":1901,"line":11,"time":5,"station_id":"KMO","is_transit":false,"station_name":"Kemayoran","i_long":106.839204,"i_lat":-6.161728,"transit":false},{"transit":false,"line":11,"is_transit":false,"station_name":"Pasar Senen","station_id":"PSE","distance":1436,"time":4,"i_lat":-6.174784,"i_long":106.84368},{"i_long":106.850107,"line":11,"station_name":"Gang Sentiong","distance":1567,"time":8,"transit":false,"is_transit":false,"station_id":"GST","i_lat":-6.185975}]]}