{"data":[[{"i_long":106.617853,"is_transit":false,"time":0,"station_id":"CC","distance":0,"station_name":"Cicayur","i_lat":-6.329547,"line":0,"transit":false},{"station_id":"CSK","station_name":"Cisauk","transit":false,"distance":2519,"i_long":106.640411,"line":0,"is_transit":false,"time":4,"i_lat":-6.32484},{"i_lat":-6.319871,"i_long":106.66566,"station_id":"SRP","distance":1784,"line":6,"is_transit":false,"time":4,"transit":false,"station_name":"Serpong"},{"station_id":"RU","distance":2413,"station_name":"Rawa Buntu","transit":false,"time":4,"i_lat":-6.314823,"i_long":106.675475,"is_transit":false,"line":6},{"distance":4566,"is_transit":false,"time":6,"station_name":"Sudimara","i_long":106.712277,"line":6,"i_lat":-6.296963,"transit":false,"station_id":"SDM"},{"transit":false,"i_long":106.728916,"distance":1994,"station_name":"Jurangmangu","line":6,"time":4,"i_lat":-6.288927,"station_id":"JMU","is_transit":false},{"station_id":"PDJ","station_name":"Pondokranji","time":3,"distance":2179,"transit":false,"is_transit":false,"i_long":106.74273,"line":6,"i_lat":-6.276362},{"line":6,"distance":6218,"station_name":"Kebayoran","station_id":"KBY","is_transit":false,"time":8,"transit":false,"i_lat":-6.237242,"i_long":106.780334},{"is_transit":false,"i_lat":-6.207404,"distance":3737,"line":6,"i_long":106.79689,"station_id":"PLM","time":7,"station_name":"Palmerah","transit":false},{"line":1,"time":6,"distance":3191,"station_id":"THB","is_transit":true,"transit":true,"i_lat":-6.185545,"i_long":106.811091,"station_name":"Tanah Abang"},{"transit":false,"station_id":"KAT","is_transit":false,"time":5,"distance":2029,"i_long":106.816351,"station_name":"Karet","i_lat":-6.20132,"line":1},{"is_transit":false,"time":1,"transit":false,"line":1,"distance":471,"station_id":"SUDB","i_lat":-6.201433,"i_long":106.819881,"station_name":"Sudirman Baru"},{"is_transit":false,"distance":280,"station_name":"Sudirman","transit":false,"i_lat":-6.202263,"i_long":106.822649,"station_id":"SUD","line":1,"time":1},{"i_lat":-6.209883,"station_id":"MRI","transit":true,"i_long":106.84912,"is_transit":true,"line":0,"station_name":"Manggarai","time":4,"distance":3186},{"line":0,"is_transit":false,"station_id":"CKI","distance":1590,"time":4,"i_lat":-6.198556,"transit":false,"station_name":"Cikini","i_long":106.840169},{"i_lat":-6.186295,"is_transit":false,"station_id":"GDD","station_name":"Gondangdia","i_long":106.832183,"line":2,"time":3,"transit":false,"distance":1750}],[{"station_id":"CC","time":0,"is_transit":false,"i_lat":-6.329547,"station_name":"Cicayur","line":0,"transit":false,"i_long":106.617853,"distance":0},{"transit":false,"i_long":106.640411,"time":4,"station_id":"CSK","distance":2519,"station_name":"Cisauk","i_lat":-6.32484,"is_transit":false,"line":0},{"is_transit":false,"i_long":106.66566,"station_name":"Serpong","station_id":"SRP","time":4,"i_lat":-6.319871,"distance":1784,"line":6,"transit":false},{"i_long":106.675475,"is_transit":false,"line":6,"time":4,"station_id":"RU","transit":false,"station_name":"Rawa Buntu","distance":2413,"i_lat":-6.314823},{"station_name":"Sudimara","transit":false,"is_transit":false,"i_long":106.712277,"time":6,"station_id":"SDM","line":6,"i_lat":-6.296963,"distance":4566},{"i_lat":-6.288927,"time":4,"line":6,"station_id":"JMU","is_transit":false,"distance":1994,"transit":false,"i_long":106.728916,"station_name":"Jurangmangu"},{"distance":2179,"line":6,"i_lat":-6.276362,"is_transit":false,"i_long":106.74273,"station_id":"PDJ","time":3,"station_name":"Pondokranji","transit":false},{"line":6,"station_id":"KBY","i_long":106.780334,"distance":6218,"station_name":"Kebayoran","time":8,"is_transit":false,"transit":false,"i_lat":-6.237242},{"line":6,"i_long":106.79689,"distance":3737,"time":7,"station_name":"Palmerah","transit":false,"station_id":"PLM","is_transit":false,"i_lat":-6.207404},{"distance":3191,"station_id":"THB","i_long":106.811091,"is_transit":true,"station_name":"Tanah Abang","transit":true,"time":6,"line":1,"i_lat":-6.185545},{"time":8,"is_transit":true,"line":1,"i_long":106.800832,"transit":true,"station_id":"DU","distance":3632,"station_name":"Duri","i_lat":-6.155215},{"distance":1230,"i_long":106.79867,"i_lat":-6.144674,"line":0,"time":4,"station_id":"AK","is_transit":false,"station_name":"Angke","transit":false},{"i_lat":-6.132549,"station_name":"Kampung Bandan","i_long":106.826365,"station_id":"KPB","is_transit":true,"time":9,"transit":false,"distance":4102,"line":0},{"is_transit":true,"distance":1364,"i_lat":-6.137569,"transit":true,"station_name":"Jakarta Kota","time":3,"line":0,"i_long":106.812439,"station_id":"JAKK"},{"time":4,"i_lat":-6.141205,"i_long":106.820901,"line":7,"distance":1264,"station_name":"Jayakarta","transit":false,"is_transit":false,"station_id":"JAY"},{"time":2,"distance":1080,"station_name":"Manggabesar","is_transit":false,"line":2,"transit":false,"i_lat":-6.149769,"i_long":106.82482,"station_id":"MGB"},{"line":2,"i_long":106.827103,"transit":false,"distance":906,"i_lat":-6.160725,"station_id":"SW","time":2,"station_name":"Sawah Besar","is_transit":false},{"i_lat":-6.166716,"line":2,"i_long":106.828284,"time":2,"station_name":"Juanda","transit":false,"distance":1149,"station_id":"JUA","is_transit":false},{"is_transit":false,"distance":2015,"line":2,"transit":false,"station_name":"Gondangdia","i_long":106.832183,"time":4,"station_id":"GDD","i_lat":-6.186295}],[{"i_lat":-6.329547,"line":0,"i_long":106.617853,"station_name":"Cicayur","station_id":"CC","distance":0,"is_transit":false,"transit":false,"time":0},{"distance":2519,"is_transit":false,"station_id":"CSK","transit":false,"station_name":"Cisauk","i_lat":-6.32484,"time":4,"line":0,"i_long":106.640411},{"time":4,"transit":false,"distance":1784,"line":6,"i_lat":-6.319871,"i_long":106.66566,"station_name":"Serpong","is_transit":false,"station_id":"SRP"},{"station_name":"Rawa Buntu","transit":false,"distance":2413,"time":4,"i_long":106.675475,"station_id":"RU","line":6,"is_transit":false,"i_lat":-6.314823},{"distance":4566,"time":6,"station_id":"SDM","is_transit":false,"station_name":"Sudimara","transit":false,"i_lat":-6.296963,"i_long":106.712277,"line":6},{"distance":1994,"station_id":"JMU","is_transit":false,"time":4,"transit":false,"i_lat":-6.288927,"station_name":"Jurangmangu","line":6,"i_long":106.728916},{"station_name":"Pondokranji","i_long":106.74273,"line":6,"station_id":"PDJ","is_transit":false,"transit":false,"distance":2179,"i_lat":-6.276362,"time":3},{"is_transit":false,"i_long":106.780334,"time":8,"line":6,"transit":false,"station_id":"KBY","distance":6218,"station_name":"Kebayoran","i_lat":-6.237242},{"line":6,"i_lat":-6.207404,"is_transit":false,"transit":false,"distance":3737,"time":7,"i_long":106.79689,"station_id":"PLM","station_name":"Palmerah"},{"is_transit":true,"distance":3191,"transit":true,"time":6,"station_name":"Tanah Abang","i_lat":-6.185545,"station_id":"THB","i_long":106.811091,"line":1},{"distance":3632,"station_name":"Duri","i_lat":-6.155215,"line":1,"i_long":106.800832,"transit":true,"station_id":"DU","time":8,"is_transit":true},{"line":0,"transit":false,"i_long":106.79867,"time":4,"is_transit":false,"i_lat":-6.144674,"station_name":"Angke","station_id":"AK","distance":1230},{"station_id":"KPB","distance":4102,"is_transit":true,"time":9,"line":0,"i_long":106.826365,"station_name":"Kampung Bandan","transit":true,"i_lat":-6.132549},{"i_lat":-6.14505,"distance":1444,"transit":false,"is_transit":false,"time":3,"station_name":"Rajawali","line":11,"i_long":106.836569,"station_id":"RJW"},{"i_long":106.839204,"time":5,"line":11,"is_transit":false,"i_lat":-6.161728,"station_name":"Kemayoran","station_id":"KMO","transit":false,"distance":1901},{"time":4,"i_lat":-6.174784,"station_id":"PSE","is_transit":false,"line":11,"station_name":"Pasar Senen","i_long":106.84368,"transit":false,"distance":1436},{"distance":1567,"transit":false,"station_id":"GST","station_name":"Gang Sentiong","i_lat":-6.185975,"i_long":106.850107,"time":8,"line":11,"is_transit":false},{"i_lat":-6.193792,"time":1,"distance":973,"i_long":106.855437,"station_id":"KMT","station_name":"Kramat","is_transit":false,"transit":false,"line":11},{"time":2,"i_lat":-6.209188,"distance":1829,"is_transit":false,"station_name":"Pondok Jati","line":11,"transit":false,"station_id":"POK","i_long":106.861737},{"time":9,"transit":true,"i_lat":-6.215091,"station_name":"Jatinegara","i_long":106.86807400000001,"line":0,"station_id":"JNG","is_transit":true,"distance":1236},{"time":2,"station_id":"MTR","station_name":"Matraman","transit":false,"i_lat":-6.212485,"is_transit":false,"distance":1377,"i_long":106.858896,"line":1},{"station_id":"MRI","transit":true,"i_long":106.84912,"line":0,"station_name":"Manggarai","is_transit":true,"i_lat":-6.209883,"time":2,"distance":1275},{"line":0,"station_id":"CKI","is_transit":false,"i_lat":-6.198556,"time":4,"station_name":"Cikini","distance":1590,"transit":false,"i_long":106.840169},{"distance":1750,"transit":false,"station_name":"Gondangdia","i_lat":-6.186295,"time":3,"station_id":"GDD","line":2,"i_long":106.832183,"is_transit":false}],[{"i_long":106.617853,"line":0,"i_lat":-6.329547,"transit":false,"is_transit":false,"time":0,"station_id":"CC","station_name":"Cicayur","distance":0},{"transit":false,"time":4,"distance":2519,"is_transit":false,"station_name":"Cisauk","i_lat":-6.32484,"line":0,"i_long":106.640411,"station_id":"CSK"},{"transit":false,"distance":1784,"station_id":"SRP","is_transit":false,"i_lat":-6.319871,"time":4,"station_name":"Serpong","i_long":106.66566,"line":6},{"station_id":"RU","distance":2413,"transit":false,"i_long":106.675475,"line":6,"station_name":"Rawa Buntu","is_transit":false,"i_lat":-6.314823,"time":4},{"line":6,"transit":false,"station_id":"SDM","station_name":"Sudimara","time":6,"is_transit":false,"distance":4566,"i_long":106.712277,"i_lat":-6.296963},{"is_transit":false,"distance":1994,"i_long":106.728916,"line":6,"station_name":"Jurangmangu","transit":false,"station_id":"JMU","time":4,"i_lat":-6.288927},{"time":3,"i_lat":-6.276362,"station_id":"PDJ","is_transit":false,"distance":2179,"line":6,"i_long":106.74273,"station_name":"Pondokranji","transit":false},{"i_long":106.780334,"time":8,"line":6,"is_transit":false,"station_name":"Kebayoran","transit":false,"i_lat":-6.237242,"station_id":"KBY","distance":6218},{"i_long":106.79689,"line":6,"i_lat":-6.207404,"station_id":"PLM","time":7,"distance":3737,"is_transit":false,"station_name":"Palmerah","transit":false},{"is_transit":true,"time":6,"station_id":"THB","transit":true,"i_long":106.811091,"distance":3191,"station_name":"Tanah Abang","i_lat":-6.185545,"line":1},{"i_lat":-6.20132,"time":5,"is_transit":false,"i_long":106.816351,"line":1,"station_name":"Karet","station_id":"KAT","distance":2029,"transit":false},{"i_lat":-6.201433,"time":1,"distance":471,"station_id":"SUDB","is_transit":false,"station_name":"Sudirman Baru","transit":false,"line":1,"i_long":106.819881},{"i_lat":-6.202263,"station_name":"Sudirman","line":1,"is_transit":false,"distance":280,"transit":false,"i_long":106.822649,"station_id":"SUD","time":1},{"station_name":"Manggarai","transit":false,"i_lat":-6.209883,"station_id":"MRI","is_transit":true,"time":4,"line":0,"distance":3186,"i_long":106.84912},{"i_long":106.858896,"time":2,"station_name":"Matraman","i_lat":-6.212485,"line":1,"is_transit":false,"station_id":"MTR","distance":1275,"transit":false},{"transit":true,"distance":1377,"station_name":"Jatinegara","line":0,"time":8,"i_long":106.86807400000001,"is_transit":true,"i_lat":-6.215091,"station_id":"JNG"},{"time":2,"distance":1236,"station_name":"Pondok Jati","transit":false,"i_long":106.861737,"i_lat":-6.209188,"line":11,"is_transit":false,"station_id":"POK"},{"line":11,"is_transit":false,"time":2,"distance":1829,"station_id":"KMT","station_name":"Kramat","i_long":106.855437,"i_lat":-6.193792,"transit":false},{"transit":false,"time":1,"i_long":106.850107,"distance":973,"station_name":"Gang Sentiong","station_id":"GST","line":11,"is_transit":false,"i_lat":-6.185975},{"station_name":"Pasar Senen","transit":false,"i_lat":-6.174784,"station_id":"PSE","time":8,"distance":1567,"i_long":106.84368,"is_transit":false,"line":11},{"i_lat":-6.161728,"station_name":"Kemayoran","transit":false,"distance":1436,"station_id":"KMO","is_transit":false,"line":11,"time":4,"i_long":106.839204},{"time":5,"line":11,"i_long":106.836569,"i_lat":-6.14505,"distance":1901,"transit":false,"is_transit":false,"station_name":"Rajawali","station_id":"RJW"},{"transit":true,"line":0,"station_id":"KPB","station_name":"Kampung Bandan","i_long":106.826365,"time":3,"distance":1444,"i_lat":-6.132549,"is_transit":true},{"is_transit":true,"line":0,"time":3,"distance":1364,"station_id":"JAKK","transit":true,"station_name":"Jakarta Kota","i_lat":-6.137569,"i_long":106.812439},{"station_name":"Jayakarta","is_transit":false,"i_long":106.820901,"distance":1264,"time":4,"i_lat":-6.141205,"line":7,"station_id":"JAY","transit":false},{"distance":1080,"is_transit":false,"time":2,"transit":false,"line":2,"i_long":106.82482,"station_id":"MGB","i_lat":-6.149769,"station_name":"Manggabesar"},{"station_id":"SW","time":2,"i_long":106.827103,"line":2,"station_name":"Sawah Besar","i_lat":-6.160725,"is_transit":false,"distance":906,"transit":false},{"i_long":106.828284,"time":2,"i_lat":-6.166716,"transit":false,"line":2,"station_id":"JUA","distance":1149,"is_transit":false,"station_name":"Juanda"},{"line":2,"i_long":106.832183,"transit":false,"is_transit":false,"station_id":"GDD","i_lat":-6.186295,"distance":2015,"station_name":"Gondangdia","time":4}]]}