{"data":[[{"time":0,"is_transit":false,"transit":false,"station_id":"CC","station_name":"Cicayur","i_lat":-6.329547,"i_long":106.617853,"distance":0,"line":3},{"is_transit":false,"time":4,"station_name":"Cisauk","transit":false,"i_long":106.640411,"line":3,"distance":2519,"station_id":"CSK","i_lat":-6.32484},{"distance":1784,"station_id":"SRP","line":6,"transit":false,"time":4,"station_name":"Serpong","i_long":106.66566,"is_transit":false,"i_lat":-6.319871},{"station_id":"RU","i_long":106.675475,"distance":2413,"time":4,"station_name":"Rawa Buntu","transit":false,"is_transit":false,"i_lat":-6.314823,"line":6},{"line":6,"station_name":"Sudimara","is_transit":false,"i_long":106.712277,"transit":false,"station_id":"SDM","time":6,"distance":4566,"i_lat":-6.296963},{"time":4,"distance":1994,"station_id":"JMU","line":6,"i_lat":-6.288927,"i_long":106.728916,"station_name":"Jurangmangu","is_transit":false,"transit":false},{"time":3,"transit":false,"i_lat":-6.276362,"i_long":106.74273,"distance":2179,"station_name":"Pondokranji","is_transit":false,"line":6,"station_id":"PDJ"},{"station_name":"Kebayoran","is_transit":false,"transit":false,"i_lat":-6.237242,"line":6,"time":8,"distance":6218,"i_long":106.780334,"station_id":"KBY"},{"is_transit":false,"time":7,"station_id":"PLM","distance":3737,"line":6,"transit":false,"i_long":106.79689,"i_lat":-6.207404,"station_name":"Palmerah"},{"transit":true,"is_transit":true,"line":1,"distance":3191,"station_name":"Tanah Abang","station_id":"THB","i_long":106.811091,"time":6,"i_lat":-6.185545},{"time":5,"is_transit":false,"i_long":106.816351,"station_id":"KAT","line":1,"transit":false,"station_name":"Karet","distance":2029,"i_lat":-6.20132},{"i_long":106.819881,"is_transit":false,"distance":471,"transit":false,"line":1,"station_name":"Sudirman Baru","station_id":"SUDB","time":1,"i_lat":-6.201433},{"i_lat":-6.202263,"station_name":"Sudirman","transit":false,"time":1,"i_long":106.822649,"distance":280,"line":1,"station_id":"SUD","is_transit":false},{"distance":3186,"i_long":106.84912,"time":4,"i_lat":-6.209883,"station_id":"MRI","station_name":"Manggarai","is_transit":true,"transit":true,"line":2},{"i_lat":-6.198556,"line":2,"is_transit":false,"station_id":"CKI","i_long":106.840169,"distance":1590,"time":4,"station_name":"Cikini","transit":false},{"line":2,"station_name":"Gondangdia","i_long":106.832183,"distance":1750,"time":3,"station_id":"GDD","i_lat":-6.186295,"is_transit":false,"transit":false}],[{"is_transit":false,"distance":0,"line":3,"i_lat":-6.329547,"station_id":"CC","i_long":106.617853,"transit":false,"time":0,"station_name":"Cicayur"},{"time":4,"is_transit":false,"i_lat":-6.32484,"station_name":"Cisauk","distance":2519,"i_long":106.640411,"station_id":"CSK","transit":false,"line":3},{"station_id":"SRP","station_name":"Serpong","is_transit":false,"distance":1784,"i_lat":-6.319871,"transit":false,"time":4,"line":6,"i_long":106.66566},{"station_name":"Rawa Buntu","time":4,"transit":false,"i_long":106.675475,"line":6,"i_lat":-6.314823,"distance":2413,"station_id":"RU","is_transit":false},{"distance":4566,"station_name":"Sudimara","transit":false,"line":6,"time":6,"station_id":"SDM","is_transit":false,"i_long":106.712277,"i_lat":-6.296963},{"transit":false,"time":4,"station_name":"Jurangmangu","is_transit":false,"line":6,"i_lat":-6.288927,"i_long":106.728916,"distance":1994,"station_id":"JMU"},{"i_long":106.74273,"station_id":"PDJ","time":3,"i_lat":-6.276362,"distance":2179,"station_name":"Pondokranji","transit":false,"line":6,"is_transit":false},{"time":8,"station_id":"KBY","station_name":"Kebayoran","i_lat":-6.237242,"distance":6218,"transit":false,"line":6,"i_long":106.780334,"is_transit":false},{"is_transit":false,"station_name":"Palmerah","i_lat":-6.207404,"i_long":106.79689,"transit":false,"line":6,"distance":3737,"time":7,"station_id":"PLM"},{"i_lat":-6.185545,"is_transit":true,"transit":true,"station_id":"THB","distance":3191,"i_long":106.811091,"line":1,"time":6,"station_name":"Tanah Abang"},{"time":8,"station_id":"DU","distance":3632,"is_transit":false,"i_lat":-6.155215,"transit":false,"station_name":"Duri","i_long":106.800832,"line":1},{"i_long":106.79867,"is_transit":false,"line":1,"transit":false,"station_name":"Angke","i_lat":-6.144674,"station_id":"AK","distance":1230,"time":4},{"i_lat":-6.132549,"line":4,"i_long":106.826365,"time":9,"station_id":"KPB","station_name":"Kampung Bandan","is_transit":true,"transit":true,"distance":4102},{"i_long":106.812439,"transit":true,"i_lat":-6.137569,"time":3,"station_name":"Jakarta Kota","line":2,"is_transit":true,"station_id":"JAKK","distance":1364},{"line":2,"station_id":"JAY","distance":1264,"is_transit":false,"transit":false,"i_lat":-6.141205,"i_long":106.820901,"time":4,"station_name":"Jayakarta"},{"station_id":"MGB","time":2,"is_transit":false,"distance":1080,"transit":false,"i_long":106.82482,"line":2,"station_name":"Manggabesar","i_lat":-6.149769},{"i_long":106.827103,"distance":906,"i_lat":-6.160725,"time":2,"station_name":"Sawah Besar","line":2,"transit":false,"is_transit":false,"station_id":"SW"},{"is_transit":false,"transit":false,"time":2,"station_id":"JUA","i_lat":-6.166716,"station_name":"Juanda","distance":1149,"i_long":106.828284,"line":2},{"is_transit":false,"i_long":106.832183,"transit":false,"time":4,"i_lat":-6.186295,"station_name":"Gondangdia","line":2,"distance":2015,"station_id":"GDD"}],[{"transit":false,"time":0,"i_lat":-6.329547,"station_name":"Cicayur","is_transit":false,"i_long":106.617853,"line":3,"distance":0,"station_id":"CC"},{"i_long":106.640411,"station_id":"CSK","transit":false,"distance":2519,"i_lat":-6.32484,"line":3,"is_transit":false,"station_name":"Cisauk","time":4},{"i_long":106.66566,"transit":false,"distance":1784,"line":6,"time":4,"station_id":"SRP","station_name":"Serpong","is_transit":false,"i_lat":-6.319871},{"transit":false,"i_long":106.675475,"time":4,"distance":2413,"i_lat":-6.314823,"line":6,"station_name":"Rawa Buntu","station_id":"RU","is_transit":false},{"i_long":106.712277,"transit":false,"is_transit":false,"distance":4566,"line":6,"station_name":"Sudimara","i_lat":-6.296963,"time":6,"station_id":"SDM"},{"time":4,"station_id":"JMU","station_name":"Jurangmangu","is_transit":false,"distance":1994,"transit":false,"i_lat":-6.288927,"i_long":106.728916,"line":6},{"i_lat":-6.276362,"station_name":"Pondokranji","time":3,"is_transit":false,"distance":2179,"i_long":106.74273,"station_id":"PDJ","transit":false,"line":6},{"time":8,"i_long":106.780334,"is_transit":false,"line":6,"station_name":"Kebayoran","transit":false,"i_lat":-6.237242,"distance":6218,"station_id":"KBY"},{"distance":3737,"line":6,"time":7,"station_name":"Palmerah","is_transit":false,"transit":false,"i_lat":-6.207404,"i_long":106.79689,"station_id":"PLM"},{"time":6,"distance":3191,"station_id":"THB","i_lat":-6.185545,"line":1,"station_name":"Tanah Abang","i_long":106.811091,"is_transit":true,"transit":true},{"time":8,"station_name":"Duri","transit":false,"i_long":106.800832,"is_transit":false,"distance":3632,"line":1,"i_lat":-6.155215,"station_id":"DU"},{"line":1,"distance":1230,"time":4,"is_transit":false,"i_lat":-6.144674,"i_long":106.79867,"station_id":"AK","station_name":"Angke","transit":false},{"i_long":106.826365,"station_id":"KPB","i_lat":-6.132549,"transit":true,"distance":4102,"line":4,"station_name":"Kampung Bandan","is_transit":true,"time":9},{"distance":1444,"i_lat":-6.14505,"time":3,"line":11,"i_long":106.836569,"station_name":"Rajawali","transit":false,"is_transit":false,"station_id":"RJW"},{"transit":false,"i_long":106.839204,"i_lat":-6.161728,"is_transit":false,"distance":1901,"station_name":"Kemayoran","station_id":"KMO","time":5,"line":11},{"station_name":"Pasar Senen","distance":1436,"is_transit":false,"station_id":"PSE","i_long":106.84368,"line":11,"i_lat":-6.174784,"time":4,"transit":false},{"transit":false,"time":8,"i_lat":-6.185975,"i_long":106.850107,"station_id":"GST","line":11,"station_name":"Gang Sentiong","distance":1567,"is_transit":false},{"station_id":"KMT","is_transit":false,"i_lat":-6.193792,"station_name":"Kramat","time":1,"transit":false,"i_long":106.855437,"line":11,"distance":973},{"i_long":106.861737,"station_name":"Pondok Jati","time":2,"transit":false,"i_lat":-6.209188,"line":11,"station_id":"POK","distance":1829,"is_transit":false},{"line":1,"distance":1236,"is_transit":true,"transit":true,"i_lat":-6.215091,"station_id":"JNG","time":9,"station_name":"Jatinegara","i_long":106.86807400000001},{"time":2,"station_id":"MTR","is_transit":false,"station_name":"Matraman","i_long":106.858896,"transit":false,"line":1,"distance":1377,"i_lat":-6.212485},{"station_id":"MRI","time":2,"distance":1275,"station_name":"Manggarai","transit":true,"i_long":106.84912,"i_lat":-6.209883,"line":2,"is_transit":true},{"station_id":"CKI","is_transit":false,"distance":1590,"time":4,"station_name":"Cikini","i_lat":-6.198556,"line":2,"i_long":106.840169,"transit":false},{"time":3,"transit":false,"is_transit":false,"i_long":106.832183,"i_lat":-6.186295,"line":2,"station_id":"GDD","station_name":"Gondangdia","distance":1750}],[{"station_name":"Cicayur","i_long":106.617853,"line":3,"distance":0,"time":0,"is_transit":false,"transit":false,"station_id":"CC","i_lat":-6.329547},{"station_id":"CSK","i_lat":-6.32484,"i_long":106.640411,"transit":false,"is_transit":false,"time":4,"line":3,"station_name":"Cisauk","distance":2519},{"station_id":"SRP","transit":false,"station_name":"Serpong","i_lat":-6.319871,"i_long":106.66566,"line":6,"distance":1784,"is_transit":false,"time":4},{"distance":2413,"time":4,"i_long":106.675475,"transit":false,"station_id":"RU","line":6,"is_transit":false,"i_lat":-6.314823,"station_name":"Rawa Buntu"},{"station_name":"Sudimara","transit":false,"distance":4566,"station_id":"SDM","i_lat":-6.296963,"time":6,"is_transit":false,"line":6,"i_long":106.712277},{"line":6,"station_name":"Jurangmangu","is_transit":false,"i_lat":-6.288927,"distance":1994,"transit":false,"station_id":"JMU","i_long":106.728916,"time":4},{"line":6,"station_name":"Pondokranji","transit":false,"time":3,"i_lat":-6.276362,"i_long":106.74273,"distance":2179,"is_transit":false,"station_id":"PDJ"},{"time":8,"is_transit":false,"distance":6218,"i_lat":-6.237242,"i_long":106.780334,"station_name":"Kebayoran","line":6,"station_id":"KBY","transit":false},{"time":7,"station_id":"PLM","i_lat":-6.207404,"distance":3737,"transit":false,"i_long":106.79689,"line":6,"is_transit":false,"station_name":"Palmerah"},{"line":1,"is_transit":true,"distance":3191,"time":6,"station_id":"THB","station_name":"Tanah Abang","transit":true,"i_lat":-6.185545,"i_long":106.811091},{"i_lat":-6.20132,"distance":2029,"time":5,"line":1,"i_long":106.816351,"station_name":"Karet","is_transit":false,"station_id":"KAT","transit":false},{"line":1,"i_long":106.819881,"distance":471,"station_name":"Sudirman Baru","time":1,"station_id":"SUDB","transit":false,"i_lat":-6.201433,"is_transit":false},{"i_lat":-6.202263,"i_long":106.822649,"station_name":"Sudirman","time":1,"line":1,"distance":280,"station_id":"SUD","transit":false,"is_transit":false},{"i_long":106.84912,"distance":3186,"i_lat":-6.209883,"station_name":"Manggarai","is_transit":false,"line":2,"time":4,"station_id":"MRI","transit":false},{"time":2,"i_long":106.858896,"station_name":"Matraman","line":1,"i_lat":-6.212485,"distance":1275,"is_transit":false,"station_id":"MTR","transit":false},{"line":1,"i_long":106.86807400000001,"distance":1377,"station_name":"Jatinegara","station_id":"JNG","is_transit":true,"transit":true,"time":8,"i_lat":-6.215091},{"time":2,"station_id":"POK","is_transit":false,"distance":1236,"i_lat":-6.209188,"line":11,"transit":false,"station_name":"Pondok Jati","i_long":106.861737},{"i_lat":-6.193792,"station_name":"Kramat","transit":false,"distance":1829,"line":11,"time":2,"station_id":"KMT","i_long":106.855437,"is_transit":false},{"i_long":106.850107,"is_transit":false,"i_lat":-6.185975,"distance":973,"station_name":"Gang Sentiong","transit":false,"line":11,"station_id":"GST","time":1},{"is_transit":false,"i_lat":-6.174784,"line":11,"i_long":106.84368,"transit":false,"time":8,"distance":1567,"station_id":"PSE","station_name":"Pasar Senen"},{"i_long":106.839204,"station_name":"Kemayoran","transit":false,"is_transit":false,"line":11,"i_lat":-6.161728,"station_id":"KMO","time":4,"distance":1436},{"distance":1901,"transit":false,"time":5,"line":11,"i_long":106.836569,"station_id":"RJW","station_name":"Rajawali","is_transit":false,"i_lat":-6.14505},{"i_long":106.826365,"is_transit":true,"distance":1444,"station_id":"KPB","transit":true,"station_name":"Kampung Bandan","time":3,"i_lat":-6.132549,"line":4},{"i_lat":-6.137569,"station_name":"Jakarta Kota","i_long":106.812439,"line":2,"distance":1364,"is_transit":true,"station_id":"JAKK","time":3,"transit":true},{"i_long":106.820901,"station_name":"Jayakarta","distance":1264,"transit":false,"is_transit":false,"i_lat":-6.141205,"line":2,"time":4,"station_id":"JAY"},{"i_long":106.82482,"line":2,"station_name":"Manggabesar","i_lat":-6.149769,"station_id":"MGB","is_transit":false,"transit":false,"distance":1080,"time":2},{"is_transit":false,"station_name":"Sawah Besar","i_long":106.827103,"transit":false,"station_id":"SW","distance":906,"i_lat":-6.160725,"time":2,"line":2},{"distance":1149,"transit":false,"station_id":"JUA","i_lat":-6.166716,"i_long":106.828284,"line":2,"time":2,"station_name":"Juanda","is_transit":false},{"line":2,"time":4,"station_id":"GDD","transit":false,"i_long":106.832183,"distance":2015,"is_transit":false,"station_name":"Gondangdia","i_lat":-6.186295}]]}