{"data":[[{"line":3,"i_long":106.617853,"time":0,"transit":false,"is_transit":false,"distance":0,"i_lat":-6.329547,"station_id":"CC","station_name":"Cicayur"},{"transit":false,"line":3,"distance":2519,"station_id":"CSK","time":4,"is_transit":false,"i_lat":-6.32484,"station_name":"Cisauk","i_long":106.640411},{"i_long":106.66566,"station_id":"SRP","time":4,"is_transit":false,"transit":false,"station_name":"Serpong","line":6,"distance":1784,"i_lat":-6.319871},{"i_long":106.675475,"line":6,"station_id":"RU","is_transit":false,"transit":false,"station_name":"Rawa Buntu","time":4,"distance":2413,"i_lat":-6.314823},{"station_name":"Sudimara","distance":4566,"is_transit":false,"transit":false,"i_long":106.712277,"i_lat":-6.296963,"time":6,"station_id":"SDM","line":6},{"time":4,"is_transit":false,"i_long":106.728916,"line":6,"station_name":"Jurangmangu","distance":1994,"i_lat":-6.288927,"transit":false,"station_id":"JMU"},{"station_id":"PDJ","station_name":"Pondokranji","time":3,"distance":2179,"is_transit":false,"transit":false,"i_long":106.74273,"line":6,"i_lat":-6.276362},{"time":8,"i_lat":-6.237242,"station_name":"Kebayoran","transit":false,"i_long":106.780334,"station_id":"KBY","distance":6218,"is_transit":false,"line":6},{"time":7,"station_id":"PLM","distance":3737,"is_transit":false,"station_name":"Palmerah","i_long":106.79689,"line":6,"transit":false,"i_lat":-6.207404},{"is_transit":true,"time":6,"transit":true,"station_name":"Tanah Abang","station_id":"THB","i_long":106.811091,"distance":3191,"i_lat":-6.185545,"line":1},{"transit":true,"station_id":"DU","station_name":"Duri","is_transit":true,"distance":3632,"time":8,"i_lat":-6.155215,"line":1,"i_long":106.800832},{"i_lat":-6.162021,"station_name":"Grogol","transit":false,"distance":1700,"is_transit":false,"i_long":106.788277,"line":5,"time":3,"station_id":"GRG"}],[{"station_name":"Cicayur","distance":0,"time":0,"is_transit":false,"i_lat":-6.329547,"line":3,"transit":false,"i_long":106.617853,"station_id":"CC"},{"station_id":"CSK","transit":false,"i_lat":-6.32484,"is_transit":false,"line":3,"station_name":"Cisauk","i_long":106.640411,"time":4,"distance":2519},{"time":4,"distance":1784,"station_name":"Serpong","is_transit":false,"i_lat":-6.319871,"station_id":"SRP","transit":false,"i_long":106.66566,"line":6},{"is_transit":false,"station_id":"RU","time":4,"distance":2413,"transit":false,"station_name":"Rawa Buntu","i_long":106.675475,"line":6,"i_lat":-6.314823},{"time":6,"is_transit":false,"distance":4566,"station_id":"SDM","line":6,"station_name":"Sudimara","i_lat":-6.296963,"transit":false,"i_long":106.712277},{"distance":1994,"station_id":"JMU","station_name":"Jurangmangu","i_lat":-6.288927,"is_transit":false,"line":6,"time":4,"transit":false,"i_long":106.728916},{"transit":false,"time":3,"station_name":"Pondokranji","i_lat":-6.276362,"distance":2179,"line":6,"station_id":"PDJ","is_transit":false,"i_long":106.74273},{"line":6,"station_name":"Kebayoran","time":8,"station_id":"KBY","transit":false,"i_lat":-6.237242,"is_transit":false,"i_long":106.780334,"distance":6218},{"station_name":"Palmerah","i_lat":-6.207404,"i_long":106.79689,"station_id":"PLM","time":7,"is_transit":false,"transit":false,"line":6,"distance":3737},{"distance":3191,"is_transit":true,"i_long":106.811091,"time":6,"station_id":"THB","transit":true,"line":1,"station_name":"Tanah Abang","i_lat":-6.185545},{"transit":false,"station_name":"Karet","time":5,"line":1,"distance":2029,"is_transit":false,"i_lat":-6.20132,"station_id":"KAT","i_long":106.816351},{"line":1,"distance":471,"station_id":"SUDB","i_long":106.819881,"time":1,"transit":false,"station_name":"Sudirman Baru","i_lat":-6.201433,"is_transit":false},{"time":1,"station_id":"SUD","i_lat":-6.202263,"i_long":106.822649,"line":1,"is_transit":false,"distance":280,"transit":false,"station_name":"Sudirman"},{"station_id":"MRI","line":2,"station_name":"Manggarai","is_transit":true,"distance":3186,"time":4,"i_lat":-6.209883,"i_long":106.84912,"transit":true},{"station_name":"Cikini","time":4,"line":2,"is_transit":false,"transit":false,"i_long":106.840169,"distance":1590,"i_lat":-6.198556,"station_id":"CKI"},{"i_lat":-6.186295,"is_transit":false,"transit":false,"distance":1750,"station_id":"GDD","station_name":"Gondangdia","i_long":106.832183,"time":3,"line":2},{"station_name":"Juanda","distance":2015,"time":4,"i_long":106.828284,"is_transit":false,"station_id":"JUA","transit":false,"i_lat":-6.166716,"line":2},{"line":2,"i_lat":-6.160725,"is_transit":false,"distance":1149,"i_long":106.827103,"time":2,"station_id":"SW","station_name":"Sawah Besar","transit":false},{"i_lat":-6.149769,"time":2,"line":2,"i_long":106.82482,"is_transit":false,"transit":false,"station_id":"MGB","distance":906,"station_name":"Manggabesar"},{"station_name":"Jayakarta","i_long":106.820901,"line":2,"is_transit":false,"station_id":"JAY","distance":1080,"time":2,"i_lat":-6.141205,"transit":false},{"station_name":"Jakarta Kota","station_id":"JAKK","line":2,"time":4,"i_lat":-6.137569,"i_long":106.812439,"transit":true,"distance":1264,"is_transit":true},{"distance":1364,"i_long":106.826365,"line":4,"is_transit":true,"station_id":"KPB","transit":true,"station_name":"Kampung Bandan","time":3,"i_lat":-6.132549},{"transit":false,"station_name":"Angke","i_long":106.79867,"i_lat":-6.144674,"time":9,"distance":4102,"station_id":"AK","is_transit":false,"line":1},{"i_lat":-6.155215,"distance":1230,"time":4,"transit":true,"i_long":106.800832,"is_transit":true,"station_name":"Duri","line":1,"station_id":"DU"},{"i_long":106.788277,"is_transit":false,"station_id":"GRG","distance":1700,"time":3,"line":5,"station_name":"Grogol","i_lat":-6.162021,"transit":false}],[{"i_lat":-6.329547,"is_transit":false,"time":0,"line":3,"transit":false,"distance":0,"station_id":"CC","station_name":"Cicayur","i_long":106.617853},{"transit":false,"station_id":"CSK","i_lat":-6.32484,"is_transit":false,"line":3,"distance":2519,"station_name":"Cisauk","time":4,"i_long":106.640411},{"transit":false,"distance":1784,"i_long":106.66566,"station_name":"Serpong","is_transit":false,"station_id":"SRP","line":6,"time":4,"i_lat":-6.319871},{"i_long":106.675475,"i_lat":-6.314823,"is_transit":false,"station_id":"RU","station_name":"Rawa Buntu","distance":2413,"time":4,"transit":false,"line":6},{"distance":4566,"line":6,"transit":false,"is_transit":false,"station_id":"SDM","i_lat":-6.296963,"time":6,"station_name":"Sudimara","i_long":106.712277},{"station_id":"JMU","line":6,"time":4,"is_transit":false,"i_lat":-6.288927,"distance":1994,"i_long":106.728916,"transit":false,"station_name":"Jurangmangu"},{"station_id":"PDJ","line":6,"transit":false,"time":3,"station_name":"Pondokranji","i_long":106.74273,"i_lat":-6.276362,"distance":2179,"is_transit":false},{"station_name":"Kebayoran","is_transit":false,"i_long":106.780334,"line":6,"station_id":"KBY","i_lat":-6.237242,"transit":false,"time":8,"distance":6218},{"i_long":106.79689,"distance":3737,"station_name":"Palmerah","transit":false,"i_lat":-6.207404,"line":6,"is_transit":false,"station_id":"PLM","time":7},{"station_name":"Tanah Abang","is_transit":true,"i_long":106.811091,"station_id":"THB","distance":3191,"i_lat":-6.185545,"line":1,"time":6,"transit":true},{"is_transit":false,"station_id":"KAT","line":1,"time":5,"transit":false,"station_name":"Karet","distance":2029,"i_long":106.816351,"i_lat":-6.20132},{"transit":false,"station_id":"SUDB","is_transit":false,"distance":471,"time":1,"i_lat":-6.201433,"i_long":106.819881,"station_name":"Sudirman Baru","line":1},{"line":1,"is_transit":false,"time":1,"i_long":106.822649,"transit":false,"distance":280,"station_id":"SUD","station_name":"Sudirman","i_lat":-6.202263},{"time":4,"transit":false,"station_name":"Manggarai","is_transit":false,"i_lat":-6.209883,"station_id":"MRI","i_long":106.84912,"distance":3186,"line":2},{"distance":1275,"time":2,"is_transit":false,"transit":false,"station_id":"MTR","station_name":"Matraman","i_lat":-6.212485,"i_long":106.858896,"line":1},{"transit":true,"distance":1377,"time":8,"line":1,"station_name":"Jatinegara","i_lat":-6.215091,"i_long":106.86807400000001,"station_id":"JNG","is_transit":true},{"i_long":106.861737,"line":11,"is_transit":false,"distance":1236,"transit":false,"station_id":"POK","i_lat":-6.209188,"time":2,"station_name":"Pondok Jati"},{"station_name":"Kramat","time":2,"i_lat":-6.193792,"line":11,"station_id":"KMT","i_long":106.855437,"distance":1829,"is_transit":false,"transit":false},{"i_lat":-6.185975,"line":11,"station_name":"Gang Sentiong","distance":973,"time":1,"i_long":106.850107,"is_transit":false,"transit":false,"station_id":"GST"},{"station_name":"Pasar Senen","station_id":"PSE","i_lat":-6.174784,"is_transit":false,"i_long":106.84368,"line":11,"distance":1567,"time":8,"transit":false},{"i_lat":-6.161728,"time":4,"distance":1436,"transit":false,"station_id":"KMO","station_name":"Kemayoran","is_transit":false,"i_long":106.839204,"line":11},{"time":5,"line":11,"i_long":106.836569,"station_id":"RJW","station_name":"Rajawali","i_lat":-6.14505,"is_transit":false,"distance":1901,"transit":false},{"station_id":"KPB","station_name":"Kampung Bandan","distance":1444,"is_transit":true,"transit":true,"i_lat":-6.132549,"i_long":106.826365,"line":4,"time":3},{"distance":4102,"time":9,"station_id":"AK","station_name":"Angke","transit":false,"i_long":106.79867,"line":1,"is_transit":false,"i_lat":-6.144674},{"line":1,"is_transit":true,"transit":true,"station_id":"DU","i_lat":-6.155215,"distance":1230,"station_name":"Duri","time":4,"i_long":106.800832},{"distance":1700,"transit":false,"line":5,"station_id":"GRG","i_lat":-6.162021,"i_long":106.788277,"is_transit":false,"time":3,"station_name":"Grogol"}]]}