{"data":[[{"time":0,"distance":0,"station_name":"Cicayur","station_id":"CC","transit":false,"i_long":106.617853,"line":3,"i_lat":-6.329547,"is_transit":false},{"station_name":"Cisauk","time":4,"transit":false,"i_lat":-6.32484,"is_transit":false,"i_long":106.640411,"distance":2519,"station_id":"CSK","line":3},{"is_transit":false,"station_name":"Serpong","line":6,"i_lat":-6.319871,"time":4,"transit":false,"i_long":106.66566,"station_id":"SRP","distance":1784},{"is_transit":false,"transit":false,"distance":2413,"station_id":"RU","i_lat":-6.314823,"i_long":106.675475,"line":6,"time":4,"station_name":"Rawa Buntu"},{"station_id":"SDM","distance":4566,"time":6,"transit":false,"i_long":106.712277,"station_name":"Sudimara","i_lat":-6.296963,"is_transit":false,"line":6},{"distance":1994,"time":4,"i_long":106.728916,"i_lat":-6.288927,"line":6,"station_name":"Jurangmangu","station_id":"JMU","transit":false,"is_transit":false},{"time":3,"i_long":106.74273,"line":6,"i_lat":-6.276362,"distance":2179,"station_id":"PDJ","station_name":"Pondokranji","is_transit":false,"transit":false},{"distance":6218,"is_transit":false,"i_lat":-6.237242,"i_long":106.780334,"transit":false,"time":8,"station_id":"KBY","station_name":"Kebayoran","line":6},{"is_transit":false,"station_name":"Palmerah","time":7,"line":6,"distance":3737,"transit":false,"station_id":"PLM","i_long":106.79689,"i_lat":-6.207404},{"distance":3191,"transit":true,"i_long":106.811091,"station_name":"Tanah Abang","time":6,"is_transit":true,"i_lat":-6.185545,"station_id":"THB","line":1},{"distance":2029,"is_transit":false,"i_lat":-6.20132,"transit":false,"line":1,"time":5,"station_id":"KAT","station_name":"Karet","i_long":106.816351},{"station_name":"Sudirman Baru","is_transit":false,"station_id":"SUDB","transit":false,"time":1,"i_lat":-6.201433,"distance":471,"i_long":106.819881,"line":1},{"is_transit":false,"station_name":"Sudirman","station_id":"SUD","transit":false,"i_lat":-6.202263,"time":1,"i_long":106.822649,"distance":280,"line":1},{"i_long":106.84912,"is_transit":false,"station_id":"MRI","distance":3186,"station_name":"Manggarai","transit":false,"line":2,"i_lat":-6.209883,"time":4},{"distance":1275,"is_transit":false,"time":2,"i_lat":-6.212485,"transit":false,"station_id":"MTR","station_name":"Matraman","i_long":106.858896,"line":1},{"is_transit":false,"station_name":"Jatinegara","distance":1377,"transit":false,"i_long":106.86807400000001,"station_id":"JNG","time":8,"line":1,"i_lat":-6.215091}],[{"station_id":"CC","line":3,"i_long":106.617853,"station_name":"Cicayur","distance":0,"is_transit":false,"i_lat":-6.329547,"transit":false,"time":0},{"i_long":106.640411,"station_id":"CSK","transit":false,"is_transit":false,"line":3,"station_name":"Cisauk","time":4,"distance":2519,"i_lat":-6.32484},{"i_long":106.66566,"distance":1784,"time":4,"station_id":"SRP","i_lat":-6.319871,"transit":false,"line":6,"station_name":"Serpong","is_transit":false},{"distance":2413,"i_long":106.675475,"station_name":"Rawa Buntu","station_id":"RU","transit":false,"time":4,"is_transit":false,"i_lat":-6.314823,"line":6},{"i_lat":-6.296963,"time":6,"i_long":106.712277,"station_id":"SDM","station_name":"Sudimara","line":6,"is_transit":false,"distance":4566,"transit":false},{"is_transit":false,"station_id":"JMU","transit":false,"i_lat":-6.288927,"line":6,"station_name":"Jurangmangu","distance":1994,"time":4,"i_long":106.728916},{"time":3,"station_id":"PDJ","is_transit":false,"line":6,"i_lat":-6.276362,"station_name":"Pondokranji","i_long":106.74273,"transit":false,"distance":2179},{"is_transit":false,"station_name":"Kebayoran","time":8,"line":6,"i_lat":-6.237242,"distance":6218,"station_id":"KBY","transit":false,"i_long":106.780334},{"time":7,"station_id":"PLM","transit":false,"line":6,"i_long":106.79689,"distance":3737,"station_name":"Palmerah","i_lat":-6.207404,"is_transit":false},{"distance":3191,"station_name":"Tanah Abang","is_transit":true,"i_lat":-6.185545,"i_long":106.811091,"line":1,"station_id":"THB","time":6,"transit":true},{"station_id":"DU","transit":false,"distance":3632,"i_lat":-6.155215,"i_long":106.800832,"is_transit":false,"time":8,"station_name":"Duri","line":1},{"line":1,"station_name":"Angke","transit":false,"i_lat":-6.144674,"station_id":"AK","is_transit":false,"distance":1230,"time":4,"i_long":106.79867},{"distance":4102,"is_transit":true,"time":9,"transit":true,"i_lat":-6.132549,"i_long":106.826365,"station_name":"Kampung Bandan","station_id":"KPB","line":4},{"time":3,"station_name":"Rajawali","line":11,"is_transit":false,"i_long":106.836569,"station_id":"RJW","distance":1444,"transit":false,"i_lat":-6.14505},{"distance":1901,"is_transit":false,"time":5,"line":11,"station_name":"Kemayoran","station_id":"KMO","transit":false,"i_long":106.839204,"i_lat":-6.161728},{"transit":false,"station_name":"Pasar Senen","i_lat":-6.174784,"i_long":106.84368,"distance":1436,"time":4,"station_id":"PSE","line":11,"is_transit":false},{"is_transit":false,"transit":false,"time":8,"station_id":"GST","i_lat":-6.185975,"i_long":106.850107,"line":11,"station_name":"Gang Sentiong","distance":1567},{"is_transit":false,"time":1,"i_lat":-6.193792,"transit":false,"station_id":"KMT","station_name":"Kramat","distance":973,"i_long":106.855437,"line":11},{"i_long":106.861737,"transit":false,"station_name":"Pondok Jati","is_transit":false,"distance":1829,"i_lat":-6.209188,"station_id":"POK","line":11,"time":2},{"i_lat":-6.215091,"time":9,"station_name":"Jatinegara","i_long":106.86807400000001,"station_id":"JNG","transit":false,"line":1,"distance":1236,"is_transit":false}],[{"station_id":"CC","time":0,"distance":0,"is_transit":false,"station_name":"Cicayur","transit":false,"i_lat":-6.329547,"i_long":106.617853,"line":3},{"station_name":"Cisauk","transit":false,"line":3,"is_transit":false,"time":4,"i_lat":-6.32484,"station_id":"CSK","i_long":106.640411,"distance":2519},{"distance":1784,"line":6,"station_name":"Serpong","transit":false,"station_id":"SRP","i_lat":-6.319871,"i_long":106.66566,"is_transit":false,"time":4},{"is_transit":false,"i_long":106.675475,"i_lat":-6.314823,"time":4,"transit":false,"station_id":"RU","station_name":"Rawa Buntu","line":6,"distance":2413},{"i_lat":-6.296963,"transit":false,"time":6,"distance":4566,"station_id":"SDM","station_name":"Sudimara","is_transit":false,"i_long":106.712277,"line":6},{"station_id":"JMU","station_name":"Jurangmangu","time":4,"line":6,"is_transit":false,"distance":1994,"transit":false,"i_lat":-6.288927,"i_long":106.728916},{"is_transit":false,"line":6,"station_name":"Pondokranji","station_id":"PDJ","transit":false,"distance":2179,"time":3,"i_lat":-6.276362,"i_long":106.74273},{"station_id":"KBY","station_name":"Kebayoran","is_transit":false,"i_long":106.780334,"line":6,"distance":6218,"time":8,"transit":false,"i_lat":-6.237242},{"transit":false,"i_lat":-6.207404,"line":6,"station_id":"PLM","time":7,"distance":3737,"station_name":"Palmerah","i_long":106.79689,"is_transit":false},{"distance":3191,"transit":true,"is_transit":true,"i_lat":-6.185545,"line":1,"station_name":"Tanah Abang","time":6,"station_id":"THB","i_long":106.811091},{"distance":3632,"time":8,"is_transit":false,"line":1,"i_long":106.800832,"i_lat":-6.155215,"transit":false,"station_id":"DU","station_name":"Duri"},{"station_name":"Angke","distance":1230,"i_lat":-6.144674,"i_long":106.79867,"station_id":"AK","line":1,"is_transit":false,"time":4,"transit":false},{"distance":4102,"is_transit":true,"i_lat":-6.132549,"time":9,"station_name":"Kampung Bandan","i_long":106.826365,"station_id":"KPB","line":4,"transit":true},{"distance":1364,"station_name":"Jakarta Kota","transit":true,"is_transit":true,"station_id":"JAKK","i_lat":-6.137569,"time":3,"line":2,"i_long":106.812439},{"i_long":106.820901,"i_lat":-6.141205,"line":2,"transit":false,"is_transit":false,"station_id":"JAY","distance":1264,"time":4,"station_name":"Jayakarta"},{"is_transit":false,"time":2,"line":2,"i_lat":-6.149769,"distance":1080,"i_long":106.82482,"station_id":"MGB","transit":false,"station_name":"Manggabesar"},{"transit":false,"i_long":106.827103,"distance":906,"line":2,"station_name":"Sawah Besar","station_id":"SW","is_transit":false,"i_lat":-6.160725,"time":2},{"station_id":"JUA","station_name":"Juanda","time":2,"i_lat":-6.166716,"i_long":106.828284,"line":2,"distance":1149,"is_transit":false,"transit":false},{"time":4,"station_name":"Gondangdia","is_transit":false,"i_lat":-6.186295,"line":2,"transit":false,"distance":2015,"station_id":"GDD","i_long":106.832183},{"time":3,"i_long":106.840169,"line":2,"station_name":"Cikini","distance":1750,"i_lat":-6.198556,"transit":false,"station_id":"CKI","is_transit":false},{"transit":true,"i_lat":-6.209883,"line":2,"is_transit":true,"station_id":"MRI","distance":1590,"time":4,"station_name":"Manggarai","i_long":106.84912},{"is_transit":false,"transit":false,"station_name":"Matraman","distance":1275,"i_lat":-6.212485,"i_long":106.858896,"time":2,"line":1,"station_id":"MTR"},{"time":8,"i_long":106.86807400000001,"is_transit":false,"distance":1377,"station_name":"Jatinegara","station_id":"JNG","i_lat":-6.215091,"line":1,"transit":false}],[{"is_transit":false,"line":3,"distance":0,"station_id":"CC","station_name":"Cicayur","i_lat":-6.329547,"transit":false,"i_long":106.617853,"time":0},{"distance":2519,"time":4,"transit":false,"line":3,"station_name":"Cisauk","station_id":"CSK","is_transit":false,"i_long":106.640411,"i_lat":-6.32484},{"station_id":"SRP","station_name":"Serpong","transit":false,"time":4,"line":6,"is_transit":false,"i_long":106.66566,"distance":1784,"i_lat":-6.319871},{"i_long":106.675475,"time":4,"transit":false,"i_lat":-6.314823,"line":6,"station_name":"Rawa Buntu","is_transit":false,"station_id":"RU","distance":2413},{"is_transit":false,"station_id":"SDM","i_long":106.712277,"time":6,"transit":false,"station_name":"Sudimara","line":6,"i_lat":-6.296963,"distance":4566},{"station_id":"JMU","is_transit":false,"line":6,"station_name":"Jurangmangu","transit":false,"distance":1994,"i_lat":-6.288927,"i_long":106.728916,"time":4},{"distance":2179,"station_name":"Pondokranji","is_transit":false,"transit":false,"i_lat":-6.276362,"station_id":"PDJ","time":3,"line":6,"i_long":106.74273},{"transit":false,"i_lat":-6.237242,"time":8,"distance":6218,"line":6,"is_transit":false,"station_id":"KBY","station_name":"Kebayoran","i_long":106.780334},{"station_name":"Palmerah","distance":3737,"line":6,"transit":false,"time":7,"i_lat":-6.207404,"is_transit":false,"i_long":106.79689,"station_id":"PLM"},{"distance":3191,"i_long":106.811091,"station_name":"Tanah Abang","station_id":"THB","time":6,"is_transit":true,"transit":true,"line":1,"i_lat":-6.185545},{"i_lat":-6.20132,"transit":false,"i_long":106.816351,"distance":2029,"time":5,"station_id":"KAT","line":1,"station_name":"Karet","is_transit":false},{"i_long":106.819881,"line":1,"transit":false,"is_transit":false,"station_id":"SUDB","time":1,"station_name":"Sudirman Baru","i_lat":-6.201433,"distance":471},{"distance":280,"transit":false,"is_transit":false,"station_name":"Sudirman","station_id":"SUD","i_long":106.822649,"i_lat":-6.202263,"line":1,"time":1},{"station_name":"Manggarai","i_lat":-6.209883,"i_long":106.84912,"line":2,"is_transit":true,"distance":3186,"transit":true,"time":4,"station_id":"MRI"},{"distance":1590,"transit":false,"station_name":"Cikini","time":4,"is_transit":false,"i_long":106.840169,"i_lat":-6.198556,"line":2,"station_id":"CKI"},{"time":3,"station_name":"Gondangdia","distance":1750,"is_transit":false,"i_lat":-6.186295,"station_id":"GDD","transit":false,"i_long":106.832183,"line":2},{"station_name":"Juanda","is_transit":false,"time":4,"line":2,"i_lat":-6.166716,"i_long":106.828284,"transit":false,"station_id":"JUA","distance":2015},{"line":2,"station_name":"Sawah Besar","transit":false,"time":2,"i_long":106.827103,"station_id":"SW","distance":1149,"i_lat":-6.160725,"is_transit":false},{"i_long":106.82482,"transit":false,"i_lat":-6.149769,"line":2,"is_transit":false,"station_name":"Manggabesar","station_id":"MGB","time":2,"distance":906},{"transit":false,"line":2,"i_lat":-6.141205,"distance":1080,"station_id":"JAY","is_transit":false,"i_long":106.820901,"station_name":"Jayakarta","time":2},{"is_transit":true,"distance":1264,"i_lat":-6.137569,"station_name":"Jakarta Kota","line":2,"time":4,"transit":true,"i_long":106.812439,"station_id":"JAKK"},{"is_transit":true,"transit":true,"time":3,"i_long":106.826365,"line":4,"station_id":"KPB","i_lat":-6.132549,"distance":1364,"station_name":"Kampung Bandan"},{"i_lat":-6.14505,"time":3,"station_name":"Rajawali","i_long":106.836569,"is_transit":false,"distance":1444,"transit":false,"station_id":"RJW","line":11},{"time":5,"station_name":"Kemayoran","transit":false,"line":11,"distance":1901,"station_id":"KMO","is_transit":false,"i_long":106.839204,"i_lat":-6.161728},{"is_transit":false,"transit":false,"distance":1436,"i_lat":-6.174784,"line":11,"station_id":"PSE","station_name":"Pasar Senen","i_long":106.84368,"time":4},{"station_id":"GST","is_transit":false,"line":11,"time":8,"i_lat":-6.185975,"station_name":"Gang Sentiong","i_long":106.850107,"distance":1567,"transit":false},{"station_id":"KMT","i_lat":-6.193792,"line":11,"i_long":106.855437,"station_name":"Kramat","distance":973,"transit":false,"time":1,"is_transit":false},{"line":11,"time":2,"i_long":106.861737,"i_lat":-6.209188,"station_id":"POK","station_name":"Pondok Jati","distance":1829,"transit":false,"is_transit":false},{"station_id":"JNG","transit":false,"i_long":106.86807400000001,"is_transit":false,"station_name":"Jatinegara","line":1,"distance":1236,"time":9,"i_lat":-6.215091}]]}