{"data":[[{"is_transit":false,"time":0,"station_id":"CC","transit":false,"line":3,"i_long":106.617853,"i_lat":-6.329547,"distance":0,"station_name":"Cicayur"},{"is_transit":false,"station_name":"Cisauk","transit":false,"i_long":106.640411,"station_id":"CSK","distance":2519,"i_lat":-6.32484,"line":3,"time":4},{"i_lat":-6.319871,"i_long":106.66566,"time":4,"distance":1784,"transit":false,"is_transit":false,"station_name":"Serpong","line":6,"station_id":"SRP"},{"station_name":"Rawa Buntu","distance":2413,"line":6,"i_lat":-6.314823,"i_long":106.675475,"transit":false,"is_transit":false,"station_id":"RU","time":4},{"station_name":"Sudimara","station_id":"SDM","transit":false,"i_long":106.712277,"i_lat":-6.296963,"time":6,"line":6,"distance":4566,"is_transit":false},{"station_name":"Jurangmangu","transit":false,"time":4,"line":6,"i_lat":-6.288927,"i_long":106.728916,"station_id":"JMU","is_transit":false,"distance":1994}]]}