{"data":[[{"station_name":"Cicayur","station_id":"CC","distance":0,"i_long":106.617853,"line":3,"i_lat":-6.329547,"is_transit":false,"transit":false,"time":0},{"is_transit":false,"i_lat":-6.32484,"transit":false,"line":3,"i_long":106.640411,"distance":2519,"station_id":"CSK","time":4,"station_name":"Cisauk"},{"i_lat":-6.319871,"station_name":"Serpong","station_id":"SRP","time":4,"transit":false,"i_long":106.66566,"line":6,"is_transit":false,"distance":1784},{"line":6,"i_lat":-6.314823,"distance":2413,"station_id":"RU","time":4,"station_name":"Rawa Buntu","transit":false,"i_long":106.675475,"is_transit":false},{"is_transit":false,"time":6,"station_id":"SDM","transit":false,"line":6,"station_name":"Sudimara","distance":4566,"i_lat":-6.296963,"i_long":106.712277},{"time":4,"i_long":106.728916,"line":6,"i_lat":-6.288927,"station_id":"JMU","transit":false,"distance":1994,"station_name":"Jurangmangu","is_transit":false},{"i_long":106.74273,"time":3,"distance":2179,"station_id":"PDJ","transit":false,"is_transit":false,"line":6,"i_lat":-6.276362,"station_name":"Pondokranji"},{"station_name":"Kebayoran","station_id":"KBY","i_long":106.780334,"is_transit":false,"transit":false,"i_lat":-6.237242,"line":6,"time":8,"distance":6218},{"station_id":"PLM","time":7,"distance":3737,"is_transit":false,"transit":false,"i_lat":-6.207404,"station_name":"Palmerah","i_long":106.79689,"line":6},{"station_id":"THB","station_name":"Tanah Abang","line":1,"transit":true,"i_long":106.811091,"time":6,"distance":3191,"is_transit":true,"i_lat":-6.185545},{"station_name":"Karet","station_id":"KAT","i_lat":-6.20132,"line":1,"i_long":106.816351,"time":5,"is_transit":false,"transit":false,"distance":2029},{"i_lat":-6.201433,"transit":false,"distance":471,"station_name":"Sudirman Baru","i_long":106.819881,"time":1,"line":1,"station_id":"SUDB","is_transit":false},{"distance":280,"is_transit":false,"i_long":106.822649,"line":1,"station_id":"SUD","transit":false,"time":1,"i_lat":-6.202263,"station_name":"Sudirman"},{"i_long":106.84912,"station_id":"MRI","is_transit":false,"i_lat":-6.209883,"distance":3186,"station_name":"Manggarai","transit":false,"line":2,"time":4},{"time":2,"station_name":"Matraman","is_transit":false,"distance":1275,"station_id":"MTR","line":1,"transit":false,"i_lat":-6.212485,"i_long":106.858896},{"i_lat":-6.215091,"transit":false,"distance":1377,"station_name":"Jatinegara","time":8,"i_long":106.86807400000001,"is_transit":false,"station_id":"JNG","line":1}],[{"time":0,"line":3,"station_id":"CC","i_long":106.617853,"station_name":"Cicayur","i_lat":-6.329547,"transit":false,"is_transit":false,"distance":0},{"station_name":"Cisauk","station_id":"CSK","is_transit":false,"transit":false,"i_long":106.640411,"distance":2519,"i_lat":-6.32484,"line":3,"time":4},{"is_transit":false,"i_lat":-6.319871,"station_name":"Serpong","time":4,"distance":1784,"transit":false,"station_id":"SRP","line":6,"i_long":106.66566},{"i_long":106.675475,"time":4,"i_lat":-6.314823,"station_name":"Rawa Buntu","line":6,"is_transit":false,"transit":false,"distance":2413,"station_id":"RU"},{"i_long":106.712277,"distance":4566,"time":6,"i_lat":-6.296963,"is_transit":false,"transit":false,"station_id":"SDM","station_name":"Sudimara","line":6},{"station_id":"JMU","station_name":"Jurangmangu","distance":1994,"i_long":106.728916,"time":4,"i_lat":-6.288927,"line":6,"transit":false,"is_transit":false},{"i_long":106.74273,"distance":2179,"is_transit":false,"transit":false,"i_lat":-6.276362,"station_name":"Pondokranji","time":3,"station_id":"PDJ","line":6},{"station_id":"KBY","i_long":106.780334,"transit":false,"distance":6218,"is_transit":false,"line":6,"station_name":"Kebayoran","time":8,"i_lat":-6.237242},{"line":6,"station_id":"PLM","i_long":106.79689,"station_name":"Palmerah","is_transit":false,"transit":false,"distance":3737,"i_lat":-6.207404,"time":7},{"station_name":"Tanah Abang","time":6,"distance":3191,"transit":true,"i_lat":-6.185545,"i_long":106.811091,"line":1,"station_id":"THB","is_transit":true},{"is_transit":false,"i_lat":-6.155215,"i_long":106.800832,"station_name":"Duri","distance":3632,"station_id":"DU","line":1,"transit":false,"time":8},{"i_lat":-6.144674,"time":4,"transit":false,"line":1,"distance":1230,"station_name":"Angke","is_transit":false,"i_long":106.79867,"station_id":"AK"},{"distance":4102,"i_long":106.826365,"i_lat":-6.132549,"station_id":"KPB","transit":true,"is_transit":true,"line":4,"time":9,"station_name":"Kampung Bandan"},{"line":11,"station_id":"RJW","i_lat":-6.14505,"station_name":"Rajawali","transit":false,"is_transit":false,"time":3,"distance":1444,"i_long":106.836569},{"distance":1901,"time":5,"station_id":"KMO","i_lat":-6.161728,"i_long":106.839204,"line":11,"is_transit":false,"station_name":"Kemayoran","transit":false},{"station_id":"PSE","station_name":"Pasar Senen","is_transit":false,"transit":false,"line":11,"time":4,"distance":1436,"i_long":106.84368,"i_lat":-6.174784},{"time":8,"transit":false,"distance":1567,"station_name":"Gang Sentiong","is_transit":false,"i_lat":-6.185975,"i_long":106.850107,"station_id":"GST","line":11},{"i_long":106.855437,"time":1,"is_transit":false,"station_name":"Kramat","station_id":"KMT","i_lat":-6.193792,"distance":973,"transit":false,"line":11},{"is_transit":false,"i_long":106.861737,"time":2,"transit":false,"station_name":"Pondok Jati","station_id":"POK","distance":1829,"i_lat":-6.209188,"line":11},{"transit":false,"station_name":"Jatinegara","is_transit":false,"i_long":106.86807400000001,"station_id":"JNG","line":1,"i_lat":-6.215091,"distance":1236,"time":9}],[{"i_lat":-6.329547,"i_long":106.617853,"line":3,"time":0,"station_id":"CC","station_name":"Cicayur","distance":0,"transit":false,"is_transit":false},{"i_lat":-6.32484,"line":3,"is_transit":false,"transit":false,"station_id":"CSK","time":4,"distance":2519,"station_name":"Cisauk","i_long":106.640411},{"transit":false,"is_transit":false,"station_id":"SRP","time":4,"i_long":106.66566,"distance":1784,"line":6,"station_name":"Serpong","i_lat":-6.319871},{"station_name":"Rawa Buntu","line":6,"station_id":"RU","is_transit":false,"i_lat":-6.314823,"transit":false,"distance":2413,"time":4,"i_long":106.675475},{"i_lat":-6.296963,"station_name":"Sudimara","distance":4566,"is_transit":false,"i_long":106.712277,"transit":false,"line":6,"station_id":"SDM","time":6},{"time":4,"i_long":106.728916,"i_lat":-6.288927,"station_id":"JMU","line":6,"transit":false,"distance":1994,"is_transit":false,"station_name":"Jurangmangu"},{"distance":2179,"transit":false,"station_id":"PDJ","i_long":106.74273,"station_name":"Pondokranji","time":3,"i_lat":-6.276362,"line":6,"is_transit":false},{"i_lat":-6.237242,"station_name":"Kebayoran","is_transit":false,"station_id":"KBY","line":6,"time":8,"transit":false,"i_long":106.780334,"distance":6218},{"i_lat":-6.207404,"i_long":106.79689,"station_name":"Palmerah","time":7,"is_transit":false,"line":6,"transit":false,"station_id":"PLM","distance":3737},{"is_transit":true,"station_name":"Tanah Abang","i_lat":-6.185545,"station_id":"THB","transit":true,"distance":3191,"i_long":106.811091,"time":6,"line":1},{"time":8,"station_id":"DU","transit":false,"station_name":"Duri","i_long":106.800832,"distance":3632,"line":1,"i_lat":-6.155215,"is_transit":false},{"station_id":"AK","time":4,"transit":false,"line":1,"is_transit":false,"distance":1230,"i_long":106.79867,"i_lat":-6.144674,"station_name":"Angke"},{"distance":4102,"i_lat":-6.132549,"is_transit":true,"station_id":"KPB","transit":true,"i_long":106.826365,"station_name":"Kampung Bandan","line":4,"time":9},{"station_id":"JAKK","time":3,"transit":true,"distance":1364,"i_long":106.812439,"is_transit":true,"station_name":"Jakarta Kota","line":2,"i_lat":-6.137569},{"transit":false,"i_lat":-6.141205,"distance":1264,"line":2,"time":4,"station_id":"JAY","is_transit":false,"station_name":"Jayakarta","i_long":106.820901},{"i_lat":-6.149769,"time":2,"transit":false,"line":2,"is_transit":false,"station_name":"Manggabesar","i_long":106.82482,"station_id":"MGB","distance":1080},{"transit":false,"time":2,"i_long":106.827103,"station_name":"Sawah Besar","is_transit":false,"station_id":"SW","line":2,"i_lat":-6.160725,"distance":906},{"distance":1149,"i_lat":-6.166716,"station_id":"JUA","station_name":"Juanda","time":2,"i_long":106.828284,"transit":false,"is_transit":false,"line":2},{"transit":false,"is_transit":false,"time":4,"i_lat":-6.186295,"station_name":"Gondangdia","line":2,"station_id":"GDD","i_long":106.832183,"distance":2015},{"is_transit":false,"station_id":"CKI","line":2,"i_lat":-6.198556,"station_name":"Cikini","time":3,"i_long":106.840169,"transit":false,"distance":1750},{"transit":true,"is_transit":true,"line":2,"i_lat":-6.209883,"time":4,"distance":1590,"station_id":"MRI","i_long":106.84912,"station_name":"Manggarai"},{"station_name":"Matraman","station_id":"MTR","line":1,"is_transit":false,"i_long":106.858896,"transit":false,"i_lat":-6.212485,"time":2,"distance":1275},{"i_long":106.86807400000001,"is_transit":false,"station_id":"JNG","line":1,"transit":false,"time":8,"distance":1377,"station_name":"Jatinegara","i_lat":-6.215091}],[{"time":0,"i_lat":-6.329547,"station_id":"CC","i_long":106.617853,"transit":false,"is_transit":false,"station_name":"Cicayur","line":3,"distance":0},{"time":4,"i_lat":-6.32484,"i_long":106.640411,"line":3,"station_id":"CSK","is_transit":false,"station_name":"Cisauk","distance":2519,"transit":false},{"station_id":"SRP","i_long":106.66566,"line":6,"is_transit":false,"station_name":"Serpong","time":4,"i_lat":-6.319871,"distance":1784,"transit":false},{"station_id":"RU","time":4,"transit":false,"distance":2413,"is_transit":false,"station_name":"Rawa Buntu","i_lat":-6.314823,"i_long":106.675475,"line":6},{"is_transit":false,"time":6,"station_id":"SDM","i_lat":-6.296963,"distance":4566,"transit":false,"station_name":"Sudimara","line":6,"i_long":106.712277},{"station_name":"Jurangmangu","time":4,"i_long":106.728916,"transit":false,"line":6,"distance":1994,"i_lat":-6.288927,"is_transit":false,"station_id":"JMU"},{"i_long":106.74273,"station_name":"Pondokranji","station_id":"PDJ","i_lat":-6.276362,"line":6,"distance":2179,"is_transit":false,"time":3,"transit":false},{"i_lat":-6.237242,"station_id":"KBY","transit":false,"i_long":106.780334,"is_transit":false,"line":6,"time":8,"distance":6218,"station_name":"Kebayoran"},{"time":7,"line":6,"distance":3737,"station_name":"Palmerah","station_id":"PLM","i_lat":-6.207404,"i_long":106.79689,"transit":false,"is_transit":false},{"is_transit":true,"distance":3191,"station_id":"THB","line":1,"i_long":106.811091,"transit":true,"time":6,"i_lat":-6.185545,"station_name":"Tanah Abang"},{"transit":false,"i_long":106.816351,"distance":2029,"line":1,"time":5,"i_lat":-6.20132,"station_id":"KAT","is_transit":false,"station_name":"Karet"},{"i_lat":-6.201433,"i_long":106.819881,"transit":false,"station_id":"SUDB","distance":471,"time":1,"line":1,"is_transit":false,"station_name":"Sudirman Baru"},{"distance":280,"is_transit":false,"station_name":"Sudirman","transit":false,"time":1,"station_id":"SUD","i_lat":-6.202263,"i_long":106.822649,"line":1},{"is_transit":true,"i_long":106.84912,"line":2,"i_lat":-6.209883,"transit":true,"distance":3186,"time":4,"station_name":"Manggarai","station_id":"MRI"},{"distance":1590,"i_lat":-6.198556,"i_long":106.840169,"time":4,"transit":false,"station_id":"CKI","station_name":"Cikini","is_transit":false,"line":2},{"time":3,"transit":false,"station_id":"GDD","distance":1750,"is_transit":false,"line":2,"i_long":106.832183,"station_name":"Gondangdia","i_lat":-6.186295},{"distance":2015,"station_id":"JUA","line":2,"transit":false,"station_name":"Juanda","is_transit":false,"time":4,"i_lat":-6.166716,"i_long":106.828284},{"time":2,"line":2,"distance":1149,"i_long":106.827103,"transit":false,"is_transit":false,"i_lat":-6.160725,"station_id":"SW","station_name":"Sawah Besar"},{"i_long":106.82482,"line":2,"station_id":"MGB","transit":false,"is_transit":false,"i_lat":-6.149769,"station_name":"Manggabesar","time":2,"distance":906},{"i_long":106.820901,"i_lat":-6.141205,"transit":false,"time":2,"distance":1080,"is_transit":false,"line":2,"station_id":"JAY","station_name":"Jayakarta"},{"i_lat":-6.137569,"time":4,"line":2,"is_transit":true,"station_id":"JAKK","i_long":106.812439,"transit":true,"distance":1264,"station_name":"Jakarta Kota"},{"time":3,"distance":1364,"transit":true,"is_transit":true,"station_id":"KPB","i_long":106.826365,"station_name":"Kampung Bandan","i_lat":-6.132549,"line":4},{"transit":false,"time":3,"i_lat":-6.14505,"line":11,"is_transit":false,"station_name":"Rajawali","distance":1444,"station_id":"RJW","i_long":106.836569},{"transit":false,"station_name":"Kemayoran","distance":1901,"time":5,"is_transit":false,"i_lat":-6.161728,"i_long":106.839204,"line":11,"station_id":"KMO"},{"distance":1436,"i_lat":-6.174784,"transit":false,"is_transit":false,"station_name":"Pasar Senen","time":4,"i_long":106.84368,"line":11,"station_id":"PSE"},{"transit":false,"i_lat":-6.185975,"station_id":"GST","distance":1567,"is_transit":false,"i_long":106.850107,"station_name":"Gang Sentiong","time":8,"line":11},{"distance":973,"time":1,"i_long":106.855437,"i_lat":-6.193792,"transit":false,"station_id":"KMT","line":11,"is_transit":false,"station_name":"Kramat"},{"is_transit":false,"station_name":"Pondok Jati","time":2,"distance":1829,"transit":false,"i_lat":-6.209188,"line":11,"station_id":"POK","i_long":106.861737},{"i_long":106.86807400000001,"line":1,"distance":1236,"i_lat":-6.215091,"transit":false,"station_name":"Jatinegara","station_id":"JNG","is_transit":false,"time":9}]]}