{"data":[[{"time":0,"transit":false,"station_id":"CC","i_lat":-6.329547,"station_name":"Cicayur","is_transit":false,"i_long":106.617853,"line":3,"distance":0},{"time":4,"station_id":"CSK","station_name":"Cisauk","i_lat":-6.32484,"i_long":106.640411,"transit":false,"line":3,"distance":2519,"is_transit":false},{"transit":false,"i_long":106.66566,"line":6,"station_id":"SRP","is_transit":false,"i_lat":-6.319871,"station_name":"Serpong","time":4,"distance":1784},{"i_lat":-6.314823,"line":6,"transit":false,"i_long":106.675475,"station_name":"Rawa Buntu","station_id":"RU","time":4,"distance":2413,"is_transit":false},{"transit":false,"time":6,"station_name":"Sudimara","i_lat":-6.296963,"i_long":106.712277,"is_transit":false,"line":6,"distance":4566,"station_id":"SDM"},{"line":6,"time":4,"distance":1994,"station_id":"JMU","transit":false,"station_name":"Jurangmangu","i_lat":-6.288927,"i_long":106.728916,"is_transit":false},{"transit":false,"time":3,"station_name":"Pondokranji","i_lat":-6.276362,"distance":2179,"i_long":106.74273,"station_id":"PDJ","is_transit":false,"line":6},{"i_long":106.780334,"station_id":"KBY","station_name":"Kebayoran","distance":6218,"is_transit":false,"time":8,"transit":false,"line":6,"i_lat":-6.237242},{"station_id":"PLM","station_name":"Palmerah","i_long":106.79689,"line":6,"time":7,"distance":3737,"is_transit":false,"transit":false,"i_lat":-6.207404},{"line":1,"distance":3191,"station_name":"Tanah Abang","station_id":"THB","is_transit":true,"transit":true,"time":6,"i_lat":-6.185545,"i_long":106.811091},{"station_id":"KAT","i_long":106.816351,"line":1,"station_name":"Karet","time":5,"transit":false,"i_lat":-6.20132,"distance":2029,"is_transit":false},{"line":1,"is_transit":false,"time":1,"station_name":"Sudirman Baru","i_long":106.819881,"station_id":"SUDB","transit":false,"i_lat":-6.201433,"distance":471},{"distance":280,"station_id":"SUD","i_lat":-6.202263,"station_name":"Sudirman","time":1,"transit":false,"i_long":106.822649,"line":1,"is_transit":false},{"distance":3186,"time":4,"station_id":"MRI","is_transit":true,"station_name":"Manggarai","transit":true,"i_lat":-6.209883,"line":2,"i_long":106.84912},{"time":4,"i_lat":-6.198556,"station_id":"CKI","station_name":"Cikini","transit":false,"i_long":106.840169,"distance":1590,"is_transit":false,"line":2},{"i_lat":-6.186295,"i_long":106.832183,"distance":1750,"line":2,"time":3,"station_name":"Gondangdia","transit":false,"is_transit":false,"station_id":"GDD"},{"distance":2015,"station_id":"JUA","transit":false,"i_long":106.828284,"line":2,"is_transit":false,"station_name":"Juanda","i_lat":-6.166716,"time":4}],[{"transit":false,"distance":0,"i_lat":-6.329547,"i_long":106.617853,"station_id":"CC","station_name":"Cicayur","is_transit":false,"line":3,"time":0},{"transit":false,"station_name":"Cisauk","station_id":"CSK","distance":2519,"is_transit":false,"i_lat":-6.32484,"i_long":106.640411,"time":4,"line":3},{"transit":false,"time":4,"i_lat":-6.319871,"distance":1784,"is_transit":false,"i_long":106.66566,"line":6,"station_id":"SRP","station_name":"Serpong"},{"i_lat":-6.314823,"i_long":106.675475,"station_id":"RU","time":4,"line":6,"station_name":"Rawa Buntu","transit":false,"distance":2413,"is_transit":false},{"station_id":"SDM","i_long":106.712277,"time":6,"i_lat":-6.296963,"transit":false,"station_name":"Sudimara","distance":4566,"is_transit":false,"line":6},{"line":6,"i_lat":-6.288927,"time":4,"is_transit":false,"transit":false,"station_name":"Jurangmangu","i_long":106.728916,"station_id":"JMU","distance":1994},{"station_name":"Pondokranji","transit":false,"i_long":106.74273,"is_transit":false,"station_id":"PDJ","distance":2179,"time":3,"i_lat":-6.276362,"line":6},{"distance":6218,"i_long":106.780334,"station_id":"KBY","station_name":"Kebayoran","line":6,"time":8,"is_transit":false,"i_lat":-6.237242,"transit":false},{"line":6,"i_long":106.79689,"i_lat":-6.207404,"time":7,"distance":3737,"station_id":"PLM","transit":false,"is_transit":false,"station_name":"Palmerah"},{"line":1,"is_transit":true,"time":6,"station_id":"THB","transit":true,"distance":3191,"station_name":"Tanah Abang","i_lat":-6.185545,"i_long":106.811091},{"transit":false,"station_id":"DU","distance":3632,"time":8,"station_name":"Duri","i_lat":-6.155215,"line":1,"i_long":106.800832,"is_transit":false},{"station_name":"Angke","line":1,"time":4,"distance":1230,"station_id":"AK","transit":false,"i_lat":-6.144674,"i_long":106.79867,"is_transit":false},{"distance":4102,"line":4,"station_name":"Kampung Bandan","transit":true,"station_id":"KPB","time":9,"is_transit":true,"i_lat":-6.132549,"i_long":106.826365},{"distance":1364,"station_id":"JAKK","i_lat":-6.137569,"is_transit":true,"station_name":"Jakarta Kota","i_long":106.812439,"time":3,"line":2,"transit":true},{"is_transit":false,"transit":false,"station_id":"JAY","time":4,"distance":1264,"station_name":"Jayakarta","i_long":106.820901,"line":2,"i_lat":-6.141205},{"time":2,"i_lat":-6.149769,"i_long":106.82482,"line":2,"transit":false,"is_transit":false,"distance":1080,"station_id":"MGB","station_name":"Manggabesar"},{"station_id":"SW","is_transit":false,"i_lat":-6.160725,"i_long":106.827103,"distance":906,"transit":false,"station_name":"Sawah Besar","time":2,"line":2},{"station_name":"Juanda","distance":1149,"line":2,"transit":false,"i_lat":-6.166716,"station_id":"JUA","i_long":106.828284,"time":2,"is_transit":false}],[{"is_transit":false,"i_long":106.617853,"distance":0,"line":3,"i_lat":-6.329547,"transit":false,"time":0,"station_id":"CC","station_name":"Cicayur"},{"station_id":"CSK","transit":false,"line":3,"i_long":106.640411,"i_lat":-6.32484,"station_name":"Cisauk","time":4,"distance":2519,"is_transit":false},{"station_id":"SRP","transit":false,"i_long":106.66566,"line":6,"is_transit":false,"station_name":"Serpong","time":4,"distance":1784,"i_lat":-6.319871},{"distance":2413,"i_lat":-6.314823,"station_id":"RU","i_long":106.675475,"station_name":"Rawa Buntu","transit":false,"line":6,"time":4,"is_transit":false},{"i_long":106.712277,"i_lat":-6.296963,"line":6,"station_id":"SDM","transit":false,"distance":4566,"station_name":"Sudimara","time":6,"is_transit":false},{"distance":1994,"is_transit":false,"line":6,"i_lat":-6.288927,"transit":false,"station_id":"JMU","i_long":106.728916,"time":4,"station_name":"Jurangmangu"},{"distance":2179,"transit":false,"time":3,"station_name":"Pondokranji","i_lat":-6.276362,"station_id":"PDJ","i_long":106.74273,"line":6,"is_transit":false},{"distance":6218,"i_lat":-6.237242,"station_name":"Kebayoran","time":8,"transit":false,"line":6,"is_transit":false,"i_long":106.780334,"station_id":"KBY"},{"i_long":106.79689,"line":6,"distance":3737,"station_id":"PLM","station_name":"Palmerah","i_lat":-6.207404,"time":7,"is_transit":false,"transit":false},{"station_name":"Tanah Abang","transit":true,"distance":3191,"is_transit":true,"i_long":106.811091,"station_id":"THB","line":1,"time":6,"i_lat":-6.185545},{"time":8,"transit":false,"station_id":"DU","i_lat":-6.155215,"distance":3632,"is_transit":false,"station_name":"Duri","line":1,"i_long":106.800832},{"station_name":"Angke","distance":1230,"transit":false,"station_id":"AK","is_transit":false,"time":4,"i_long":106.79867,"line":1,"i_lat":-6.144674},{"distance":4102,"i_lat":-6.132549,"is_transit":true,"station_name":"Kampung Bandan","station_id":"KPB","time":9,"line":4,"i_long":106.826365,"transit":true},{"station_id":"RJW","transit":false,"distance":1444,"is_transit":false,"i_long":106.836569,"line":11,"i_lat":-6.14505,"station_name":"Rajawali","time":3},{"transit":false,"i_lat":-6.161728,"i_long":106.839204,"line":11,"station_name":"Kemayoran","is_transit":false,"station_id":"KMO","time":5,"distance":1901},{"station_name":"Pasar Senen","time":4,"distance":1436,"station_id":"PSE","i_long":106.84368,"line":11,"transit":false,"is_transit":false,"i_lat":-6.174784},{"station_id":"GST","station_name":"Gang Sentiong","i_long":106.850107,"line":11,"time":8,"distance":1567,"i_lat":-6.185975,"is_transit":false,"transit":false},{"i_lat":-6.193792,"station_id":"KMT","transit":false,"is_transit":false,"line":11,"station_name":"Kramat","time":1,"distance":973,"i_long":106.855437},{"i_lat":-6.209188,"station_name":"Pondok Jati","i_long":106.861737,"distance":1829,"is_transit":false,"station_id":"POK","transit":false,"line":11,"time":2},{"i_lat":-6.215091,"distance":1236,"line":1,"transit":true,"time":9,"is_transit":true,"i_long":106.86807400000001,"station_id":"JNG","station_name":"Jatinegara"},{"i_long":106.858896,"time":2,"is_transit":false,"line":1,"station_id":"MTR","distance":1377,"transit":false,"station_name":"Matraman","i_lat":-6.212485},{"i_long":106.84912,"transit":true,"distance":1275,"is_transit":true,"line":2,"time":2,"station_id":"MRI","i_lat":-6.209883,"station_name":"Manggarai"},{"time":4,"line":2,"transit":false,"i_long":106.840169,"i_lat":-6.198556,"distance":1590,"station_id":"CKI","is_transit":false,"station_name":"Cikini"},{"i_lat":-6.186295,"i_long":106.832183,"transit":false,"is_transit":false,"line":2,"station_name":"Gondangdia","time":3,"distance":1750,"station_id":"GDD"},{"line":2,"i_long":106.828284,"station_id":"JUA","station_name":"Juanda","distance":2015,"transit":false,"is_transit":false,"time":4,"i_lat":-6.166716}],[{"station_id":"CC","distance":0,"is_transit":false,"line":3,"station_name":"Cicayur","time":0,"i_long":106.617853,"transit":false,"i_lat":-6.329547},{"distance":2519,"i_lat":-6.32484,"line":3,"transit":false,"station_id":"CSK","is_transit":false,"station_name":"Cisauk","i_long":106.640411,"time":4},{"i_lat":-6.319871,"line":6,"station_id":"SRP","time":4,"station_name":"Serpong","distance":1784,"transit":false,"is_transit":false,"i_long":106.66566},{"transit":false,"station_name":"Rawa Buntu","i_lat":-6.314823,"time":4,"is_transit":false,"i_long":106.675475,"station_id":"RU","distance":2413,"line":6},{"station_name":"Sudimara","i_lat":-6.296963,"distance":4566,"transit":false,"station_id":"SDM","time":6,"is_transit":false,"i_long":106.712277,"line":6},{"i_lat":-6.288927,"station_name":"Jurangmangu","i_long":106.728916,"distance":1994,"is_transit":false,"transit":false,"station_id":"JMU","line":6,"time":4},{"distance":2179,"is_transit":false,"transit":false,"line":6,"station_id":"PDJ","i_long":106.74273,"station_name":"Pondokranji","time":3,"i_lat":-6.276362},{"is_transit":false,"station_name":"Kebayoran","i_long":106.780334,"line":6,"transit":false,"station_id":"KBY","distance":6218,"i_lat":-6.237242,"time":8},{"i_long":106.79689,"i_lat":-6.207404,"is_transit":false,"line":6,"transit":false,"station_id":"PLM","station_name":"Palmerah","distance":3737,"time":7},{"line":1,"time":6,"station_id":"THB","distance":3191,"is_transit":true,"i_long":106.811091,"station_name":"Tanah Abang","transit":true,"i_lat":-6.185545},{"i_lat":-6.20132,"line":1,"i_long":106.816351,"station_id":"KAT","station_name":"Karet","transit":false,"time":5,"distance":2029,"is_transit":false},{"is_transit":false,"i_long":106.819881,"line":1,"distance":471,"i_lat":-6.201433,"station_name":"Sudirman Baru","station_id":"SUDB","transit":false,"time":1},{"i_lat":-6.202263,"transit":false,"line":1,"time":1,"station_id":"SUD","distance":280,"is_transit":false,"station_name":"Sudirman","i_long":106.822649},{"station_name":"Manggarai","is_transit":false,"time":4,"distance":3186,"transit":false,"i_long":106.84912,"station_id":"MRI","line":2,"i_lat":-6.209883},{"transit":false,"line":1,"time":2,"is_transit":false,"i_lat":-6.212485,"station_id":"MTR","i_long":106.858896,"station_name":"Matraman","distance":1275},{"i_long":106.86807400000001,"transit":true,"i_lat":-6.215091,"station_id":"JNG","is_transit":true,"line":1,"time":8,"distance":1377,"station_name":"Jatinegara"},{"station_name":"Pondok Jati","i_lat":-6.209188,"station_id":"POK","time":2,"line":11,"is_transit":false,"i_long":106.861737,"transit":false,"distance":1236},{"is_transit":false,"transit":false,"i_long":106.855437,"line":11,"station_id":"KMT","station_name":"Kramat","time":2,"i_lat":-6.193792,"distance":1829},{"is_transit":false,"i_long":106.850107,"station_id":"GST","distance":973,"time":1,"station_name":"Gang Sentiong","line":11,"i_lat":-6.185975,"transit":false},{"distance":1567,"is_transit":false,"station_id":"PSE","station_name":"Pasar Senen","i_lat":-6.174784,"transit":false,"time":8,"i_long":106.84368,"line":11},{"time":4,"i_lat":-6.161728,"line":11,"is_transit":false,"station_id":"KMO","transit":false,"distance":1436,"i_long":106.839204,"station_name":"Kemayoran"},{"line":11,"i_lat":-6.14505,"time":5,"i_long":106.836569,"station_id":"RJW","station_name":"Rajawali","is_transit":false,"transit":false,"distance":1901},{"i_lat":-6.132549,"i_long":106.826365,"distance":1444,"is_transit":true,"line":4,"station_id":"KPB","transit":true,"station_name":"Kampung Bandan","time":3},{"line":2,"transit":true,"distance":1364,"is_transit":true,"i_lat":-6.137569,"station_name":"Jakarta Kota","time":3,"station_id":"JAKK","i_long":106.812439},{"transit":false,"station_name":"Jayakarta","i_long":106.820901,"i_lat":-6.141205,"distance":1264,"line":2,"station_id":"JAY","time":4,"is_transit":false},{"station_id":"MGB","station_name":"Manggabesar","distance":1080,"time":2,"line":2,"i_lat":-6.149769,"i_long":106.82482,"transit":false,"is_transit":false},{"station_name":"Sawah Besar","is_transit":false,"station_id":"SW","i_long":106.827103,"distance":906,"time":2,"line":2,"i_lat":-6.160725,"transit":false},{"station_name":"Juanda","station_id":"JUA","i_long":106.828284,"distance":1149,"transit":false,"i_lat":-6.166716,"time":2,"is_transit":false,"line":2}]]}