{"data":[[{"station_name":"Cicayur","i_lat":-6.329547,"line":3,"time":0,"i_long":106.617853,"distance":0,"is_transit":false,"transit":false,"station_id":"CC"},{"time":4,"station_id":"CSK","is_transit":false,"station_name":"Cisauk","distance":2519,"line":3,"transit":false,"i_lat":-6.32484,"i_long":106.640411},{"i_lat":-6.319871,"is_transit":false,"i_long":106.66566,"line":6,"transit":false,"station_name":"Serpong","time":4,"distance":1784,"station_id":"SRP"},{"line":6,"i_long":106.675475,"station_name":"Rawa Buntu","station_id":"RU","time":4,"transit":false,"i_lat":-6.314823,"distance":2413,"is_transit":false},{"i_lat":-6.296963,"line":6,"distance":4566,"transit":false,"station_name":"Sudimara","is_transit":false,"station_id":"SDM","i_long":106.712277,"time":6},{"transit":false,"station_name":"Jurangmangu","station_id":"JMU","i_lat":-6.288927,"i_long":106.728916,"line":6,"time":4,"distance":1994,"is_transit":false},{"i_long":106.74273,"i_lat":-6.276362,"is_transit":false,"station_id":"PDJ","distance":2179,"time":3,"station_name":"Pondokranji","line":6,"transit":false},{"distance":6218,"transit":false,"station_name":"Kebayoran","i_lat":-6.237242,"line":6,"time":8,"i_long":106.780334,"is_transit":false,"station_id":"KBY"},{"transit":false,"station_name":"Palmerah","station_id":"PLM","time":7,"line":6,"is_transit":false,"distance":3737,"i_long":106.79689,"i_lat":-6.207404},{"i_long":106.811091,"transit":true,"station_name":"Tanah Abang","time":6,"line":1,"distance":3191,"i_lat":-6.185545,"station_id":"THB","is_transit":true},{"line":1,"station_id":"KAT","is_transit":false,"distance":2029,"station_name":"Karet","transit":false,"i_lat":-6.20132,"i_long":106.816351,"time":5},{"i_lat":-6.201433,"is_transit":false,"line":1,"station_name":"Sudirman Baru","i_long":106.819881,"distance":471,"station_id":"SUDB","time":1,"transit":false},{"i_lat":-6.202263,"station_name":"Sudirman","transit":false,"station_id":"SUD","time":1,"is_transit":false,"i_long":106.822649,"line":1,"distance":280},{"distance":3186,"station_id":"MRI","line":2,"transit":false,"station_name":"Manggarai","time":4,"i_lat":-6.209883,"is_transit":false,"i_long":106.84912},{"time":2,"i_long":106.858896,"i_lat":-6.212485,"station_id":"MTR","station_name":"Matraman","line":1,"is_transit":false,"transit":false,"distance":1275},{"station_name":"Jatinegara","distance":1377,"station_id":"JNG","is_transit":false,"transit":false,"i_long":106.86807400000001,"line":1,"i_lat":-6.215091,"time":8}],[{"i_long":106.617853,"distance":0,"station_id":"CC","transit":false,"i_lat":-6.329547,"is_transit":false,"time":0,"station_name":"Cicayur","line":3},{"distance":2519,"station_name":"Cisauk","is_transit":false,"transit":false,"station_id":"CSK","line":3,"time":4,"i_lat":-6.32484,"i_long":106.640411},{"is_transit":false,"i_long":106.66566,"line":6,"distance":1784,"time":4,"station_id":"SRP","transit":false,"station_name":"Serpong","i_lat":-6.319871},{"i_lat":-6.314823,"time":4,"line":6,"station_name":"Rawa Buntu","i_long":106.675475,"is_transit":false,"station_id":"RU","transit":false,"distance":2413},{"station_name":"Sudimara","i_lat":-6.296963,"line":6,"i_long":106.712277,"station_id":"SDM","distance":4566,"transit":false,"time":6,"is_transit":false},{"distance":1994,"line":6,"is_transit":false,"station_id":"JMU","station_name":"Jurangmangu","transit":false,"i_lat":-6.288927,"i_long":106.728916,"time":4},{"i_lat":-6.276362,"line":6,"station_name":"Pondokranji","i_long":106.74273,"distance":2179,"is_transit":false,"station_id":"PDJ","time":3,"transit":false},{"station_id":"KBY","transit":false,"i_long":106.780334,"is_transit":false,"i_lat":-6.237242,"station_name":"Kebayoran","line":6,"distance":6218,"time":8},{"station_name":"Palmerah","distance":3737,"i_lat":-6.207404,"i_long":106.79689,"line":6,"station_id":"PLM","transit":false,"time":7,"is_transit":false},{"is_transit":true,"time":6,"line":1,"station_name":"Tanah Abang","station_id":"THB","i_lat":-6.185545,"i_long":106.811091,"distance":3191,"transit":true},{"station_id":"DU","i_long":106.800832,"is_transit":false,"time":8,"transit":false,"i_lat":-6.155215,"distance":3632,"station_name":"Duri","line":1},{"station_id":"AK","time":4,"i_long":106.79867,"transit":false,"distance":1230,"station_name":"Angke","line":1,"i_lat":-6.144674,"is_transit":false},{"station_id":"KPB","line":4,"station_name":"Kampung Bandan","i_long":106.826365,"distance":4102,"is_transit":true,"transit":true,"i_lat":-6.132549,"time":9},{"station_id":"RJW","transit":false,"distance":1444,"line":11,"station_name":"Rajawali","i_long":106.836569,"time":3,"i_lat":-6.14505,"is_transit":false},{"line":11,"transit":false,"is_transit":false,"time":5,"i_lat":-6.161728,"station_id":"KMO","distance":1901,"i_long":106.839204,"station_name":"Kemayoran"},{"time":4,"line":11,"station_name":"Pasar Senen","distance":1436,"station_id":"PSE","transit":false,"i_lat":-6.174784,"i_long":106.84368,"is_transit":false},{"i_lat":-6.185975,"transit":false,"line":11,"station_id":"GST","station_name":"Gang Sentiong","i_long":106.850107,"is_transit":false,"time":8,"distance":1567},{"station_id":"KMT","time":1,"station_name":"Kramat","line":11,"i_lat":-6.193792,"transit":false,"distance":973,"i_long":106.855437,"is_transit":false},{"line":11,"i_long":106.861737,"transit":false,"station_id":"POK","distance":1829,"i_lat":-6.209188,"time":2,"is_transit":false,"station_name":"Pondok Jati"},{"distance":1236,"time":9,"transit":false,"line":1,"is_transit":false,"i_lat":-6.215091,"i_long":106.86807400000001,"station_name":"Jatinegara","station_id":"JNG"}],[{"line":3,"i_long":106.617853,"station_name":"Cicayur","station_id":"CC","transit":false,"is_transit":false,"time":0,"i_lat":-6.329547,"distance":0},{"station_id":"CSK","transit":false,"distance":2519,"is_transit":false,"line":3,"station_name":"Cisauk","i_lat":-6.32484,"time":4,"i_long":106.640411},{"station_id":"SRP","time":4,"i_long":106.66566,"station_name":"Serpong","line":6,"distance":1784,"transit":false,"i_lat":-6.319871,"is_transit":false},{"distance":2413,"transit":false,"is_transit":false,"i_lat":-6.314823,"i_long":106.675475,"station_id":"RU","line":6,"station_name":"Rawa Buntu","time":4},{"time":6,"i_lat":-6.296963,"distance":4566,"station_name":"Sudimara","line":6,"transit":false,"is_transit":false,"i_long":106.712277,"station_id":"SDM"},{"i_long":106.728916,"line":6,"time":4,"station_id":"JMU","transit":false,"i_lat":-6.288927,"distance":1994,"is_transit":false,"station_name":"Jurangmangu"},{"time":3,"station_name":"Pondokranji","station_id":"PDJ","i_lat":-6.276362,"transit":false,"i_long":106.74273,"line":6,"is_transit":false,"distance":2179},{"line":6,"station_id":"KBY","is_transit":false,"i_long":106.780334,"distance":6218,"transit":false,"time":8,"i_lat":-6.237242,"station_name":"Kebayoran"},{"line":6,"i_long":106.79689,"station_name":"Palmerah","distance":3737,"transit":false,"is_transit":false,"time":7,"station_id":"PLM","i_lat":-6.207404},{"is_transit":true,"time":6,"i_long":106.811091,"line":1,"i_lat":-6.185545,"station_name":"Tanah Abang","station_id":"THB","transit":true,"distance":3191},{"distance":3632,"line":1,"i_lat":-6.155215,"i_long":106.800832,"is_transit":false,"transit":false,"station_id":"DU","station_name":"Duri","time":8},{"station_id":"AK","i_lat":-6.144674,"station_name":"Angke","line":1,"transit":false,"time":4,"distance":1230,"is_transit":false,"i_long":106.79867},{"station_id":"KPB","line":4,"is_transit":true,"i_lat":-6.132549,"time":9,"transit":true,"distance":4102,"i_long":106.826365,"station_name":"Kampung Bandan"},{"distance":1364,"station_id":"JAKK","station_name":"Jakarta Kota","transit":true,"i_lat":-6.137569,"i_long":106.812439,"time":3,"line":2,"is_transit":true},{"line":2,"transit":false,"i_long":106.820901,"station_name":"Jayakarta","is_transit":false,"distance":1264,"i_lat":-6.141205,"station_id":"JAY","time":4},{"is_transit":false,"i_long":106.82482,"line":2,"transit":false,"station_name":"Manggabesar","i_lat":-6.149769,"time":2,"distance":1080,"station_id":"MGB"},{"i_long":106.827103,"line":2,"station_id":"SW","transit":false,"time":2,"station_name":"Sawah Besar","is_transit":false,"distance":906,"i_lat":-6.160725},{"distance":1149,"station_name":"Juanda","i_lat":-6.166716,"time":2,"line":2,"station_id":"JUA","transit":false,"is_transit":false,"i_long":106.828284},{"i_lat":-6.186295,"transit":false,"is_transit":false,"station_name":"Gondangdia","distance":2015,"time":4,"i_long":106.832183,"line":2,"station_id":"GDD"},{"i_lat":-6.198556,"line":2,"station_id":"CKI","time":3,"distance":1750,"station_name":"Cikini","is_transit":false,"transit":false,"i_long":106.840169},{"station_id":"MRI","time":4,"distance":1590,"i_long":106.84912,"is_transit":true,"line":2,"station_name":"Manggarai","transit":true,"i_lat":-6.209883},{"distance":1275,"transit":false,"i_lat":-6.212485,"line":1,"time":2,"i_long":106.858896,"station_name":"Matraman","is_transit":false,"station_id":"MTR"},{"time":8,"transit":false,"is_transit":false,"station_name":"Jatinegara","i_lat":-6.215091,"i_long":106.86807400000001,"station_id":"JNG","line":1,"distance":1377}],[{"is_transit":false,"i_lat":-6.329547,"distance":0,"line":3,"i_long":106.617853,"station_id":"CC","time":0,"transit":false,"station_name":"Cicayur"},{"station_id":"CSK","time":4,"i_long":106.640411,"i_lat":-6.32484,"station_name":"Cisauk","line":3,"distance":2519,"transit":false,"is_transit":false},{"i_lat":-6.319871,"line":6,"distance":1784,"i_long":106.66566,"is_transit":false,"time":4,"transit":false,"station_id":"SRP","station_name":"Serpong"},{"station_id":"RU","is_transit":false,"station_name":"Rawa Buntu","i_lat":-6.314823,"i_long":106.675475,"time":4,"line":6,"transit":false,"distance":2413},{"distance":4566,"transit":false,"station_id":"SDM","i_lat":-6.296963,"station_name":"Sudimara","time":6,"is_transit":false,"i_long":106.712277,"line":6},{"line":6,"time":4,"i_long":106.728916,"is_transit":false,"station_id":"JMU","i_lat":-6.288927,"distance":1994,"transit":false,"station_name":"Jurangmangu"},{"i_long":106.74273,"line":6,"station_id":"PDJ","station_name":"Pondokranji","i_lat":-6.276362,"distance":2179,"is_transit":false,"time":3,"transit":false},{"time":8,"distance":6218,"is_transit":false,"transit":false,"i_lat":-6.237242,"i_long":106.780334,"station_id":"KBY","line":6,"station_name":"Kebayoran"},{"is_transit":false,"station_name":"Palmerah","station_id":"PLM","transit":false,"i_lat":-6.207404,"i_long":106.79689,"distance":3737,"time":7,"line":6},{"line":1,"station_name":"Tanah Abang","i_long":106.811091,"time":6,"i_lat":-6.185545,"is_transit":true,"distance":3191,"station_id":"THB","transit":true},{"time":5,"line":1,"station_name":"Karet","transit":false,"is_transit":false,"station_id":"KAT","i_lat":-6.20132,"i_long":106.816351,"distance":2029},{"transit":false,"station_id":"SUDB","distance":471,"line":1,"is_transit":false,"time":1,"i_lat":-6.201433,"station_name":"Sudirman Baru","i_long":106.819881},{"i_lat":-6.202263,"distance":280,"i_long":106.822649,"line":1,"time":1,"transit":false,"station_id":"SUD","is_transit":false,"station_name":"Sudirman"},{"transit":true,"i_long":106.84912,"distance":3186,"station_id":"MRI","is_transit":true,"time":4,"i_lat":-6.209883,"station_name":"Manggarai","line":2},{"station_name":"Cikini","distance":1590,"transit":false,"line":2,"station_id":"CKI","i_long":106.840169,"time":4,"i_lat":-6.198556,"is_transit":false},{"station_id":"GDD","time":3,"i_long":106.832183,"is_transit":false,"line":2,"transit":false,"i_lat":-6.186295,"distance":1750,"station_name":"Gondangdia"},{"station_id":"JUA","distance":2015,"station_name":"Juanda","is_transit":false,"transit":false,"time":4,"i_long":106.828284,"i_lat":-6.166716,"line":2},{"time":2,"station_id":"SW","station_name":"Sawah Besar","transit":false,"distance":1149,"i_lat":-6.160725,"is_transit":false,"i_long":106.827103,"line":2},{"station_id":"MGB","station_name":"Manggabesar","time":2,"transit":false,"is_transit":false,"distance":906,"i_lat":-6.149769,"i_long":106.82482,"line":2},{"i_long":106.820901,"distance":1080,"is_transit":false,"station_id":"JAY","transit":false,"time":2,"line":2,"station_name":"Jayakarta","i_lat":-6.141205},{"i_lat":-6.137569,"line":2,"station_id":"JAKK","i_long":106.812439,"is_transit":true,"time":4,"transit":true,"distance":1264,"station_name":"Jakarta Kota"},{"transit":true,"line":4,"time":3,"i_lat":-6.132549,"distance":1364,"station_name":"Kampung Bandan","station_id":"KPB","i_long":106.826365,"is_transit":true},{"is_transit":false,"time":3,"station_id":"RJW","i_long":106.836569,"line":11,"transit":false,"distance":1444,"station_name":"Rajawali","i_lat":-6.14505},{"station_id":"KMO","transit":false,"time":5,"station_name":"Kemayoran","i_long":106.839204,"i_lat":-6.161728,"line":11,"is_transit":false,"distance":1901},{"transit":false,"time":4,"i_lat":-6.174784,"i_long":106.84368,"distance":1436,"line":11,"is_transit":false,"station_id":"PSE","station_name":"Pasar Senen"},{"station_id":"GST","station_name":"Gang Sentiong","distance":1567,"line":11,"transit":false,"time":8,"is_transit":false,"i_lat":-6.185975,"i_long":106.850107},{"distance":973,"time":1,"i_lat":-6.193792,"station_name":"Kramat","transit":false,"is_transit":false,"i_long":106.855437,"line":11,"station_id":"KMT"},{"line":11,"station_name":"Pondok Jati","station_id":"POK","transit":false,"is_transit":false,"i_lat":-6.209188,"distance":1829,"time":2,"i_long":106.861737},{"transit":false,"i_lat":-6.215091,"i_long":106.86807400000001,"time":9,"line":1,"is_transit":false,"distance":1236,"station_name":"Jatinegara","station_id":"JNG"}]]}