{"data":[[{"i_lat":-6.329547,"line":0,"is_transit":false,"station_name":"Cicayur","i_long":106.617853,"transit":false,"station_id":"CC","distance":0,"time":0},{"station_id":"CSK","is_transit":false,"transit":false,"station_name":"Cisauk","distance":2519,"i_long":106.640411,"line":0,"i_lat":-6.32484,"time":4},{"transit":false,"line":6,"distance":1784,"station_id":"SRP","is_transit":false,"time":4,"i_lat":-6.319871,"i_long":106.66566,"station_name":"Serpong"},{"i_lat":-6.314823,"line":6,"station_name":"Rawa Buntu","transit":false,"distance":2413,"station_id":"RU","time":4,"is_transit":false,"i_long":106.675475},{"i_long":106.712277,"station_id":"SDM","line":6,"station_name":"Sudimara","is_transit":false,"distance":4566,"time":6,"transit":false,"i_lat":-6.296963},{"station_name":"Jurangmangu","line":6,"transit":false,"time":4,"station_id":"JMU","distance":1994,"i_lat":-6.288927,"i_long":106.728916,"is_transit":false},{"line":6,"time":3,"transit":false,"station_name":"Pondokranji","i_long":106.74273,"station_id":"PDJ","is_transit":false,"i_lat":-6.276362,"distance":2179},{"i_lat":-6.237242,"i_long":106.780334,"distance":6218,"station_id":"KBY","is_transit":false,"time":8,"station_name":"Kebayoran","transit":false,"line":6},{"distance":3737,"line":6,"station_name":"Palmerah","transit":false,"i_lat":-6.207404,"i_long":106.79689,"is_transit":false,"time":7,"station_id":"PLM"},{"station_id":"THB","station_name":"Tanah Abang","is_transit":true,"time":6,"distance":3191,"i_lat":-6.185545,"line":1,"transit":true,"i_long":106.811091},{"distance":2029,"i_long":106.816351,"time":5,"transit":false,"i_lat":-6.20132,"line":1,"is_transit":false,"station_id":"KAT","station_name":"Karet"},{"station_id":"SUDB","distance":471,"i_lat":-6.201433,"line":1,"i_long":106.819881,"station_name":"Sudirman Baru","is_transit":false,"transit":false,"time":1},{"distance":280,"is_transit":false,"station_name":"Sudirman","station_id":"SUD","i_lat":-6.202263,"transit":false,"line":1,"time":1,"i_long":106.822649},{"time":4,"station_id":"MRI","i_lat":-6.209883,"is_transit":true,"station_name":"Manggarai","distance":3186,"i_long":106.84912,"transit":true,"line":0},{"distance":1590,"transit":false,"station_id":"CKI","line":0,"station_name":"Cikini","i_lat":-6.198556,"i_long":106.840169,"time":4,"is_transit":false},{"distance":1750,"is_transit":false,"station_name":"Gondangdia","time":3,"line":2,"i_lat":-6.186295,"transit":false,"station_id":"GDD","i_long":106.832183},{"station_name":"Juanda","i_long":106.828284,"distance":2015,"transit":false,"station_id":"JUA","time":4,"line":2,"is_transit":false,"i_lat":-6.166716}],[{"is_transit":false,"station_id":"CC","transit":false,"i_lat":-6.329547,"time":0,"station_name":"Cicayur","line":0,"distance":0,"i_long":106.617853},{"time":4,"transit":false,"line":0,"is_transit":false,"distance":2519,"station_name":"Cisauk","i_long":106.640411,"i_lat":-6.32484,"station_id":"CSK"},{"distance":1784,"i_long":106.66566,"line":6,"is_transit":false,"i_lat":-6.319871,"time":4,"station_id":"SRP","transit":false,"station_name":"Serpong"},{"is_transit":false,"time":4,"station_id":"RU","distance":2413,"i_lat":-6.314823,"transit":false,"line":6,"i_long":106.675475,"station_name":"Rawa Buntu"},{"station_name":"Sudimara","distance":4566,"is_transit":false,"i_lat":-6.296963,"station_id":"SDM","line":6,"time":6,"transit":false,"i_long":106.712277},{"i_long":106.728916,"station_id":"JMU","transit":false,"is_transit":false,"line":6,"distance":1994,"station_name":"Jurangmangu","time":4,"i_lat":-6.288927},{"time":3,"i_long":106.74273,"i_lat":-6.276362,"transit":false,"is_transit":false,"distance":2179,"station_name":"Pondokranji","station_id":"PDJ","line":6},{"distance":6218,"transit":false,"station_name":"Kebayoran","time":8,"line":6,"is_transit":false,"i_lat":-6.237242,"station_id":"KBY","i_long":106.780334},{"transit":false,"distance":3737,"i_long":106.79689,"is_transit":false,"line":6,"station_id":"PLM","time":7,"station_name":"Palmerah","i_lat":-6.207404},{"station_name":"Tanah Abang","station_id":"THB","time":6,"i_lat":-6.185545,"transit":true,"i_long":106.811091,"line":1,"distance":3191,"is_transit":true},{"line":1,"station_id":"DU","time":8,"i_long":106.800832,"transit":true,"station_name":"Duri","i_lat":-6.155215,"is_transit":true,"distance":3632},{"i_long":106.79867,"is_transit":false,"station_id":"AK","time":4,"line":0,"transit":false,"station_name":"Angke","distance":1230,"i_lat":-6.144674},{"station_name":"Kampung Bandan","distance":4102,"time":9,"i_lat":-6.132549,"line":0,"transit":false,"i_long":106.826365,"station_id":"KPB","is_transit":true},{"station_id":"JAKK","line":0,"station_name":"Jakarta Kota","distance":1364,"i_lat":-6.137569,"time":3,"transit":true,"is_transit":true,"i_long":106.812439},{"transit":false,"i_long":106.820901,"time":4,"station_id":"JAY","is_transit":false,"line":7,"distance":1264,"i_lat":-6.141205,"station_name":"Jayakarta"},{"i_long":106.82482,"is_transit":false,"line":2,"distance":1080,"i_lat":-6.149769,"time":2,"station_id":"MGB","transit":false,"station_name":"Manggabesar"},{"distance":906,"transit":false,"station_name":"Sawah Besar","line":2,"station_id":"SW","time":2,"is_transit":false,"i_lat":-6.160725,"i_long":106.827103},{"transit":false,"i_long":106.828284,"station_name":"Juanda","station_id":"JUA","line":2,"time":2,"is_transit":false,"distance":1149,"i_lat":-6.166716}],[{"transit":false,"line":0,"distance":0,"station_name":"Cicayur","station_id":"CC","i_lat":-6.329547,"is_transit":false,"time":0,"i_long":106.617853},{"station_id":"CSK","is_transit":false,"line":0,"transit":false,"i_long":106.640411,"time":4,"distance":2519,"station_name":"Cisauk","i_lat":-6.32484},{"time":4,"station_id":"SRP","i_lat":-6.319871,"i_long":106.66566,"line":6,"is_transit":false,"distance":1784,"station_name":"Serpong","transit":false},{"distance":2413,"station_name":"Rawa Buntu","transit":false,"i_long":106.675475,"time":4,"is_transit":false,"i_lat":-6.314823,"line":6,"station_id":"RU"},{"i_lat":-6.296963,"line":6,"distance":4566,"station_name":"Sudimara","time":6,"i_long":106.712277,"station_id":"SDM","transit":false,"is_transit":false},{"time":4,"is_transit":false,"transit":false,"station_name":"Jurangmangu","i_long":106.728916,"station_id":"JMU","line":6,"i_lat":-6.288927,"distance":1994},{"distance":2179,"station_id":"PDJ","station_name":"Pondokranji","time":3,"i_lat":-6.276362,"i_long":106.74273,"transit":false,"line":6,"is_transit":false},{"i_long":106.780334,"i_lat":-6.237242,"line":6,"station_id":"KBY","time":8,"transit":false,"distance":6218,"is_transit":false,"station_name":"Kebayoran"},{"line":6,"is_transit":false,"station_name":"Palmerah","i_lat":-6.207404,"time":7,"transit":false,"distance":3737,"i_long":106.79689,"station_id":"PLM"},{"station_name":"Tanah Abang","line":1,"distance":3191,"time":6,"i_long":106.811091,"is_transit":true,"i_lat":-6.185545,"station_id":"THB","transit":true},{"is_transit":true,"line":1,"station_id":"DU","distance":3632,"transit":true,"station_name":"Duri","i_lat":-6.155215,"i_long":106.800832,"time":8},{"distance":1230,"is_transit":false,"i_long":106.79867,"line":0,"station_name":"Angke","station_id":"AK","transit":false,"time":4,"i_lat":-6.144674},{"is_transit":true,"i_long":106.826365,"transit":true,"i_lat":-6.132549,"station_id":"KPB","distance":4102,"line":0,"time":9,"station_name":"Kampung Bandan"},{"distance":1444,"is_transit":false,"time":3,"i_lat":-6.14505,"station_id":"RJW","line":11,"i_long":106.836569,"station_name":"Rajawali","transit":false},{"transit":false,"i_lat":-6.161728,"time":5,"i_long":106.839204,"is_transit":false,"station_id":"KMO","distance":1901,"station_name":"Kemayoran","line":11},{"distance":1436,"is_transit":false,"i_lat":-6.174784,"transit":false,"station_id":"PSE","time":4,"station_name":"Pasar Senen","i_long":106.84368,"line":11},{"transit":false,"station_id":"GST","distance":1567,"is_transit":false,"station_name":"Gang Sentiong","line":11,"i_long":106.850107,"i_lat":-6.185975,"time":8},{"distance":973,"i_long":106.855437,"time":1,"transit":false,"station_name":"Kramat","i_lat":-6.193792,"line":11,"station_id":"KMT","is_transit":false},{"i_lat":-6.209188,"distance":1829,"i_long":106.861737,"is_transit":false,"line":11,"station_id":"POK","station_name":"Pondok Jati","time":2,"transit":false},{"line":0,"time":9,"i_long":106.86807400000001,"is_transit":true,"transit":true,"i_lat":-6.215091,"station_id":"JNG","distance":1236,"station_name":"Jatinegara"},{"i_long":106.858896,"distance":1377,"transit":false,"station_id":"MTR","time":2,"i_lat":-6.212485,"station_name":"Matraman","is_transit":false,"line":1},{"station_name":"Manggarai","station_id":"MRI","is_transit":true,"time":2,"i_long":106.84912,"line":0,"distance":1275,"transit":true,"i_lat":-6.209883},{"is_transit":false,"line":0,"station_name":"Cikini","transit":false,"station_id":"CKI","distance":1590,"i_lat":-6.198556,"i_long":106.840169,"time":4},{"station_name":"Gondangdia","time":3,"is_transit":false,"station_id":"GDD","line":2,"distance":1750,"i_long":106.832183,"i_lat":-6.186295,"transit":false},{"i_lat":-6.166716,"line":2,"transit":false,"station_id":"JUA","i_long":106.828284,"is_transit":false,"distance":2015,"time":4,"station_name":"Juanda"}],[{"transit":false,"line":0,"station_id":"CC","time":0,"distance":0,"i_lat":-6.329547,"station_name":"Cicayur","is_transit":false,"i_long":106.617853},{"station_id":"CSK","i_long":106.640411,"line":0,"transit":false,"time":4,"station_name":"Cisauk","is_transit":false,"i_lat":-6.32484,"distance":2519},{"transit":false,"is_transit":false,"distance":1784,"station_name":"Serpong","i_lat":-6.319871,"time":4,"station_id":"SRP","i_long":106.66566,"line":6},{"station_name":"Rawa Buntu","transit":false,"i_long":106.675475,"is_transit":false,"time":4,"line":6,"station_id":"RU","i_lat":-6.314823,"distance":2413},{"time":6,"station_id":"SDM","distance":4566,"i_lat":-6.296963,"i_long":106.712277,"line":6,"transit":false,"station_name":"Sudimara","is_transit":false},{"line":6,"i_long":106.728916,"is_transit":false,"i_lat":-6.288927,"distance":1994,"transit":false,"station_id":"JMU","station_name":"Jurangmangu","time":4},{"i_lat":-6.276362,"line":6,"time":3,"distance":2179,"transit":false,"station_id":"PDJ","is_transit":false,"station_name":"Pondokranji","i_long":106.74273},{"distance":6218,"i_long":106.780334,"is_transit":false,"station_id":"KBY","station_name":"Kebayoran","line":6,"transit":false,"i_lat":-6.237242,"time":8},{"i_lat":-6.207404,"distance":3737,"transit":false,"station_name":"Palmerah","line":6,"station_id":"PLM","time":7,"i_long":106.79689,"is_transit":false},{"line":1,"is_transit":true,"distance":3191,"i_long":106.811091,"station_name":"Tanah Abang","transit":true,"station_id":"THB","time":6,"i_lat":-6.185545},{"i_long":106.816351,"i_lat":-6.20132,"is_transit":false,"line":1,"transit":false,"station_id":"KAT","time":5,"station_name":"Karet","distance":2029},{"station_id":"SUDB","station_name":"Sudirman Baru","line":1,"time":1,"transit":false,"i_long":106.819881,"is_transit":false,"distance":471,"i_lat":-6.201433},{"transit":false,"station_id":"SUD","station_name":"Sudirman","line":1,"time":1,"i_long":106.822649,"is_transit":false,"distance":280,"i_lat":-6.202263},{"line":0,"is_transit":true,"i_long":106.84912,"distance":3186,"time":4,"station_id":"MRI","station_name":"Manggarai","i_lat":-6.209883,"transit":false},{"is_transit":false,"station_id":"MTR","transit":false,"distance":1275,"i_lat":-6.212485,"station_name":"Matraman","time":2,"i_long":106.858896,"line":1},{"i_long":106.86807400000001,"station_name":"Jatinegara","station_id":"JNG","line":0,"transit":true,"i_lat":-6.215091,"distance":1377,"time":8,"is_transit":true},{"time":2,"i_long":106.861737,"station_id":"POK","transit":false,"i_lat":-6.209188,"distance":1236,"station_name":"Pondok Jati","line":11,"is_transit":false},{"time":2,"transit":false,"station_id":"KMT","station_name":"Kramat","i_long":106.855437,"line":11,"i_lat":-6.193792,"is_transit":false,"distance":1829},{"i_lat":-6.185975,"i_long":106.850107,"time":1,"line":11,"is_transit":false,"station_id":"GST","station_name":"Gang Sentiong","transit":false,"distance":973},{"station_id":"PSE","time":8,"distance":1567,"i_long":106.84368,"line":11,"station_name":"Pasar Senen","transit":false,"i_lat":-6.174784,"is_transit":false},{"line":11,"is_transit":false,"time":4,"distance":1436,"transit":false,"station_name":"Kemayoran","station_id":"KMO","i_long":106.839204,"i_lat":-6.161728},{"transit":false,"i_long":106.836569,"distance":1901,"line":11,"is_transit":false,"station_name":"Rajawali","station_id":"RJW","time":5,"i_lat":-6.14505},{"station_id":"KPB","i_lat":-6.132549,"station_name":"Kampung Bandan","time":3,"distance":1444,"transit":true,"is_transit":true,"i_long":106.826365,"line":0},{"station_id":"JAKK","is_transit":true,"station_name":"Jakarta Kota","line":0,"distance":1364,"transit":true,"time":3,"i_lat":-6.137569,"i_long":106.812439},{"time":4,"i_lat":-6.141205,"station_name":"Jayakarta","is_transit":false,"distance":1264,"transit":false,"i_long":106.820901,"line":7,"station_id":"JAY"},{"time":2,"i_long":106.82482,"station_name":"Manggabesar","station_id":"MGB","is_transit":false,"distance":1080,"transit":false,"i_lat":-6.149769,"line":2},{"distance":906,"i_lat":-6.160725,"line":2,"station_name":"Sawah Besar","i_long":106.827103,"is_transit":false,"transit":false,"station_id":"SW","time":2},{"transit":false,"time":2,"i_lat":-6.166716,"distance":1149,"i_long":106.828284,"is_transit":false,"station_name":"Juanda","station_id":"JUA","line":2}]]}