{"data":[[{"station_id":"CC","time":0,"line":3,"distance":0,"i_long":106.617853,"transit":false,"i_lat":-6.329547,"station_name":"Cicayur","is_transit":false},{"transit":false,"distance":2519,"i_long":106.640411,"time":4,"station_id":"CSK","i_lat":-6.32484,"line":3,"is_transit":false,"station_name":"Cisauk"},{"time":4,"distance":1784,"station_name":"Serpong","i_long":106.66566,"line":6,"i_lat":-6.319871,"station_id":"SRP","is_transit":false,"transit":false},{"station_id":"RU","transit":false,"i_long":106.675475,"line":6,"time":4,"distance":2413,"is_transit":false,"i_lat":-6.314823,"station_name":"Rawa Buntu"},{"time":6,"distance":4566,"transit":false,"line":6,"i_lat":-6.296963,"is_transit":false,"station_id":"SDM","station_name":"Sudimara","i_long":106.712277},{"time":4,"is_transit":false,"distance":1994,"line":6,"i_lat":-6.288927,"station_id":"JMU","station_name":"Jurangmangu","transit":false,"i_long":106.728916}]]}