{"data":[[{"station_id":"CC","station_name":"Cicayur","time":0,"distance":0,"is_transit":false,"i_lat":-6.329547,"transit":false,"i_long":106.617853,"line":0},{"transit":false,"is_transit":false,"line":0,"station_id":"CSK","station_name":"Cisauk","distance":2519,"time":4,"i_long":106.640411,"i_lat":-6.32484},{"station_id":"SRP","time":4,"i_long":106.66566,"line":6,"is_transit":false,"distance":1784,"i_lat":-6.319871,"transit":false,"station_name":"Serpong"},{"is_transit":false,"line":6,"time":4,"station_name":"Rawa Buntu","i_long":106.675475,"station_id":"RU","transit":false,"i_lat":-6.314823,"distance":2413},{"time":6,"is_transit":false,"station_name":"Sudimara","transit":false,"line":6,"distance":4566,"i_lat":-6.296963,"station_id":"SDM","i_long":106.712277},{"i_long":106.728916,"line":6,"distance":1994,"transit":false,"station_id":"JMU","i_lat":-6.288927,"is_transit":false,"time":4,"station_name":"Jurangmangu"}]]}