{"data":[[{"transit":false,"i_lat":-6.329547,"station_id":"CC","station_name":"Cicayur","is_transit":false,"distance":0,"line":3,"i_long":106.617853,"time":0},{"is_transit":false,"line":3,"station_name":"Cisauk","transit":false,"i_lat":-6.32484,"i_long":106.640411,"time":4,"station_id":"CSK","distance":2519},{"time":4,"is_transit":false,"line":6,"station_name":"Serpong","station_id":"SRP","transit":false,"distance":1784,"i_lat":-6.319871,"i_long":106.66566},{"i_long":106.675475,"time":4,"station_id":"RU","transit":false,"line":6,"distance":2413,"station_name":"Rawa Buntu","is_transit":false,"i_lat":-6.314823},{"distance":4566,"station_id":"SDM","transit":false,"time":6,"station_name":"Sudimara","line":6,"i_long":106.712277,"is_transit":false,"i_lat":-6.296963},{"i_lat":-6.288927,"i_long":106.728916,"line":6,"station_id":"JMU","distance":1994,"transit":false,"station_name":"Jurangmangu","is_transit":false,"time":4}]]}