{"data":[[{"station_id":"CC","is_transit":false,"distance":0,"i_lat":-6.329547,"i_long":106.617853,"station_name":"Cicayur","transit":false,"time":0,"line":3},{"transit":false,"line":3,"station_id":"CSK","is_transit":false,"station_name":"Cisauk","distance":2519,"i_lat":-6.32484,"time":4,"i_long":106.640411},{"station_id":"SRP","station_name":"Serpong","transit":false,"line":6,"distance":1784,"time":4,"i_long":106.66566,"is_transit":false,"i_lat":-6.319871},{"time":4,"is_transit":false,"i_lat":-6.314823,"i_long":106.675475,"transit":false,"station_id":"RU","line":6,"station_name":"Rawa Buntu","distance":2413},{"line":6,"time":6,"station_name":"Sudimara","station_id":"SDM","distance":4566,"i_lat":-6.296963,"is_transit":false,"i_long":106.712277,"transit":false},{"transit":false,"station_id":"JMU","distance":1994,"i_long":106.728916,"time":4,"station_name":"Jurangmangu","i_lat":-6.288927,"line":6,"is_transit":false},{"station_name":"Pondokranji","i_lat":-6.276362,"is_transit":false,"distance":2179,"time":3,"i_long":106.74273,"line":6,"station_id":"PDJ","transit":false},{"i_lat":-6.237242,"transit":false,"time":8,"is_transit":false,"i_long":106.780334,"station_name":"Kebayoran","line":6,"distance":6218,"station_id":"KBY"},{"is_transit":false,"time":7,"distance":3737,"i_long":106.79689,"transit":false,"station_name":"Palmerah","line":6,"i_lat":-6.207404,"station_id":"PLM"},{"line":1,"distance":3191,"station_name":"Tanah Abang","is_transit":true,"i_lat":-6.185545,"time":6,"i_long":106.811091,"transit":true,"station_id":"THB"},{"distance":2029,"time":5,"station_name":"Karet","i_long":106.816351,"line":1,"transit":false,"i_lat":-6.20132,"is_transit":false,"station_id":"KAT"},{"time":1,"transit":false,"station_name":"Sudirman Baru","distance":471,"i_long":106.819881,"is_transit":false,"line":1,"station_id":"SUDB","i_lat":-6.201433},{"i_long":106.822649,"time":1,"transit":false,"line":1,"i_lat":-6.202263,"station_id":"SUD","distance":280,"station_name":"Sudirman","is_transit":false},{"station_name":"Manggarai","time":4,"transit":true,"i_lat":-6.209883,"is_transit":true,"line":2,"i_long":106.84912,"station_id":"MRI","distance":3186},{"i_long":106.840169,"line":2,"transit":false,"distance":1590,"station_name":"Cikini","i_lat":-6.198556,"time":4,"station_id":"CKI","is_transit":false},{"is_transit":false,"distance":1750,"i_lat":-6.186295,"i_long":106.832183,"station_id":"GDD","transit":false,"station_name":"Gondangdia","time":3,"line":2},{"transit":false,"station_id":"JUA","station_name":"Juanda","i_lat":-6.166716,"line":2,"distance":2015,"i_long":106.828284,"time":4,"is_transit":false}],[{"is_transit":false,"time":0,"station_id":"CC","line":3,"station_name":"Cicayur","i_long":106.617853,"transit":false,"i_lat":-6.329547,"distance":0},{"line":3,"station_name":"Cisauk","time":4,"transit":false,"distance":2519,"station_id":"CSK","i_lat":-6.32484,"i_long":106.640411,"is_transit":false},{"time":4,"is_transit":false,"i_long":106.66566,"station_id":"SRP","station_name":"Serpong","distance":1784,"i_lat":-6.319871,"line":6,"transit":false},{"distance":2413,"time":4,"station_name":"Rawa Buntu","line":6,"station_id":"RU","transit":false,"i_long":106.675475,"i_lat":-6.314823,"is_transit":false},{"station_id":"SDM","transit":false,"distance":4566,"line":6,"time":6,"station_name":"Sudimara","i_lat":-6.296963,"i_long":106.712277,"is_transit":false},{"station_name":"Jurangmangu","station_id":"JMU","i_lat":-6.288927,"distance":1994,"line":6,"transit":false,"time":4,"is_transit":false,"i_long":106.728916},{"station_name":"Pondokranji","i_lat":-6.276362,"line":6,"i_long":106.74273,"distance":2179,"time":3,"is_transit":false,"station_id":"PDJ","transit":false},{"transit":false,"i_lat":-6.237242,"station_name":"Kebayoran","station_id":"KBY","is_transit":false,"line":6,"distance":6218,"time":8,"i_long":106.780334},{"is_transit":false,"station_id":"PLM","i_lat":-6.207404,"line":6,"transit":false,"i_long":106.79689,"distance":3737,"station_name":"Palmerah","time":7},{"line":1,"transit":true,"i_lat":-6.185545,"i_long":106.811091,"station_name":"Tanah Abang","is_transit":true,"time":6,"station_id":"THB","distance":3191},{"i_long":106.800832,"time":8,"line":1,"i_lat":-6.155215,"station_name":"Duri","transit":false,"distance":3632,"station_id":"DU","is_transit":false},{"distance":1230,"i_lat":-6.144674,"i_long":106.79867,"station_name":"Angke","time":4,"is_transit":false,"line":1,"station_id":"AK","transit":false},{"i_lat":-6.132549,"line":4,"transit":true,"distance":4102,"time":9,"i_long":106.826365,"station_id":"KPB","station_name":"Kampung Bandan","is_transit":true},{"i_long":106.812439,"station_id":"JAKK","time":3,"station_name":"Jakarta Kota","is_transit":true,"transit":true,"distance":1364,"i_lat":-6.137569,"line":2},{"line":2,"time":4,"station_id":"JAY","transit":false,"i_long":106.820901,"i_lat":-6.141205,"distance":1264,"station_name":"Jayakarta","is_transit":false},{"i_long":106.82482,"line":2,"time":2,"is_transit":false,"transit":false,"i_lat":-6.149769,"distance":1080,"station_name":"Manggabesar","station_id":"MGB"},{"line":2,"time":2,"station_id":"SW","i_long":106.827103,"station_name":"Sawah Besar","transit":false,"distance":906,"is_transit":false,"i_lat":-6.160725},{"time":2,"i_lat":-6.166716,"line":2,"station_name":"Juanda","i_long":106.828284,"station_id":"JUA","is_transit":false,"transit":false,"distance":1149}],[{"time":0,"i_long":106.617853,"i_lat":-6.329547,"line":3,"transit":false,"station_name":"Cicayur","distance":0,"station_id":"CC","is_transit":false},{"transit":false,"station_id":"CSK","i_lat":-6.32484,"station_name":"Cisauk","line":3,"distance":2519,"i_long":106.640411,"is_transit":false,"time":4},{"distance":1784,"transit":false,"is_transit":false,"i_long":106.66566,"line":6,"station_id":"SRP","station_name":"Serpong","i_lat":-6.319871,"time":4},{"is_transit":false,"i_lat":-6.314823,"i_long":106.675475,"transit":false,"station_name":"Rawa Buntu","line":6,"time":4,"distance":2413,"station_id":"RU"},{"distance":4566,"is_transit":false,"i_lat":-6.296963,"station_name":"Sudimara","line":6,"time":6,"station_id":"SDM","transit":false,"i_long":106.712277},{"transit":false,"i_lat":-6.288927,"line":6,"time":4,"distance":1994,"station_id":"JMU","station_name":"Jurangmangu","is_transit":false,"i_long":106.728916},{"transit":false,"is_transit":false,"station_id":"PDJ","i_long":106.74273,"station_name":"Pondokranji","line":6,"time":3,"distance":2179,"i_lat":-6.276362},{"distance":6218,"line":6,"station_name":"Kebayoran","transit":false,"is_transit":false,"i_lat":-6.237242,"time":8,"i_long":106.780334,"station_id":"KBY"},{"i_long":106.79689,"is_transit":false,"station_id":"PLM","transit":false,"i_lat":-6.207404,"station_name":"Palmerah","time":7,"line":6,"distance":3737},{"transit":true,"station_id":"THB","i_lat":-6.185545,"station_name":"Tanah Abang","time":6,"distance":3191,"i_long":106.811091,"line":1,"is_transit":true},{"station_name":"Duri","transit":false,"i_long":106.800832,"line":1,"i_lat":-6.155215,"time":8,"station_id":"DU","is_transit":false,"distance":3632},{"transit":false,"time":4,"line":1,"station_id":"AK","distance":1230,"station_name":"Angke","is_transit":false,"i_long":106.79867,"i_lat":-6.144674},{"time":9,"is_transit":true,"line":4,"station_id":"KPB","station_name":"Kampung Bandan","transit":true,"i_lat":-6.132549,"i_long":106.826365,"distance":4102},{"station_name":"Rajawali","distance":1444,"i_lat":-6.14505,"time":3,"is_transit":false,"transit":false,"station_id":"RJW","line":11,"i_long":106.836569},{"i_long":106.839204,"line":11,"time":5,"station_id":"KMO","transit":false,"distance":1901,"is_transit":false,"i_lat":-6.161728,"station_name":"Kemayoran"},{"is_transit":false,"i_lat":-6.174784,"i_long":106.84368,"station_name":"Pasar Senen","station_id":"PSE","transit":false,"distance":1436,"line":11,"time":4},{"transit":false,"is_transit":false,"line":11,"time":8,"station_name":"Gang Sentiong","i_lat":-6.185975,"station_id":"GST","distance":1567,"i_long":106.850107},{"i_lat":-6.193792,"line":11,"time":1,"station_name":"Kramat","is_transit":false,"distance":973,"transit":false,"i_long":106.855437,"station_id":"KMT"},{"station_id":"POK","is_transit":false,"distance":1829,"time":2,"station_name":"Pondok Jati","line":11,"i_long":106.861737,"i_lat":-6.209188,"transit":false},{"transit":true,"station_id":"JNG","distance":1236,"time":9,"station_name":"Jatinegara","is_transit":true,"i_long":106.86807400000001,"line":1,"i_lat":-6.215091},{"is_transit":false,"i_lat":-6.212485,"distance":1377,"line":1,"station_name":"Matraman","time":2,"i_long":106.858896,"station_id":"MTR","transit":false},{"is_transit":true,"time":2,"line":2,"transit":true,"station_id":"MRI","distance":1275,"station_name":"Manggarai","i_long":106.84912,"i_lat":-6.209883},{"time":4,"transit":false,"is_transit":false,"station_id":"CKI","distance":1590,"i_lat":-6.198556,"line":2,"i_long":106.840169,"station_name":"Cikini"},{"station_id":"GDD","is_transit":false,"i_lat":-6.186295,"station_name":"Gondangdia","time":3,"transit":false,"distance":1750,"i_long":106.832183,"line":2},{"distance":2015,"is_transit":false,"station_id":"JUA","line":2,"station_name":"Juanda","i_lat":-6.166716,"transit":false,"time":4,"i_long":106.828284}],[{"i_long":106.617853,"line":3,"transit":false,"is_transit":false,"distance":0,"time":0,"i_lat":-6.329547,"station_id":"CC","station_name":"Cicayur"},{"is_transit":false,"distance":2519,"station_name":"Cisauk","line":3,"station_id":"CSK","i_long":106.640411,"time":4,"i_lat":-6.32484,"transit":false},{"station_id":"SRP","transit":false,"station_name":"Serpong","distance":1784,"line":6,"time":4,"is_transit":false,"i_lat":-6.319871,"i_long":106.66566},{"time":4,"station_name":"Rawa Buntu","station_id":"RU","is_transit":false,"distance":2413,"i_lat":-6.314823,"line":6,"i_long":106.675475,"transit":false},{"is_transit":false,"distance":4566,"line":6,"i_lat":-6.296963,"i_long":106.712277,"transit":false,"station_name":"Sudimara","station_id":"SDM","time":6},{"distance":1994,"time":4,"i_long":106.728916,"line":6,"transit":false,"station_name":"Jurangmangu","station_id":"JMU","is_transit":false,"i_lat":-6.288927},{"transit":false,"i_lat":-6.276362,"line":6,"is_transit":false,"station_id":"PDJ","i_long":106.74273,"time":3,"station_name":"Pondokranji","distance":2179},{"transit":false,"distance":6218,"line":6,"i_lat":-6.237242,"station_id":"KBY","station_name":"Kebayoran","i_long":106.780334,"time":8,"is_transit":false},{"i_lat":-6.207404,"distance":3737,"station_id":"PLM","time":7,"i_long":106.79689,"is_transit":false,"station_name":"Palmerah","transit":false,"line":6},{"i_long":106.811091,"station_name":"Tanah Abang","station_id":"THB","i_lat":-6.185545,"distance":3191,"time":6,"is_transit":true,"transit":true,"line":1},{"distance":2029,"i_long":106.816351,"transit":false,"line":1,"time":5,"i_lat":-6.20132,"is_transit":false,"station_id":"KAT","station_name":"Karet"},{"transit":false,"is_transit":false,"i_lat":-6.201433,"i_long":106.819881,"time":1,"station_name":"Sudirman Baru","line":1,"distance":471,"station_id":"SUDB"},{"station_id":"SUD","transit":false,"distance":280,"is_transit":false,"i_lat":-6.202263,"station_name":"Sudirman","i_long":106.822649,"line":1,"time":1},{"station_name":"Manggarai","i_long":106.84912,"time":4,"is_transit":false,"station_id":"MRI","transit":false,"distance":3186,"i_lat":-6.209883,"line":2},{"is_transit":false,"i_lat":-6.212485,"line":1,"distance":1275,"i_long":106.858896,"time":2,"station_id":"MTR","station_name":"Matraman","transit":false},{"distance":1377,"transit":true,"station_id":"JNG","line":1,"i_lat":-6.215091,"is_transit":true,"station_name":"Jatinegara","time":8,"i_long":106.86807400000001},{"i_long":106.861737,"station_id":"POK","time":2,"line":11,"station_name":"Pondok Jati","transit":false,"distance":1236,"is_transit":false,"i_lat":-6.209188},{"station_name":"Kramat","i_long":106.855437,"distance":1829,"station_id":"KMT","i_lat":-6.193792,"time":2,"is_transit":false,"line":11,"transit":false},{"is_transit":false,"time":1,"distance":973,"station_id":"GST","i_lat":-6.185975,"transit":false,"station_name":"Gang Sentiong","i_long":106.850107,"line":11},{"line":11,"is_transit":false,"station_id":"PSE","distance":1567,"i_long":106.84368,"station_name":"Pasar Senen","i_lat":-6.174784,"time":8,"transit":false},{"transit":false,"i_lat":-6.161728,"distance":1436,"is_transit":false,"time":4,"station_name":"Kemayoran","station_id":"KMO","line":11,"i_long":106.839204},{"time":5,"transit":false,"is_transit":false,"i_lat":-6.14505,"line":11,"station_name":"Rajawali","distance":1901,"station_id":"RJW","i_long":106.836569},{"station_name":"Kampung Bandan","i_lat":-6.132549,"i_long":106.826365,"distance":1444,"line":4,"transit":true,"time":3,"station_id":"KPB","is_transit":true},{"line":2,"station_id":"JAKK","is_transit":true,"station_name":"Jakarta Kota","transit":true,"i_lat":-6.137569,"time":3,"i_long":106.812439,"distance":1364},{"line":2,"station_id":"JAY","time":4,"station_name":"Jayakarta","transit":false,"is_transit":false,"i_lat":-6.141205,"distance":1264,"i_long":106.820901},{"station_name":"Manggabesar","distance":1080,"i_lat":-6.149769,"line":2,"station_id":"MGB","is_transit":false,"transit":false,"i_long":106.82482,"time":2},{"transit":false,"i_long":106.827103,"distance":906,"line":2,"station_name":"Sawah Besar","station_id":"SW","i_lat":-6.160725,"time":2,"is_transit":false},{"line":2,"time":2,"station_id":"JUA","station_name":"Juanda","transit":false,"i_lat":-6.166716,"i_long":106.828284,"distance":1149,"is_transit":false}]]}