{"data":[[{"transit":false,"i_long":106.617853,"is_transit":false,"i_lat":-6.329547,"distance":0,"station_id":"CC","station_name":"Cicayur","line":3,"time":0},{"line":3,"distance":2519,"is_transit":false,"transit":false,"station_id":"CSK","i_long":106.640411,"station_name":"Cisauk","time":4,"i_lat":-6.32484},{"is_transit":false,"transit":false,"i_lat":-6.319871,"i_long":106.66566,"station_name":"Serpong","line":6,"station_id":"SRP","time":4,"distance":1784},{"i_lat":-6.314823,"time":4,"line":6,"station_name":"Rawa Buntu","is_transit":false,"distance":2413,"transit":false,"station_id":"RU","i_long":106.675475},{"i_lat":-6.296963,"station_name":"Sudimara","distance":4566,"is_transit":false,"line":6,"i_long":106.712277,"transit":false,"time":6,"station_id":"SDM"},{"distance":1994,"is_transit":false,"station_name":"Jurangmangu","station_id":"JMU","i_long":106.728916,"time":4,"transit":false,"i_lat":-6.288927,"line":6},{"i_long":106.74273,"i_lat":-6.276362,"time":3,"is_transit":false,"line":6,"station_name":"Pondokranji","distance":2179,"transit":false,"station_id":"PDJ"},{"station_id":"KBY","transit":false,"distance":6218,"station_name":"Kebayoran","is_transit":false,"i_lat":-6.237242,"time":8,"i_long":106.780334,"line":6},{"line":6,"i_long":106.79689,"transit":false,"station_name":"Palmerah","distance":3737,"station_id":"PLM","time":7,"is_transit":false,"i_lat":-6.207404},{"transit":true,"time":6,"station_name":"Tanah Abang","i_lat":-6.185545,"distance":3191,"i_long":106.811091,"is_transit":true,"station_id":"THB","line":1},{"distance":3632,"line":1,"is_transit":false,"time":8,"station_id":"DU","transit":false,"station_name":"Duri","i_long":106.800832,"i_lat":-6.155215},{"transit":false,"station_name":"Angke","station_id":"AK","is_transit":false,"distance":1230,"i_long":106.79867,"line":1,"time":4,"i_lat":-6.144674},{"distance":4102,"station_id":"KPB","transit":true,"station_name":"Kampung Bandan","i_lat":-6.132549,"time":9,"i_long":106.826365,"line":4,"is_transit":true},{"transit":false,"is_transit":false,"i_lat":-6.14505,"i_long":106.836569,"station_name":"Rajawali","station_id":"RJW","distance":1444,"time":3,"line":11},{"i_long":106.839204,"time":5,"line":11,"station_name":"Kemayoran","is_transit":false,"transit":false,"distance":1901,"station_id":"KMO","i_lat":-6.161728}],[{"transit":false,"station_name":"Cicayur","time":0,"is_transit":false,"station_id":"CC","i_lat":-6.329547,"i_long":106.617853,"line":3,"distance":0},{"time":4,"station_id":"CSK","station_name":"Cisauk","line":3,"distance":2519,"i_lat":-6.32484,"is_transit":false,"i_long":106.640411,"transit":false},{"i_long":106.66566,"time":4,"is_transit":false,"distance":1784,"station_name":"Serpong","transit":false,"station_id":"SRP","i_lat":-6.319871,"line":6},{"distance":2413,"i_lat":-6.314823,"station_name":"Rawa Buntu","station_id":"RU","transit":false,"line":6,"time":4,"is_transit":false,"i_long":106.675475},{"i_lat":-6.296963,"distance":4566,"i_long":106.712277,"time":6,"line":6,"station_name":"Sudimara","transit":false,"station_id":"SDM","is_transit":false},{"transit":false,"time":4,"station_name":"Jurangmangu","is_transit":false,"i_lat":-6.288927,"station_id":"JMU","line":6,"i_long":106.728916,"distance":1994},{"station_id":"PDJ","distance":2179,"time":3,"line":6,"transit":false,"is_transit":false,"station_name":"Pondokranji","i_lat":-6.276362,"i_long":106.74273},{"distance":6218,"transit":false,"line":6,"station_id":"KBY","i_lat":-6.237242,"time":8,"station_name":"Kebayoran","is_transit":false,"i_long":106.780334},{"i_lat":-6.207404,"is_transit":false,"time":7,"station_id":"PLM","transit":false,"distance":3737,"line":6,"station_name":"Palmerah","i_long":106.79689},{"station_name":"Tanah Abang","is_transit":true,"distance":3191,"time":6,"station_id":"THB","transit":true,"line":1,"i_lat":-6.185545,"i_long":106.811091},{"station_name":"Karet","distance":2029,"line":1,"i_long":106.816351,"is_transit":false,"time":5,"transit":false,"i_lat":-6.20132,"station_id":"KAT"},{"station_name":"Sudirman Baru","is_transit":false,"distance":471,"i_lat":-6.201433,"i_long":106.819881,"transit":false,"line":1,"station_id":"SUDB","time":1},{"distance":280,"station_name":"Sudirman","line":1,"time":1,"transit":false,"i_long":106.822649,"station_id":"SUD","i_lat":-6.202263,"is_transit":false},{"distance":3186,"is_transit":false,"i_long":106.84912,"transit":false,"time":4,"line":2,"station_name":"Manggarai","station_id":"MRI","i_lat":-6.209883},{"time":2,"i_long":106.858896,"is_transit":false,"i_lat":-6.212485,"distance":1275,"station_name":"Matraman","transit":false,"station_id":"MTR","line":1},{"transit":true,"i_long":106.86807400000001,"line":1,"distance":1377,"station_name":"Jatinegara","station_id":"JNG","is_transit":true,"i_lat":-6.215091,"time":8},{"station_name":"Pondok Jati","i_long":106.861737,"is_transit":false,"station_id":"POK","time":2,"distance":1236,"line":11,"i_lat":-6.209188,"transit":false},{"station_name":"Kramat","is_transit":false,"transit":false,"i_long":106.855437,"time":2,"station_id":"KMT","i_lat":-6.193792,"distance":1829,"line":11},{"is_transit":false,"distance":973,"i_lat":-6.185975,"station_id":"GST","transit":false,"line":11,"station_name":"Gang Sentiong","i_long":106.850107,"time":1},{"station_id":"PSE","distance":1567,"i_lat":-6.174784,"i_long":106.84368,"transit":false,"line":11,"station_name":"Pasar Senen","time":8,"is_transit":false},{"distance":1436,"transit":false,"is_transit":false,"station_id":"KMO","line":11,"i_lat":-6.161728,"station_name":"Kemayoran","time":4,"i_long":106.839204}],[{"station_name":"Cicayur","time":0,"i_lat":-6.329547,"line":3,"station_id":"CC","i_long":106.617853,"distance":0,"is_transit":false,"transit":false},{"i_lat":-6.32484,"line":3,"station_name":"Cisauk","time":4,"distance":2519,"i_long":106.640411,"is_transit":false,"transit":false,"station_id":"CSK"},{"station_name":"Serpong","station_id":"SRP","i_lat":-6.319871,"is_transit":false,"i_long":106.66566,"line":6,"distance":1784,"time":4,"transit":false},{"i_lat":-6.314823,"time":4,"distance":2413,"station_id":"RU","transit":false,"station_name":"Rawa Buntu","is_transit":false,"i_long":106.675475,"line":6},{"time":6,"line":6,"i_long":106.712277,"station_id":"SDM","station_name":"Sudimara","i_lat":-6.296963,"is_transit":false,"distance":4566,"transit":false},{"time":4,"station_name":"Jurangmangu","transit":false,"distance":1994,"is_transit":false,"i_lat":-6.288927,"i_long":106.728916,"line":6,"station_id":"JMU"},{"station_name":"Pondokranji","time":3,"station_id":"PDJ","distance":2179,"transit":false,"i_long":106.74273,"line":6,"is_transit":false,"i_lat":-6.276362},{"line":6,"is_transit":false,"transit":false,"station_id":"KBY","i_lat":-6.237242,"station_name":"Kebayoran","distance":6218,"time":8,"i_long":106.780334},{"transit":false,"distance":3737,"line":6,"station_id":"PLM","i_lat":-6.207404,"i_long":106.79689,"is_transit":false,"time":7,"station_name":"Palmerah"},{"transit":true,"i_lat":-6.185545,"station_id":"THB","is_transit":true,"line":1,"distance":3191,"i_long":106.811091,"station_name":"Tanah Abang","time":6},{"is_transit":false,"i_lat":-6.20132,"line":1,"transit":false,"i_long":106.816351,"station_name":"Karet","distance":2029,"station_id":"KAT","time":5},{"is_transit":false,"station_id":"SUDB","station_name":"Sudirman Baru","time":1,"distance":471,"line":1,"i_lat":-6.201433,"transit":false,"i_long":106.819881},{"i_lat":-6.202263,"station_id":"SUD","time":1,"line":1,"distance":280,"is_transit":false,"i_long":106.822649,"station_name":"Sudirman","transit":false},{"station_id":"MRI","line":2,"transit":true,"station_name":"Manggarai","time":4,"is_transit":true,"i_long":106.84912,"distance":3186,"i_lat":-6.209883},{"is_transit":false,"i_long":106.840169,"transit":false,"station_id":"CKI","i_lat":-6.198556,"station_name":"Cikini","distance":1590,"time":4,"line":2},{"i_long":106.832183,"time":3,"i_lat":-6.186295,"transit":false,"distance":1750,"is_transit":false,"line":2,"station_name":"Gondangdia","station_id":"GDD"},{"station_name":"Juanda","distance":2015,"i_long":106.828284,"time":4,"i_lat":-6.166716,"transit":false,"is_transit":false,"station_id":"JUA","line":2},{"distance":1149,"station_name":"Sawah Besar","line":2,"station_id":"SW","is_transit":false,"transit":false,"i_lat":-6.160725,"time":2,"i_long":106.827103},{"transit":false,"is_transit":false,"distance":906,"i_long":106.82482,"i_lat":-6.149769,"line":2,"station_name":"Manggabesar","time":2,"station_id":"MGB"},{"line":2,"distance":1080,"station_id":"JAY","station_name":"Jayakarta","time":2,"i_lat":-6.141205,"transit":false,"is_transit":false,"i_long":106.820901},{"line":2,"station_id":"JAKK","station_name":"Jakarta Kota","transit":true,"distance":1264,"is_transit":true,"time":4,"i_lat":-6.137569,"i_long":106.812439},{"i_long":106.826365,"is_transit":true,"distance":1364,"station_id":"KPB","i_lat":-6.132549,"time":3,"station_name":"Kampung Bandan","transit":true,"line":4},{"transit":false,"distance":1444,"line":11,"i_long":106.836569,"station_name":"Rajawali","time":3,"station_id":"RJW","is_transit":false,"i_lat":-6.14505},{"distance":1901,"is_transit":false,"station_id":"KMO","time":5,"transit":false,"i_lat":-6.161728,"line":11,"i_long":106.839204,"station_name":"Kemayoran"}],[{"transit":false,"i_long":106.617853,"line":3,"station_id":"CC","station_name":"Cicayur","distance":0,"is_transit":false,"i_lat":-6.329547,"time":0},{"i_long":106.640411,"time":4,"station_name":"Cisauk","i_lat":-6.32484,"distance":2519,"is_transit":false,"line":3,"station_id":"CSK","transit":false},{"i_long":106.66566,"line":6,"station_id":"SRP","station_name":"Serpong","time":4,"transit":false,"distance":1784,"is_transit":false,"i_lat":-6.319871},{"distance":2413,"line":6,"time":4,"i_lat":-6.314823,"station_name":"Rawa Buntu","is_transit":false,"transit":false,"i_long":106.675475,"station_id":"RU"},{"distance":4566,"station_id":"SDM","station_name":"Sudimara","transit":false,"i_lat":-6.296963,"time":6,"is_transit":false,"i_long":106.712277,"line":6},{"station_name":"Jurangmangu","transit":false,"is_transit":false,"station_id":"JMU","time":4,"distance":1994,"i_long":106.728916,"line":6,"i_lat":-6.288927},{"transit":false,"i_long":106.74273,"station_id":"PDJ","time":3,"i_lat":-6.276362,"is_transit":false,"distance":2179,"line":6,"station_name":"Pondokranji"},{"time":8,"transit":false,"is_transit":false,"station_id":"KBY","i_long":106.780334,"i_lat":-6.237242,"line":6,"distance":6218,"station_name":"Kebayoran"},{"station_id":"PLM","is_transit":false,"i_long":106.79689,"time":7,"transit":false,"station_name":"Palmerah","distance":3737,"i_lat":-6.207404,"line":6},{"distance":3191,"station_id":"THB","transit":true,"time":6,"is_transit":true,"station_name":"Tanah Abang","i_lat":-6.185545,"i_long":106.811091,"line":1},{"station_id":"DU","transit":false,"i_long":106.800832,"station_name":"Duri","is_transit":false,"i_lat":-6.155215,"distance":3632,"time":8,"line":1},{"is_transit":false,"station_id":"AK","station_name":"Angke","distance":1230,"i_long":106.79867,"time":4,"transit":false,"line":1,"i_lat":-6.144674},{"distance":4102,"transit":true,"station_id":"KPB","station_name":"Kampung Bandan","is_transit":true,"time":9,"line":4,"i_lat":-6.132549,"i_long":106.826365},{"station_id":"JAKK","transit":true,"is_transit":true,"time":3,"station_name":"Jakarta Kota","line":2,"i_lat":-6.137569,"distance":1364,"i_long":106.812439},{"is_transit":false,"station_name":"Jayakarta","i_long":106.820901,"line":2,"time":4,"station_id":"JAY","transit":false,"distance":1264,"i_lat":-6.141205},{"distance":1080,"station_id":"MGB","transit":false,"station_name":"Manggabesar","i_lat":-6.149769,"i_long":106.82482,"time":2,"line":2,"is_transit":false},{"distance":906,"line":2,"station_id":"SW","i_long":106.827103,"i_lat":-6.160725,"station_name":"Sawah Besar","time":2,"is_transit":false,"transit":false},{"station_id":"JUA","time":2,"is_transit":false,"line":2,"station_name":"Juanda","i_long":106.828284,"transit":false,"distance":1149,"i_lat":-6.166716},{"station_id":"GDD","station_name":"Gondangdia","line":2,"distance":2015,"is_transit":false,"i_lat":-6.186295,"time":4,"i_long":106.832183,"transit":false},{"station_id":"CKI","distance":1750,"time":3,"station_name":"Cikini","i_lat":-6.198556,"is_transit":false,"i_long":106.840169,"line":2,"transit":false},{"is_transit":true,"distance":1590,"time":4,"i_long":106.84912,"line":2,"transit":true,"station_id":"MRI","station_name":"Manggarai","i_lat":-6.209883},{"station_name":"Matraman","time":2,"i_long":106.858896,"is_transit":false,"i_lat":-6.212485,"station_id":"MTR","distance":1275,"line":1,"transit":false},{"station_name":"Jatinegara","station_id":"JNG","line":1,"transit":true,"is_transit":true,"i_long":106.86807400000001,"i_lat":-6.215091,"time":8,"distance":1377},{"station_name":"Pondok Jati","i_lat":-6.209188,"distance":1236,"line":11,"station_id":"POK","time":2,"transit":false,"is_transit":false,"i_long":106.861737},{"i_long":106.855437,"distance":1829,"i_lat":-6.193792,"station_name":"Kramat","time":2,"station_id":"KMT","line":11,"is_transit":false,"transit":false},{"time":1,"i_lat":-6.185975,"station_name":"Gang Sentiong","is_transit":false,"transit":false,"station_id":"GST","distance":973,"line":11,"i_long":106.850107},{"transit":false,"is_transit":false,"i_long":106.84368,"station_id":"PSE","station_name":"Pasar Senen","distance":1567,"i_lat":-6.174784,"time":8,"line":11},{"is_transit":false,"transit":false,"i_lat":-6.161728,"station_id":"KMO","station_name":"Kemayoran","time":4,"distance":1436,"i_long":106.839204,"line":11}]]}