{"data":[[{"time":0,"i_lat":-6.329547,"i_long":106.617853,"transit":false,"station_name":"Cicayur","is_transit":false,"distance":0,"station_id":"CC","line":0},{"is_transit":false,"transit":false,"i_long":106.640411,"station_id":"CSK","station_name":"Cisauk","i_lat":-6.32484,"time":4,"line":0,"distance":2519},{"line":6,"i_long":106.66566,"i_lat":-6.319871,"distance":1784,"time":4,"station_name":"Serpong","station_id":"SRP","transit":false,"is_transit":false},{"i_long":106.675475,"is_transit":false,"line":6,"station_name":"Rawa Buntu","transit":false,"station_id":"RU","distance":2413,"time":4,"i_lat":-6.314823},{"station_name":"Sudimara","i_lat":-6.296963,"transit":false,"distance":4566,"station_id":"SDM","time":6,"i_long":106.712277,"is_transit":false,"line":6},{"distance":1994,"is_transit":false,"i_long":106.728916,"line":6,"station_name":"Jurangmangu","i_lat":-6.288927,"station_id":"JMU","time":4,"transit":false},{"line":6,"time":3,"station_id":"PDJ","distance":2179,"station_name":"Pondokranji","is_transit":false,"i_lat":-6.276362,"i_long":106.74273,"transit":false},{"distance":6218,"is_transit":false,"i_long":106.780334,"i_lat":-6.237242,"station_name":"Kebayoran","transit":false,"station_id":"KBY","line":6,"time":8}]]}