{"data":[[{"transit":false,"distance":0,"line":3,"i_long":106.617853,"station_id":"CC","time":0,"station_name":"Cicayur","is_transit":false,"i_lat":-6.329547},{"i_lat":-6.32484,"distance":2519,"station_name":"Cisauk","station_id":"CSK","transit":false,"is_transit":false,"i_long":106.640411,"time":4,"line":3},{"i_lat":-6.319871,"distance":1784,"station_id":"SRP","i_long":106.66566,"is_transit":false,"transit":false,"time":4,"line":6,"station_name":"Serpong"},{"time":4,"line":6,"transit":false,"station_name":"Rawa Buntu","distance":2413,"is_transit":false,"station_id":"RU","i_lat":-6.314823,"i_long":106.675475},{"station_name":"Sudimara","is_transit":false,"line":6,"station_id":"SDM","distance":4566,"transit":false,"i_lat":-6.296963,"i_long":106.712277,"time":6},{"time":4,"transit":false,"is_transit":false,"i_lat":-6.288927,"line":6,"station_id":"JMU","station_name":"Jurangmangu","i_long":106.728916,"distance":1994},{"transit":false,"distance":2179,"i_lat":-6.276362,"station_id":"PDJ","station_name":"Pondokranji","is_transit":false,"i_long":106.74273,"time":3,"line":6},{"time":8,"i_lat":-6.237242,"transit":false,"i_long":106.780334,"line":6,"station_id":"KBY","is_transit":false,"distance":6218,"station_name":"Kebayoran"},{"time":7,"i_long":106.79689,"distance":3737,"transit":false,"is_transit":false,"line":6,"station_id":"PLM","station_name":"Palmerah","i_lat":-6.207404},{"i_lat":-6.185545,"time":6,"distance":3191,"i_long":106.811091,"line":1,"station_id":"THB","station_name":"Tanah Abang","is_transit":true,"transit":true},{"line":1,"is_transit":false,"time":8,"station_id":"DU","transit":false,"i_lat":-6.155215,"distance":3632,"station_name":"Duri","i_long":106.800832},{"i_lat":-6.144674,"i_long":106.79867,"station_name":"Angke","line":1,"distance":1230,"is_transit":false,"time":4,"transit":false,"station_id":"AK"},{"station_id":"KPB","station_name":"Kampung Bandan","is_transit":false,"i_lat":-6.132549,"i_long":106.826365,"time":9,"distance":4102,"line":4,"transit":false}],[{"distance":0,"is_transit":false,"station_id":"CC","transit":false,"line":3,"time":0,"station_name":"Cicayur","i_lat":-6.329547,"i_long":106.617853},{"time":4,"is_transit":false,"distance":2519,"transit":false,"station_name":"Cisauk","i_long":106.640411,"station_id":"CSK","i_lat":-6.32484,"line":3},{"station_id":"SRP","line":6,"time":4,"station_name":"Serpong","i_lat":-6.319871,"distance":1784,"is_transit":false,"transit":false,"i_long":106.66566},{"distance":2413,"station_id":"RU","transit":false,"i_lat":-6.314823,"i_long":106.675475,"line":6,"time":4,"is_transit":false,"station_name":"Rawa Buntu"},{"is_transit":false,"time":6,"i_long":106.712277,"distance":4566,"line":6,"transit":false,"station_name":"Sudimara","i_lat":-6.296963,"station_id":"SDM"},{"line":6,"station_id":"JMU","is_transit":false,"i_long":106.728916,"distance":1994,"i_lat":-6.288927,"time":4,"station_name":"Jurangmangu","transit":false},{"time":3,"is_transit":false,"station_name":"Pondokranji","i_lat":-6.276362,"i_long":106.74273,"distance":2179,"transit":false,"station_id":"PDJ","line":6},{"i_lat":-6.237242,"distance":6218,"transit":false,"i_long":106.780334,"station_name":"Kebayoran","line":6,"is_transit":false,"time":8,"station_id":"KBY"},{"station_id":"PLM","line":6,"time":7,"transit":false,"distance":3737,"station_name":"Palmerah","is_transit":false,"i_lat":-6.207404,"i_long":106.79689},{"station_id":"THB","i_lat":-6.185545,"i_long":106.811091,"is_transit":true,"line":1,"time":6,"station_name":"Tanah Abang","transit":true,"distance":3191},{"is_transit":false,"i_long":106.816351,"time":5,"i_lat":-6.20132,"distance":2029,"line":1,"transit":false,"station_name":"Karet","station_id":"KAT"},{"station_name":"Sudirman Baru","is_transit":false,"transit":false,"i_long":106.819881,"line":1,"i_lat":-6.201433,"station_id":"SUDB","distance":471,"time":1},{"line":1,"station_id":"SUD","transit":false,"i_lat":-6.202263,"i_long":106.822649,"station_name":"Sudirman","time":1,"distance":280,"is_transit":false},{"distance":3186,"station_id":"MRI","line":2,"transit":true,"is_transit":true,"i_long":106.84912,"time":4,"station_name":"Manggarai","i_lat":-6.209883},{"transit":false,"line":2,"distance":1590,"station_id":"CKI","is_transit":false,"i_lat":-6.198556,"time":4,"i_long":106.840169,"station_name":"Cikini"},{"station_name":"Gondangdia","is_transit":false,"i_long":106.832183,"time":3,"station_id":"GDD","line":2,"distance":1750,"i_lat":-6.186295,"transit":false},{"line":2,"station_id":"JUA","time":4,"i_long":106.828284,"is_transit":false,"distance":2015,"station_name":"Juanda","i_lat":-6.166716,"transit":false},{"line":2,"i_long":106.827103,"distance":1149,"station_name":"Sawah Besar","transit":false,"station_id":"SW","i_lat":-6.160725,"is_transit":false,"time":2},{"time":2,"station_name":"Manggabesar","transit":false,"i_lat":-6.149769,"distance":906,"is_transit":false,"station_id":"MGB","line":2,"i_long":106.82482},{"distance":1080,"is_transit":false,"i_lat":-6.141205,"transit":false,"time":2,"station_name":"Jayakarta","station_id":"JAY","i_long":106.820901,"line":2},{"transit":true,"distance":1264,"station_name":"Jakarta Kota","time":4,"is_transit":true,"station_id":"JAKK","i_long":106.812439,"line":2,"i_lat":-6.137569},{"station_id":"KPB","i_long":106.826365,"line":4,"distance":1364,"station_name":"Kampung Bandan","is_transit":false,"i_lat":-6.132549,"transit":false,"time":3}],[{"i_lat":-6.329547,"station_name":"Cicayur","line":3,"transit":false,"i_long":106.617853,"time":0,"is_transit":false,"station_id":"CC","distance":0},{"distance":2519,"transit":false,"station_name":"Cisauk","i_lat":-6.32484,"i_long":106.640411,"line":3,"time":4,"station_id":"CSK","is_transit":false},{"i_lat":-6.319871,"time":4,"station_id":"SRP","line":6,"i_long":106.66566,"station_name":"Serpong","is_transit":false,"transit":false,"distance":1784},{"station_id":"RU","is_transit":false,"time":4,"i_lat":-6.314823,"transit":false,"i_long":106.675475,"station_name":"Rawa Buntu","distance":2413,"line":6},{"station_id":"SDM","station_name":"Sudimara","line":6,"distance":4566,"transit":false,"time":6,"is_transit":false,"i_lat":-6.296963,"i_long":106.712277},{"i_lat":-6.288927,"line":6,"is_transit":false,"station_id":"JMU","time":4,"distance":1994,"station_name":"Jurangmangu","transit":false,"i_long":106.728916},{"distance":2179,"i_lat":-6.276362,"is_transit":false,"line":6,"i_long":106.74273,"transit":false,"station_name":"Pondokranji","time":3,"station_id":"PDJ"},{"station_name":"Kebayoran","distance":6218,"i_lat":-6.237242,"i_long":106.780334,"line":6,"transit":false,"time":8,"is_transit":false,"station_id":"KBY"},{"i_long":106.79689,"station_name":"Palmerah","is_transit":false,"time":7,"line":6,"transit":false,"distance":3737,"station_id":"PLM","i_lat":-6.207404},{"distance":3191,"i_lat":-6.185545,"i_long":106.811091,"line":1,"station_id":"THB","transit":true,"station_name":"Tanah Abang","time":6,"is_transit":true},{"i_lat":-6.20132,"i_long":106.816351,"time":5,"is_transit":false,"line":1,"distance":2029,"station_name":"Karet","transit":false,"station_id":"KAT"},{"distance":471,"station_id":"SUDB","i_long":106.819881,"time":1,"line":1,"i_lat":-6.201433,"transit":false,"is_transit":false,"station_name":"Sudirman Baru"},{"station_name":"Sudirman","line":1,"distance":280,"transit":false,"is_transit":false,"i_long":106.822649,"station_id":"SUD","time":1,"i_lat":-6.202263},{"i_long":106.84912,"distance":3186,"transit":false,"time":4,"station_name":"Manggarai","station_id":"MRI","line":2,"i_lat":-6.209883,"is_transit":false},{"time":2,"station_name":"Matraman","station_id":"MTR","i_lat":-6.212485,"distance":1275,"i_long":106.858896,"transit":false,"line":1,"is_transit":false},{"line":1,"transit":true,"distance":1377,"i_lat":-6.215091,"time":8,"station_name":"Jatinegara","i_long":106.86807400000001,"station_id":"JNG","is_transit":true},{"time":2,"station_name":"Pondok Jati","transit":false,"is_transit":false,"line":11,"station_id":"POK","i_lat":-6.209188,"i_long":106.861737,"distance":1236},{"i_long":106.855437,"i_lat":-6.193792,"station_name":"Kramat","distance":1829,"station_id":"KMT","transit":false,"line":11,"time":2,"is_transit":false},{"station_id":"GST","i_long":106.850107,"transit":false,"distance":973,"is_transit":false,"line":11,"i_lat":-6.185975,"station_name":"Gang Sentiong","time":1},{"time":8,"station_name":"Pasar Senen","transit":false,"station_id":"PSE","i_long":106.84368,"line":11,"i_lat":-6.174784,"is_transit":false,"distance":1567},{"transit":false,"is_transit":false,"time":4,"station_name":"Kemayoran","distance":1436,"i_lat":-6.161728,"line":11,"i_long":106.839204,"station_id":"KMO"},{"is_transit":false,"station_id":"RJW","distance":1901,"i_long":106.836569,"time":5,"station_name":"Rajawali","transit":false,"i_lat":-6.14505,"line":11},{"time":3,"line":4,"station_id":"KPB","is_transit":false,"distance":1444,"i_long":106.826365,"i_lat":-6.132549,"station_name":"Kampung Bandan","transit":false}]]}