{"data":[[{"time":0,"station_id":"CC","line":3,"distance":0,"i_long":106.617853,"station_name":"Cicayur","i_lat":-6.329547,"is_transit":false,"transit":false},{"distance":2519,"time":4,"station_id":"CSK","i_lat":-6.32484,"i_long":106.640411,"station_name":"Cisauk","is_transit":false,"transit":false,"line":3},{"i_lat":-6.319871,"station_name":"Serpong","station_id":"SRP","i_long":106.66566,"is_transit":false,"line":6,"transit":false,"distance":1784,"time":4},{"distance":2413,"station_name":"Rawa Buntu","line":6,"transit":false,"time":4,"i_long":106.675475,"station_id":"RU","is_transit":false,"i_lat":-6.314823},{"station_id":"SDM","is_transit":false,"distance":4566,"i_lat":-6.296963,"line":6,"i_long":106.712277,"station_name":"Sudimara","time":6,"transit":false},{"station_id":"JMU","i_long":106.728916,"i_lat":-6.288927,"station_name":"Jurangmangu","transit":false,"distance":1994,"time":4,"is_transit":false,"line":6},{"station_id":"PDJ","station_name":"Pondokranji","i_lat":-6.276362,"i_long":106.74273,"is_transit":false,"distance":2179,"time":3,"transit":false,"line":6},{"distance":6218,"station_id":"KBY","i_long":106.780334,"time":8,"line":6,"transit":false,"is_transit":false,"station_name":"Kebayoran","i_lat":-6.237242},{"line":6,"i_lat":-6.207404,"time":7,"transit":false,"distance":3737,"i_long":106.79689,"station_name":"Palmerah","station_id":"PLM","is_transit":false},{"distance":3191,"line":1,"station_name":"Tanah Abang","station_id":"THB","time":6,"transit":true,"i_long":106.811091,"is_transit":true,"i_lat":-6.185545},{"station_name":"Duri","is_transit":true,"line":1,"distance":3632,"transit":true,"i_lat":-6.155215,"i_long":106.800832,"time":8,"station_id":"DU"},{"is_transit":false,"i_long":106.788277,"line":5,"station_id":"GGL","station_name":"Grogol","time":3,"transit":false,"i_lat":-6.162021,"distance":1700},{"time":2,"distance":2036,"station_id":"PSG","transit":false,"i_lat":-6.161433,"line":5,"is_transit":false,"station_name":"Pesing","i_long":106.771379},{"distance":1614,"i_lat":-6.1587309999999995,"station_id":"TKO","is_transit":false,"time":2,"transit":false,"station_name":"Taman Kota","line":5,"i_long":106.756522},{"i_lat":-6.159876,"station_id":"BOI","i_long":106.737035,"time":2,"line":5,"transit":false,"distance":2334,"station_name":"Bojongindah","is_transit":false},{"line":5,"distance":1152,"station_id":"RW","station_name":"Rawa Buaya","i_long":106.723064,"is_transit":false,"transit":false,"i_lat":-6.162758,"time":4},{"distance":2504,"is_transit":false,"i_lat":-6.166068,"transit":false,"station_id":"KDS","station_name":"Kalideres","i_long":106.701612,"line":5,"time":3}],[{"station_name":"Cicayur","station_id":"CC","i_lat":-6.329547,"is_transit":false,"time":0,"line":3,"distance":0,"i_long":106.617853,"transit":false},{"time":4,"line":3,"i_long":106.640411,"is_transit":false,"distance":2519,"station_id":"CSK","station_name":"Cisauk","transit":false,"i_lat":-6.32484},{"station_name":"Serpong","is_transit":false,"station_id":"SRP","time":4,"transit":false,"distance":1784,"line":6,"i_lat":-6.319871,"i_long":106.66566},{"distance":2413,"time":4,"is_transit":false,"station_name":"Rawa Buntu","i_long":106.675475,"i_lat":-6.314823,"station_id":"RU","line":6,"transit":false},{"line":6,"distance":4566,"i_long":106.712277,"station_name":"Sudimara","transit":false,"is_transit":false,"time":6,"i_lat":-6.296963,"station_id":"SDM"},{"time":4,"i_lat":-6.288927,"line":6,"station_name":"Jurangmangu","is_transit":false,"i_long":106.728916,"transit":false,"distance":1994,"station_id":"JMU"},{"distance":2179,"i_lat":-6.276362,"time":3,"station_name":"Pondokranji","station_id":"PDJ","transit":false,"i_long":106.74273,"line":6,"is_transit":false},{"i_lat":-6.237242,"i_long":106.780334,"station_id":"KBY","line":6,"station_name":"Kebayoran","transit":false,"time":8,"distance":6218,"is_transit":false},{"i_lat":-6.207404,"is_transit":false,"line":6,"transit":false,"i_long":106.79689,"station_id":"PLM","station_name":"Palmerah","time":7,"distance":3737},{"is_transit":true,"i_long":106.811091,"distance":3191,"line":1,"time":6,"i_lat":-6.185545,"station_name":"Tanah Abang","station_id":"THB","transit":true},{"station_id":"KAT","i_long":106.816351,"transit":false,"is_transit":false,"time":5,"line":1,"i_lat":-6.20132,"distance":2029,"station_name":"Karet"},{"station_id":"SUDB","is_transit":false,"line":1,"distance":471,"i_lat":-6.201433,"station_name":"Sudirman Baru","time":1,"i_long":106.819881,"transit":false},{"line":1,"time":1,"is_transit":false,"i_lat":-6.202263,"i_long":106.822649,"transit":false,"distance":280,"station_name":"Sudirman","station_id":"SUD"},{"time":4,"station_name":"Manggarai","is_transit":true,"line":2,"transit":true,"i_lat":-6.209883,"station_id":"MRI","distance":3186,"i_long":106.84912},{"is_transit":false,"distance":1590,"transit":false,"line":2,"station_name":"Cikini","i_long":106.840169,"i_lat":-6.198556,"station_id":"CKI","time":4},{"transit":false,"i_lat":-6.186295,"time":3,"line":2,"station_id":"GDD","is_transit":false,"i_long":106.832183,"distance":1750,"station_name":"Gondangdia"},{"transit":false,"time":4,"distance":2015,"i_lat":-6.166716,"station_id":"JUA","is_transit":false,"line":2,"i_long":106.828284,"station_name":"Juanda"},{"line":2,"time":2,"is_transit":false,"station_name":"Sawah Besar","station_id":"SW","transit":false,"i_lat":-6.160725,"distance":1149,"i_long":106.827103},{"is_transit":false,"i_lat":-6.149769,"distance":906,"transit":false,"time":2,"station_name":"Manggabesar","i_long":106.82482,"line":2,"station_id":"MGB"},{"transit":false,"distance":1080,"line":2,"i_long":106.820901,"time":2,"station_id":"JAY","is_transit":false,"station_name":"Jayakarta","i_lat":-6.141205},{"line":2,"i_lat":-6.137569,"time":4,"station_name":"Jakarta Kota","station_id":"JAKK","transit":true,"is_transit":true,"i_long":106.812439,"distance":1264},{"is_transit":true,"i_lat":-6.132549,"transit":true,"time":3,"line":4,"station_name":"Kampung Bandan","distance":1364,"i_long":106.826365,"station_id":"KPB"},{"station_name":"Angke","line":1,"is_transit":false,"time":9,"i_long":106.79867,"station_id":"AK","distance":4102,"i_lat":-6.144674,"transit":false},{"time":4,"distance":1230,"transit":true,"station_id":"DU","station_name":"Duri","i_lat":-6.155215,"is_transit":true,"line":1,"i_long":106.800832},{"time":3,"i_long":106.788277,"station_id":"GGL","is_transit":false,"transit":false,"line":5,"station_name":"Grogol","distance":1700,"i_lat":-6.162021},{"time":2,"station_id":"PSG","station_name":"Pesing","i_lat":-6.161433,"transit":false,"line":5,"i_long":106.771379,"distance":2036,"is_transit":false},{"line":5,"time":2,"distance":1614,"station_name":"Taman Kota","is_transit":false,"transit":false,"i_lat":-6.1587309999999995,"station_id":"TKO","i_long":106.756522},{"time":2,"i_long":106.737035,"transit":false,"is_transit":false,"distance":2334,"line":5,"station_id":"BOI","i_lat":-6.159876,"station_name":"Bojongindah"},{"station_name":"Rawa Buaya","time":4,"i_lat":-6.162758,"line":5,"transit":false,"is_transit":false,"i_long":106.723064,"distance":1152,"station_id":"RW"},{"station_id":"KDS","i_lat":-6.166068,"is_transit":false,"line":5,"transit":false,"i_long":106.701612,"time":3,"station_name":"Kalideres","distance":2504}],[{"is_transit":false,"station_name":"Cicayur","time":0,"i_lat":-6.329547,"i_long":106.617853,"line":3,"distance":0,"transit":false,"station_id":"CC"},{"station_id":"CSK","is_transit":false,"distance":2519,"i_long":106.640411,"transit":false,"line":3,"i_lat":-6.32484,"time":4,"station_name":"Cisauk"},{"station_name":"Serpong","line":6,"station_id":"SRP","time":4,"transit":false,"is_transit":false,"i_lat":-6.319871,"distance":1784,"i_long":106.66566},{"station_name":"Rawa Buntu","transit":false,"line":6,"time":4,"i_lat":-6.314823,"i_long":106.675475,"is_transit":false,"distance":2413,"station_id":"RU"},{"distance":4566,"station_name":"Sudimara","i_long":106.712277,"is_transit":false,"time":6,"transit":false,"station_id":"SDM","i_lat":-6.296963,"line":6},{"i_lat":-6.288927,"transit":false,"is_transit":false,"line":6,"station_id":"JMU","distance":1994,"station_name":"Jurangmangu","time":4,"i_long":106.728916},{"time":3,"line":6,"i_lat":-6.276362,"station_name":"Pondokranji","is_transit":false,"distance":2179,"i_long":106.74273,"transit":false,"station_id":"PDJ"},{"time":8,"line":6,"transit":false,"i_lat":-6.237242,"station_name":"Kebayoran","station_id":"KBY","is_transit":false,"i_long":106.780334,"distance":6218},{"line":6,"station_id":"PLM","time":7,"i_long":106.79689,"station_name":"Palmerah","transit":false,"i_lat":-6.207404,"is_transit":false,"distance":3737},{"station_name":"Tanah Abang","time":6,"transit":true,"is_transit":true,"i_long":106.811091,"i_lat":-6.185545,"distance":3191,"line":1,"station_id":"THB"},{"line":1,"i_long":106.816351,"station_name":"Karet","transit":false,"station_id":"KAT","distance":2029,"is_transit":false,"time":5,"i_lat":-6.20132},{"i_long":106.819881,"i_lat":-6.201433,"transit":false,"is_transit":false,"time":1,"station_name":"Sudirman Baru","station_id":"SUDB","distance":471,"line":1},{"station_name":"Sudirman","is_transit":false,"time":1,"distance":280,"i_long":106.822649,"transit":false,"line":1,"i_lat":-6.202263,"station_id":"SUD"},{"station_id":"MRI","time":4,"distance":3186,"station_name":"Manggarai","line":2,"transit":false,"is_transit":false,"i_lat":-6.209883,"i_long":106.84912},{"is_transit":false,"station_id":"MTR","line":1,"i_long":106.858896,"station_name":"Matraman","distance":1275,"time":2,"i_lat":-6.212485,"transit":false},{"station_id":"JNG","is_transit":true,"station_name":"Jatinegara","time":8,"distance":1377,"line":1,"transit":true,"i_lat":-6.215091,"i_long":106.86807400000001},{"distance":1236,"line":11,"station_id":"POK","i_long":106.861737,"station_name":"Pondok Jati","i_lat":-6.209188,"is_transit":false,"transit":false,"time":2},{"i_lat":-6.193792,"station_id":"KMT","i_long":106.855437,"line":11,"station_name":"Kramat","is_transit":false,"transit":false,"time":2,"distance":1829},{"distance":973,"i_lat":-6.185975,"station_id":"GST","i_long":106.850107,"transit":false,"line":11,"is_transit":false,"station_name":"Gang Sentiong","time":1},{"station_id":"PSE","transit":false,"line":11,"i_lat":-6.174784,"station_name":"Pasar Senen","distance":1567,"i_long":106.84368,"is_transit":false,"time":8},{"station_name":"Kemayoran","distance":1436,"transit":false,"station_id":"KMO","i_lat":-6.161728,"line":11,"i_long":106.839204,"is_transit":false,"time":4},{"i_long":106.836569,"distance":1901,"station_name":"Rajawali","line":11,"station_id":"RJW","is_transit":false,"transit":false,"time":5,"i_lat":-6.14505},{"distance":1444,"time":3,"i_lat":-6.132549,"i_long":106.826365,"station_name":"Kampung Bandan","transit":true,"is_transit":true,"line":4,"station_id":"KPB"},{"transit":false,"is_transit":false,"distance":4102,"line":1,"station_id":"AK","i_lat":-6.144674,"time":9,"station_name":"Angke","i_long":106.79867},{"i_lat":-6.155215,"is_transit":true,"station_id":"DU","station_name":"Duri","transit":true,"distance":1230,"i_long":106.800832,"time":4,"line":1},{"is_transit":false,"time":3,"station_name":"Grogol","i_lat":-6.162021,"distance":1700,"line":5,"station_id":"GGL","transit":false,"i_long":106.788277},{"station_id":"PSG","distance":2036,"time":2,"is_transit":false,"i_long":106.771379,"i_lat":-6.161433,"transit":false,"line":5,"station_name":"Pesing"},{"line":5,"time":2,"station_name":"Taman Kota","station_id":"TKO","distance":1614,"i_long":106.756522,"is_transit":false,"i_lat":-6.1587309999999995,"transit":false},{"station_id":"BOI","is_transit":false,"i_lat":-6.159876,"transit":false,"distance":2334,"station_name":"Bojongindah","i_long":106.737035,"time":2,"line":5},{"station_id":"RW","line":5,"i_long":106.723064,"transit":false,"time":4,"distance":1152,"i_lat":-6.162758,"is_transit":false,"station_name":"Rawa Buaya"},{"station_id":"KDS","time":3,"i_long":106.701612,"line":5,"transit":false,"distance":2504,"is_transit":false,"station_name":"Kalideres","i_lat":-6.166068}]]}