{"data":[[{"distance":0,"time":0,"transit":false,"is_transit":false,"station_id":"CC","i_long":106.617853,"line":3,"station_name":"Cicayur","i_lat":-6.329547},{"station_name":"Cisauk","i_lat":-6.32484,"line":3,"station_id":"CSK","transit":false,"time":4,"i_long":106.640411,"distance":2519,"is_transit":false},{"transit":false,"station_id":"SRP","distance":1784,"line":6,"station_name":"Serpong","i_lat":-6.319871,"i_long":106.66566,"is_transit":false,"time":4},{"is_transit":false,"station_name":"Rawa Buntu","line":6,"transit":false,"i_lat":-6.314823,"i_long":106.675475,"station_id":"RU","time":4,"distance":2413},{"station_name":"Sudimara","station_id":"SDM","is_transit":false,"transit":false,"i_lat":-6.296963,"line":6,"i_long":106.712277,"distance":4566,"time":6},{"station_name":"Jurangmangu","time":4,"is_transit":false,"transit":false,"i_long":106.728916,"distance":1994,"i_lat":-6.288927,"line":6,"station_id":"JMU"},{"is_transit":false,"transit":false,"line":6,"i_long":106.74273,"station_name":"Pondokranji","i_lat":-6.276362,"distance":2179,"time":3,"station_id":"PDJ"},{"is_transit":false,"time":8,"distance":6218,"i_lat":-6.237242,"station_name":"Kebayoran","station_id":"KBY","i_long":106.780334,"transit":false,"line":6}]]}