{"data":[[{"transit":false,"station_name":"Cicayur","i_lat":-6.329547,"station_id":"CC","time":0,"distance":0,"i_long":106.617853,"line":3,"is_transit":false},{"is_transit":false,"station_name":"Cisauk","line":3,"i_long":106.640411,"time":4,"distance":2519,"transit":false,"station_id":"CSK","i_lat":-6.32484},{"line":6,"is_transit":false,"station_id":"SRP","i_long":106.66566,"transit":false,"station_name":"Serpong","time":4,"i_lat":-6.319871,"distance":1784},{"station_name":"Rawa Buntu","i_lat":-6.314823,"line":6,"is_transit":false,"time":4,"i_long":106.675475,"distance":2413,"station_id":"RU","transit":false},{"time":6,"distance":4566,"is_transit":false,"transit":false,"station_name":"Sudimara","line":6,"i_lat":-6.296963,"station_id":"SDM","i_long":106.712277},{"station_name":"Jurangmangu","is_transit":false,"time":4,"i_lat":-6.288927,"distance":1994,"i_long":106.728916,"transit":false,"station_id":"JMU","line":6},{"transit":false,"i_lat":-6.276362,"station_name":"Pondokranji","i_long":106.74273,"distance":2179,"line":6,"time":3,"station_id":"PDJ","is_transit":false},{"station_id":"KBY","transit":false,"time":8,"is_transit":false,"distance":6218,"i_lat":-6.237242,"i_long":106.780334,"station_name":"Kebayoran","line":6},{"time":7,"station_id":"PLM","i_long":106.79689,"i_lat":-6.207404,"transit":false,"line":6,"station_name":"Palmerah","distance":3737,"is_transit":false},{"station_name":"Tanah Abang","i_lat":-6.185545,"time":6,"distance":3191,"is_transit":true,"station_id":"THB","i_long":106.811091,"line":1,"transit":true},{"i_long":106.800832,"station_id":"DU","distance":3632,"time":8,"line":1,"transit":false,"is_transit":false,"station_name":"Duri","i_lat":-6.155215},{"station_id":"AK","time":4,"station_name":"Angke","line":1,"is_transit":false,"i_long":106.79867,"i_lat":-6.144674,"transit":false,"distance":1230},{"line":4,"i_long":106.826365,"distance":4102,"time":9,"is_transit":false,"transit":false,"station_name":"Kampung Bandan","station_id":"KPB","i_lat":-6.132549}],[{"station_id":"CC","time":0,"station_name":"Cicayur","i_long":106.617853,"line":3,"transit":false,"distance":0,"i_lat":-6.329547,"is_transit":false},{"is_transit":false,"time":4,"station_id":"CSK","transit":false,"station_name":"Cisauk","distance":2519,"i_long":106.640411,"line":3,"i_lat":-6.32484},{"distance":1784,"station_id":"SRP","station_name":"Serpong","line":6,"time":4,"is_transit":false,"i_lat":-6.319871,"i_long":106.66566,"transit":false},{"i_lat":-6.314823,"station_id":"RU","line":6,"i_long":106.675475,"distance":2413,"time":4,"is_transit":false,"transit":false,"station_name":"Rawa Buntu"},{"station_name":"Sudimara","line":6,"i_long":106.712277,"distance":4566,"station_id":"SDM","is_transit":false,"transit":false,"time":6,"i_lat":-6.296963},{"i_lat":-6.288927,"i_long":106.728916,"distance":1994,"transit":false,"time":4,"station_name":"Jurangmangu","station_id":"JMU","is_transit":false,"line":6},{"is_transit":false,"station_id":"PDJ","transit":false,"station_name":"Pondokranji","i_long":106.74273,"line":6,"distance":2179,"i_lat":-6.276362,"time":3},{"line":6,"i_lat":-6.237242,"is_transit":false,"transit":false,"station_name":"Kebayoran","station_id":"KBY","i_long":106.780334,"time":8,"distance":6218},{"distance":3737,"station_id":"PLM","transit":false,"i_lat":-6.207404,"station_name":"Palmerah","time":7,"i_long":106.79689,"line":6,"is_transit":false},{"station_id":"THB","transit":true,"i_long":106.811091,"is_transit":true,"i_lat":-6.185545,"line":1,"distance":3191,"station_name":"Tanah Abang","time":6},{"station_id":"KAT","station_name":"Karet","transit":false,"is_transit":false,"distance":2029,"i_long":106.816351,"i_lat":-6.20132,"time":5,"line":1},{"transit":false,"i_long":106.819881,"distance":471,"time":1,"i_lat":-6.201433,"station_id":"SUDB","line":1,"station_name":"Sudirman Baru","is_transit":false},{"i_lat":-6.202263,"is_transit":false,"time":1,"distance":280,"station_id":"SUD","station_name":"Sudirman","i_long":106.822649,"line":1,"transit":false},{"station_name":"Manggarai","i_lat":-6.209883,"distance":3186,"station_id":"MRI","transit":true,"i_long":106.84912,"time":4,"line":2,"is_transit":true},{"station_id":"CKI","distance":1590,"station_name":"Cikini","i_lat":-6.198556,"line":2,"is_transit":false,"time":4,"transit":false,"i_long":106.840169},{"transit":false,"distance":1750,"station_id":"GDD","station_name":"Gondangdia","line":2,"i_lat":-6.186295,"i_long":106.832183,"is_transit":false,"time":3},{"station_id":"JUA","time":4,"station_name":"Juanda","distance":2015,"line":2,"is_transit":false,"transit":false,"i_long":106.828284,"i_lat":-6.166716},{"distance":1149,"i_long":106.827103,"time":2,"transit":false,"is_transit":false,"station_name":"Sawah Besar","i_lat":-6.160725,"line":2,"station_id":"SW"},{"is_transit":false,"transit":false,"time":2,"i_lat":-6.149769,"station_name":"Manggabesar","i_long":106.82482,"distance":906,"line":2,"station_id":"MGB"},{"is_transit":false,"station_name":"Jayakarta","i_long":106.820901,"time":2,"line":2,"station_id":"JAY","transit":false,"i_lat":-6.141205,"distance":1080},{"i_lat":-6.137569,"i_long":106.812439,"line":2,"transit":true,"time":4,"station_id":"JAKK","station_name":"Jakarta Kota","distance":1264,"is_transit":true},{"line":4,"is_transit":false,"station_name":"Kampung Bandan","station_id":"KPB","time":3,"i_lat":-6.132549,"distance":1364,"transit":false,"i_long":106.826365}],[{"is_transit":false,"time":0,"i_long":106.617853,"station_id":"CC","station_name":"Cicayur","i_lat":-6.329547,"line":3,"distance":0,"transit":false},{"distance":2519,"time":4,"line":3,"i_lat":-6.32484,"station_id":"CSK","station_name":"Cisauk","i_long":106.640411,"transit":false,"is_transit":false},{"transit":false,"distance":1784,"station_name":"Serpong","line":6,"i_lat":-6.319871,"station_id":"SRP","i_long":106.66566,"is_transit":false,"time":4},{"line":6,"i_long":106.675475,"station_name":"Rawa Buntu","station_id":"RU","distance":2413,"is_transit":false,"transit":false,"i_lat":-6.314823,"time":4},{"station_id":"SDM","i_long":106.712277,"distance":4566,"station_name":"Sudimara","time":6,"is_transit":false,"transit":false,"line":6,"i_lat":-6.296963},{"line":6,"station_id":"JMU","i_long":106.728916,"transit":false,"i_lat":-6.288927,"time":4,"distance":1994,"station_name":"Jurangmangu","is_transit":false},{"transit":false,"time":3,"is_transit":false,"station_name":"Pondokranji","i_long":106.74273,"station_id":"PDJ","distance":2179,"line":6,"i_lat":-6.276362},{"time":8,"station_name":"Kebayoran","is_transit":false,"line":6,"i_long":106.780334,"transit":false,"distance":6218,"station_id":"KBY","i_lat":-6.237242},{"is_transit":false,"station_id":"PLM","time":7,"station_name":"Palmerah","line":6,"distance":3737,"i_long":106.79689,"transit":false,"i_lat":-6.207404},{"line":1,"time":6,"station_id":"THB","station_name":"Tanah Abang","i_long":106.811091,"i_lat":-6.185545,"transit":true,"is_transit":true,"distance":3191},{"is_transit":false,"line":1,"transit":false,"time":5,"station_name":"Karet","i_lat":-6.20132,"distance":2029,"station_id":"KAT","i_long":106.816351},{"i_lat":-6.201433,"station_id":"SUDB","is_transit":false,"station_name":"Sudirman Baru","transit":false,"distance":471,"i_long":106.819881,"time":1,"line":1},{"distance":280,"transit":false,"i_lat":-6.202263,"station_id":"SUD","i_long":106.822649,"line":1,"time":1,"station_name":"Sudirman","is_transit":false},{"station_id":"MRI","i_long":106.84912,"is_transit":false,"distance":3186,"station_name":"Manggarai","i_lat":-6.209883,"line":2,"transit":false,"time":4},{"line":1,"i_lat":-6.212485,"time":2,"station_name":"Matraman","i_long":106.858896,"is_transit":false,"distance":1275,"station_id":"MTR","transit":false},{"line":1,"i_long":106.86807400000001,"station_name":"Jatinegara","time":8,"distance":1377,"transit":true,"is_transit":true,"i_lat":-6.215091,"station_id":"JNG"},{"time":2,"station_id":"POK","is_transit":false,"distance":1236,"transit":false,"station_name":"Pondok Jati","i_long":106.861737,"line":11,"i_lat":-6.209188},{"time":2,"is_transit":false,"distance":1829,"station_id":"KMT","transit":false,"station_name":"Kramat","i_lat":-6.193792,"i_long":106.855437,"line":11},{"i_lat":-6.185975,"i_long":106.850107,"is_transit":false,"transit":false,"line":11,"time":1,"distance":973,"station_id":"GST","station_name":"Gang Sentiong"},{"distance":1567,"station_name":"Pasar Senen","time":8,"i_long":106.84368,"station_id":"PSE","i_lat":-6.174784,"transit":false,"line":11,"is_transit":false},{"transit":false,"station_id":"KMO","station_name":"Kemayoran","distance":1436,"is_transit":false,"i_lat":-6.161728,"i_long":106.839204,"line":11,"time":4},{"transit":false,"station_name":"Rajawali","station_id":"RJW","time":5,"is_transit":false,"distance":1901,"i_long":106.836569,"line":11,"i_lat":-6.14505},{"station_id":"KPB","i_long":106.826365,"line":4,"time":3,"distance":1444,"is_transit":false,"transit":false,"i_lat":-6.132549,"station_name":"Kampung Bandan"}]]}