{"data":[[{"station_id":"CC","time":0,"distance":0,"line":3,"transit":false,"station_name":"Cicayur","is_transit":false,"i_long":106.617853,"i_lat":-6.329547},{"line":3,"distance":2519,"transit":false,"time":4,"station_name":"Cisauk","i_lat":-6.32484,"is_transit":false,"station_id":"CSK","i_long":106.640411},{"i_lat":-6.319871,"time":4,"station_id":"SRP","station_name":"Serpong","distance":1784,"line":6,"transit":false,"i_long":106.66566,"is_transit":false},{"station_id":"RU","line":6,"distance":2413,"time":4,"transit":false,"station_name":"Rawa Buntu","is_transit":false,"i_lat":-6.314823,"i_long":106.675475},{"station_id":"SDM","line":6,"time":6,"i_lat":-6.296963,"i_long":106.712277,"is_transit":false,"transit":false,"station_name":"Sudimara","distance":4566},{"is_transit":false,"i_long":106.728916,"line":6,"time":4,"distance":1994,"i_lat":-6.288927,"station_id":"JMU","station_name":"Jurangmangu","transit":false},{"i_lat":-6.276362,"transit":false,"station_id":"PDJ","time":3,"is_transit":false,"station_name":"Pondokranji","line":6,"i_long":106.74273,"distance":2179},{"time":8,"transit":false,"station_name":"Kebayoran","station_id":"KBY","line":6,"i_lat":-6.237242,"is_transit":false,"i_long":106.780334,"distance":6218},{"station_id":"PLM","transit":false,"is_transit":false,"i_long":106.79689,"i_lat":-6.207404,"distance":3737,"station_name":"Palmerah","time":7,"line":6},{"transit":true,"distance":3191,"i_long":106.811091,"time":6,"station_name":"Tanah Abang","is_transit":true,"station_id":"THB","i_lat":-6.185545,"line":1},{"time":8,"station_name":"Duri","station_id":"DU","is_transit":false,"i_lat":-6.155215,"i_long":106.800832,"line":1,"distance":3632,"transit":false},{"transit":false,"distance":1230,"station_id":"AK","i_lat":-6.144674,"line":1,"is_transit":false,"station_name":"Angke","time":4,"i_long":106.79867},{"station_name":"Kampung Bandan","i_long":106.826365,"distance":4102,"is_transit":false,"transit":false,"i_lat":-6.132549,"line":4,"time":9,"station_id":"KPB"}],[{"time":0,"line":3,"station_id":"CC","i_lat":-6.329547,"transit":false,"i_long":106.617853,"station_name":"Cicayur","distance":0,"is_transit":false},{"station_id":"CSK","is_transit":false,"station_name":"Cisauk","time":4,"distance":2519,"i_lat":-6.32484,"transit":false,"line":3,"i_long":106.640411},{"i_long":106.66566,"station_id":"SRP","i_lat":-6.319871,"station_name":"Serpong","transit":false,"is_transit":false,"time":4,"distance":1784,"line":6},{"time":4,"distance":2413,"i_long":106.675475,"is_transit":false,"station_id":"RU","i_lat":-6.314823,"station_name":"Rawa Buntu","line":6,"transit":false},{"station_name":"Sudimara","is_transit":false,"i_lat":-6.296963,"time":6,"station_id":"SDM","transit":false,"distance":4566,"line":6,"i_long":106.712277},{"transit":false,"is_transit":false,"time":4,"station_name":"Jurangmangu","i_long":106.728916,"distance":1994,"i_lat":-6.288927,"station_id":"JMU","line":6},{"i_long":106.74273,"station_name":"Pondokranji","time":3,"station_id":"PDJ","is_transit":false,"i_lat":-6.276362,"line":6,"distance":2179,"transit":false},{"line":6,"station_id":"KBY","transit":false,"is_transit":false,"time":8,"distance":6218,"i_lat":-6.237242,"i_long":106.780334,"station_name":"Kebayoran"},{"time":7,"transit":false,"i_long":106.79689,"is_transit":false,"line":6,"station_name":"Palmerah","station_id":"PLM","distance":3737,"i_lat":-6.207404},{"i_lat":-6.185545,"station_id":"THB","time":6,"i_long":106.811091,"station_name":"Tanah Abang","transit":true,"line":1,"is_transit":true,"distance":3191},{"station_id":"KAT","transit":false,"line":1,"is_transit":false,"time":5,"i_lat":-6.20132,"station_name":"Karet","distance":2029,"i_long":106.816351},{"station_name":"Sudirman Baru","is_transit":false,"transit":false,"i_lat":-6.201433,"time":1,"station_id":"SUDB","distance":471,"i_long":106.819881,"line":1},{"is_transit":false,"time":1,"line":1,"i_long":106.822649,"station_id":"SUD","distance":280,"i_lat":-6.202263,"station_name":"Sudirman","transit":false},{"transit":true,"i_long":106.84912,"is_transit":true,"time":4,"distance":3186,"line":2,"station_id":"MRI","station_name":"Manggarai","i_lat":-6.209883},{"i_lat":-6.198556,"i_long":106.840169,"is_transit":false,"line":2,"time":4,"distance":1590,"transit":false,"station_name":"Cikini","station_id":"CKI"},{"is_transit":false,"i_lat":-6.186295,"line":2,"station_id":"GDD","station_name":"Gondangdia","time":3,"transit":false,"i_long":106.832183,"distance":1750},{"is_transit":false,"i_long":106.828284,"line":2,"transit":false,"station_name":"Juanda","distance":2015,"i_lat":-6.166716,"station_id":"JUA","time":4},{"station_name":"Sawah Besar","line":2,"i_lat":-6.160725,"transit":false,"distance":1149,"i_long":106.827103,"is_transit":false,"time":2,"station_id":"SW"},{"time":2,"is_transit":false,"distance":906,"line":2,"station_id":"MGB","station_name":"Manggabesar","i_long":106.82482,"transit":false,"i_lat":-6.149769},{"station_id":"JAY","time":2,"transit":false,"station_name":"Jayakarta","i_lat":-6.141205,"is_transit":false,"distance":1080,"line":2,"i_long":106.820901},{"station_name":"Jakarta Kota","transit":true,"station_id":"JAKK","distance":1264,"i_long":106.812439,"time":4,"line":2,"is_transit":true,"i_lat":-6.137569},{"distance":1364,"transit":false,"station_name":"Kampung Bandan","is_transit":false,"i_lat":-6.132549,"line":4,"i_long":106.826365,"station_id":"KPB","time":3}],[{"transit":false,"i_lat":-6.329547,"is_transit":false,"time":0,"distance":0,"line":3,"i_long":106.617853,"station_name":"Cicayur","station_id":"CC"},{"station_name":"Cisauk","is_transit":false,"i_lat":-6.32484,"station_id":"CSK","line":3,"transit":false,"distance":2519,"i_long":106.640411,"time":4},{"i_lat":-6.319871,"is_transit":false,"distance":1784,"transit":false,"station_name":"Serpong","i_long":106.66566,"line":6,"time":4,"station_id":"SRP"},{"i_lat":-6.314823,"distance":2413,"is_transit":false,"transit":false,"i_long":106.675475,"station_name":"Rawa Buntu","station_id":"RU","line":6,"time":4},{"station_name":"Sudimara","time":6,"i_lat":-6.296963,"station_id":"SDM","line":6,"distance":4566,"i_long":106.712277,"transit":false,"is_transit":false},{"station_name":"Jurangmangu","i_lat":-6.288927,"station_id":"JMU","line":6,"transit":false,"time":4,"i_long":106.728916,"distance":1994,"is_transit":false},{"station_name":"Pondokranji","station_id":"PDJ","i_lat":-6.276362,"line":6,"i_long":106.74273,"transit":false,"is_transit":false,"time":3,"distance":2179},{"i_long":106.780334,"station_id":"KBY","line":6,"station_name":"Kebayoran","transit":false,"i_lat":-6.237242,"is_transit":false,"time":8,"distance":6218},{"line":6,"is_transit":false,"station_id":"PLM","station_name":"Palmerah","time":7,"distance":3737,"i_lat":-6.207404,"i_long":106.79689,"transit":false},{"station_name":"Tanah Abang","i_long":106.811091,"is_transit":true,"transit":true,"line":1,"distance":3191,"time":6,"i_lat":-6.185545,"station_id":"THB"},{"station_name":"Karet","is_transit":false,"time":5,"station_id":"KAT","transit":false,"i_lat":-6.20132,"line":1,"i_long":106.816351,"distance":2029},{"i_lat":-6.201433,"distance":471,"time":1,"station_id":"SUDB","line":1,"is_transit":false,"i_long":106.819881,"transit":false,"station_name":"Sudirman Baru"},{"station_name":"Sudirman","line":1,"transit":false,"time":1,"station_id":"SUD","i_lat":-6.202263,"i_long":106.822649,"distance":280,"is_transit":false},{"is_transit":false,"transit":false,"distance":3186,"i_lat":-6.209883,"station_id":"MRI","time":4,"station_name":"Manggarai","line":2,"i_long":106.84912},{"distance":1275,"transit":false,"is_transit":false,"i_lat":-6.212485,"line":1,"time":2,"station_id":"MTR","i_long":106.858896,"station_name":"Matraman"},{"time":8,"line":1,"is_transit":true,"transit":true,"distance":1377,"i_long":106.86807400000001,"i_lat":-6.215091,"station_id":"JNG","station_name":"Jatinegara"},{"time":2,"distance":1236,"i_lat":-6.209188,"line":11,"i_long":106.861737,"station_id":"POK","is_transit":false,"station_name":"Pondok Jati","transit":false},{"i_lat":-6.193792,"i_long":106.855437,"station_name":"Kramat","line":11,"time":2,"station_id":"KMT","is_transit":false,"distance":1829,"transit":false},{"distance":973,"i_lat":-6.185975,"time":1,"i_long":106.850107,"line":11,"station_name":"Gang Sentiong","is_transit":false,"transit":false,"station_id":"GST"},{"i_long":106.84368,"is_transit":false,"station_id":"PSE","line":11,"time":8,"transit":false,"station_name":"Pasar Senen","i_lat":-6.174784,"distance":1567},{"station_name":"Kemayoran","distance":1436,"station_id":"KMO","time":4,"transit":false,"line":11,"is_transit":false,"i_lat":-6.161728,"i_long":106.839204},{"time":5,"distance":1901,"i_long":106.836569,"line":11,"station_name":"Rajawali","i_lat":-6.14505,"station_id":"RJW","transit":false,"is_transit":false},{"distance":1444,"station_id":"KPB","station_name":"Kampung Bandan","transit":false,"time":3,"i_lat":-6.132549,"i_long":106.826365,"is_transit":false,"line":4}]]}