{"data":[[{"distance":0,"line":3,"is_transit":false,"transit":false,"i_lat":-6.329547,"station_id":"CC","time":0,"station_name":"Cicayur","i_long":106.617853},{"transit":false,"i_lat":-6.32484,"i_long":106.640411,"station_id":"CSK","line":3,"time":4,"distance":2519,"is_transit":false,"station_name":"Cisauk"},{"is_transit":false,"station_name":"Serpong","i_lat":-6.319871,"i_long":106.66566,"distance":1784,"time":4,"line":6,"transit":false,"station_id":"SRP"},{"time":4,"i_lat":-6.314823,"distance":2413,"line":6,"transit":false,"is_transit":false,"station_name":"Rawa Buntu","i_long":106.675475,"station_id":"RU"},{"is_transit":false,"time":6,"station_id":"SDM","transit":false,"i_long":106.712277,"i_lat":-6.296963,"line":6,"distance":4566,"station_name":"Sudimara"},{"i_lat":-6.288927,"i_long":106.728916,"station_name":"Jurangmangu","transit":false,"time":4,"station_id":"JMU","distance":1994,"is_transit":false,"line":6},{"i_lat":-6.276362,"i_long":106.74273,"distance":2179,"transit":false,"station_name":"Pondokranji","time":3,"is_transit":false,"station_id":"PDJ","line":6},{"transit":false,"is_transit":false,"i_long":106.780334,"line":6,"station_name":"Kebayoran","station_id":"KBY","distance":6218,"time":8,"i_lat":-6.237242},{"is_transit":false,"transit":false,"station_id":"PLM","station_name":"Palmerah","distance":3737,"i_lat":-6.207404,"i_long":106.79689,"time":7,"line":6},{"is_transit":true,"i_lat":-6.185545,"i_long":106.811091,"time":6,"station_id":"THB","transit":true,"distance":3191,"line":1,"station_name":"Tanah Abang"},{"i_lat":-6.155215,"time":8,"i_long":106.800832,"distance":3632,"station_id":"DU","station_name":"Duri","transit":true,"line":1,"is_transit":true},{"i_long":106.788277,"is_transit":false,"distance":1700,"station_id":"GGL","line":5,"i_lat":-6.162021,"station_name":"Grogol","time":3,"transit":false},{"station_id":"PSG","i_lat":-6.161433,"line":5,"time":2,"station_name":"Pesing","transit":false,"distance":2036,"i_long":106.771379,"is_transit":false},{"i_lat":-6.1587309999999995,"transit":false,"time":2,"distance":1614,"station_id":"TKO","i_long":106.756522,"station_name":"Taman Kota","is_transit":false,"line":5},{"transit":false,"station_id":"BOI","line":5,"station_name":"Bojongindah","i_lat":-6.159876,"distance":2334,"i_long":106.737035,"is_transit":false,"time":2},{"station_id":"RW","distance":1152,"is_transit":false,"i_lat":-6.162758,"i_long":106.723064,"station_name":"Rawa Buaya","time":4,"line":5,"transit":false},{"transit":false,"station_name":"Kalideres","distance":2504,"i_lat":-6.166068,"time":3,"i_long":106.701612,"is_transit":false,"line":5,"station_id":"KDS"}],[{"i_long":106.617853,"station_id":"CC","is_transit":false,"transit":false,"distance":0,"time":0,"line":3,"station_name":"Cicayur","i_lat":-6.329547},{"time":4,"transit":false,"i_lat":-6.32484,"station_id":"CSK","station_name":"Cisauk","distance":2519,"line":3,"is_transit":false,"i_long":106.640411},{"distance":1784,"line":6,"transit":false,"station_name":"Serpong","is_transit":false,"i_long":106.66566,"time":4,"station_id":"SRP","i_lat":-6.319871},{"is_transit":false,"transit":false,"distance":2413,"i_lat":-6.314823,"line":6,"station_id":"RU","station_name":"Rawa Buntu","i_long":106.675475,"time":4},{"time":6,"is_transit":false,"transit":false,"line":6,"distance":4566,"station_id":"SDM","i_lat":-6.296963,"station_name":"Sudimara","i_long":106.712277},{"distance":1994,"time":4,"station_name":"Jurangmangu","is_transit":false,"transit":false,"line":6,"station_id":"JMU","i_long":106.728916,"i_lat":-6.288927},{"station_name":"Pondokranji","station_id":"PDJ","transit":false,"distance":2179,"is_transit":false,"time":3,"line":6,"i_lat":-6.276362,"i_long":106.74273},{"distance":6218,"station_name":"Kebayoran","line":6,"time":8,"i_long":106.780334,"transit":false,"is_transit":false,"station_id":"KBY","i_lat":-6.237242},{"station_id":"PLM","distance":3737,"i_long":106.79689,"time":7,"transit":false,"line":6,"is_transit":false,"station_name":"Palmerah","i_lat":-6.207404},{"i_lat":-6.185545,"station_name":"Tanah Abang","station_id":"THB","is_transit":true,"transit":true,"distance":3191,"time":6,"i_long":106.811091,"line":1},{"station_id":"KAT","time":5,"is_transit":false,"station_name":"Karet","transit":false,"line":1,"i_long":106.816351,"i_lat":-6.20132,"distance":2029},{"station_id":"SUDB","is_transit":false,"i_long":106.819881,"transit":false,"line":1,"station_name":"Sudirman Baru","i_lat":-6.201433,"time":1,"distance":471},{"station_id":"SUD","time":1,"station_name":"Sudirman","i_lat":-6.202263,"i_long":106.822649,"transit":false,"line":1,"distance":280,"is_transit":false},{"is_transit":true,"transit":true,"station_id":"MRI","i_lat":-6.209883,"distance":3186,"i_long":106.84912,"line":2,"time":4,"station_name":"Manggarai"},{"station_id":"CKI","line":2,"time":4,"transit":false,"i_lat":-6.198556,"distance":1590,"is_transit":false,"station_name":"Cikini","i_long":106.840169},{"distance":1750,"station_name":"Gondangdia","transit":false,"time":3,"is_transit":false,"i_long":106.832183,"line":2,"station_id":"GDD","i_lat":-6.186295},{"time":4,"transit":false,"i_lat":-6.166716,"station_id":"JUA","i_long":106.828284,"is_transit":false,"line":2,"station_name":"Juanda","distance":2015},{"station_name":"Sawah Besar","time":2,"distance":1149,"i_lat":-6.160725,"is_transit":false,"transit":false,"station_id":"SW","i_long":106.827103,"line":2},{"i_lat":-6.149769,"is_transit":false,"transit":false,"distance":906,"station_name":"Manggabesar","line":2,"i_long":106.82482,"station_id":"MGB","time":2},{"is_transit":false,"line":2,"i_long":106.820901,"station_name":"Jayakarta","station_id":"JAY","transit":false,"i_lat":-6.141205,"time":2,"distance":1080},{"line":2,"distance":1264,"station_name":"Jakarta Kota","transit":true,"i_lat":-6.137569,"station_id":"JAKK","is_transit":true,"i_long":106.812439,"time":4},{"i_lat":-6.132549,"distance":1364,"time":3,"station_name":"Kampung Bandan","station_id":"KPB","line":4,"i_long":106.826365,"is_transit":true,"transit":true},{"time":9,"i_lat":-6.144674,"station_name":"Angke","line":1,"i_long":106.79867,"distance":4102,"is_transit":false,"station_id":"AK","transit":false},{"transit":true,"station_id":"DU","distance":1230,"i_long":106.800832,"i_lat":-6.155215,"line":1,"time":4,"is_transit":true,"station_name":"Duri"},{"distance":1700,"is_transit":false,"station_name":"Grogol","i_lat":-6.162021,"station_id":"GGL","transit":false,"time":3,"line":5,"i_long":106.788277},{"station_id":"PSG","i_lat":-6.161433,"is_transit":false,"i_long":106.771379,"time":2,"transit":false,"distance":2036,"line":5,"station_name":"Pesing"},{"station_name":"Taman Kota","station_id":"TKO","distance":1614,"time":2,"line":5,"transit":false,"is_transit":false,"i_lat":-6.1587309999999995,"i_long":106.756522},{"time":2,"i_long":106.737035,"distance":2334,"station_id":"BOI","is_transit":false,"station_name":"Bojongindah","transit":false,"i_lat":-6.159876,"line":5},{"i_lat":-6.162758,"station_id":"RW","distance":1152,"is_transit":false,"time":4,"station_name":"Rawa Buaya","transit":false,"line":5,"i_long":106.723064},{"distance":2504,"station_id":"KDS","is_transit":false,"station_name":"Kalideres","i_long":106.701612,"line":5,"time":3,"i_lat":-6.166068,"transit":false}],[{"is_transit":false,"i_long":106.617853,"transit":false,"time":0,"distance":0,"station_name":"Cicayur","line":3,"i_lat":-6.329547,"station_id":"CC"},{"i_lat":-6.32484,"station_name":"Cisauk","transit":false,"distance":2519,"time":4,"line":3,"is_transit":false,"station_id":"CSK","i_long":106.640411},{"time":4,"i_long":106.66566,"station_id":"SRP","is_transit":false,"i_lat":-6.319871,"distance":1784,"station_name":"Serpong","transit":false,"line":6},{"station_name":"Rawa Buntu","transit":false,"distance":2413,"station_id":"RU","is_transit":false,"time":4,"i_lat":-6.314823,"i_long":106.675475,"line":6},{"time":6,"transit":false,"distance":4566,"line":6,"i_lat":-6.296963,"is_transit":false,"i_long":106.712277,"station_name":"Sudimara","station_id":"SDM"},{"transit":false,"time":4,"line":6,"i_lat":-6.288927,"i_long":106.728916,"station_id":"JMU","is_transit":false,"distance":1994,"station_name":"Jurangmangu"},{"distance":2179,"station_name":"Pondokranji","transit":false,"is_transit":false,"station_id":"PDJ","i_long":106.74273,"line":6,"i_lat":-6.276362,"time":3},{"transit":false,"station_name":"Kebayoran","i_lat":-6.237242,"distance":6218,"time":8,"line":6,"station_id":"KBY","is_transit":false,"i_long":106.780334},{"transit":false,"i_lat":-6.207404,"distance":3737,"line":6,"is_transit":false,"station_name":"Palmerah","station_id":"PLM","i_long":106.79689,"time":7},{"station_name":"Tanah Abang","i_lat":-6.185545,"station_id":"THB","transit":true,"is_transit":true,"time":6,"distance":3191,"i_long":106.811091,"line":1},{"i_lat":-6.20132,"i_long":106.816351,"line":1,"distance":2029,"station_id":"KAT","is_transit":false,"time":5,"transit":false,"station_name":"Karet"},{"time":1,"i_lat":-6.201433,"station_name":"Sudirman Baru","i_long":106.819881,"distance":471,"line":1,"transit":false,"station_id":"SUDB","is_transit":false},{"i_lat":-6.202263,"station_id":"SUD","line":1,"time":1,"distance":280,"is_transit":false,"transit":false,"i_long":106.822649,"station_name":"Sudirman"},{"distance":3186,"station_name":"Manggarai","station_id":"MRI","is_transit":false,"i_lat":-6.209883,"line":2,"transit":false,"time":4,"i_long":106.84912},{"station_id":"MTR","transit":false,"i_lat":-6.212485,"is_transit":false,"distance":1275,"station_name":"Matraman","line":1,"i_long":106.858896,"time":2},{"distance":1377,"line":1,"station_name":"Jatinegara","time":8,"station_id":"JNG","is_transit":true,"transit":true,"i_long":106.86807400000001,"i_lat":-6.215091},{"i_lat":-6.209188,"time":2,"is_transit":false,"i_long":106.861737,"line":11,"station_name":"Pondok Jati","station_id":"POK","transit":false,"distance":1236},{"i_long":106.855437,"line":11,"distance":1829,"station_name":"Kramat","i_lat":-6.193792,"time":2,"station_id":"KMT","is_transit":false,"transit":false},{"station_name":"Gang Sentiong","transit":false,"i_lat":-6.185975,"line":11,"i_long":106.850107,"time":1,"station_id":"GST","is_transit":false,"distance":973},{"i_long":106.84368,"line":11,"i_lat":-6.174784,"is_transit":false,"time":8,"transit":false,"station_name":"Pasar Senen","station_id":"PSE","distance":1567},{"transit":false,"station_name":"Kemayoran","station_id":"KMO","line":11,"is_transit":false,"i_long":106.839204,"i_lat":-6.161728,"distance":1436,"time":4},{"station_id":"RJW","is_transit":false,"i_long":106.836569,"line":11,"distance":1901,"transit":false,"i_lat":-6.14505,"station_name":"Rajawali","time":5},{"distance":1444,"line":4,"station_id":"KPB","i_long":106.826365,"i_lat":-6.132549,"is_transit":true,"transit":true,"station_name":"Kampung Bandan","time":3},{"transit":false,"time":9,"distance":4102,"station_name":"Angke","i_long":106.79867,"line":1,"station_id":"AK","is_transit":false,"i_lat":-6.144674},{"distance":1230,"time":4,"is_transit":true,"station_name":"Duri","i_lat":-6.155215,"station_id":"DU","i_long":106.800832,"line":1,"transit":true},{"station_id":"GGL","transit":false,"i_lat":-6.162021,"is_transit":false,"distance":1700,"i_long":106.788277,"time":3,"station_name":"Grogol","line":5},{"transit":false,"i_lat":-6.161433,"line":5,"time":2,"station_name":"Pesing","is_transit":false,"station_id":"PSG","i_long":106.771379,"distance":2036},{"line":5,"time":2,"station_id":"TKO","is_transit":false,"distance":1614,"station_name":"Taman Kota","i_lat":-6.1587309999999995,"transit":false,"i_long":106.756522},{"time":2,"i_lat":-6.159876,"line":5,"i_long":106.737035,"is_transit":false,"transit":false,"station_id":"BOI","station_name":"Bojongindah","distance":2334},{"line":5,"station_id":"RW","i_long":106.723064,"is_transit":false,"distance":1152,"time":4,"i_lat":-6.162758,"transit":false,"station_name":"Rawa Buaya"},{"station_id":"KDS","transit":false,"i_lat":-6.166068,"i_long":106.701612,"is_transit":false,"time":3,"distance":2504,"line":5,"station_name":"Kalideres"}]]}