{"data":[[{"transit":false,"distance":0,"station_name":"Cicayur","line":3,"time":0,"station_id":"CC","is_transit":false,"i_lat":-6.329547,"i_long":106.617853},{"is_transit":false,"station_id":"CSK","transit":false,"i_long":106.640411,"i_lat":-6.32484,"line":3,"time":4,"distance":2519,"station_name":"Cisauk"},{"time":4,"i_long":106.66566,"is_transit":false,"distance":1784,"station_id":"SRP","i_lat":-6.319871,"station_name":"Serpong","line":6,"transit":false},{"is_transit":false,"station_id":"RU","time":4,"i_long":106.675475,"transit":false,"station_name":"Rawa Buntu","distance":2413,"line":6,"i_lat":-6.314823},{"i_lat":-6.296963,"distance":4566,"i_long":106.712277,"is_transit":false,"time":6,"station_id":"SDM","line":6,"transit":false,"station_name":"Sudimara"},{"i_long":106.728916,"station_id":"JMU","station_name":"Jurangmangu","distance":1994,"line":6,"time":4,"i_lat":-6.288927,"is_transit":false,"transit":false},{"line":6,"i_lat":-6.276362,"i_long":106.74273,"station_id":"PDJ","distance":2179,"is_transit":false,"time":3,"station_name":"Pondokranji","transit":false},{"i_long":106.780334,"transit":false,"distance":6218,"station_id":"KBY","time":8,"is_transit":false,"station_name":"Kebayoran","i_lat":-6.237242,"line":6}]]}