{"data":[[{"station_name":"Cicayur","i_lat":-6.329547,"line":3,"time":0,"i_long":106.617853,"distance":0,"is_transit":false,"transit":false,"station_id":"CC"},{"time":4,"station_id":"CSK","is_transit":false,"station_name":"Cisauk","distance":2519,"line":3,"transit":false,"i_lat":-6.32484,"i_long":106.640411},{"i_lat":-6.319871,"is_transit":false,"i_long":106.66566,"line":6,"transit":false,"station_name":"Serpong","time":4,"distance":1784,"station_id":"SRP"},{"line":6,"i_long":106.675475,"station_name":"Rawa Buntu","station_id":"RU","time":4,"transit":false,"i_lat":-6.314823,"distance":2413,"is_transit":false},{"i_lat":-6.296963,"line":6,"distance":4566,"transit":false,"station_name":"Sudimara","is_transit":false,"station_id":"SDM","i_long":106.712277,"time":6},{"transit":false,"station_name":"Jurangmangu","station_id":"JMU","i_lat":-6.288927,"i_long":106.728916,"line":6,"time":4,"distance":1994,"is_transit":false},{"i_long":106.74273,"i_lat":-6.276362,"is_transit":false,"station_id":"PDJ","distance":2179,"time":3,"station_name":"Pondokranji","line":6,"transit":false},{"distance":6218,"transit":false,"station_name":"Kebayoran","i_lat":-6.237242,"line":6,"time":8,"i_long":106.780334,"is_transit":false,"station_id":"KBY"},{"transit":false,"station_name":"Palmerah","station_id":"PLM","time":7,"line":6,"is_transit":false,"distance":3737,"i_long":106.79689,"i_lat":-6.207404},{"i_long":106.811091,"transit":true,"station_name":"Tanah Abang","time":6,"line":1,"distance":3191,"i_lat":-6.185545,"station_id":"THB","is_transit":true},{"line":1,"station_id":"DU","is_transit":true,"distance":3632,"station_name":"Duri","transit":true,"i_lat":-6.155215,"i_long":106.800832,"time":8},{"i_lat":-6.162021,"is_transit":false,"line":5,"station_name":"Grogol","i_long":106.788277,"distance":1700,"station_id":"GGL","time":3,"transit":false},{"i_lat":-6.161433,"station_name":"Pesing","transit":false,"station_id":"PSG","time":2,"is_transit":false,"i_long":106.771379,"line":5,"distance":2036},{"distance":1614,"station_id":"TKO","line":5,"transit":false,"station_name":"Taman Kota","time":2,"i_lat":-6.1587309999999995,"is_transit":false,"i_long":106.756522},{"time":2,"i_long":106.737035,"i_lat":-6.159876,"station_id":"BOI","station_name":"Bojongindah","line":5,"is_transit":false,"transit":false,"distance":2334},{"station_name":"Rawa Buaya","distance":1152,"station_id":"RW","is_transit":false,"transit":false,"i_long":106.723064,"line":5,"i_lat":-6.162758,"time":4},{"is_transit":false,"i_lat":-6.166068,"station_name":"Kalideres","line":5,"distance":2504,"time":3,"transit":false,"station_id":"KDS","i_long":106.701612}],[{"station_id":"CC","distance":0,"is_transit":false,"transit":false,"i_long":106.617853,"station_name":"Cicayur","time":0,"i_lat":-6.329547,"line":3},{"is_transit":false,"time":4,"station_id":"CSK","i_lat":-6.32484,"station_name":"Cisauk","transit":false,"distance":2519,"line":3,"i_long":106.640411},{"time":4,"station_name":"Serpong","distance":1784,"line":6,"i_lat":-6.319871,"i_long":106.66566,"transit":false,"station_id":"SRP","is_transit":false},{"station_id":"RU","is_transit":false,"line":6,"i_long":106.675475,"transit":false,"station_name":"Rawa Buntu","i_lat":-6.314823,"distance":2413,"time":4},{"is_transit":false,"i_long":106.712277,"line":6,"i_lat":-6.296963,"station_name":"Sudimara","station_id":"SDM","transit":false,"time":6,"distance":4566},{"station_id":"JMU","is_transit":false,"i_lat":-6.288927,"line":6,"transit":false,"time":4,"station_name":"Jurangmangu","distance":1994,"i_long":106.728916},{"distance":2179,"is_transit":false,"line":6,"station_id":"PDJ","transit":false,"station_name":"Pondokranji","i_lat":-6.276362,"i_long":106.74273,"time":3},{"i_lat":-6.237242,"is_transit":false,"i_long":106.780334,"line":6,"transit":false,"time":8,"station_name":"Kebayoran","station_id":"KBY","distance":6218},{"transit":false,"is_transit":false,"i_lat":-6.207404,"time":7,"station_name":"Palmerah","i_long":106.79689,"distance":3737,"line":6,"station_id":"PLM"},{"line":1,"is_transit":true,"i_long":106.811091,"station_name":"Tanah Abang","time":6,"transit":true,"station_id":"THB","distance":3191,"i_lat":-6.185545},{"distance":2029,"line":1,"station_id":"KAT","time":5,"i_lat":-6.20132,"station_name":"Karet","i_long":106.816351,"transit":false,"is_transit":false},{"station_name":"Sudirman Baru","i_lat":-6.201433,"transit":false,"i_long":106.819881,"line":1,"station_id":"SUDB","distance":471,"time":1,"is_transit":false},{"time":1,"transit":false,"i_lat":-6.202263,"distance":280,"station_id":"SUD","is_transit":false,"station_name":"Sudirman","i_long":106.822649,"line":1},{"distance":3186,"i_lat":-6.209883,"is_transit":true,"i_long":106.84912,"transit":true,"line":2,"station_name":"Manggarai","station_id":"MRI","time":4},{"station_id":"CKI","station_name":"Cikini","transit":false,"time":4,"i_long":106.840169,"line":2,"is_transit":false,"i_lat":-6.198556,"distance":1590},{"distance":1750,"station_id":"GDD","transit":false,"i_long":106.832183,"station_name":"Gondangdia","line":2,"i_lat":-6.186295,"is_transit":false,"time":3},{"station_name":"Juanda","transit":false,"i_long":106.828284,"distance":2015,"i_lat":-6.166716,"line":2,"is_transit":false,"time":4,"station_id":"JUA"},{"is_transit":false,"station_id":"SW","i_lat":-6.160725,"i_long":106.827103,"distance":1149,"transit":false,"line":2,"station_name":"Sawah Besar","time":2},{"i_long":106.82482,"is_transit":false,"station_name":"Manggabesar","time":2,"line":2,"transit":false,"distance":906,"i_lat":-6.149769,"station_id":"MGB"},{"station_id":"JAY","station_name":"Jayakarta","i_long":106.820901,"line":2,"is_transit":false,"time":2,"distance":1080,"i_lat":-6.141205,"transit":false},{"distance":1264,"station_name":"Jakarta Kota","station_id":"JAKK","is_transit":true,"time":4,"transit":true,"line":2,"i_long":106.812439,"i_lat":-6.137569},{"station_name":"Kampung Bandan","transit":true,"is_transit":true,"time":3,"i_lat":-6.132549,"i_long":106.826365,"line":4,"station_id":"KPB","distance":1364},{"line":1,"station_id":"AK","time":9,"i_long":106.79867,"i_lat":-6.144674,"transit":false,"is_transit":false,"distance":4102,"station_name":"Angke"},{"is_transit":true,"distance":1230,"time":4,"i_lat":-6.155215,"line":1,"transit":true,"station_id":"DU","station_name":"Duri","i_long":106.800832},{"line":5,"is_transit":false,"time":3,"transit":false,"station_id":"GGL","station_name":"Grogol","distance":1700,"i_lat":-6.162021,"i_long":106.788277},{"distance":2036,"station_name":"Pesing","line":5,"i_lat":-6.161433,"i_long":106.771379,"transit":false,"time":2,"station_id":"PSG","is_transit":false},{"transit":false,"is_transit":false,"time":2,"distance":1614,"line":5,"station_id":"TKO","i_lat":-6.1587309999999995,"i_long":106.756522,"station_name":"Taman Kota"},{"station_id":"BOI","time":2,"distance":2334,"i_lat":-6.159876,"i_long":106.737035,"transit":false,"station_name":"Bojongindah","is_transit":false,"line":5},{"distance":1152,"station_id":"RW","time":4,"i_lat":-6.162758,"i_long":106.723064,"station_name":"Rawa Buaya","is_transit":false,"transit":false,"line":5},{"station_name":"Kalideres","time":3,"station_id":"KDS","i_lat":-6.166068,"line":5,"i_long":106.701612,"is_transit":false,"transit":false,"distance":2504}],[{"transit":false,"is_transit":false,"distance":0,"i_lat":-6.329547,"station_id":"CC","i_long":106.617853,"station_name":"Cicayur","time":0,"line":3},{"station_name":"Cisauk","transit":false,"time":4,"distance":2519,"line":3,"i_lat":-6.32484,"station_id":"CSK","is_transit":false,"i_long":106.640411},{"is_transit":false,"transit":false,"distance":1784,"time":4,"i_lat":-6.319871,"station_name":"Serpong","i_long":106.66566,"station_id":"SRP","line":6},{"distance":2413,"station_id":"RU","is_transit":false,"i_long":106.675475,"line":6,"transit":false,"station_name":"Rawa Buntu","i_lat":-6.314823,"time":4},{"station_name":"Sudimara","transit":false,"station_id":"SDM","is_transit":false,"i_lat":-6.296963,"i_long":106.712277,"time":6,"line":6,"distance":4566},{"i_long":106.728916,"station_name":"Jurangmangu","i_lat":-6.288927,"station_id":"JMU","is_transit":false,"time":4,"distance":1994,"line":6,"transit":false},{"station_id":"PDJ","i_long":106.74273,"time":3,"i_lat":-6.276362,"line":6,"distance":2179,"transit":false,"station_name":"Pondokranji","is_transit":false},{"line":6,"station_id":"KBY","transit":false,"station_name":"Kebayoran","time":8,"i_long":106.780334,"is_transit":false,"distance":6218,"i_lat":-6.237242},{"line":6,"distance":3737,"i_lat":-6.207404,"station_name":"Palmerah","time":7,"station_id":"PLM","i_long":106.79689,"transit":false,"is_transit":false},{"distance":3191,"time":6,"i_lat":-6.185545,"station_id":"THB","station_name":"Tanah Abang","i_long":106.811091,"line":1,"transit":true,"is_transit":true},{"i_long":106.816351,"transit":false,"station_name":"Karet","is_transit":false,"distance":2029,"line":1,"i_lat":-6.20132,"time":5,"station_id":"KAT"},{"is_transit":false,"time":1,"i_long":106.819881,"station_id":"SUDB","i_lat":-6.201433,"transit":false,"station_name":"Sudirman Baru","distance":471,"line":1},{"station_name":"Sudirman","i_lat":-6.202263,"i_long":106.822649,"is_transit":false,"station_id":"SUD","distance":280,"line":1,"transit":false,"time":1},{"line":2,"station_name":"Manggarai","time":4,"station_id":"MRI","transit":false,"is_transit":false,"distance":3186,"i_long":106.84912,"i_lat":-6.209883},{"i_long":106.858896,"station_name":"Matraman","station_id":"MTR","transit":false,"time":2,"is_transit":false,"i_lat":-6.212485,"line":1,"distance":1275},{"distance":1377,"transit":true,"station_id":"JNG","time":8,"is_transit":true,"i_long":106.86807400000001,"station_name":"Jatinegara","line":1,"i_lat":-6.215091},{"time":2,"i_lat":-6.209188,"transit":false,"line":11,"distance":1236,"i_long":106.861737,"station_id":"POK","station_name":"Pondok Jati","is_transit":false},{"i_lat":-6.193792,"line":11,"station_name":"Kramat","time":2,"transit":false,"station_id":"KMT","is_transit":false,"distance":1829,"i_long":106.855437},{"station_name":"Gang Sentiong","is_transit":false,"time":1,"station_id":"GST","i_long":106.850107,"transit":false,"distance":973,"i_lat":-6.185975,"line":11},{"i_long":106.84368,"station_id":"PSE","is_transit":false,"i_lat":-6.174784,"transit":false,"line":11,"distance":1567,"time":8,"station_name":"Pasar Senen"},{"is_transit":false,"i_lat":-6.161728,"i_long":106.839204,"station_name":"Kemayoran","distance":1436,"transit":false,"time":4,"station_id":"KMO","line":11},{"transit":false,"is_transit":false,"station_name":"Rajawali","line":11,"station_id":"RJW","distance":1901,"time":5,"i_long":106.836569,"i_lat":-6.14505},{"station_id":"KPB","i_long":106.826365,"time":3,"is_transit":true,"station_name":"Kampung Bandan","transit":true,"line":4,"distance":1444,"i_lat":-6.132549},{"station_name":"Angke","transit":false,"is_transit":false,"i_long":106.79867,"distance":4102,"i_lat":-6.144674,"time":9,"station_id":"AK","line":1},{"i_long":106.800832,"is_transit":true,"time":4,"transit":true,"station_name":"Duri","i_lat":-6.155215,"line":1,"station_id":"DU","distance":1230},{"is_transit":false,"station_name":"Grogol","line":5,"transit":false,"i_lat":-6.162021,"station_id":"GGL","time":3,"i_long":106.788277,"distance":1700},{"i_long":106.771379,"time":2,"distance":2036,"station_id":"PSG","transit":false,"i_lat":-6.161433,"line":5,"is_transit":false,"station_name":"Pesing"},{"station_name":"Taman Kota","i_lat":-6.1587309999999995,"line":5,"station_id":"TKO","is_transit":false,"i_long":106.756522,"distance":1614,"time":2,"transit":false},{"i_lat":-6.159876,"distance":2334,"is_transit":false,"time":2,"line":5,"i_long":106.737035,"transit":false,"station_name":"Bojongindah","station_id":"BOI"},{"distance":1152,"is_transit":false,"station_name":"Rawa Buaya","time":4,"i_lat":-6.162758,"i_long":106.723064,"line":5,"transit":false,"station_id":"RW"},{"station_id":"KDS","is_transit":false,"transit":false,"line":5,"time":3,"station_name":"Kalideres","i_long":106.701612,"distance":2504,"i_lat":-6.166068}]]}