{"data":[[{"time":0,"i_lat":-6.329547,"line":3,"is_transit":false,"i_long":106.617853,"station_id":"CC","transit":false,"distance":0,"station_name":"Cicayur"},{"distance":2519,"transit":false,"time":4,"station_name":"Cisauk","station_id":"CSK","is_transit":false,"i_lat":-6.32484,"i_long":106.640411,"line":3},{"i_lat":-6.319871,"time":4,"line":6,"station_id":"SRP","transit":false,"distance":1784,"is_transit":false,"station_name":"Serpong","i_long":106.66566},{"time":4,"station_id":"RU","distance":2413,"i_long":106.675475,"i_lat":-6.314823,"is_transit":false,"line":6,"transit":false,"station_name":"Rawa Buntu"},{"station_id":"SDM","time":6,"station_name":"Sudimara","i_long":106.712277,"is_transit":false,"distance":4566,"i_lat":-6.296963,"transit":false,"line":6},{"is_transit":false,"time":4,"i_lat":-6.288927,"transit":false,"station_id":"JMU","line":6,"station_name":"Jurangmangu","distance":1994,"i_long":106.728916},{"i_lat":-6.276362,"time":3,"is_transit":false,"transit":false,"line":6,"station_id":"PDJ","i_long":106.74273,"distance":2179,"station_name":"Pondokranji"},{"distance":6218,"transit":false,"line":6,"station_name":"Kebayoran","station_id":"KBY","is_transit":false,"time":8,"i_lat":-6.237242,"i_long":106.780334}]]}