{"data":[[{"station_name":"Cicayur","time":0,"i_lat":-6.329547,"is_transit":false,"distance":0,"i_long":106.617853,"line":3,"transit":false,"station_id":"CC"},{"i_lat":-6.32484,"station_id":"CSK","transit":false,"is_transit":false,"i_long":106.640411,"distance":2519,"time":4,"line":3,"station_name":"Cisauk"},{"distance":1784,"is_transit":false,"transit":false,"station_name":"Serpong","time":4,"i_long":106.66566,"line":6,"i_lat":-6.319871,"station_id":"SRP"},{"station_id":"RU","distance":2413,"transit":false,"station_name":"Rawa Buntu","is_transit":false,"i_long":106.675475,"time":4,"i_lat":-6.314823,"line":6},{"transit":false,"i_lat":-6.296963,"time":6,"station_id":"SDM","i_long":106.712277,"distance":4566,"station_name":"Sudimara","is_transit":false,"line":6},{"transit":false,"line":6,"station_name":"Jurangmangu","distance":1994,"is_transit":false,"i_lat":-6.288927,"station_id":"JMU","time":4,"i_long":106.728916},{"time":3,"line":6,"distance":2179,"station_id":"PDJ","is_transit":false,"i_lat":-6.276362,"i_long":106.74273,"station_name":"Pondokranji","transit":false},{"transit":false,"time":8,"distance":6218,"i_long":106.780334,"station_id":"KBY","line":6,"station_name":"Kebayoran","is_transit":false,"i_lat":-6.237242},{"distance":3737,"line":6,"i_lat":-6.207404,"station_name":"Palmerah","i_long":106.79689,"station_id":"PLM","is_transit":false,"transit":false,"time":7},{"station_name":"Tanah Abang","time":6,"distance":3191,"line":1,"station_id":"THB","i_long":106.811091,"is_transit":true,"transit":true,"i_lat":-6.185545},{"i_long":106.800832,"time":8,"i_lat":-6.155215,"station_name":"Duri","line":1,"is_transit":false,"station_id":"DU","distance":3632,"transit":false},{"is_transit":false,"distance":1230,"transit":false,"time":4,"i_lat":-6.144674,"line":1,"i_long":106.79867,"station_id":"AK","station_name":"Angke"},{"i_long":106.826365,"station_id":"KPB","distance":4102,"is_transit":true,"transit":true,"time":9,"i_lat":-6.132549,"station_name":"Kampung Bandan","line":4},{"line":11,"distance":1444,"time":3,"i_lat":-6.14505,"transit":false,"station_name":"Rajawali","i_long":106.836569,"station_id":"RJW","is_transit":false},{"i_lat":-6.161728,"station_name":"Kemayoran","line":11,"is_transit":false,"transit":false,"station_id":"KMO","time":5,"i_long":106.839204,"distance":1901}],[{"station_id":"CC","time":0,"i_lat":-6.329547,"i_long":106.617853,"distance":0,"line":3,"is_transit":false,"station_name":"Cicayur","transit":false},{"transit":false,"distance":2519,"i_lat":-6.32484,"is_transit":false,"time":4,"station_name":"Cisauk","station_id":"CSK","i_long":106.640411,"line":3},{"i_long":106.66566,"is_transit":false,"i_lat":-6.319871,"distance":1784,"transit":false,"station_name":"Serpong","line":6,"time":4,"station_id":"SRP"},{"transit":false,"time":4,"distance":2413,"station_name":"Rawa Buntu","is_transit":false,"line":6,"station_id":"RU","i_long":106.675475,"i_lat":-6.314823},{"distance":4566,"line":6,"i_lat":-6.296963,"time":6,"is_transit":false,"station_id":"SDM","i_long":106.712277,"transit":false,"station_name":"Sudimara"},{"i_long":106.728916,"station_id":"JMU","is_transit":false,"time":4,"transit":false,"i_lat":-6.288927,"line":6,"distance":1994,"station_name":"Jurangmangu"},{"station_id":"PDJ","distance":2179,"station_name":"Pondokranji","i_lat":-6.276362,"line":6,"is_transit":false,"time":3,"i_long":106.74273,"transit":false},{"transit":false,"station_name":"Kebayoran","line":6,"station_id":"KBY","distance":6218,"time":8,"is_transit":false,"i_lat":-6.237242,"i_long":106.780334},{"line":6,"i_lat":-6.207404,"transit":false,"station_name":"Palmerah","i_long":106.79689,"station_id":"PLM","is_transit":false,"time":7,"distance":3737},{"is_transit":true,"time":6,"line":1,"station_id":"THB","transit":true,"i_lat":-6.185545,"distance":3191,"i_long":106.811091,"station_name":"Tanah Abang"},{"station_name":"Karet","time":5,"station_id":"KAT","transit":false,"is_transit":false,"distance":2029,"i_lat":-6.20132,"i_long":106.816351,"line":1},{"i_long":106.819881,"transit":false,"i_lat":-6.201433,"time":1,"line":1,"station_name":"Sudirman Baru","station_id":"SUDB","distance":471,"is_transit":false},{"i_long":106.822649,"line":1,"distance":280,"station_name":"Sudirman","is_transit":false,"i_lat":-6.202263,"time":1,"station_id":"SUD","transit":false},{"station_id":"MRI","transit":false,"time":4,"line":2,"distance":3186,"is_transit":false,"i_lat":-6.209883,"i_long":106.84912,"station_name":"Manggarai"},{"line":1,"is_transit":false,"transit":false,"station_id":"MTR","distance":1275,"station_name":"Matraman","i_long":106.858896,"time":2,"i_lat":-6.212485},{"time":8,"is_transit":true,"station_name":"Jatinegara","i_lat":-6.215091,"line":1,"transit":true,"station_id":"JNG","i_long":106.86807400000001,"distance":1377},{"i_long":106.861737,"line":11,"time":2,"is_transit":false,"i_lat":-6.209188,"station_id":"POK","distance":1236,"transit":false,"station_name":"Pondok Jati"},{"station_name":"Kramat","transit":false,"station_id":"KMT","i_lat":-6.193792,"distance":1829,"is_transit":false,"time":2,"line":11,"i_long":106.855437},{"time":1,"transit":false,"station_name":"Gang Sentiong","station_id":"GST","distance":973,"i_lat":-6.185975,"i_long":106.850107,"line":11,"is_transit":false},{"transit":false,"station_name":"Pasar Senen","station_id":"PSE","is_transit":false,"distance":1567,"time":8,"line":11,"i_lat":-6.174784,"i_long":106.84368},{"i_long":106.839204,"line":11,"i_lat":-6.161728,"station_name":"Kemayoran","distance":1436,"is_transit":false,"transit":false,"station_id":"KMO","time":4}],[{"is_transit":false,"i_long":106.617853,"line":3,"transit":false,"distance":0,"station_name":"Cicayur","i_lat":-6.329547,"time":0,"station_id":"CC"},{"station_id":"CSK","i_lat":-6.32484,"station_name":"Cisauk","i_long":106.640411,"is_transit":false,"distance":2519,"line":3,"time":4,"transit":false},{"i_lat":-6.319871,"line":6,"transit":false,"station_name":"Serpong","time":4,"distance":1784,"is_transit":false,"i_long":106.66566,"station_id":"SRP"},{"i_long":106.675475,"station_id":"RU","time":4,"transit":false,"i_lat":-6.314823,"distance":2413,"line":6,"is_transit":false,"station_name":"Rawa Buntu"},{"i_long":106.712277,"station_name":"Sudimara","distance":4566,"line":6,"is_transit":false,"station_id":"SDM","transit":false,"time":6,"i_lat":-6.296963},{"station_id":"JMU","station_name":"Jurangmangu","is_transit":false,"time":4,"line":6,"transit":false,"distance":1994,"i_long":106.728916,"i_lat":-6.288927},{"transit":false,"i_long":106.74273,"i_lat":-6.276362,"distance":2179,"station_name":"Pondokranji","station_id":"PDJ","is_transit":false,"time":3,"line":6},{"is_transit":false,"i_long":106.780334,"i_lat":-6.237242,"distance":6218,"transit":false,"line":6,"station_name":"Kebayoran","time":8,"station_id":"KBY"},{"line":6,"is_transit":false,"time":7,"distance":3737,"i_lat":-6.207404,"station_id":"PLM","station_name":"Palmerah","transit":false,"i_long":106.79689},{"time":6,"i_long":106.811091,"transit":true,"station_name":"Tanah Abang","station_id":"THB","is_transit":true,"i_lat":-6.185545,"line":1,"distance":3191},{"time":5,"distance":2029,"is_transit":false,"i_long":106.816351,"transit":false,"station_name":"Karet","station_id":"KAT","i_lat":-6.20132,"line":1},{"i_lat":-6.201433,"line":1,"transit":false,"station_name":"Sudirman Baru","station_id":"SUDB","time":1,"i_long":106.819881,"is_transit":false,"distance":471},{"distance":280,"station_id":"SUD","i_lat":-6.202263,"station_name":"Sudirman","transit":false,"i_long":106.822649,"time":1,"line":1,"is_transit":false},{"line":2,"station_id":"MRI","is_transit":true,"i_long":106.84912,"station_name":"Manggarai","transit":true,"time":4,"distance":3186,"i_lat":-6.209883},{"i_long":106.840169,"distance":1590,"i_lat":-6.198556,"transit":false,"station_id":"CKI","is_transit":false,"time":4,"station_name":"Cikini","line":2},{"transit":false,"i_lat":-6.186295,"i_long":106.832183,"line":2,"station_id":"GDD","time":3,"station_name":"Gondangdia","distance":1750,"is_transit":false},{"is_transit":false,"transit":false,"i_long":106.828284,"time":4,"line":2,"i_lat":-6.166716,"station_name":"Juanda","distance":2015,"station_id":"JUA"},{"station_id":"SW","is_transit":false,"distance":1149,"line":2,"i_lat":-6.160725,"time":2,"station_name":"Sawah Besar","i_long":106.827103,"transit":false},{"transit":false,"distance":906,"line":2,"i_lat":-6.149769,"time":2,"i_long":106.82482,"station_name":"Manggabesar","station_id":"MGB","is_transit":false},{"transit":false,"is_transit":false,"distance":1080,"station_id":"JAY","i_long":106.820901,"i_lat":-6.141205,"line":2,"station_name":"Jayakarta","time":2},{"i_lat":-6.137569,"line":2,"station_id":"JAKK","i_long":106.812439,"distance":1264,"transit":true,"station_name":"Jakarta Kota","time":4,"is_transit":true},{"station_id":"KPB","is_transit":true,"i_lat":-6.132549,"line":4,"transit":true,"time":3,"station_name":"Kampung Bandan","distance":1364,"i_long":106.826365},{"line":11,"station_id":"RJW","i_lat":-6.14505,"transit":false,"station_name":"Rajawali","is_transit":false,"distance":1444,"i_long":106.836569,"time":3},{"i_lat":-6.161728,"is_transit":false,"station_id":"KMO","station_name":"Kemayoran","i_long":106.839204,"line":11,"transit":false,"time":5,"distance":1901}],[{"is_transit":false,"time":0,"i_lat":-6.329547,"line":3,"transit":false,"station_id":"CC","station_name":"Cicayur","distance":0,"i_long":106.617853},{"time":4,"distance":2519,"station_name":"Cisauk","is_transit":false,"i_lat":-6.32484,"station_id":"CSK","transit":false,"i_long":106.640411,"line":3},{"is_transit":false,"transit":false,"station_id":"SRP","station_name":"Serpong","i_lat":-6.319871,"distance":1784,"i_long":106.66566,"time":4,"line":6},{"is_transit":false,"distance":2413,"line":6,"time":4,"transit":false,"i_long":106.675475,"i_lat":-6.314823,"station_id":"RU","station_name":"Rawa Buntu"},{"station_name":"Sudimara","transit":false,"is_transit":false,"station_id":"SDM","i_lat":-6.296963,"i_long":106.712277,"line":6,"time":6,"distance":4566},{"i_long":106.728916,"station_id":"JMU","is_transit":false,"distance":1994,"line":6,"station_name":"Jurangmangu","i_lat":-6.288927,"transit":false,"time":4},{"i_long":106.74273,"time":3,"station_name":"Pondokranji","distance":2179,"line":6,"i_lat":-6.276362,"transit":false,"station_id":"PDJ","is_transit":false},{"is_transit":false,"distance":6218,"transit":false,"station_name":"Kebayoran","station_id":"KBY","time":8,"i_lat":-6.237242,"i_long":106.780334,"line":6},{"distance":3737,"station_id":"PLM","station_name":"Palmerah","i_long":106.79689,"time":7,"i_lat":-6.207404,"transit":false,"line":6,"is_transit":false},{"i_lat":-6.185545,"line":1,"i_long":106.811091,"is_transit":true,"distance":3191,"station_id":"THB","time":6,"transit":true,"station_name":"Tanah Abang"},{"is_transit":false,"transit":false,"i_lat":-6.155215,"i_long":106.800832,"station_id":"DU","time":8,"distance":3632,"line":1,"station_name":"Duri"},{"time":4,"is_transit":false,"line":1,"station_name":"Angke","distance":1230,"station_id":"AK","i_lat":-6.144674,"i_long":106.79867,"transit":false},{"distance":4102,"transit":true,"line":4,"is_transit":true,"station_id":"KPB","i_lat":-6.132549,"station_name":"Kampung Bandan","i_long":106.826365,"time":9},{"station_name":"Jakarta Kota","i_lat":-6.137569,"distance":1364,"line":2,"station_id":"JAKK","is_transit":true,"time":3,"i_long":106.812439,"transit":true},{"distance":1264,"station_id":"JAY","time":4,"line":2,"i_lat":-6.141205,"is_transit":false,"transit":false,"i_long":106.820901,"station_name":"Jayakarta"},{"i_long":106.82482,"station_name":"Manggabesar","i_lat":-6.149769,"station_id":"MGB","line":2,"is_transit":false,"time":2,"distance":1080,"transit":false},{"i_long":106.827103,"time":2,"i_lat":-6.160725,"station_id":"SW","transit":false,"station_name":"Sawah Besar","line":2,"is_transit":false,"distance":906},{"station_id":"JUA","time":2,"i_long":106.828284,"station_name":"Juanda","line":2,"transit":false,"distance":1149,"i_lat":-6.166716,"is_transit":false},{"transit":false,"station_id":"GDD","i_long":106.832183,"station_name":"Gondangdia","time":4,"is_transit":false,"distance":2015,"line":2,"i_lat":-6.186295},{"station_name":"Cikini","line":2,"distance":1750,"transit":false,"station_id":"CKI","is_transit":false,"time":3,"i_long":106.840169,"i_lat":-6.198556},{"is_transit":true,"station_name":"Manggarai","station_id":"MRI","i_long":106.84912,"time":4,"distance":1590,"line":2,"transit":true,"i_lat":-6.209883},{"time":2,"station_id":"MTR","station_name":"Matraman","is_transit":false,"i_lat":-6.212485,"line":1,"distance":1275,"i_long":106.858896,"transit":false},{"station_id":"JNG","transit":true,"i_lat":-6.215091,"is_transit":true,"distance":1377,"time":8,"station_name":"Jatinegara","i_long":106.86807400000001,"line":1},{"time":2,"distance":1236,"line":11,"transit":false,"station_id":"POK","is_transit":false,"i_long":106.861737,"i_lat":-6.209188,"station_name":"Pondok Jati"},{"station_name":"Kramat","i_lat":-6.193792,"is_transit":false,"distance":1829,"station_id":"KMT","line":11,"time":2,"i_long":106.855437,"transit":false},{"line":11,"is_transit":false,"transit":false,"time":1,"i_long":106.850107,"distance":973,"i_lat":-6.185975,"station_name":"Gang Sentiong","station_id":"GST"},{"line":11,"is_transit":false,"time":8,"station_id":"PSE","transit":false,"i_long":106.84368,"distance":1567,"station_name":"Pasar Senen","i_lat":-6.174784},{"time":4,"i_lat":-6.161728,"i_long":106.839204,"is_transit":false,"line":11,"station_id":"KMO","station_name":"Kemayoran","transit":false,"distance":1436}]]}