{"data":[[{"station_name":"Cicayur","station_id":"CC","transit":false,"i_long":106.617853,"time":0,"i_lat":-6.329547,"line":0,"is_transit":false,"distance":0},{"distance":2519,"transit":false,"station_id":"CSK","is_transit":false,"line":0,"i_lat":-6.32484,"station_name":"Cisauk","i_long":106.640411,"time":4},{"station_id":"SRP","transit":false,"i_lat":-6.319871,"distance":1784,"station_name":"Serpong","line":6,"time":4,"i_long":106.66566,"is_transit":false},{"station_name":"Rawa Buntu","transit":false,"line":6,"is_transit":false,"station_id":"RU","i_lat":-6.314823,"time":4,"distance":2413,"i_long":106.675475},{"is_transit":false,"station_id":"SDM","distance":4566,"transit":false,"station_name":"Sudimara","time":6,"i_lat":-6.296963,"line":6,"i_long":106.712277},{"is_transit":false,"distance":1994,"station_name":"Jurangmangu","i_lat":-6.288927,"i_long":106.728916,"station_id":"JMU","time":4,"transit":false,"line":6},{"station_id":"PDJ","transit":false,"time":3,"i_lat":-6.276362,"station_name":"Pondokranji","is_transit":false,"i_long":106.74273,"line":6,"distance":2179},{"time":8,"i_lat":-6.237242,"station_id":"KBY","station_name":"Kebayoran","transit":false,"distance":6218,"i_long":106.780334,"is_transit":false,"line":6},{"time":7,"station_name":"Palmerah","is_transit":false,"transit":false,"i_long":106.79689,"line":6,"distance":3737,"i_lat":-6.207404,"station_id":"PLM"},{"i_lat":-6.185545,"distance":3191,"transit":true,"i_long":106.811091,"line":1,"time":6,"station_name":"Tanah Abang","is_transit":true,"station_id":"THB"},{"i_lat":-6.155215,"distance":3632,"transit":true,"line":1,"i_long":106.800832,"is_transit":true,"time":8,"station_id":"DU","station_name":"Duri"},{"is_transit":false,"station_name":"Angke","line":0,"time":4,"distance":1230,"station_id":"AK","i_lat":-6.144674,"transit":false,"i_long":106.79867},{"is_transit":true,"transit":true,"time":9,"i_lat":-6.132549,"station_name":"Kampung Bandan","line":0,"station_id":"KPB","i_long":106.826365,"distance":4102},{"station_name":"Rajawali","transit":false,"distance":1444,"is_transit":false,"time":3,"station_id":"RJW","i_long":106.836569,"line":11,"i_lat":-6.14505},{"station_id":"KMO","i_long":106.839204,"line":11,"i_lat":-6.161728,"is_transit":false,"time":5,"distance":1901,"transit":false,"station_name":"Kemayoran"}],[{"i_long":106.617853,"station_name":"Cicayur","i_lat":-6.329547,"distance":0,"line":0,"station_id":"CC","time":0,"transit":false,"is_transit":false},{"station_id":"CSK","i_lat":-6.32484,"i_long":106.640411,"is_transit":false,"distance":2519,"line":0,"time":4,"station_name":"Cisauk","transit":false},{"station_id":"SRP","line":6,"time":4,"distance":1784,"transit":false,"i_long":106.66566,"station_name":"Serpong","i_lat":-6.319871,"is_transit":false},{"transit":false,"i_lat":-6.314823,"time":4,"is_transit":false,"i_long":106.675475,"distance":2413,"station_id":"RU","station_name":"Rawa Buntu","line":6},{"i_lat":-6.296963,"i_long":106.712277,"distance":4566,"station_id":"SDM","station_name":"Sudimara","transit":false,"is_transit":false,"time":6,"line":6},{"is_transit":false,"i_lat":-6.288927,"transit":false,"station_name":"Jurangmangu","line":6,"i_long":106.728916,"time":4,"station_id":"JMU","distance":1994},{"transit":false,"distance":2179,"i_long":106.74273,"is_transit":false,"i_lat":-6.276362,"station_id":"PDJ","time":3,"line":6,"station_name":"Pondokranji"},{"i_lat":-6.237242,"distance":6218,"line":6,"station_name":"Kebayoran","is_transit":false,"station_id":"KBY","transit":false,"i_long":106.780334,"time":8},{"line":6,"i_long":106.79689,"transit":false,"is_transit":false,"i_lat":-6.207404,"station_id":"PLM","time":7,"station_name":"Palmerah","distance":3737},{"station_id":"THB","i_lat":-6.185545,"distance":3191,"i_long":106.811091,"is_transit":true,"time":6,"transit":true,"station_name":"Tanah Abang","line":1},{"is_transit":false,"station_id":"KAT","distance":2029,"station_name":"Karet","transit":false,"line":1,"i_lat":-6.20132,"i_long":106.816351,"time":5},{"time":1,"i_lat":-6.201433,"is_transit":false,"transit":false,"distance":471,"i_long":106.819881,"station_id":"SUDB","line":1,"station_name":"Sudirman Baru"},{"i_long":106.822649,"is_transit":false,"distance":280,"transit":false,"station_name":"Sudirman","line":1,"time":1,"station_id":"SUD","i_lat":-6.202263},{"transit":false,"i_lat":-6.209883,"time":4,"is_transit":true,"station_id":"MRI","i_long":106.84912,"line":0,"distance":3186,"station_name":"Manggarai"},{"is_transit":false,"station_name":"Matraman","transit":false,"i_lat":-6.212485,"i_long":106.858896,"station_id":"MTR","time":2,"distance":1275,"line":1},{"transit":true,"i_long":106.86807400000001,"line":0,"distance":1377,"station_id":"JNG","i_lat":-6.215091,"is_transit":true,"time":8,"station_name":"Jatinegara"},{"is_transit":false,"i_long":106.861737,"distance":1236,"time":2,"i_lat":-6.209188,"line":11,"station_name":"Pondok Jati","transit":false,"station_id":"POK"},{"time":2,"transit":false,"i_long":106.855437,"is_transit":false,"i_lat":-6.193792,"line":11,"station_id":"KMT","station_name":"Kramat","distance":1829},{"line":11,"time":1,"station_id":"GST","transit":false,"i_lat":-6.185975,"distance":973,"i_long":106.850107,"is_transit":false,"station_name":"Gang Sentiong"},{"line":11,"station_id":"PSE","time":8,"distance":1567,"station_name":"Pasar Senen","i_long":106.84368,"i_lat":-6.174784,"transit":false,"is_transit":false},{"station_name":"Kemayoran","is_transit":false,"time":4,"i_lat":-6.161728,"line":11,"distance":1436,"station_id":"KMO","transit":false,"i_long":106.839204}],[{"i_lat":-6.329547,"transit":false,"time":0,"distance":0,"i_long":106.617853,"station_id":"CC","is_transit":false,"line":0,"station_name":"Cicayur"},{"i_long":106.640411,"station_id":"CSK","distance":2519,"station_name":"Cisauk","transit":false,"i_lat":-6.32484,"line":0,"is_transit":false,"time":4},{"transit":false,"i_long":106.66566,"distance":1784,"line":6,"i_lat":-6.319871,"time":4,"station_id":"SRP","is_transit":false,"station_name":"Serpong"},{"line":6,"station_name":"Rawa Buntu","i_long":106.675475,"is_transit":false,"distance":2413,"transit":false,"time":4,"station_id":"RU","i_lat":-6.314823},{"time":6,"i_lat":-6.296963,"i_long":106.712277,"station_name":"Sudimara","distance":4566,"transit":false,"line":6,"is_transit":false,"station_id":"SDM"},{"i_long":106.728916,"line":6,"transit":false,"is_transit":false,"station_id":"JMU","i_lat":-6.288927,"time":4,"distance":1994,"station_name":"Jurangmangu"},{"station_name":"Pondokranji","i_long":106.74273,"station_id":"PDJ","time":3,"transit":false,"line":6,"distance":2179,"is_transit":false,"i_lat":-6.276362},{"time":8,"transit":false,"line":6,"i_long":106.780334,"distance":6218,"is_transit":false,"i_lat":-6.237242,"station_id":"KBY","station_name":"Kebayoran"},{"time":7,"is_transit":false,"station_id":"PLM","transit":false,"station_name":"Palmerah","line":6,"distance":3737,"i_lat":-6.207404,"i_long":106.79689},{"station_id":"THB","distance":3191,"station_name":"Tanah Abang","transit":true,"i_long":106.811091,"i_lat":-6.185545,"is_transit":true,"line":1,"time":6},{"time":5,"line":1,"transit":false,"is_transit":false,"i_long":106.816351,"distance":2029,"i_lat":-6.20132,"station_name":"Karet","station_id":"KAT"},{"distance":471,"transit":false,"station_name":"Sudirman Baru","i_long":106.819881,"is_transit":false,"line":1,"station_id":"SUDB","i_lat":-6.201433,"time":1},{"station_id":"SUD","station_name":"Sudirman","i_long":106.822649,"distance":280,"is_transit":false,"line":1,"time":1,"transit":false,"i_lat":-6.202263},{"transit":true,"time":4,"station_name":"Manggarai","i_long":106.84912,"i_lat":-6.209883,"line":0,"station_id":"MRI","distance":3186,"is_transit":true},{"distance":1590,"i_lat":-6.198556,"line":0,"i_long":106.840169,"is_transit":false,"station_name":"Cikini","transit":false,"time":4,"station_id":"CKI"},{"i_lat":-6.186295,"distance":1750,"transit":false,"i_long":106.832183,"station_id":"GDD","time":3,"station_name":"Gondangdia","is_transit":false,"line":2},{"station_id":"JUA","station_name":"Juanda","transit":false,"i_long":106.828284,"i_lat":-6.166716,"line":2,"is_transit":false,"time":4,"distance":2015},{"line":2,"i_long":106.827103,"station_id":"SW","transit":false,"i_lat":-6.160725,"is_transit":false,"station_name":"Sawah Besar","time":2,"distance":1149},{"distance":906,"transit":false,"station_id":"MGB","i_lat":-6.149769,"time":2,"line":2,"is_transit":false,"station_name":"Manggabesar","i_long":106.82482},{"is_transit":false,"distance":1080,"line":7,"transit":false,"station_id":"JAY","station_name":"Jayakarta","i_long":106.820901,"i_lat":-6.141205,"time":2},{"i_long":106.812439,"line":0,"station_id":"JAKK","station_name":"Jakarta Kota","i_lat":-6.137569,"is_transit":true,"distance":1264,"transit":true,"time":4},{"time":3,"station_name":"Kampung Bandan","transit":true,"line":0,"i_long":106.826365,"station_id":"KPB","is_transit":true,"i_lat":-6.132549,"distance":1364},{"station_id":"RJW","is_transit":false,"time":3,"station_name":"Rajawali","distance":1444,"transit":false,"i_lat":-6.14505,"i_long":106.836569,"line":11},{"station_name":"Kemayoran","distance":1901,"i_long":106.839204,"station_id":"KMO","i_lat":-6.161728,"transit":false,"time":5,"is_transit":false,"line":11}],[{"time":0,"is_transit":false,"station_id":"CC","i_lat":-6.329547,"transit":false,"line":0,"distance":0,"station_name":"Cicayur","i_long":106.617853},{"line":0,"i_long":106.640411,"time":4,"transit":false,"i_lat":-6.32484,"station_name":"Cisauk","is_transit":false,"distance":2519,"station_id":"CSK"},{"distance":1784,"transit":false,"station_name":"Serpong","is_transit":false,"time":4,"i_long":106.66566,"line":6,"i_lat":-6.319871,"station_id":"SRP"},{"i_long":106.675475,"line":6,"transit":false,"distance":2413,"station_id":"RU","i_lat":-6.314823,"time":4,"is_transit":false,"station_name":"Rawa Buntu"},{"i_long":106.712277,"transit":false,"station_name":"Sudimara","is_transit":false,"line":6,"i_lat":-6.296963,"station_id":"SDM","time":6,"distance":4566},{"station_name":"Jurangmangu","i_lat":-6.288927,"i_long":106.728916,"is_transit":false,"transit":false,"distance":1994,"line":6,"time":4,"station_id":"JMU"},{"transit":false,"distance":2179,"station_name":"Pondokranji","i_lat":-6.276362,"line":6,"time":3,"is_transit":false,"station_id":"PDJ","i_long":106.74273},{"i_long":106.780334,"time":8,"station_id":"KBY","station_name":"Kebayoran","i_lat":-6.237242,"line":6,"is_transit":false,"transit":false,"distance":6218},{"line":6,"is_transit":false,"station_id":"PLM","distance":3737,"station_name":"Palmerah","transit":false,"time":7,"i_long":106.79689,"i_lat":-6.207404},{"transit":true,"time":6,"is_transit":true,"station_name":"Tanah Abang","station_id":"THB","distance":3191,"i_long":106.811091,"i_lat":-6.185545,"line":1},{"is_transit":true,"time":8,"station_name":"Duri","distance":3632,"i_lat":-6.155215,"i_long":106.800832,"line":1,"transit":true,"station_id":"DU"},{"time":4,"i_lat":-6.144674,"line":0,"distance":1230,"i_long":106.79867,"station_id":"AK","transit":false,"is_transit":false,"station_name":"Angke"},{"transit":false,"time":9,"distance":4102,"station_name":"Kampung Bandan","line":0,"is_transit":true,"i_lat":-6.132549,"station_id":"KPB","i_long":106.826365},{"is_transit":true,"time":3,"i_lat":-6.137569,"distance":1364,"i_long":106.812439,"station_id":"JAKK","transit":true,"line":0,"station_name":"Jakarta Kota"},{"transit":false,"station_id":"JAY","distance":1264,"station_name":"Jayakarta","i_lat":-6.141205,"i_long":106.820901,"is_transit":false,"time":4,"line":7},{"i_lat":-6.149769,"i_long":106.82482,"station_id":"MGB","transit":false,"line":2,"time":2,"station_name":"Manggabesar","is_transit":false,"distance":1080},{"is_transit":false,"station_id":"SW","i_lat":-6.160725,"line":2,"time":2,"i_long":106.827103,"station_name":"Sawah Besar","transit":false,"distance":906},{"i_long":106.828284,"time":2,"line":2,"transit":false,"i_lat":-6.166716,"station_id":"JUA","is_transit":false,"distance":1149,"station_name":"Juanda"},{"station_id":"GDD","is_transit":false,"i_lat":-6.186295,"station_name":"Gondangdia","time":4,"line":2,"distance":2015,"transit":false,"i_long":106.832183},{"i_long":106.840169,"distance":1750,"station_id":"CKI","is_transit":false,"station_name":"Cikini","line":0,"transit":false,"time":3,"i_lat":-6.198556},{"station_id":"MRI","i_lat":-6.209883,"is_transit":true,"distance":1590,"line":0,"station_name":"Manggarai","time":4,"i_long":106.84912,"transit":true},{"station_id":"MTR","line":1,"is_transit":false,"i_lat":-6.212485,"distance":1275,"transit":false,"time":2,"station_name":"Matraman","i_long":106.858896},{"line":0,"is_transit":true,"station_name":"Jatinegara","i_lat":-6.215091,"distance":1377,"station_id":"JNG","time":8,"transit":true,"i_long":106.86807400000001},{"line":11,"i_lat":-6.209188,"time":2,"distance":1236,"station_name":"Pondok Jati","is_transit":false,"transit":false,"station_id":"POK","i_long":106.861737},{"transit":false,"distance":1829,"station_name":"Kramat","i_long":106.855437,"time":2,"is_transit":false,"i_lat":-6.193792,"station_id":"KMT","line":11},{"line":11,"i_long":106.850107,"distance":973,"transit":false,"station_id":"GST","time":1,"is_transit":false,"station_name":"Gang Sentiong","i_lat":-6.185975},{"station_id":"PSE","is_transit":false,"time":8,"i_lat":-6.174784,"distance":1567,"line":11,"transit":false,"i_long":106.84368,"station_name":"Pasar Senen"},{"line":11,"distance":1436,"station_name":"Kemayoran","i_lat":-6.161728,"i_long":106.839204,"is_transit":false,"time":4,"transit":false,"station_id":"KMO"}]]}