{"data":[[{"distance":0,"i_lat":-6.329547,"station_name":"Cicayur","time":0,"i_long":106.617853,"line":0,"station_id":"CC","transit":false,"is_transit":false},{"transit":false,"i_long":106.640411,"is_transit":false,"distance":2519,"i_lat":-6.32484,"station_id":"CSK","station_name":"Cisauk","time":4,"line":0},{"distance":1784,"time":4,"is_transit":false,"i_lat":-6.319871,"line":6,"transit":false,"station_name":"Serpong","i_long":106.66566,"station_id":"SRP"},{"transit":false,"line":6,"station_name":"Rawa Buntu","i_long":106.675475,"time":4,"station_id":"RU","is_transit":false,"distance":2413,"i_lat":-6.314823},{"transit":false,"time":6,"line":6,"station_name":"Sudimara","i_lat":-6.296963,"distance":4566,"i_long":106.712277,"station_id":"SDM","is_transit":false},{"transit":false,"station_name":"Jurangmangu","i_long":106.728916,"i_lat":-6.288927,"line":6,"station_id":"JMU","is_transit":false,"time":4,"distance":1994},{"distance":2179,"station_name":"Pondokranji","i_long":106.74273,"time":3,"transit":false,"station_id":"PDJ","is_transit":false,"i_lat":-6.276362,"line":6},{"is_transit":false,"station_name":"Kebayoran","i_lat":-6.237242,"time":8,"transit":false,"distance":6218,"line":6,"i_long":106.780334,"station_id":"KBY"},{"station_id":"PLM","station_name":"Palmerah","line":6,"transit":false,"is_transit":false,"time":7,"i_lat":-6.207404,"i_long":106.79689,"distance":3737},{"i_lat":-6.185545,"transit":true,"i_long":106.811091,"station_name":"Tanah Abang","is_transit":true,"station_id":"THB","time":6,"line":1,"distance":3191},{"station_id":"DU","distance":3632,"line":1,"is_transit":true,"time":8,"station_name":"Duri","i_long":106.800832,"transit":true,"i_lat":-6.155215},{"time":4,"line":0,"is_transit":false,"station_name":"Angke","distance":1230,"i_long":106.79867,"station_id":"AK","i_lat":-6.144674,"transit":false},{"is_transit":true,"distance":4102,"transit":false,"station_id":"KPB","i_long":106.826365,"station_name":"Kampung Bandan","i_lat":-6.132549,"line":0,"time":9}],[{"line":0,"time":0,"i_long":106.617853,"transit":false,"distance":0,"station_name":"Cicayur","is_transit":false,"station_id":"CC","i_lat":-6.329547},{"station_name":"Cisauk","is_transit":false,"time":4,"distance":2519,"station_id":"CSK","i_long":106.640411,"line":0,"i_lat":-6.32484,"transit":false},{"station_id":"SRP","is_transit":false,"i_long":106.66566,"line":6,"transit":false,"i_lat":-6.319871,"distance":1784,"time":4,"station_name":"Serpong"},{"line":6,"i_long":106.675475,"transit":false,"time":4,"station_id":"RU","is_transit":false,"distance":2413,"i_lat":-6.314823,"station_name":"Rawa Buntu"},{"i_lat":-6.296963,"distance":4566,"station_name":"Sudimara","i_long":106.712277,"station_id":"SDM","time":6,"line":6,"transit":false,"is_transit":false},{"is_transit":false,"time":4,"i_lat":-6.288927,"distance":1994,"transit":false,"i_long":106.728916,"line":6,"station_id":"JMU","station_name":"Jurangmangu"},{"line":6,"is_transit":false,"i_long":106.74273,"station_id":"PDJ","time":3,"station_name":"Pondokranji","i_lat":-6.276362,"distance":2179,"transit":false},{"distance":6218,"i_lat":-6.237242,"station_id":"KBY","line":6,"i_long":106.780334,"time":8,"station_name":"Kebayoran","transit":false,"is_transit":false},{"transit":false,"station_id":"PLM","time":7,"i_lat":-6.207404,"line":6,"distance":3737,"station_name":"Palmerah","i_long":106.79689,"is_transit":false},{"is_transit":true,"i_long":106.811091,"station_id":"THB","station_name":"Tanah Abang","distance":3191,"line":1,"i_lat":-6.185545,"time":6,"transit":true},{"station_id":"KAT","transit":false,"time":5,"i_long":106.816351,"station_name":"Karet","distance":2029,"i_lat":-6.20132,"is_transit":false,"line":1},{"i_long":106.819881,"time":1,"transit":false,"line":1,"is_transit":false,"distance":471,"station_id":"SUDB","station_name":"Sudirman Baru","i_lat":-6.201433},{"station_id":"SUD","station_name":"Sudirman","line":1,"distance":280,"i_lat":-6.202263,"time":1,"is_transit":false,"i_long":106.822649,"transit":false},{"i_lat":-6.209883,"is_transit":true,"line":0,"distance":3186,"station_id":"MRI","transit":true,"station_name":"Manggarai","time":4,"i_long":106.84912},{"i_lat":-6.198556,"line":0,"distance":1590,"transit":false,"station_id":"CKI","is_transit":false,"i_long":106.840169,"station_name":"Cikini","time":4},{"distance":1750,"station_id":"GDD","line":2,"transit":false,"is_transit":false,"i_lat":-6.186295,"i_long":106.832183,"time":3,"station_name":"Gondangdia"},{"station_id":"JUA","station_name":"Juanda","distance":2015,"time":4,"is_transit":false,"line":2,"i_lat":-6.166716,"i_long":106.828284,"transit":false},{"transit":false,"station_name":"Sawah Besar","is_transit":false,"line":2,"distance":1149,"station_id":"SW","i_lat":-6.160725,"i_long":106.827103,"time":2},{"time":2,"line":2,"station_id":"MGB","station_name":"Manggabesar","i_long":106.82482,"transit":false,"distance":906,"i_lat":-6.149769,"is_transit":false},{"i_long":106.820901,"i_lat":-6.141205,"line":7,"station_name":"Jayakarta","transit":false,"is_transit":false,"distance":1080,"station_id":"JAY","time":2},{"is_transit":true,"time":4,"i_long":106.812439,"station_name":"Jakarta Kota","distance":1264,"transit":true,"station_id":"JAKK","i_lat":-6.137569,"line":0},{"station_name":"Kampung Bandan","time":3,"station_id":"KPB","transit":false,"distance":1364,"i_lat":-6.132549,"i_long":106.826365,"line":0,"is_transit":true}],[{"station_id":"CC","time":0,"station_name":"Cicayur","i_lat":-6.329547,"i_long":106.617853,"line":0,"transit":false,"is_transit":false,"distance":0},{"transit":false,"station_name":"Cisauk","i_long":106.640411,"is_transit":false,"line":0,"time":4,"i_lat":-6.32484,"station_id":"CSK","distance":2519},{"i_long":106.66566,"line":6,"station_name":"Serpong","is_transit":false,"time":4,"i_lat":-6.319871,"transit":false,"distance":1784,"station_id":"SRP"},{"is_transit":false,"time":4,"station_id":"RU","i_lat":-6.314823,"transit":false,"station_name":"Rawa Buntu","distance":2413,"i_long":106.675475,"line":6},{"line":6,"transit":false,"i_lat":-6.296963,"distance":4566,"is_transit":false,"station_name":"Sudimara","time":6,"i_long":106.712277,"station_id":"SDM"},{"transit":false,"station_name":"Jurangmangu","i_lat":-6.288927,"i_long":106.728916,"line":6,"is_transit":false,"distance":1994,"time":4,"station_id":"JMU"},{"i_lat":-6.276362,"transit":false,"station_name":"Pondokranji","is_transit":false,"time":3,"distance":2179,"i_long":106.74273,"line":6,"station_id":"PDJ"},{"i_lat":-6.237242,"is_transit":false,"i_long":106.780334,"station_name":"Kebayoran","time":8,"distance":6218,"line":6,"station_id":"KBY","transit":false},{"is_transit":false,"station_id":"PLM","i_lat":-6.207404,"station_name":"Palmerah","time":7,"distance":3737,"transit":false,"i_long":106.79689,"line":6},{"i_lat":-6.185545,"transit":true,"station_name":"Tanah Abang","time":6,"station_id":"THB","i_long":106.811091,"is_transit":true,"distance":3191,"line":1},{"is_transit":false,"distance":2029,"station_name":"Karet","i_long":106.816351,"line":1,"time":5,"transit":false,"station_id":"KAT","i_lat":-6.20132},{"station_name":"Sudirman Baru","is_transit":false,"i_long":106.819881,"line":1,"distance":471,"transit":false,"time":1,"i_lat":-6.201433,"station_id":"SUDB"},{"transit":false,"i_lat":-6.202263,"i_long":106.822649,"line":1,"is_transit":false,"time":1,"distance":280,"station_name":"Sudirman","station_id":"SUD"},{"station_name":"Manggarai","is_transit":true,"distance":3186,"i_long":106.84912,"station_id":"MRI","time":4,"i_lat":-6.209883,"line":0,"transit":false},{"time":2,"i_lat":-6.212485,"i_long":106.858896,"transit":false,"is_transit":false,"station_id":"MTR","line":1,"distance":1275,"station_name":"Matraman"},{"transit":true,"i_long":106.86807400000001,"station_id":"JNG","i_lat":-6.215091,"station_name":"Jatinegara","line":0,"is_transit":true,"time":8,"distance":1377},{"station_id":"POK","station_name":"Pondok Jati","is_transit":false,"i_lat":-6.209188,"i_long":106.861737,"distance":1236,"line":11,"transit":false,"time":2},{"time":2,"is_transit":false,"line":11,"transit":false,"i_long":106.855437,"distance":1829,"station_name":"Kramat","i_lat":-6.193792,"station_id":"KMT"},{"is_transit":false,"time":1,"transit":false,"i_lat":-6.185975,"i_long":106.850107,"station_id":"GST","station_name":"Gang Sentiong","line":11,"distance":973},{"distance":1567,"transit":false,"line":11,"station_id":"PSE","i_long":106.84368,"time":8,"i_lat":-6.174784,"is_transit":false,"station_name":"Pasar Senen"},{"transit":false,"line":11,"time":4,"station_id":"KMO","station_name":"Kemayoran","distance":1436,"i_lat":-6.161728,"i_long":106.839204,"is_transit":false},{"transit":false,"time":5,"i_long":106.836569,"station_id":"RJW","is_transit":false,"distance":1901,"station_name":"Rajawali","line":11,"i_lat":-6.14505},{"is_transit":true,"i_long":106.826365,"station_name":"Kampung Bandan","line":0,"station_id":"KPB","time":3,"transit":false,"distance":1444,"i_lat":-6.132549}]]}