{"data":[[{"i_long":106.617853,"station_name":"Cicayur","is_transit":false,"time":0,"distance":0,"line":0,"station_id":"CC","i_lat":-6.329547,"transit":false},{"i_lat":-6.32484,"line":0,"distance":2519,"is_transit":false,"station_name":"Cisauk","transit":false,"time":4,"i_long":106.640411,"station_id":"CSK"},{"i_long":106.66566,"line":6,"time":4,"is_transit":false,"i_lat":-6.319871,"station_name":"Serpong","station_id":"SRP","distance":1784,"transit":false},{"station_name":"Rawa Buntu","line":6,"is_transit":false,"distance":2413,"transit":false,"i_lat":-6.314823,"i_long":106.675475,"station_id":"RU","time":4},{"time":6,"transit":false,"station_id":"SDM","distance":4566,"i_long":106.712277,"station_name":"Sudimara","line":6,"is_transit":false,"i_lat":-6.296963},{"time":4,"is_transit":false,"i_long":106.728916,"line":6,"i_lat":-6.288927,"station_name":"Jurangmangu","distance":1994,"transit":false,"station_id":"JMU"},{"distance":2179,"station_name":"Pondokranji","station_id":"PDJ","line":6,"transit":false,"time":3,"is_transit":false,"i_long":106.74273,"i_lat":-6.276362},{"station_id":"KBY","station_name":"Kebayoran","i_long":106.780334,"i_lat":-6.237242,"is_transit":false,"distance":6218,"transit":false,"line":6,"time":8},{"is_transit":false,"transit":false,"station_name":"Palmerah","station_id":"PLM","time":7,"i_long":106.79689,"i_lat":-6.207404,"distance":3737,"line":6},{"station_name":"Tanah Abang","is_transit":true,"i_lat":-6.185545,"i_long":106.811091,"station_id":"THB","time":6,"line":1,"transit":true,"distance":3191},{"i_lat":-6.20132,"i_long":106.816351,"is_transit":false,"line":1,"time":5,"distance":2029,"transit":false,"station_id":"KAT","station_name":"Karet"},{"is_transit":false,"transit":false,"station_name":"Sudirman Baru","i_long":106.819881,"station_id":"SUDB","distance":471,"i_lat":-6.201433,"time":1,"line":1},{"transit":false,"time":1,"distance":280,"line":1,"station_id":"SUD","station_name":"Sudirman","is_transit":false,"i_long":106.822649,"i_lat":-6.202263},{"i_lat":-6.209883,"station_name":"Manggarai","time":4,"distance":3186,"i_long":106.84912,"station_id":"MRI","transit":true,"is_transit":true,"line":0},{"line":2,"i_lat":-6.226659,"transit":false,"time":4,"distance":2610,"station_name":"Tebet","i_long":106.857948,"is_transit":false,"station_id":"TEB"},{"time":2,"is_transit":false,"station_name":"Cawang","i_long":106.856607,"distance":1230,"i_lat":-6.242512,"line":0,"station_id":"CW","transit":false},{"station_id":"DRN","is_transit":false,"i_long":106.85449,"time":3,"i_lat":-6.255332,"distance":1546,"station_name":"Duren Kalibata","transit":false,"line":0},{"i_long":106.851577,"station_name":"Pasar Minggu Baru","i_lat":-6.263214,"is_transit":false,"station_id":"PSMB","time":2,"transit":false,"line":2,"distance":824},{"i_long":106.843999,"station_name":"Pasar Minggu","is_transit":false,"distance":2380,"time":2,"i_lat":-6.2842400000000005,"transit":false,"line":2,"station_id":"PSM"},{"station_name":"Tanjung Barat","time":4,"distance":2820,"line":2,"station_id":"TNT","is_transit":false,"transit":false,"i_lat":-6.3080680000000005,"i_long":106.838896},{"line":2,"i_lat":-6.330363,"station_name":"Lenteng Agung","station_id":"LNA","time":3,"distance":2671,"is_transit":false,"i_long":106.832616,"transit":false}],[{"station_id":"CC","transit":false,"station_name":"Cicayur","time":0,"is_transit":false,"distance":0,"i_lat":-6.329547,"line":0,"i_long":106.617853},{"is_transit":false,"time":4,"i_lat":-6.32484,"station_name":"Cisauk","station_id":"CSK","line":0,"i_long":106.640411,"transit":false,"distance":2519},{"i_lat":-6.319871,"distance":1784,"i_long":106.66566,"station_name":"Serpong","transit":false,"time":4,"is_transit":false,"line":6,"station_id":"SRP"},{"station_id":"RU","line":6,"time":4,"is_transit":false,"i_lat":-6.314823,"transit":false,"i_long":106.675475,"distance":2413,"station_name":"Rawa Buntu"},{"transit":false,"is_transit":false,"distance":4566,"i_long":106.712277,"i_lat":-6.296963,"station_id":"SDM","time":6,"station_name":"Sudimara","line":6},{"i_lat":-6.288927,"station_id":"JMU","i_long":106.728916,"station_name":"Jurangmangu","transit":false,"time":4,"line":6,"distance":1994,"is_transit":false},{"distance":2179,"station_name":"Pondokranji","transit":false,"time":3,"is_transit":false,"station_id":"PDJ","line":6,"i_lat":-6.276362,"i_long":106.74273},{"is_transit":false,"station_id":"KBY","line":6,"distance":6218,"i_lat":-6.237242,"transit":false,"time":8,"station_name":"Kebayoran","i_long":106.780334},{"i_lat":-6.207404,"station_id":"PLM","distance":3737,"station_name":"Palmerah","line":6,"is_transit":false,"i_long":106.79689,"time":7,"transit":false},{"transit":true,"distance":3191,"i_long":106.811091,"station_id":"THB","is_transit":true,"i_lat":-6.185545,"time":6,"station_name":"Tanah Abang","line":1},{"distance":3632,"transit":true,"i_long":106.800832,"time":8,"line":1,"station_name":"Duri","station_id":"DU","is_transit":true,"i_lat":-6.155215},{"distance":1230,"station_id":"AK","time":4,"is_transit":false,"i_lat":-6.144674,"i_long":106.79867,"line":0,"transit":false,"station_name":"Angke"},{"distance":4102,"station_name":"Kampung Bandan","station_id":"KPB","is_transit":true,"line":0,"i_lat":-6.132549,"transit":false,"i_long":106.826365,"time":9},{"transit":true,"distance":1364,"i_lat":-6.137569,"i_long":106.812439,"line":0,"time":3,"is_transit":true,"station_id":"JAKK","station_name":"Jakarta Kota"},{"is_transit":false,"line":7,"station_id":"JAY","time":4,"i_lat":-6.141205,"station_name":"Jayakarta","distance":1264,"transit":false,"i_long":106.820901},{"is_transit":false,"distance":1080,"i_lat":-6.149769,"station_name":"Manggabesar","transit":false,"i_long":106.82482,"line":2,"station_id":"MGB","time":2},{"transit":false,"line":2,"station_id":"SW","i_lat":-6.160725,"i_long":106.827103,"station_name":"Sawah Besar","is_transit":false,"distance":906,"time":2},{"time":2,"line":2,"is_transit":false,"i_long":106.828284,"transit":false,"station_name":"Juanda","i_lat":-6.166716,"distance":1149,"station_id":"JUA"},{"station_name":"Gondangdia","distance":2015,"time":4,"i_long":106.832183,"station_id":"GDD","line":2,"is_transit":false,"i_lat":-6.186295,"transit":false},{"transit":false,"time":3,"distance":1750,"station_name":"Cikini","i_lat":-6.198556,"i_long":106.840169,"line":0,"station_id":"CKI","is_transit":false},{"is_transit":true,"station_name":"Manggarai","i_lat":-6.209883,"time":4,"line":0,"station_id":"MRI","i_long":106.84912,"distance":1590,"transit":true},{"line":2,"transit":false,"station_id":"TEB","time":4,"station_name":"Tebet","i_lat":-6.226659,"i_long":106.857948,"distance":2610,"is_transit":false},{"time":2,"i_lat":-6.242512,"i_long":106.856607,"station_name":"Cawang","line":0,"station_id":"CW","is_transit":false,"transit":false,"distance":1230},{"line":0,"distance":1546,"transit":false,"time":3,"is_transit":false,"station_name":"Duren Kalibata","i_lat":-6.255332,"i_long":106.85449,"station_id":"DRN"},{"i_long":106.851577,"station_name":"Pasar Minggu Baru","line":2,"station_id":"PSMB","time":2,"is_transit":false,"transit":false,"i_lat":-6.263214,"distance":824},{"station_id":"PSM","i_lat":-6.2842400000000005,"i_long":106.843999,"time":2,"transit":false,"distance":2380,"is_transit":false,"line":2,"station_name":"Pasar Minggu"},{"time":4,"transit":false,"station_id":"TNT","i_long":106.838896,"line":2,"i_lat":-6.3080680000000005,"is_transit":false,"distance":2820,"station_name":"Tanjung Barat"},{"station_id":"LNA","i_lat":-6.330363,"transit":false,"time":3,"station_name":"Lenteng Agung","line":2,"distance":2671,"i_long":106.832616,"is_transit":false}],[{"time":0,"station_name":"Cicayur","distance":0,"i_long":106.617853,"station_id":"CC","transit":false,"is_transit":false,"line":0,"i_lat":-6.329547},{"time":4,"station_id":"CSK","station_name":"Cisauk","distance":2519,"i_long":106.640411,"i_lat":-6.32484,"line":0,"is_transit":false,"transit":false},{"transit":false,"is_transit":false,"time":4,"station_name":"Serpong","station_id":"SRP","line":6,"i_lat":-6.319871,"distance":1784,"i_long":106.66566},{"i_lat":-6.314823,"line":6,"distance":2413,"station_name":"Rawa Buntu","station_id":"RU","transit":false,"time":4,"is_transit":false,"i_long":106.675475},{"line":6,"distance":4566,"i_long":106.712277,"station_name":"Sudimara","is_transit":false,"i_lat":-6.296963,"time":6,"station_id":"SDM","transit":false},{"time":4,"transit":false,"line":6,"station_id":"JMU","i_long":106.728916,"station_name":"Jurangmangu","is_transit":false,"i_lat":-6.288927,"distance":1994},{"line":6,"distance":2179,"transit":false,"station_name":"Pondokranji","station_id":"PDJ","time":3,"is_transit":false,"i_long":106.74273,"i_lat":-6.276362},{"time":8,"i_lat":-6.237242,"i_long":106.780334,"transit":false,"station_id":"KBY","distance":6218,"is_transit":false,"station_name":"Kebayoran","line":6},{"i_long":106.79689,"i_lat":-6.207404,"station_id":"PLM","is_transit":false,"distance":3737,"time":7,"transit":false,"station_name":"Palmerah","line":6},{"i_lat":-6.185545,"i_long":106.811091,"time":6,"line":1,"station_id":"THB","is_transit":true,"station_name":"Tanah Abang","transit":true,"distance":3191},{"line":1,"station_id":"DU","transit":true,"station_name":"Duri","is_transit":true,"i_long":106.800832,"i_lat":-6.155215,"time":8,"distance":3632},{"i_lat":-6.144674,"line":0,"i_long":106.79867,"time":4,"is_transit":false,"station_id":"AK","transit":false,"distance":1230,"station_name":"Angke"},{"station_name":"Kampung Bandan","transit":true,"i_long":106.826365,"station_id":"KPB","is_transit":true,"time":9,"i_lat":-6.132549,"line":0,"distance":4102},{"i_lat":-6.14505,"is_transit":false,"station_id":"RJW","line":11,"i_long":106.836569,"station_name":"Rajawali","time":3,"transit":false,"distance":1444},{"distance":1901,"is_transit":false,"station_id":"KMO","i_long":106.839204,"station_name":"Kemayoran","transit":false,"line":11,"time":5,"i_lat":-6.161728},{"line":11,"distance":1436,"is_transit":false,"transit":false,"time":4,"i_lat":-6.174784,"station_name":"Pasar Senen","i_long":106.84368,"station_id":"PSE"},{"station_name":"Gang Sentiong","is_transit":false,"distance":1567,"transit":false,"station_id":"GST","line":11,"i_lat":-6.185975,"time":8,"i_long":106.850107},{"line":11,"station_name":"Kramat","transit":false,"i_lat":-6.193792,"is_transit":false,"time":1,"station_id":"KMT","i_long":106.855437,"distance":973},{"transit":false,"time":2,"station_id":"POK","distance":1829,"i_lat":-6.209188,"is_transit":false,"line":11,"i_long":106.861737,"station_name":"Pondok Jati"},{"distance":1236,"line":0,"i_lat":-6.215091,"transit":true,"station_id":"JNG","is_transit":true,"i_long":106.86807400000001,"time":9,"station_name":"Jatinegara"},{"is_transit":false,"time":2,"station_id":"MTR","station_name":"Matraman","distance":1377,"line":1,"i_lat":-6.212485,"i_long":106.858896,"transit":false},{"transit":true,"station_id":"MRI","distance":1275,"i_lat":-6.209883,"time":2,"is_transit":true,"i_long":106.84912,"line":0,"station_name":"Manggarai"},{"i_long":106.857948,"distance":2610,"station_id":"TEB","transit":false,"station_name":"Tebet","time":4,"i_lat":-6.226659,"is_transit":false,"line":2},{"station_id":"CW","time":2,"is_transit":false,"distance":1230,"transit":false,"i_long":106.856607,"station_name":"Cawang","line":0,"i_lat":-6.242512},{"i_lat":-6.255332,"line":0,"transit":false,"time":3,"is_transit":false,"distance":1546,"i_long":106.85449,"station_name":"Duren Kalibata","station_id":"DRN"},{"distance":824,"i_long":106.851577,"time":2,"line":2,"is_transit":false,"station_name":"Pasar Minggu Baru","station_id":"PSMB","transit":false,"i_lat":-6.263214},{"station_id":"PSM","time":2,"transit":false,"is_transit":false,"i_long":106.843999,"line":2,"station_name":"Pasar Minggu","i_lat":-6.2842400000000005,"distance":2380},{"distance":2820,"is_transit":false,"time":4,"i_lat":-6.3080680000000005,"station_id":"TNT","transit":false,"station_name":"Tanjung Barat","line":2,"i_long":106.838896},{"transit":false,"i_lat":-6.330363,"station_id":"LNA","is_transit":false,"time":3,"station_name":"Lenteng Agung","line":2,"i_long":106.832616,"distance":2671}]]}