{"data":[[{"i_long":106.617853,"transit":false,"is_transit":false,"line":3,"distance":0,"i_lat":-6.329547,"station_name":"Cicayur","station_id":"CC","time":0},{"station_id":"CSK","is_transit":false,"transit":false,"station_name":"Cisauk","time":4,"i_long":106.640411,"distance":2519,"i_lat":-6.32484,"line":3},{"station_name":"Serpong","is_transit":false,"transit":false,"station_id":"SRP","time":4,"distance":1784,"i_lat":-6.319871,"line":6,"i_long":106.66566},{"transit":false,"is_transit":false,"time":4,"i_lat":-6.314823,"i_long":106.675475,"line":6,"station_id":"RU","station_name":"Rawa Buntu","distance":2413},{"station_id":"SDM","line":6,"time":6,"distance":4566,"transit":false,"station_name":"Sudimara","is_transit":false,"i_lat":-6.296963,"i_long":106.712277},{"is_transit":false,"line":6,"distance":1994,"transit":false,"station_id":"JMU","station_name":"Jurangmangu","i_lat":-6.288927,"i_long":106.728916,"time":4},{"station_name":"Pondokranji","station_id":"PDJ","is_transit":false,"time":3,"distance":2179,"i_lat":-6.276362,"transit":false,"i_long":106.74273,"line":6},{"distance":6218,"station_id":"KBY","i_long":106.780334,"is_transit":false,"transit":false,"line":6,"i_lat":-6.237242,"time":8,"station_name":"Kebayoran"},{"distance":3737,"i_lat":-6.207404,"time":7,"is_transit":false,"line":6,"station_id":"PLM","transit":false,"i_long":106.79689,"station_name":"Palmerah"},{"station_id":"THB","station_name":"Tanah Abang","is_transit":true,"distance":3191,"line":1,"i_long":106.811091,"time":6,"i_lat":-6.185545,"transit":true},{"distance":2029,"station_name":"Karet","time":5,"station_id":"KAT","i_lat":-6.20132,"transit":false,"is_transit":false,"line":1,"i_long":106.816351},{"i_lat":-6.201433,"line":1,"time":1,"is_transit":false,"transit":false,"i_long":106.819881,"station_name":"Sudirman Baru","station_id":"SUDB","distance":471},{"station_name":"Sudirman","i_lat":-6.202263,"distance":280,"time":1,"transit":false,"i_long":106.822649,"line":1,"station_id":"SUD","is_transit":false},{"is_transit":true,"i_long":106.84912,"transit":true,"distance":3186,"time":4,"station_id":"MRI","i_lat":-6.209883,"line":2,"station_name":"Manggarai"},{"time":4,"distance":2610,"station_name":"Tebet","line":2,"transit":false,"is_transit":false,"i_long":106.857948,"i_lat":-6.226659,"station_id":"TEB"},{"transit":false,"time":2,"station_name":"Cawang","is_transit":false,"i_lat":-6.242512,"i_long":106.856607,"distance":1230,"line":2,"station_id":"CW"},{"transit":false,"distance":1546,"time":3,"i_lat":-6.255332,"i_long":106.85449,"is_transit":false,"line":2,"station_id":"DRN","station_name":"Duren Kalibata"},{"i_long":106.851577,"is_transit":false,"station_name":"Pasar Minggu Baru","station_id":"PSMB","transit":false,"time":2,"line":2,"distance":824,"i_lat":-6.263214},{"transit":false,"line":2,"distance":2380,"i_lat":-6.2842400000000005,"station_name":"Pasar Minggu","is_transit":false,"time":2,"station_id":"PSM","i_long":106.843999},{"line":2,"station_name":"Tanjung Barat","time":4,"station_id":"TNT","distance":2820,"i_lat":-6.3080680000000005,"transit":false,"i_long":106.838896,"is_transit":false},{"line":2,"transit":false,"i_long":106.832616,"station_name":"Lenteng Agung","is_transit":false,"station_id":"LNA","time":3,"distance":2671,"i_lat":-6.330363}],[{"time":0,"is_transit":false,"station_name":"Cicayur","line":3,"distance":0,"station_id":"CC","i_lat":-6.329547,"transit":false,"i_long":106.617853},{"station_id":"CSK","i_long":106.640411,"transit":false,"distance":2519,"is_transit":false,"i_lat":-6.32484,"station_name":"Cisauk","time":4,"line":3},{"i_lat":-6.319871,"is_transit":false,"station_id":"SRP","distance":1784,"transit":false,"i_long":106.66566,"station_name":"Serpong","line":6,"time":4},{"time":4,"i_lat":-6.314823,"distance":2413,"transit":false,"station_name":"Rawa Buntu","i_long":106.675475,"line":6,"station_id":"RU","is_transit":false},{"station_name":"Sudimara","transit":false,"distance":4566,"station_id":"SDM","time":6,"line":6,"i_lat":-6.296963,"is_transit":false,"i_long":106.712277},{"is_transit":false,"transit":false,"station_name":"Jurangmangu","station_id":"JMU","distance":1994,"i_lat":-6.288927,"line":6,"time":4,"i_long":106.728916},{"station_name":"Pondokranji","station_id":"PDJ","line":6,"time":3,"transit":false,"is_transit":false,"distance":2179,"i_long":106.74273,"i_lat":-6.276362},{"station_name":"Kebayoran","transit":false,"is_transit":false,"distance":6218,"i_lat":-6.237242,"time":8,"station_id":"KBY","i_long":106.780334,"line":6},{"is_transit":false,"station_name":"Palmerah","distance":3737,"line":6,"time":7,"station_id":"PLM","i_long":106.79689,"transit":false,"i_lat":-6.207404},{"station_id":"THB","distance":3191,"i_lat":-6.185545,"i_long":106.811091,"station_name":"Tanah Abang","transit":true,"is_transit":true,"line":1,"time":6},{"is_transit":false,"station_name":"Duri","distance":3632,"i_long":106.800832,"line":1,"i_lat":-6.155215,"transit":false,"station_id":"DU","time":8},{"line":1,"station_name":"Angke","transit":false,"i_long":106.79867,"station_id":"AK","time":4,"is_transit":false,"i_lat":-6.144674,"distance":1230},{"transit":true,"line":4,"distance":4102,"station_name":"Kampung Bandan","i_long":106.826365,"is_transit":true,"station_id":"KPB","time":9,"i_lat":-6.132549},{"i_long":106.812439,"station_name":"Jakarta Kota","transit":true,"is_transit":true,"station_id":"JAKK","time":3,"i_lat":-6.137569,"line":2,"distance":1364},{"transit":false,"station_id":"JAY","line":2,"time":4,"is_transit":false,"distance":1264,"station_name":"Jayakarta","i_lat":-6.141205,"i_long":106.820901},{"transit":false,"is_transit":false,"distance":1080,"i_lat":-6.149769,"station_name":"Manggabesar","i_long":106.82482,"line":2,"station_id":"MGB","time":2},{"station_name":"Sawah Besar","distance":906,"time":2,"line":2,"transit":false,"i_long":106.827103,"i_lat":-6.160725,"station_id":"SW","is_transit":false},{"i_lat":-6.166716,"is_transit":false,"station_id":"JUA","station_name":"Juanda","distance":1149,"i_long":106.828284,"transit":false,"line":2,"time":2},{"i_lat":-6.186295,"line":2,"time":4,"is_transit":false,"transit":false,"distance":2015,"station_name":"Gondangdia","station_id":"GDD","i_long":106.832183},{"station_id":"CKI","time":3,"line":2,"distance":1750,"is_transit":false,"i_lat":-6.198556,"transit":false,"station_name":"Cikini","i_long":106.840169},{"time":4,"is_transit":false,"line":2,"distance":1590,"transit":false,"i_long":106.84912,"station_name":"Manggarai","station_id":"MRI","i_lat":-6.209883},{"line":2,"station_name":"Tebet","distance":2610,"transit":false,"time":4,"i_lat":-6.226659,"is_transit":false,"i_long":106.857948,"station_id":"TEB"},{"station_id":"CW","time":2,"line":2,"distance":1230,"i_lat":-6.242512,"is_transit":false,"i_long":106.856607,"transit":false,"station_name":"Cawang"},{"line":2,"time":3,"i_long":106.85449,"distance":1546,"is_transit":false,"station_name":"Duren Kalibata","transit":false,"station_id":"DRN","i_lat":-6.255332},{"i_lat":-6.263214,"transit":false,"line":2,"station_id":"PSMB","distance":824,"time":2,"station_name":"Pasar Minggu Baru","is_transit":false,"i_long":106.851577},{"is_transit":false,"station_name":"Pasar Minggu","station_id":"PSM","distance":2380,"i_lat":-6.2842400000000005,"i_long":106.843999,"line":2,"transit":false,"time":2},{"i_lat":-6.3080680000000005,"is_transit":false,"time":4,"station_name":"Tanjung Barat","i_long":106.838896,"distance":2820,"line":2,"transit":false,"station_id":"TNT"},{"station_id":"LNA","distance":2671,"i_long":106.832616,"line":2,"transit":false,"i_lat":-6.330363,"station_name":"Lenteng Agung","is_transit":false,"time":3}],[{"distance":0,"station_id":"CC","station_name":"Cicayur","time":0,"i_long":106.617853,"i_lat":-6.329547,"line":3,"transit":false,"is_transit":false},{"station_id":"CSK","transit":false,"i_long":106.640411,"i_lat":-6.32484,"is_transit":false,"line":3,"time":4,"station_name":"Cisauk","distance":2519},{"station_name":"Serpong","station_id":"SRP","i_lat":-6.319871,"distance":1784,"time":4,"i_long":106.66566,"line":6,"transit":false,"is_transit":false},{"station_name":"Rawa Buntu","i_lat":-6.314823,"line":6,"transit":false,"station_id":"RU","time":4,"is_transit":false,"i_long":106.675475,"distance":2413},{"line":6,"transit":false,"station_id":"SDM","station_name":"Sudimara","time":6,"i_lat":-6.296963,"i_long":106.712277,"distance":4566,"is_transit":false},{"i_long":106.728916,"line":6,"station_id":"JMU","time":4,"distance":1994,"is_transit":false,"station_name":"Jurangmangu","transit":false,"i_lat":-6.288927},{"i_lat":-6.276362,"is_transit":false,"i_long":106.74273,"station_id":"PDJ","station_name":"Pondokranji","time":3,"line":6,"distance":2179,"transit":false},{"station_name":"Kebayoran","is_transit":false,"line":6,"i_long":106.780334,"transit":false,"time":8,"distance":6218,"i_lat":-6.237242,"station_id":"KBY"},{"line":6,"transit":false,"station_name":"Palmerah","station_id":"PLM","distance":3737,"i_lat":-6.207404,"time":7,"i_long":106.79689,"is_transit":false},{"line":1,"transit":true,"i_lat":-6.185545,"is_transit":true,"time":6,"i_long":106.811091,"station_id":"THB","station_name":"Tanah Abang","distance":3191},{"i_lat":-6.155215,"station_id":"DU","is_transit":false,"line":1,"i_long":106.800832,"station_name":"Duri","distance":3632,"transit":false,"time":8},{"distance":1230,"i_lat":-6.144674,"line":1,"transit":false,"station_id":"AK","is_transit":false,"station_name":"Angke","time":4,"i_long":106.79867},{"station_name":"Kampung Bandan","transit":true,"distance":4102,"i_lat":-6.132549,"i_long":106.826365,"is_transit":true,"line":4,"station_id":"KPB","time":9},{"i_long":106.836569,"is_transit":false,"transit":false,"station_name":"Rajawali","station_id":"RJW","time":3,"distance":1444,"i_lat":-6.14505,"line":11},{"transit":false,"distance":1901,"time":5,"station_id":"KMO","station_name":"Kemayoran","i_lat":-6.161728,"i_long":106.839204,"line":11,"is_transit":false},{"i_lat":-6.174784,"station_id":"PSE","station_name":"Pasar Senen","time":4,"i_long":106.84368,"line":11,"is_transit":false,"distance":1436,"transit":false},{"line":11,"time":8,"distance":1567,"i_lat":-6.185975,"i_long":106.850107,"station_id":"GST","station_name":"Gang Sentiong","transit":false,"is_transit":false},{"distance":973,"i_lat":-6.193792,"i_long":106.855437,"station_id":"KMT","line":11,"transit":false,"is_transit":false,"station_name":"Kramat","time":1},{"line":11,"time":2,"transit":false,"station_name":"Pondok Jati","station_id":"POK","is_transit":false,"i_lat":-6.209188,"i_long":106.861737,"distance":1829},{"station_name":"Jatinegara","i_long":106.86807400000001,"i_lat":-6.215091,"line":1,"distance":1236,"time":9,"is_transit":true,"station_id":"JNG","transit":true},{"i_lat":-6.212485,"i_long":106.858896,"line":1,"station_id":"MTR","transit":false,"is_transit":false,"station_name":"Matraman","time":2,"distance":1377},{"time":2,"transit":true,"line":2,"i_lat":-6.209883,"is_transit":true,"station_id":"MRI","station_name":"Manggarai","distance":1275,"i_long":106.84912},{"line":2,"time":4,"station_id":"TEB","is_transit":false,"station_name":"Tebet","distance":2610,"transit":false,"i_lat":-6.226659,"i_long":106.857948},{"line":2,"distance":1230,"station_name":"Cawang","time":2,"i_lat":-6.242512,"is_transit":false,"transit":false,"i_long":106.856607,"station_id":"CW"},{"line":2,"distance":1546,"station_id":"DRN","is_transit":false,"i_long":106.85449,"station_name":"Duren Kalibata","transit":false,"time":3,"i_lat":-6.255332},{"i_lat":-6.263214,"station_id":"PSMB","transit":false,"i_long":106.851577,"line":2,"is_transit":false,"station_name":"Pasar Minggu Baru","distance":824,"time":2},{"i_lat":-6.2842400000000005,"transit":false,"station_name":"Pasar Minggu","time":2,"is_transit":false,"station_id":"PSM","distance":2380,"line":2,"i_long":106.843999},{"station_id":"TNT","line":2,"station_name":"Tanjung Barat","distance":2820,"i_lat":-6.3080680000000005,"transit":false,"time":4,"is_transit":false,"i_long":106.838896},{"transit":false,"station_name":"Lenteng Agung","line":2,"time":3,"station_id":"LNA","i_lat":-6.330363,"distance":2671,"is_transit":false,"i_long":106.832616}]]}