{"data":[[{"transit":false,"i_long":106.617853,"time":0,"station_id":"CC","distance":0,"i_lat":-6.329547,"line":3,"is_transit":false,"station_name":"Cicayur"},{"distance":2519,"station_name":"Cisauk","i_lat":-6.32484,"is_transit":false,"i_long":106.640411,"time":4,"station_id":"CSK","transit":false,"line":3},{"station_name":"Serpong","distance":1784,"is_transit":false,"i_long":106.66566,"line":6,"transit":false,"i_lat":-6.319871,"time":4,"station_id":"SRP"},{"line":6,"transit":false,"time":4,"i_lat":-6.314823,"station_id":"RU","is_transit":false,"station_name":"Rawa Buntu","i_long":106.675475,"distance":2413},{"distance":4566,"station_id":"SDM","station_name":"Sudimara","line":6,"time":6,"i_long":106.712277,"is_transit":false,"i_lat":-6.296963,"transit":false},{"distance":1994,"station_name":"Jurangmangu","is_transit":false,"i_lat":-6.288927,"i_long":106.728916,"station_id":"JMU","transit":false,"line":6,"time":4},{"distance":2179,"is_transit":false,"station_name":"Pondokranji","i_lat":-6.276362,"transit":false,"line":6,"i_long":106.74273,"time":3,"station_id":"PDJ"},{"station_id":"KBY","i_lat":-6.237242,"time":8,"is_transit":false,"line":6,"i_long":106.780334,"station_name":"Kebayoran","transit":false,"distance":6218},{"distance":3737,"i_lat":-6.207404,"is_transit":false,"transit":false,"line":6,"time":7,"station_name":"Palmerah","station_id":"PLM","i_long":106.79689},{"is_transit":true,"i_lat":-6.185545,"transit":true,"time":6,"distance":3191,"station_id":"THB","line":1,"i_long":106.811091,"station_name":"Tanah Abang"},{"line":1,"station_id":"KAT","time":5,"station_name":"Karet","transit":false,"i_lat":-6.20132,"distance":2029,"is_transit":false,"i_long":106.816351},{"line":1,"i_long":106.819881,"time":1,"is_transit":false,"i_lat":-6.201433,"transit":false,"station_id":"SUDB","station_name":"Sudirman Baru","distance":471},{"line":1,"i_long":106.822649,"station_id":"SUD","transit":false,"distance":280,"station_name":"Sudirman","is_transit":false,"time":1,"i_lat":-6.202263},{"station_name":"Manggarai","line":2,"i_long":106.84912,"time":4,"station_id":"MRI","distance":3186,"is_transit":true,"transit":true,"i_lat":-6.209883},{"station_name":"Tebet","is_transit":false,"i_lat":-6.226659,"line":2,"distance":2610,"transit":false,"i_long":106.857948,"time":4,"station_id":"TEB"},{"is_transit":false,"i_lat":-6.242512,"time":2,"i_long":106.856607,"station_id":"CW","distance":1230,"station_name":"Cawang","line":2,"transit":false},{"is_transit":false,"i_lat":-6.255332,"distance":1546,"station_id":"DRN","station_name":"Duren Kalibata","line":2,"i_long":106.85449,"time":3,"transit":false},{"time":2,"line":2,"station_name":"Pasar Minggu Baru","station_id":"PSMB","is_transit":false,"distance":824,"transit":false,"i_lat":-6.263214,"i_long":106.851577},{"line":2,"station_id":"PSM","is_transit":false,"transit":false,"i_long":106.843999,"station_name":"Pasar Minggu","i_lat":-6.2842400000000005,"distance":2380,"time":2},{"line":2,"is_transit":false,"i_lat":-6.3080680000000005,"distance":2820,"i_long":106.838896,"transit":false,"station_name":"Tanjung Barat","station_id":"TNT","time":4},{"station_name":"Lenteng Agung","station_id":"LNA","time":3,"line":2,"is_transit":false,"transit":false,"i_lat":-6.330363,"distance":2671,"i_long":106.832616}],[{"transit":false,"line":3,"i_long":106.617853,"station_id":"CC","distance":0,"is_transit":false,"i_lat":-6.329547,"station_name":"Cicayur","time":0},{"time":4,"station_id":"CSK","distance":2519,"is_transit":false,"i_lat":-6.32484,"transit":false,"line":3,"station_name":"Cisauk","i_long":106.640411},{"i_long":106.66566,"station_name":"Serpong","station_id":"SRP","time":4,"is_transit":false,"line":6,"distance":1784,"transit":false,"i_lat":-6.319871},{"station_id":"RU","i_long":106.675475,"line":6,"transit":false,"station_name":"Rawa Buntu","is_transit":false,"time":4,"distance":2413,"i_lat":-6.314823},{"distance":4566,"i_lat":-6.296963,"station_id":"SDM","is_transit":false,"line":6,"time":6,"station_name":"Sudimara","i_long":106.712277,"transit":false},{"i_lat":-6.288927,"i_long":106.728916,"is_transit":false,"station_id":"JMU","transit":false,"station_name":"Jurangmangu","distance":1994,"time":4,"line":6},{"station_id":"PDJ","transit":false,"line":6,"is_transit":false,"i_lat":-6.276362,"distance":2179,"time":3,"station_name":"Pondokranji","i_long":106.74273},{"is_transit":false,"transit":false,"i_lat":-6.237242,"i_long":106.780334,"line":6,"station_name":"Kebayoran","time":8,"distance":6218,"station_id":"KBY"},{"line":6,"i_long":106.79689,"i_lat":-6.207404,"distance":3737,"is_transit":false,"transit":false,"station_name":"Palmerah","time":7,"station_id":"PLM"},{"station_name":"Tanah Abang","distance":3191,"station_id":"THB","is_transit":true,"time":6,"transit":true,"i_lat":-6.185545,"line":1,"i_long":106.811091},{"distance":3632,"time":8,"is_transit":false,"i_long":106.800832,"line":1,"i_lat":-6.155215,"transit":false,"station_id":"DU","station_name":"Duri"},{"distance":1230,"i_lat":-6.144674,"station_id":"AK","i_long":106.79867,"is_transit":false,"transit":false,"time":4,"station_name":"Angke","line":1},{"distance":4102,"i_long":106.826365,"station_name":"Kampung Bandan","time":9,"line":4,"station_id":"KPB","is_transit":true,"i_lat":-6.132549,"transit":true},{"is_transit":true,"i_lat":-6.137569,"line":2,"i_long":106.812439,"station_name":"Jakarta Kota","time":3,"station_id":"JAKK","transit":true,"distance":1364},{"time":4,"line":2,"is_transit":false,"station_id":"JAY","i_lat":-6.141205,"i_long":106.820901,"station_name":"Jayakarta","distance":1264,"transit":false},{"i_lat":-6.149769,"station_name":"Manggabesar","line":2,"time":2,"i_long":106.82482,"station_id":"MGB","transit":false,"is_transit":false,"distance":1080},{"i_lat":-6.160725,"time":2,"station_id":"SW","distance":906,"i_long":106.827103,"line":2,"is_transit":false,"station_name":"Sawah Besar","transit":false},{"is_transit":false,"station_id":"JUA","station_name":"Juanda","line":2,"transit":false,"i_lat":-6.166716,"distance":1149,"time":2,"i_long":106.828284},{"transit":false,"line":2,"i_long":106.832183,"station_id":"GDD","distance":2015,"is_transit":false,"station_name":"Gondangdia","time":4,"i_lat":-6.186295},{"time":3,"transit":false,"i_lat":-6.198556,"line":2,"is_transit":false,"i_long":106.840169,"station_name":"Cikini","distance":1750,"station_id":"CKI"},{"transit":false,"i_long":106.84912,"line":2,"station_id":"MRI","distance":1590,"i_lat":-6.209883,"time":4,"station_name":"Manggarai","is_transit":false},{"station_id":"TEB","is_transit":false,"time":4,"station_name":"Tebet","transit":false,"i_long":106.857948,"line":2,"distance":2610,"i_lat":-6.226659},{"station_name":"Cawang","station_id":"CW","time":2,"distance":1230,"is_transit":false,"i_long":106.856607,"transit":false,"line":2,"i_lat":-6.242512},{"station_id":"DRN","distance":1546,"i_lat":-6.255332,"station_name":"Duren Kalibata","time":3,"transit":false,"i_long":106.85449,"line":2,"is_transit":false},{"i_lat":-6.263214,"station_id":"PSMB","time":2,"distance":824,"i_long":106.851577,"is_transit":false,"transit":false,"station_name":"Pasar Minggu Baru","line":2},{"transit":false,"line":2,"time":2,"distance":2380,"i_lat":-6.2842400000000005,"is_transit":false,"station_name":"Pasar Minggu","station_id":"PSM","i_long":106.843999},{"i_long":106.838896,"i_lat":-6.3080680000000005,"station_name":"Tanjung Barat","time":4,"is_transit":false,"transit":false,"station_id":"TNT","distance":2820,"line":2},{"i_lat":-6.330363,"time":3,"i_long":106.832616,"line":2,"is_transit":false,"station_name":"Lenteng Agung","transit":false,"station_id":"LNA","distance":2671}],[{"transit":false,"station_id":"CC","i_lat":-6.329547,"station_name":"Cicayur","time":0,"is_transit":false,"i_long":106.617853,"line":3,"distance":0},{"time":4,"i_long":106.640411,"distance":2519,"is_transit":false,"transit":false,"station_id":"CSK","station_name":"Cisauk","i_lat":-6.32484,"line":3},{"station_name":"Serpong","transit":false,"station_id":"SRP","time":4,"i_lat":-6.319871,"i_long":106.66566,"is_transit":false,"distance":1784,"line":6},{"time":4,"distance":2413,"i_long":106.675475,"transit":false,"station_name":"Rawa Buntu","i_lat":-6.314823,"is_transit":false,"line":6,"station_id":"RU"},{"distance":4566,"time":6,"line":6,"is_transit":false,"station_name":"Sudimara","i_lat":-6.296963,"transit":false,"i_long":106.712277,"station_id":"SDM"},{"station_name":"Jurangmangu","line":6,"transit":false,"i_lat":-6.288927,"station_id":"JMU","is_transit":false,"i_long":106.728916,"time":4,"distance":1994},{"i_lat":-6.276362,"is_transit":false,"i_long":106.74273,"line":6,"transit":false,"distance":2179,"station_id":"PDJ","time":3,"station_name":"Pondokranji"},{"i_lat":-6.237242,"time":8,"transit":false,"line":6,"is_transit":false,"distance":6218,"station_id":"KBY","station_name":"Kebayoran","i_long":106.780334},{"station_id":"PLM","i_long":106.79689,"transit":false,"is_transit":false,"distance":3737,"station_name":"Palmerah","i_lat":-6.207404,"time":7,"line":6},{"line":1,"time":6,"transit":true,"is_transit":true,"i_long":106.811091,"station_name":"Tanah Abang","i_lat":-6.185545,"station_id":"THB","distance":3191},{"station_name":"Duri","station_id":"DU","time":8,"transit":false,"is_transit":false,"i_long":106.800832,"line":1,"distance":3632,"i_lat":-6.155215},{"is_transit":false,"i_lat":-6.144674,"transit":false,"line":1,"distance":1230,"station_name":"Angke","station_id":"AK","time":4,"i_long":106.79867},{"line":4,"i_long":106.826365,"time":9,"transit":true,"is_transit":true,"station_id":"KPB","i_lat":-6.132549,"station_name":"Kampung Bandan","distance":4102},{"is_transit":false,"line":11,"transit":false,"station_name":"Rajawali","time":3,"distance":1444,"station_id":"RJW","i_lat":-6.14505,"i_long":106.836569},{"station_id":"KMO","is_transit":false,"line":11,"i_lat":-6.161728,"distance":1901,"time":5,"transit":false,"station_name":"Kemayoran","i_long":106.839204},{"i_long":106.84368,"i_lat":-6.174784,"station_id":"PSE","time":4,"distance":1436,"is_transit":false,"transit":false,"line":11,"station_name":"Pasar Senen"},{"i_long":106.850107,"distance":1567,"is_transit":false,"station_name":"Gang Sentiong","station_id":"GST","line":11,"i_lat":-6.185975,"time":8,"transit":false},{"distance":973,"time":1,"is_transit":false,"transit":false,"station_name":"Kramat","station_id":"KMT","i_lat":-6.193792,"line":11,"i_long":106.855437},{"distance":1829,"is_transit":false,"line":11,"i_lat":-6.209188,"transit":false,"i_long":106.861737,"time":2,"station_id":"POK","station_name":"Pondok Jati"},{"line":1,"station_name":"Jatinegara","i_lat":-6.215091,"distance":1236,"is_transit":true,"time":9,"i_long":106.86807400000001,"transit":true,"station_id":"JNG"},{"transit":false,"station_id":"MTR","distance":1377,"time":2,"i_lat":-6.212485,"i_long":106.858896,"line":1,"station_name":"Matraman","is_transit":false},{"i_long":106.84912,"line":2,"is_transit":true,"time":2,"station_name":"Manggarai","distance":1275,"transit":true,"i_lat":-6.209883,"station_id":"MRI"},{"transit":false,"distance":2610,"i_lat":-6.226659,"line":2,"station_id":"TEB","time":4,"is_transit":false,"station_name":"Tebet","i_long":106.857948},{"line":2,"i_lat":-6.242512,"transit":false,"station_id":"CW","distance":1230,"time":2,"is_transit":false,"station_name":"Cawang","i_long":106.856607},{"distance":1546,"i_lat":-6.255332,"line":2,"is_transit":false,"transit":false,"i_long":106.85449,"station_id":"DRN","station_name":"Duren Kalibata","time":3},{"distance":824,"time":2,"is_transit":false,"station_name":"Pasar Minggu Baru","transit":false,"i_lat":-6.263214,"station_id":"PSMB","i_long":106.851577,"line":2},{"is_transit":false,"station_id":"PSM","i_lat":-6.2842400000000005,"distance":2380,"i_long":106.843999,"transit":false,"station_name":"Pasar Minggu","line":2,"time":2},{"i_lat":-6.3080680000000005,"station_id":"TNT","line":2,"distance":2820,"station_name":"Tanjung Barat","transit":false,"time":4,"i_long":106.838896,"is_transit":false},{"distance":2671,"station_name":"Lenteng Agung","time":3,"transit":false,"i_long":106.832616,"station_id":"LNA","is_transit":false,"line":2,"i_lat":-6.330363}]]}