{"data":[[{"is_transit":false,"time":0,"station_id":"CC","i_lat":-6.329547,"station_name":"Cicayur","transit":false,"distance":0,"line":3,"i_long":106.617853},{"time":4,"station_name":"Cisauk","distance":2519,"line":3,"i_lat":-6.32484,"i_long":106.640411,"transit":false,"station_id":"CSK","is_transit":false},{"station_id":"SRP","is_transit":false,"line":6,"i_long":106.66566,"transit":false,"station_name":"Serpong","i_lat":-6.319871,"distance":1784,"time":4},{"is_transit":false,"i_long":106.675475,"line":6,"i_lat":-6.314823,"station_name":"Rawa Buntu","station_id":"RU","transit":false,"time":4,"distance":2413},{"station_id":"SDM","is_transit":false,"i_lat":-6.296963,"line":6,"transit":false,"time":6,"station_name":"Sudimara","distance":4566,"i_long":106.712277},{"distance":1994,"is_transit":false,"line":6,"station_id":"JMU","transit":false,"station_name":"Jurangmangu","i_lat":-6.288927,"i_long":106.728916,"time":4},{"i_lat":-6.276362,"is_transit":false,"i_long":106.74273,"line":6,"transit":false,"time":3,"station_name":"Pondokranji","station_id":"PDJ","distance":2179},{"transit":false,"is_transit":false,"i_lat":-6.237242,"time":8,"station_name":"Kebayoran","i_long":106.780334,"distance":6218,"line":6,"station_id":"KBY"},{"line":6,"is_transit":false,"i_long":106.79689,"station_name":"Palmerah","time":7,"transit":false,"station_id":"PLM","distance":3737,"i_lat":-6.207404},{"distance":3191,"line":1,"station_id":"THB","time":6,"i_lat":-6.185545,"station_name":"Tanah Abang","i_long":106.811091,"transit":true,"is_transit":true},{"station_name":"Karet","i_lat":-6.20132,"transit":false,"i_long":106.816351,"line":1,"station_id":"KAT","distance":2029,"time":5,"is_transit":false},{"time":1,"transit":false,"i_lat":-6.201433,"distance":471,"station_id":"SUDB","is_transit":false,"station_name":"Sudirman Baru","i_long":106.819881,"line":1},{"distance":280,"i_lat":-6.202263,"is_transit":false,"i_long":106.822649,"transit":false,"line":1,"station_name":"Sudirman","station_id":"SUD","time":1},{"station_id":"MRI","station_name":"Manggarai","transit":true,"time":4,"i_long":106.84912,"line":2,"is_transit":true,"i_lat":-6.209883,"distance":3186},{"distance":2610,"station_id":"TEB","transit":false,"i_long":106.857948,"station_name":"Tebet","line":2,"i_lat":-6.226659,"is_transit":false,"time":4},{"station_name":"Cawang","transit":false,"i_long":106.856607,"distance":1230,"i_lat":-6.242512,"line":2,"is_transit":false,"time":2,"station_id":"CW"},{"i_lat":-6.255332,"station_name":"Duren Kalibata","i_long":106.85449,"station_id":"DRN","distance":1546,"time":3,"is_transit":false,"transit":false,"line":2},{"i_long":106.851577,"is_transit":false,"station_name":"Pasar Minggu Baru","time":2,"line":2,"transit":false,"distance":824,"i_lat":-6.263214,"station_id":"PSMB"},{"station_id":"PSM","station_name":"Pasar Minggu","i_long":106.843999,"line":2,"is_transit":false,"time":2,"distance":2380,"i_lat":-6.2842400000000005,"transit":false},{"distance":2820,"station_name":"Tanjung Barat","station_id":"TNT","is_transit":false,"time":4,"transit":false,"line":2,"i_long":106.838896,"i_lat":-6.3080680000000005},{"station_name":"Lenteng Agung","transit":false,"is_transit":false,"time":3,"i_lat":-6.330363,"i_long":106.832616,"line":2,"station_id":"LNA","distance":2671},{"line":2,"station_id":"UP","time":2,"i_long":106.834175,"i_lat":-6.339291,"transit":false,"is_transit":false,"distance":1029,"station_name":"Univ. Pancasila"},{"is_transit":false,"distance":2264,"time":3,"i_lat":-6.360749,"line":2,"transit":false,"station_id":"UI","station_name":"Univ. Indonesia","i_long":106.831474},{"line":2,"is_transit":false,"time":2,"transit":false,"station_id":"POC","station_name":"Pondok Cina","distance":1109,"i_lat":-6.369073,"i_long":106.831114},{"distance":2727,"station_name":"Depokbaru","line":2,"i_lat":-6.391065,"i_long":106.819451,"transit":false,"time":4,"station_id":"DPB","is_transit":false},{"transit":false,"is_transit":false,"time":3,"distance":1584,"line":2,"station_id":"DP","i_lat":-6.405256,"i_long":106.816926,"station_name":"Depok"},{"station_id":"CTA","time":6,"distance":5084,"i_lat":-6.448811,"i_long":106.800298,"transit":true,"station_name":"Citayam","is_transit":true,"line":2},{"distance":0,"station_id":"PDRG","time":0,"i_lat":-6.460735,"i_long":106.824374,"station_name":"Pondok Rajeg","is_transit":false,"transit":false,"line":21},{"station_name":"Cibinong","time":0,"station_id":"CBN","i_lat":-6.46424,"line":21,"i_long":106.851978,"is_transit":false,"transit":false,"distance":0},{"transit":false,"is_transit":false,"distance":6527,"i_lat":-6.466285,"station_id":"NMO","i_long":106.905196,"station_name":"Nambo","time":10,"line":21}],[{"station_name":"Cicayur","transit":false,"time":0,"distance":0,"line":3,"i_lat":-6.329547,"station_id":"CC","is_transit":false,"i_long":106.617853},{"is_transit":false,"transit":false,"distance":2519,"time":4,"i_lat":-6.32484,"station_name":"Cisauk","i_long":106.640411,"station_id":"CSK","line":3},{"distance":1784,"station_id":"SRP","is_transit":false,"i_long":106.66566,"line":6,"transit":false,"station_name":"Serpong","i_lat":-6.319871,"time":4},{"station_name":"Rawa Buntu","transit":false,"station_id":"RU","is_transit":false,"i_lat":-6.314823,"i_long":106.675475,"time":4,"line":6,"distance":2413},{"i_long":106.712277,"station_name":"Sudimara","i_lat":-6.296963,"station_id":"SDM","is_transit":false,"time":6,"distance":4566,"line":6,"transit":false},{"station_id":"JMU","i_long":106.728916,"time":4,"i_lat":-6.288927,"line":6,"distance":1994,"transit":false,"station_name":"Jurangmangu","is_transit":false},{"line":6,"station_id":"PDJ","transit":false,"station_name":"Pondokranji","time":3,"i_long":106.74273,"is_transit":false,"distance":2179,"i_lat":-6.276362},{"line":6,"distance":6218,"i_lat":-6.237242,"station_name":"Kebayoran","time":8,"station_id":"KBY","i_long":106.780334,"transit":false,"is_transit":false},{"distance":3737,"time":7,"i_lat":-6.207404,"station_id":"PLM","station_name":"Palmerah","i_long":106.79689,"line":6,"transit":false,"is_transit":false},{"i_long":106.811091,"transit":true,"station_name":"Tanah Abang","is_transit":true,"distance":3191,"line":1,"i_lat":-6.185545,"time":6,"station_id":"THB"},{"is_transit":false,"time":8,"i_long":106.800832,"station_id":"DU","i_lat":-6.155215,"transit":false,"station_name":"Duri","distance":3632,"line":1},{"station_name":"Angke","i_lat":-6.144674,"i_long":106.79867,"is_transit":false,"station_id":"AK","distance":1230,"line":1,"transit":false,"time":4},{"line":4,"station_name":"Kampung Bandan","time":9,"station_id":"KPB","transit":true,"is_transit":true,"distance":4102,"i_long":106.826365,"i_lat":-6.132549},{"i_long":106.812439,"station_name":"Jakarta Kota","station_id":"JAKK","transit":true,"time":3,"is_transit":true,"i_lat":-6.137569,"line":2,"distance":1364},{"distance":1264,"transit":false,"station_id":"JAY","time":4,"is_transit":false,"i_long":106.820901,"station_name":"Jayakarta","line":2,"i_lat":-6.141205},{"time":2,"i_lat":-6.149769,"transit":false,"line":2,"distance":1080,"i_long":106.82482,"station_id":"MGB","station_name":"Manggabesar","is_transit":false},{"i_long":106.827103,"line":2,"i_lat":-6.160725,"station_name":"Sawah Besar","station_id":"SW","is_transit":false,"transit":false,"distance":906,"time":2},{"station_name":"Juanda","is_transit":false,"time":2,"station_id":"JUA","i_long":106.828284,"transit":false,"distance":1149,"i_lat":-6.166716,"line":2},{"i_long":106.832183,"station_id":"GDD","is_transit":false,"i_lat":-6.186295,"transit":false,"line":2,"distance":2015,"time":4,"station_name":"Gondangdia"},{"is_transit":false,"i_lat":-6.198556,"i_long":106.840169,"station_name":"Cikini","distance":1750,"transit":false,"time":3,"station_id":"CKI","line":2},{"transit":false,"is_transit":false,"station_name":"Manggarai","line":2,"station_id":"MRI","distance":1590,"time":4,"i_long":106.84912,"i_lat":-6.209883},{"station_id":"TEB","i_long":106.857948,"time":4,"is_transit":false,"station_name":"Tebet","transit":false,"line":2,"distance":2610,"i_lat":-6.226659},{"station_name":"Cawang","transit":false,"is_transit":false,"i_long":106.856607,"distance":1230,"i_lat":-6.242512,"time":2,"station_id":"CW","line":2},{"i_long":106.85449,"is_transit":false,"time":3,"transit":false,"station_name":"Duren Kalibata","i_lat":-6.255332,"line":2,"station_id":"DRN","distance":1546},{"is_transit":false,"station_name":"Pasar Minggu Baru","line":2,"transit":false,"i_lat":-6.263214,"station_id":"PSMB","time":2,"i_long":106.851577,"distance":824},{"i_long":106.843999,"time":2,"distance":2380,"station_id":"PSM","transit":false,"i_lat":-6.2842400000000005,"line":2,"is_transit":false,"station_name":"Pasar Minggu"},{"station_name":"Tanjung Barat","i_lat":-6.3080680000000005,"line":2,"station_id":"TNT","is_transit":false,"i_long":106.838896,"distance":2820,"time":4,"transit":false},{"i_lat":-6.330363,"distance":2671,"is_transit":false,"time":3,"line":2,"i_long":106.832616,"transit":false,"station_name":"Lenteng Agung","station_id":"LNA"},{"distance":1029,"is_transit":false,"station_name":"Univ. Pancasila","time":2,"i_lat":-6.339291,"i_long":106.834175,"line":2,"transit":false,"station_id":"UP"},{"station_id":"UI","is_transit":false,"transit":false,"line":2,"time":3,"station_name":"Univ. Indonesia","i_long":106.831474,"distance":2264,"i_lat":-6.360749},{"station_id":"POC","is_transit":false,"i_lat":-6.369073,"line":2,"distance":1109,"time":2,"i_long":106.831114,"transit":false,"station_name":"Pondok Cina"},{"transit":false,"distance":2727,"station_id":"DPB","i_long":106.819451,"is_transit":false,"station_name":"Depokbaru","time":4,"line":2,"i_lat":-6.391065},{"distance":1584,"station_id":"DP","time":3,"transit":false,"i_lat":-6.405256,"is_transit":false,"i_long":106.816926,"line":2,"station_name":"Depok"},{"is_transit":true,"line":2,"station_id":"CTA","distance":5084,"i_lat":-6.448811,"transit":true,"station_name":"Citayam","time":6,"i_long":106.800298},{"i_lat":-6.460735,"line":21,"i_long":106.824374,"is_transit":false,"station_id":"PDRG","station_name":"Pondok Rajeg","distance":0,"time":0,"transit":false},{"time":0,"i_lat":-6.46424,"station_name":"Cibinong","distance":0,"i_long":106.851978,"line":21,"is_transit":false,"transit":false,"station_id":"CBN"},{"transit":false,"time":10,"distance":6527,"line":21,"i_long":106.905196,"station_id":"NMO","is_transit":false,"i_lat":-6.466285,"station_name":"Nambo"}],[{"distance":0,"station_id":"CC","i_lat":-6.329547,"line":3,"station_name":"Cicayur","is_transit":false,"time":0,"i_long":106.617853,"transit":false},{"is_transit":false,"transit":false,"i_long":106.640411,"time":4,"station_name":"Cisauk","distance":2519,"i_lat":-6.32484,"line":3,"station_id":"CSK"},{"line":6,"time":4,"station_name":"Serpong","station_id":"SRP","i_long":106.66566,"transit":false,"is_transit":false,"distance":1784,"i_lat":-6.319871},{"distance":2413,"transit":false,"time":4,"i_long":106.675475,"station_id":"RU","is_transit":false,"line":6,"station_name":"Rawa Buntu","i_lat":-6.314823},{"line":6,"station_name":"Sudimara","station_id":"SDM","distance":4566,"i_long":106.712277,"is_transit":false,"transit":false,"i_lat":-6.296963,"time":6},{"line":6,"i_long":106.728916,"time":4,"i_lat":-6.288927,"station_id":"JMU","station_name":"Jurangmangu","distance":1994,"is_transit":false,"transit":false},{"time":3,"transit":false,"station_id":"PDJ","line":6,"distance":2179,"i_lat":-6.276362,"is_transit":false,"i_long":106.74273,"station_name":"Pondokranji"},{"time":8,"distance":6218,"is_transit":false,"station_name":"Kebayoran","i_lat":-6.237242,"transit":false,"station_id":"KBY","line":6,"i_long":106.780334},{"is_transit":false,"i_lat":-6.207404,"line":6,"station_name":"Palmerah","station_id":"PLM","i_long":106.79689,"time":7,"distance":3737,"transit":false},{"time":6,"station_id":"THB","is_transit":true,"i_lat":-6.185545,"transit":true,"i_long":106.811091,"station_name":"Tanah Abang","distance":3191,"line":1},{"i_long":106.800832,"line":1,"transit":false,"is_transit":false,"station_name":"Duri","station_id":"DU","time":8,"distance":3632,"i_lat":-6.155215},{"station_id":"AK","line":1,"is_transit":false,"time":4,"i_lat":-6.144674,"i_long":106.79867,"station_name":"Angke","distance":1230,"transit":false},{"time":9,"station_name":"Kampung Bandan","is_transit":true,"line":4,"distance":4102,"i_lat":-6.132549,"station_id":"KPB","transit":true,"i_long":106.826365},{"station_id":"RJW","is_transit":false,"time":3,"line":11,"distance":1444,"i_lat":-6.14505,"transit":false,"station_name":"Rajawali","i_long":106.836569},{"transit":false,"is_transit":false,"i_lat":-6.161728,"station_name":"Kemayoran","station_id":"KMO","distance":1901,"i_long":106.839204,"line":11,"time":5},{"line":11,"transit":false,"i_lat":-6.174784,"station_id":"PSE","is_transit":false,"distance":1436,"station_name":"Pasar Senen","i_long":106.84368,"time":4},{"line":11,"transit":false,"station_id":"GST","distance":1567,"i_lat":-6.185975,"i_long":106.850107,"is_transit":false,"time":8,"station_name":"Gang Sentiong"},{"is_transit":false,"i_lat":-6.193792,"time":1,"distance":973,"i_long":106.855437,"station_name":"Kramat","transit":false,"station_id":"KMT","line":11},{"is_transit":false,"transit":false,"i_long":106.861737,"station_name":"Pondok Jati","i_lat":-6.209188,"line":11,"station_id":"POK","distance":1829,"time":2},{"is_transit":true,"distance":1236,"i_lat":-6.215091,"time":9,"transit":true,"station_name":"Jatinegara","station_id":"JNG","line":1,"i_long":106.86807400000001},{"i_lat":-6.212485,"station_id":"MTR","transit":false,"station_name":"Matraman","line":1,"distance":1377,"time":2,"i_long":106.858896,"is_transit":false},{"station_name":"Manggarai","i_long":106.84912,"line":2,"transit":true,"is_transit":true,"time":2,"distance":1275,"station_id":"MRI","i_lat":-6.209883},{"station_id":"TEB","station_name":"Tebet","is_transit":false,"transit":false,"i_long":106.857948,"line":2,"time":4,"distance":2610,"i_lat":-6.226659},{"is_transit":false,"transit":false,"i_lat":-6.242512,"i_long":106.856607,"time":2,"station_id":"CW","station_name":"Cawang","line":2,"distance":1230},{"line":2,"i_long":106.85449,"distance":1546,"is_transit":false,"transit":false,"time":3,"station_id":"DRN","i_lat":-6.255332,"station_name":"Duren Kalibata"},{"distance":824,"i_long":106.851577,"i_lat":-6.263214,"line":2,"time":2,"station_name":"Pasar Minggu Baru","is_transit":false,"station_id":"PSMB","transit":false},{"station_name":"Pasar Minggu","time":2,"station_id":"PSM","is_transit":false,"transit":false,"i_long":106.843999,"i_lat":-6.2842400000000005,"line":2,"distance":2380},{"station_name":"Tanjung Barat","station_id":"TNT","transit":false,"is_transit":false,"distance":2820,"line":2,"time":4,"i_lat":-6.3080680000000005,"i_long":106.838896},{"station_id":"LNA","is_transit":false,"transit":false,"distance":2671,"line":2,"time":3,"i_lat":-6.330363,"station_name":"Lenteng Agung","i_long":106.832616},{"transit":false,"time":2,"distance":1029,"i_lat":-6.339291,"is_transit":false,"i_long":106.834175,"station_id":"UP","line":2,"station_name":"Univ. Pancasila"},{"is_transit":false,"transit":false,"distance":2264,"time":3,"station_name":"Univ. Indonesia","station_id":"UI","i_lat":-6.360749,"i_long":106.831474,"line":2},{"is_transit":false,"transit":false,"station_id":"POC","time":2,"distance":1109,"line":2,"station_name":"Pondok Cina","i_long":106.831114,"i_lat":-6.369073},{"i_lat":-6.391065,"time":4,"is_transit":false,"i_long":106.819451,"distance":2727,"station_name":"Depokbaru","line":2,"transit":false,"station_id":"DPB"},{"i_lat":-6.405256,"line":2,"is_transit":false,"station_name":"Depok","station_id":"DP","i_long":106.816926,"distance":1584,"transit":false,"time":3},{"is_transit":true,"distance":5084,"i_lat":-6.448811,"transit":true,"i_long":106.800298,"time":6,"line":2,"station_id":"CTA","station_name":"Citayam"},{"distance":0,"i_long":106.824374,"station_name":"Pondok Rajeg","line":21,"time":0,"i_lat":-6.460735,"transit":false,"is_transit":false,"station_id":"PDRG"},{"distance":0,"station_name":"Cibinong","is_transit":false,"i_long":106.851978,"line":21,"i_lat":-6.46424,"time":0,"station_id":"CBN","transit":false},{"station_name":"Nambo","is_transit":false,"station_id":"NMO","time":10,"line":21,"i_lat":-6.466285,"transit":false,"i_long":106.905196,"distance":6527}]]}