{"data":[[{"line":3,"time":0,"station_id":"CC","distance":0,"i_lat":-6.329547,"station_name":"Cicayur","transit":false,"is_transit":false,"i_long":106.617853},{"i_lat":-6.32484,"is_transit":false,"time":4,"station_name":"Cisauk","transit":false,"line":3,"station_id":"CSK","distance":2519,"i_long":106.640411},{"time":4,"distance":1784,"station_name":"Serpong","station_id":"SRP","i_long":106.66566,"line":6,"i_lat":-6.319871,"transit":false,"is_transit":false},{"transit":false,"station_id":"RU","i_long":106.675475,"time":4,"line":6,"is_transit":false,"distance":2413,"i_lat":-6.314823,"station_name":"Rawa Buntu"},{"line":6,"distance":4566,"transit":false,"time":6,"station_id":"SDM","is_transit":false,"station_name":"Sudimara","i_lat":-6.296963,"i_long":106.712277},{"station_name":"Jurangmangu","time":4,"line":6,"is_transit":false,"distance":1994,"transit":false,"i_lat":-6.288927,"i_long":106.728916,"station_id":"JMU"},{"line":6,"is_transit":false,"transit":false,"station_name":"Pondokranji","time":3,"station_id":"PDJ","distance":2179,"i_lat":-6.276362,"i_long":106.74273},{"is_transit":false,"i_lat":-6.237242,"i_long":106.780334,"transit":false,"distance":6218,"station_name":"Kebayoran","line":6,"time":8,"station_id":"KBY"},{"is_transit":false,"distance":3737,"station_name":"Palmerah","station_id":"PLM","line":6,"time":7,"i_lat":-6.207404,"transit":false,"i_long":106.79689},{"station_name":"Tanah Abang","time":6,"transit":true,"distance":3191,"station_id":"THB","i_long":106.811091,"i_lat":-6.185545,"line":1,"is_transit":true},{"line":1,"station_name":"Karet","is_transit":false,"i_long":106.816351,"i_lat":-6.20132,"station_id":"KAT","transit":false,"time":5,"distance":2029},{"transit":false,"i_lat":-6.201433,"station_id":"SUDB","i_long":106.819881,"distance":471,"station_name":"Sudirman Baru","line":1,"is_transit":false,"time":1},{"is_transit":false,"station_name":"Sudirman","line":1,"time":1,"distance":280,"transit":false,"i_lat":-6.202263,"station_id":"SUD","i_long":106.822649},{"station_name":"Manggarai","station_id":"MRI","is_transit":true,"time":4,"transit":true,"distance":3186,"line":2,"i_long":106.84912,"i_lat":-6.209883},{"i_lat":-6.226659,"line":2,"i_long":106.857948,"is_transit":false,"station_id":"TEB","transit":false,"time":4,"distance":2610,"station_name":"Tebet"},{"i_long":106.856607,"station_name":"Cawang","station_id":"CW","i_lat":-6.242512,"time":2,"is_transit":false,"distance":1230,"transit":false,"line":2},{"distance":1546,"time":3,"transit":false,"station_name":"Duren Kalibata","line":2,"station_id":"DRN","i_lat":-6.255332,"i_long":106.85449,"is_transit":false},{"is_transit":false,"station_id":"PSMB","time":2,"transit":false,"i_lat":-6.263214,"i_long":106.851577,"station_name":"Pasar Minggu Baru","distance":824,"line":2},{"i_long":106.843999,"station_id":"PSM","transit":false,"i_lat":-6.2842400000000005,"is_transit":false,"station_name":"Pasar Minggu","line":2,"distance":2380,"time":2},{"station_id":"TNT","station_name":"Tanjung Barat","i_lat":-6.3080680000000005,"time":4,"line":2,"i_long":106.838896,"distance":2820,"transit":false,"is_transit":false},{"i_lat":-6.330363,"i_long":106.832616,"line":2,"station_id":"LNA","transit":false,"is_transit":false,"station_name":"Lenteng Agung","time":3,"distance":2671},{"is_transit":false,"station_name":"Univ. Pancasila","line":2,"time":2,"i_lat":-6.339291,"transit":false,"distance":1029,"station_id":"UP","i_long":106.834175},{"distance":2264,"transit":false,"time":3,"i_lat":-6.360749,"line":2,"station_id":"UI","station_name":"Univ. Indonesia","i_long":106.831474,"is_transit":false},{"i_long":106.831114,"station_name":"Pondok Cina","transit":false,"time":2,"distance":1109,"line":2,"i_lat":-6.369073,"is_transit":false,"station_id":"POC"},{"time":4,"station_id":"DPB","transit":false,"station_name":"Depokbaru","distance":2727,"line":2,"is_transit":false,"i_lat":-6.391065,"i_long":106.819451},{"transit":false,"i_lat":-6.405256,"i_long":106.816926,"line":2,"station_id":"DP","is_transit":false,"station_name":"Depok","distance":1584,"time":3},{"i_lat":-6.448811,"station_id":"CTA","transit":true,"i_long":106.800298,"is_transit":true,"line":2,"station_name":"Citayam","distance":5084,"time":6},{"station_id":"PDRG","i_long":106.824374,"line":21,"is_transit":false,"i_lat":-6.460735,"time":0,"distance":0,"transit":false,"station_name":"Pondok Rajeg"},{"station_id":"CBN","is_transit":false,"line":21,"distance":0,"i_lat":-6.46424,"time":0,"transit":false,"station_name":"Cibinong","i_long":106.851978},{"i_long":106.905196,"line":21,"station_name":"Nambo","time":10,"is_transit":false,"distance":6527,"transit":false,"i_lat":-6.466285,"station_id":"NMO"}],[{"transit":false,"distance":0,"i_lat":-6.329547,"i_long":106.617853,"station_id":"CC","line":3,"station_name":"Cicayur","is_transit":false,"time":0},{"i_lat":-6.32484,"station_name":"Cisauk","distance":2519,"station_id":"CSK","transit":false,"i_long":106.640411,"line":3,"is_transit":false,"time":4},{"i_long":106.66566,"i_lat":-6.319871,"line":6,"transit":false,"station_name":"Serpong","is_transit":false,"distance":1784,"time":4,"station_id":"SRP"},{"transit":false,"station_id":"RU","time":4,"i_lat":-6.314823,"i_long":106.675475,"is_transit":false,"station_name":"Rawa Buntu","line":6,"distance":2413},{"is_transit":false,"transit":false,"station_name":"Sudimara","i_lat":-6.296963,"i_long":106.712277,"time":6,"line":6,"distance":4566,"station_id":"SDM"},{"time":4,"distance":1994,"station_name":"Jurangmangu","i_lat":-6.288927,"line":6,"is_transit":false,"i_long":106.728916,"transit":false,"station_id":"JMU"},{"transit":false,"line":6,"station_id":"PDJ","i_long":106.74273,"is_transit":false,"i_lat":-6.276362,"time":3,"station_name":"Pondokranji","distance":2179},{"time":8,"station_name":"Kebayoran","line":6,"station_id":"KBY","is_transit":false,"transit":false,"i_lat":-6.237242,"i_long":106.780334,"distance":6218},{"time":7,"transit":false,"line":6,"i_long":106.79689,"station_name":"Palmerah","is_transit":false,"distance":3737,"station_id":"PLM","i_lat":-6.207404},{"transit":true,"station_name":"Tanah Abang","line":1,"is_transit":true,"i_lat":-6.185545,"station_id":"THB","time":6,"distance":3191,"i_long":106.811091},{"time":8,"station_name":"Duri","transit":false,"i_lat":-6.155215,"is_transit":false,"i_long":106.800832,"line":1,"station_id":"DU","distance":3632},{"i_lat":-6.144674,"station_id":"AK","station_name":"Angke","distance":1230,"is_transit":false,"line":1,"time":4,"transit":false,"i_long":106.79867},{"transit":true,"i_lat":-6.132549,"station_name":"Kampung Bandan","time":9,"i_long":106.826365,"distance":4102,"station_id":"KPB","is_transit":true,"line":4},{"line":2,"station_id":"JAKK","is_transit":true,"distance":1364,"i_lat":-6.137569,"time":3,"transit":true,"station_name":"Jakarta Kota","i_long":106.812439},{"station_id":"JAY","distance":1264,"i_lat":-6.141205,"is_transit":false,"time":4,"transit":false,"line":2,"station_name":"Jayakarta","i_long":106.820901},{"station_id":"MGB","distance":1080,"station_name":"Manggabesar","i_long":106.82482,"i_lat":-6.149769,"transit":false,"time":2,"is_transit":false,"line":2},{"transit":false,"time":2,"station_id":"SW","i_long":106.827103,"i_lat":-6.160725,"line":2,"distance":906,"is_transit":false,"station_name":"Sawah Besar"},{"transit":false,"i_long":106.828284,"station_name":"Juanda","distance":1149,"i_lat":-6.166716,"time":2,"station_id":"JUA","is_transit":false,"line":2},{"i_lat":-6.186295,"time":4,"station_id":"GDD","is_transit":false,"distance":2015,"line":2,"i_long":106.832183,"station_name":"Gondangdia","transit":false},{"distance":1750,"time":3,"transit":false,"station_name":"Cikini","i_long":106.840169,"is_transit":false,"i_lat":-6.198556,"line":2,"station_id":"CKI"},{"transit":false,"i_lat":-6.209883,"station_id":"MRI","i_long":106.84912,"is_transit":false,"distance":1590,"line":2,"station_name":"Manggarai","time":4},{"transit":false,"station_id":"TEB","line":2,"time":4,"station_name":"Tebet","distance":2610,"i_lat":-6.226659,"is_transit":false,"i_long":106.857948},{"transit":false,"distance":1230,"i_lat":-6.242512,"line":2,"is_transit":false,"time":2,"station_id":"CW","i_long":106.856607,"station_name":"Cawang"},{"line":2,"i_long":106.85449,"is_transit":false,"station_name":"Duren Kalibata","transit":false,"station_id":"DRN","distance":1546,"time":3,"i_lat":-6.255332},{"station_id":"PSMB","time":2,"i_lat":-6.263214,"distance":824,"station_name":"Pasar Minggu Baru","line":2,"transit":false,"i_long":106.851577,"is_transit":false},{"is_transit":false,"distance":2380,"i_lat":-6.2842400000000005,"transit":false,"i_long":106.843999,"line":2,"station_id":"PSM","station_name":"Pasar Minggu","time":2},{"line":2,"station_id":"TNT","distance":2820,"i_long":106.838896,"i_lat":-6.3080680000000005,"is_transit":false,"station_name":"Tanjung Barat","transit":false,"time":4},{"station_name":"Lenteng Agung","station_id":"LNA","transit":false,"distance":2671,"i_lat":-6.330363,"i_long":106.832616,"is_transit":false,"line":2,"time":3},{"i_lat":-6.339291,"distance":1029,"is_transit":false,"line":2,"time":2,"transit":false,"i_long":106.834175,"station_id":"UP","station_name":"Univ. Pancasila"},{"transit":false,"line":2,"station_name":"Univ. Indonesia","station_id":"UI","is_transit":false,"time":3,"distance":2264,"i_lat":-6.360749,"i_long":106.831474},{"station_name":"Pondok Cina","i_long":106.831114,"transit":false,"line":2,"is_transit":false,"i_lat":-6.369073,"time":2,"station_id":"POC","distance":1109},{"time":4,"transit":false,"is_transit":false,"distance":2727,"i_lat":-6.391065,"line":2,"station_id":"DPB","station_name":"Depokbaru","i_long":106.819451},{"i_lat":-6.405256,"transit":false,"time":3,"station_name":"Depok","distance":1584,"line":2,"is_transit":false,"station_id":"DP","i_long":106.816926},{"station_id":"CTA","time":6,"i_lat":-6.448811,"line":2,"is_transit":true,"i_long":106.800298,"distance":5084,"station_name":"Citayam","transit":true},{"i_lat":-6.460735,"distance":0,"time":0,"i_long":106.824374,"station_id":"PDRG","station_name":"Pondok Rajeg","transit":false,"line":21,"is_transit":false},{"time":0,"station_id":"CBN","distance":0,"is_transit":false,"station_name":"Cibinong","transit":false,"i_lat":-6.46424,"i_long":106.851978,"line":21},{"i_long":106.905196,"time":10,"station_id":"NMO","is_transit":false,"transit":false,"station_name":"Nambo","i_lat":-6.466285,"line":21,"distance":6527}],[{"time":0,"distance":0,"transit":false,"is_transit":false,"station_name":"Cicayur","i_long":106.617853,"station_id":"CC","i_lat":-6.329547,"line":3},{"station_name":"Cisauk","distance":2519,"transit":false,"i_lat":-6.32484,"line":3,"is_transit":false,"i_long":106.640411,"station_id":"CSK","time":4},{"station_name":"Serpong","is_transit":false,"station_id":"SRP","i_long":106.66566,"time":4,"distance":1784,"line":6,"i_lat":-6.319871,"transit":false},{"i_long":106.675475,"is_transit":false,"distance":2413,"line":6,"station_id":"RU","transit":false,"i_lat":-6.314823,"station_name":"Rawa Buntu","time":4},{"distance":4566,"time":6,"station_id":"SDM","transit":false,"is_transit":false,"i_lat":-6.296963,"i_long":106.712277,"line":6,"station_name":"Sudimara"},{"station_id":"JMU","station_name":"Jurangmangu","is_transit":false,"distance":1994,"transit":false,"i_long":106.728916,"i_lat":-6.288927,"time":4,"line":6},{"station_name":"Pondokranji","i_lat":-6.276362,"transit":false,"is_transit":false,"i_long":106.74273,"line":6,"station_id":"PDJ","distance":2179,"time":3},{"i_long":106.780334,"time":8,"station_id":"KBY","station_name":"Kebayoran","is_transit":false,"distance":6218,"line":6,"i_lat":-6.237242,"transit":false},{"i_long":106.79689,"transit":false,"is_transit":false,"time":7,"i_lat":-6.207404,"station_id":"PLM","station_name":"Palmerah","distance":3737,"line":6},{"line":1,"time":6,"distance":3191,"station_id":"THB","is_transit":true,"transit":true,"station_name":"Tanah Abang","i_lat":-6.185545,"i_long":106.811091},{"i_lat":-6.155215,"i_long":106.800832,"transit":false,"is_transit":false,"station_name":"Duri","station_id":"DU","line":1,"time":8,"distance":3632},{"is_transit":false,"transit":false,"station_name":"Angke","i_lat":-6.144674,"time":4,"station_id":"AK","line":1,"i_long":106.79867,"distance":1230},{"is_transit":true,"i_lat":-6.132549,"line":4,"time":9,"station_name":"Kampung Bandan","station_id":"KPB","transit":true,"distance":4102,"i_long":106.826365},{"station_id":"RJW","distance":1444,"is_transit":false,"station_name":"Rajawali","line":11,"time":3,"transit":false,"i_lat":-6.14505,"i_long":106.836569},{"station_name":"Kemayoran","i_long":106.839204,"is_transit":false,"i_lat":-6.161728,"transit":false,"distance":1901,"time":5,"station_id":"KMO","line":11},{"line":11,"i_lat":-6.174784,"time":4,"station_id":"PSE","distance":1436,"is_transit":false,"transit":false,"station_name":"Pasar Senen","i_long":106.84368},{"time":8,"line":11,"is_transit":false,"station_name":"Gang Sentiong","distance":1567,"transit":false,"i_lat":-6.185975,"i_long":106.850107,"station_id":"GST"},{"station_id":"KMT","time":1,"line":11,"is_transit":false,"distance":973,"transit":false,"station_name":"Kramat","i_long":106.855437,"i_lat":-6.193792},{"station_name":"Pondok Jati","station_id":"POK","distance":1829,"i_long":106.861737,"is_transit":false,"time":2,"i_lat":-6.209188,"line":11,"transit":false},{"time":9,"station_name":"Jatinegara","distance":1236,"i_lat":-6.215091,"i_long":106.86807400000001,"is_transit":true,"station_id":"JNG","line":1,"transit":true},{"is_transit":false,"distance":1377,"station_name":"Matraman","line":1,"i_lat":-6.212485,"time":2,"station_id":"MTR","transit":false,"i_long":106.858896},{"line":2,"i_lat":-6.209883,"station_name":"Manggarai","time":2,"station_id":"MRI","transit":true,"distance":1275,"i_long":106.84912,"is_transit":true},{"station_id":"TEB","line":2,"i_lat":-6.226659,"transit":false,"is_transit":false,"time":4,"distance":2610,"i_long":106.857948,"station_name":"Tebet"},{"distance":1230,"is_transit":false,"time":2,"i_lat":-6.242512,"transit":false,"station_name":"Cawang","station_id":"CW","line":2,"i_long":106.856607},{"i_long":106.85449,"transit":false,"station_name":"Duren Kalibata","distance":1546,"time":3,"is_transit":false,"line":2,"i_lat":-6.255332,"station_id":"DRN"},{"line":2,"i_lat":-6.263214,"i_long":106.851577,"time":2,"station_name":"Pasar Minggu Baru","transit":false,"station_id":"PSMB","distance":824,"is_transit":false},{"distance":2380,"i_lat":-6.2842400000000005,"time":2,"transit":false,"i_long":106.843999,"station_id":"PSM","station_name":"Pasar Minggu","is_transit":false,"line":2},{"time":4,"distance":2820,"i_lat":-6.3080680000000005,"station_id":"TNT","i_long":106.838896,"line":2,"is_transit":false,"transit":false,"station_name":"Tanjung Barat"},{"i_lat":-6.330363,"time":3,"is_transit":false,"station_name":"Lenteng Agung","transit":false,"i_long":106.832616,"station_id":"LNA","distance":2671,"line":2},{"line":2,"distance":1029,"is_transit":false,"transit":false,"time":2,"station_id":"UP","station_name":"Univ. Pancasila","i_lat":-6.339291,"i_long":106.834175},{"i_lat":-6.360749,"time":3,"line":2,"station_name":"Univ. Indonesia","is_transit":false,"i_long":106.831474,"transit":false,"distance":2264,"station_id":"UI"},{"i_long":106.831114,"time":2,"distance":1109,"i_lat":-6.369073,"transit":false,"line":2,"is_transit":false,"station_id":"POC","station_name":"Pondok Cina"},{"station_id":"DPB","transit":false,"i_long":106.819451,"is_transit":false,"distance":2727,"time":4,"station_name":"Depokbaru","i_lat":-6.391065,"line":2},{"transit":false,"distance":1584,"i_lat":-6.405256,"line":2,"time":3,"station_name":"Depok","i_long":106.816926,"station_id":"DP","is_transit":false},{"i_lat":-6.448811,"station_name":"Citayam","station_id":"CTA","transit":true,"line":2,"time":6,"is_transit":true,"i_long":106.800298,"distance":5084},{"station_name":"Pondok Rajeg","i_long":106.824374,"time":0,"line":21,"station_id":"PDRG","is_transit":false,"distance":0,"i_lat":-6.460735,"transit":false},{"line":21,"i_long":106.851978,"is_transit":false,"time":0,"transit":false,"station_name":"Cibinong","station_id":"CBN","i_lat":-6.46424,"distance":0},{"station_id":"NMO","time":10,"is_transit":false,"transit":false,"line":21,"distance":6527,"i_long":106.905196,"station_name":"Nambo","i_lat":-6.466285}]]}