{"data":[[{"time":0,"station_name":"Cicayur","station_id":"CC","i_lat":-6.329547,"line":0,"transit":false,"is_transit":false,"distance":0,"i_long":106.617853},{"line":0,"i_lat":-6.32484,"station_id":"CSK","time":4,"transit":false,"i_long":106.640411,"is_transit":false,"distance":2519,"station_name":"Cisauk"},{"transit":false,"distance":1784,"line":6,"is_transit":false,"i_lat":-6.319871,"station_id":"SRP","time":4,"i_long":106.66566,"station_name":"Serpong"},{"i_long":106.675475,"i_lat":-6.314823,"station_name":"Rawa Buntu","transit":false,"line":6,"time":4,"station_id":"RU","distance":2413,"is_transit":false},{"station_name":"Sudimara","transit":false,"is_transit":false,"distance":4566,"time":6,"station_id":"SDM","i_lat":-6.296963,"line":6,"i_long":106.712277},{"is_transit":false,"station_id":"JMU","distance":1994,"transit":false,"station_name":"Jurangmangu","time":4,"i_lat":-6.288927,"i_long":106.728916,"line":6},{"time":3,"station_id":"PDJ","i_lat":-6.276362,"transit":false,"i_long":106.74273,"line":6,"distance":2179,"is_transit":false,"station_name":"Pondokranji"},{"station_name":"Kebayoran","distance":6218,"i_long":106.780334,"line":6,"is_transit":false,"i_lat":-6.237242,"station_id":"KBY","time":8,"transit":false},{"transit":false,"station_id":"PLM","distance":3737,"i_long":106.79689,"is_transit":false,"time":7,"station_name":"Palmerah","line":6,"i_lat":-6.207404},{"line":1,"transit":true,"time":6,"i_lat":-6.185545,"i_long":106.811091,"is_transit":true,"station_id":"THB","station_name":"Tanah Abang","distance":3191},{"i_lat":-6.20132,"station_id":"KAT","line":1,"transit":false,"distance":2029,"is_transit":false,"time":5,"i_long":106.816351,"station_name":"Karet"},{"station_name":"Sudirman Baru","i_long":106.819881,"line":1,"i_lat":-6.201433,"time":1,"transit":false,"is_transit":false,"station_id":"SUDB","distance":471},{"station_id":"SUD","distance":280,"i_long":106.822649,"transit":false,"i_lat":-6.202263,"station_name":"Sudirman","line":1,"time":1,"is_transit":false},{"i_lat":-6.209883,"transit":true,"distance":3186,"is_transit":true,"time":4,"station_id":"MRI","i_long":106.84912,"line":0,"station_name":"Manggarai"},{"line":2,"transit":false,"is_transit":false,"station_name":"Tebet","station_id":"TEB","distance":2610,"i_lat":-6.226659,"time":4,"i_long":106.857948},{"is_transit":false,"station_id":"CW","station_name":"Cawang","i_lat":-6.242512,"time":2,"line":0,"transit":false,"distance":1230,"i_long":106.856607},{"distance":1546,"station_id":"DRN","station_name":"Duren Kalibata","time":3,"is_transit":false,"transit":false,"i_long":106.85449,"i_lat":-6.255332,"line":0},{"time":2,"station_id":"PSMB","transit":false,"i_long":106.851577,"line":2,"is_transit":false,"station_name":"Pasar Minggu Baru","i_lat":-6.263214,"distance":824},{"station_name":"Pasar Minggu","i_long":106.843999,"is_transit":false,"transit":false,"distance":2380,"i_lat":-6.2842400000000005,"line":2,"time":2,"station_id":"PSM"},{"transit":false,"distance":2820,"i_long":106.838896,"time":4,"is_transit":false,"i_lat":-6.3080680000000005,"line":2,"station_name":"Tanjung Barat","station_id":"TNT"},{"station_name":"Lenteng Agung","time":3,"i_lat":-6.330363,"i_long":106.832616,"transit":false,"distance":2671,"line":2,"station_id":"LNA","is_transit":false},{"station_id":"UP","transit":false,"station_name":"Univ. Pancasila","i_lat":-6.339291,"is_transit":false,"line":2,"distance":1029,"time":2,"i_long":106.834175},{"station_name":"Univ. Indonesia","time":3,"distance":2264,"i_lat":-6.360749,"line":2,"is_transit":false,"transit":false,"station_id":"UI","i_long":106.831474},{"line":2,"time":2,"is_transit":false,"station_name":"Pondok Cina","i_lat":-6.369073,"distance":1109,"transit":false,"i_long":106.831114,"station_id":"POC"},{"i_lat":-6.391065,"i_long":106.819451,"station_id":"DPB","distance":2727,"time":4,"is_transit":false,"station_name":"Depokbaru","transit":false,"line":0},{"line":0,"station_id":"DP","transit":false,"station_name":"Depok","time":3,"distance":1584,"i_lat":-6.405256,"i_long":106.816926,"is_transit":false},{"station_name":"Citayam","i_lat":-6.448811,"i_long":106.800298,"is_transit":true,"distance":5084,"station_id":"CTA","line":1,"transit":false,"time":6},{"i_lat":-6.46424,"station_id":"CBN","station_name":"Cibinong","transit":false,"i_long":106.851978,"is_transit":false,"distance":6740,"time":10,"line":0},{"transit":false,"i_long":106.905196,"line":21,"station_id":"NMO","is_transit":false,"distance":6527,"time":10,"station_name":"Nambo","i_lat":-6.466285}],[{"i_lat":-6.329547,"i_long":106.617853,"line":0,"transit":false,"station_name":"Cicayur","time":0,"station_id":"CC","distance":0,"is_transit":false},{"transit":false,"distance":2519,"time":4,"station_id":"CSK","i_lat":-6.32484,"is_transit":false,"station_name":"Cisauk","i_long":106.640411,"line":0},{"transit":false,"station_name":"Serpong","station_id":"SRP","line":6,"time":4,"i_lat":-6.319871,"i_long":106.66566,"is_transit":false,"distance":1784},{"transit":false,"is_transit":false,"station_name":"Rawa Buntu","time":4,"station_id":"RU","distance":2413,"i_lat":-6.314823,"i_long":106.675475,"line":6},{"i_lat":-6.296963,"distance":4566,"is_transit":false,"station_name":"Sudimara","time":6,"transit":false,"station_id":"SDM","i_long":106.712277,"line":6},{"distance":1994,"station_id":"JMU","is_transit":false,"i_lat":-6.288927,"line":6,"i_long":106.728916,"time":4,"station_name":"Jurangmangu","transit":false},{"distance":2179,"i_lat":-6.276362,"time":3,"i_long":106.74273,"transit":false,"line":6,"station_name":"Pondokranji","is_transit":false,"station_id":"PDJ"},{"i_long":106.780334,"line":6,"i_lat":-6.237242,"station_name":"Kebayoran","transit":false,"station_id":"KBY","distance":6218,"time":8,"is_transit":false},{"transit":false,"station_name":"Palmerah","time":7,"line":6,"is_transit":false,"distance":3737,"station_id":"PLM","i_lat":-6.207404,"i_long":106.79689},{"station_id":"THB","distance":3191,"station_name":"Tanah Abang","line":1,"transit":true,"is_transit":true,"i_lat":-6.185545,"time":6,"i_long":106.811091},{"i_long":106.800832,"station_id":"DU","is_transit":true,"distance":3632,"transit":true,"line":1,"time":8,"station_name":"Duri","i_lat":-6.155215},{"line":0,"time":4,"i_lat":-6.144674,"is_transit":false,"transit":false,"station_name":"Angke","distance":1230,"station_id":"AK","i_long":106.79867},{"distance":4102,"is_transit":true,"i_lat":-6.132549,"transit":false,"line":0,"time":9,"station_name":"Kampung Bandan","i_long":106.826365,"station_id":"KPB"},{"time":3,"transit":true,"i_lat":-6.137569,"i_long":106.812439,"distance":1364,"station_id":"JAKK","line":0,"station_name":"Jakarta Kota","is_transit":true},{"station_id":"JAY","station_name":"Jayakarta","distance":1264,"line":7,"is_transit":false,"time":4,"i_lat":-6.141205,"transit":false,"i_long":106.820901},{"time":2,"i_long":106.82482,"i_lat":-6.149769,"transit":false,"is_transit":false,"station_id":"MGB","station_name":"Manggabesar","distance":1080,"line":2},{"station_id":"SW","station_name":"Sawah Besar","line":2,"i_long":106.827103,"is_transit":false,"time":2,"transit":false,"distance":906,"i_lat":-6.160725},{"i_long":106.828284,"line":2,"transit":false,"distance":1149,"station_id":"JUA","is_transit":false,"time":2,"i_lat":-6.166716,"station_name":"Juanda"},{"transit":false,"station_id":"GDD","station_name":"Gondangdia","distance":2015,"is_transit":false,"i_long":106.832183,"line":2,"time":4,"i_lat":-6.186295},{"station_name":"Cikini","is_transit":false,"i_long":106.840169,"station_id":"CKI","distance":1750,"i_lat":-6.198556,"transit":false,"time":3,"line":0},{"time":4,"transit":true,"distance":1590,"line":0,"is_transit":true,"station_name":"Manggarai","i_lat":-6.209883,"i_long":106.84912,"station_id":"MRI"},{"transit":false,"i_lat":-6.226659,"line":2,"i_long":106.857948,"is_transit":false,"time":4,"distance":2610,"station_name":"Tebet","station_id":"TEB"},{"is_transit":false,"distance":1230,"i_long":106.856607,"line":0,"transit":false,"station_id":"CW","station_name":"Cawang","i_lat":-6.242512,"time":2},{"station_name":"Duren Kalibata","i_long":106.85449,"transit":false,"line":0,"station_id":"DRN","is_transit":false,"i_lat":-6.255332,"time":3,"distance":1546},{"station_id":"PSMB","i_lat":-6.263214,"transit":false,"time":2,"is_transit":false,"distance":824,"i_long":106.851577,"line":2,"station_name":"Pasar Minggu Baru"},{"station_name":"Pasar Minggu","transit":false,"time":2,"is_transit":false,"station_id":"PSM","i_lat":-6.2842400000000005,"distance":2380,"i_long":106.843999,"line":2},{"transit":false,"time":4,"station_name":"Tanjung Barat","i_lat":-6.3080680000000005,"is_transit":false,"station_id":"TNT","i_long":106.838896,"line":2,"distance":2820},{"station_name":"Lenteng Agung","time":3,"station_id":"LNA","line":2,"is_transit":false,"distance":2671,"i_lat":-6.330363,"transit":false,"i_long":106.832616},{"station_name":"Univ. Pancasila","time":2,"transit":false,"distance":1029,"i_lat":-6.339291,"line":2,"i_long":106.834175,"is_transit":false,"station_id":"UP"},{"is_transit":false,"line":2,"transit":false,"station_name":"Univ. Indonesia","time":3,"station_id":"UI","distance":2264,"i_lat":-6.360749,"i_long":106.831474},{"time":2,"i_long":106.831114,"line":2,"station_id":"POC","station_name":"Pondok Cina","is_transit":false,"distance":1109,"transit":false,"i_lat":-6.369073},{"is_transit":false,"i_lat":-6.391065,"station_name":"Depokbaru","i_long":106.819451,"transit":false,"distance":2727,"line":0,"station_id":"DPB","time":4},{"distance":1584,"line":0,"time":3,"is_transit":false,"station_name":"Depok","i_lat":-6.405256,"transit":false,"station_id":"DP","i_long":106.816926},{"distance":5084,"station_name":"Citayam","i_lat":-6.448811,"time":6,"is_transit":true,"station_id":"CTA","i_long":106.800298,"line":1,"transit":false},{"station_name":"Cibinong","is_transit":false,"transit":false,"station_id":"CBN","distance":6740,"i_long":106.851978,"line":0,"i_lat":-6.46424,"time":10},{"is_transit":false,"station_name":"Nambo","time":10,"i_long":106.905196,"station_id":"NMO","i_lat":-6.466285,"transit":false,"distance":6527,"line":21}],[{"i_long":106.617853,"transit":false,"is_transit":false,"station_name":"Cicayur","distance":0,"time":0,"i_lat":-6.329547,"line":0,"station_id":"CC"},{"i_long":106.640411,"i_lat":-6.32484,"station_name":"Cisauk","station_id":"CSK","distance":2519,"is_transit":false,"time":4,"line":0,"transit":false},{"time":4,"is_transit":false,"transit":false,"i_long":106.66566,"station_name":"Serpong","line":6,"i_lat":-6.319871,"station_id":"SRP","distance":1784},{"is_transit":false,"transit":false,"station_name":"Rawa Buntu","i_long":106.675475,"time":4,"i_lat":-6.314823,"distance":2413,"line":6,"station_id":"RU"},{"is_transit":false,"i_long":106.712277,"transit":false,"station_id":"SDM","i_lat":-6.296963,"time":6,"line":6,"station_name":"Sudimara","distance":4566},{"distance":1994,"i_long":106.728916,"line":6,"station_id":"JMU","station_name":"Jurangmangu","i_lat":-6.288927,"is_transit":false,"time":4,"transit":false},{"station_id":"PDJ","distance":2179,"i_long":106.74273,"i_lat":-6.276362,"line":6,"station_name":"Pondokranji","time":3,"transit":false,"is_transit":false},{"station_id":"KBY","is_transit":false,"i_long":106.780334,"line":6,"distance":6218,"i_lat":-6.237242,"station_name":"Kebayoran","transit":false,"time":8},{"station_id":"PLM","distance":3737,"is_transit":false,"line":6,"time":7,"transit":false,"station_name":"Palmerah","i_long":106.79689,"i_lat":-6.207404},{"i_long":106.811091,"is_transit":true,"distance":3191,"i_lat":-6.185545,"time":6,"transit":true,"line":1,"station_name":"Tanah Abang","station_id":"THB"},{"transit":true,"is_transit":true,"station_name":"Duri","time":8,"distance":3632,"i_lat":-6.155215,"line":1,"station_id":"DU","i_long":106.800832},{"transit":false,"station_name":"Angke","distance":1230,"i_long":106.79867,"station_id":"AK","is_transit":false,"time":4,"i_lat":-6.144674,"line":0},{"transit":true,"is_transit":true,"line":0,"station_id":"KPB","i_lat":-6.132549,"i_long":106.826365,"distance":4102,"station_name":"Kampung Bandan","time":9},{"is_transit":false,"line":11,"time":3,"station_id":"RJW","transit":false,"i_lat":-6.14505,"distance":1444,"i_long":106.836569,"station_name":"Rajawali"},{"station_name":"Kemayoran","i_long":106.839204,"time":5,"distance":1901,"station_id":"KMO","line":11,"transit":false,"i_lat":-6.161728,"is_transit":false},{"i_lat":-6.174784,"is_transit":false,"time":4,"line":11,"station_name":"Pasar Senen","transit":false,"station_id":"PSE","i_long":106.84368,"distance":1436},{"time":8,"station_id":"GST","station_name":"Gang Sentiong","is_transit":false,"distance":1567,"i_lat":-6.185975,"transit":false,"line":11,"i_long":106.850107},{"distance":973,"station_name":"Kramat","time":1,"station_id":"KMT","i_long":106.855437,"is_transit":false,"transit":false,"line":11,"i_lat":-6.193792},{"line":11,"i_long":106.861737,"time":2,"is_transit":false,"station_name":"Pondok Jati","distance":1829,"i_lat":-6.209188,"transit":false,"station_id":"POK"},{"i_lat":-6.215091,"line":0,"is_transit":true,"time":9,"transit":true,"station_id":"JNG","distance":1236,"station_name":"Jatinegara","i_long":106.86807400000001},{"line":1,"station_id":"MTR","station_name":"Matraman","is_transit":false,"i_lat":-6.212485,"distance":1377,"time":2,"transit":false,"i_long":106.858896},{"station_id":"MRI","time":2,"is_transit":true,"i_lat":-6.209883,"i_long":106.84912,"transit":true,"station_name":"Manggarai","distance":1275,"line":0},{"transit":false,"i_lat":-6.226659,"line":2,"time":4,"station_name":"Tebet","i_long":106.857948,"distance":2610,"is_transit":false,"station_id":"TEB"},{"station_name":"Cawang","transit":false,"station_id":"CW","i_lat":-6.242512,"is_transit":false,"i_long":106.856607,"line":0,"time":2,"distance":1230},{"is_transit":false,"time":3,"station_name":"Duren Kalibata","distance":1546,"line":0,"transit":false,"i_lat":-6.255332,"station_id":"DRN","i_long":106.85449},{"distance":824,"i_long":106.851577,"transit":false,"is_transit":false,"time":2,"station_id":"PSMB","station_name":"Pasar Minggu Baru","line":2,"i_lat":-6.263214},{"station_id":"PSM","is_transit":false,"i_lat":-6.2842400000000005,"i_long":106.843999,"time":2,"distance":2380,"transit":false,"station_name":"Pasar Minggu","line":2},{"distance":2820,"station_name":"Tanjung Barat","line":2,"transit":false,"i_lat":-6.3080680000000005,"is_transit":false,"time":4,"station_id":"TNT","i_long":106.838896},{"distance":2671,"is_transit":false,"transit":false,"station_id":"LNA","line":2,"i_long":106.832616,"time":3,"station_name":"Lenteng Agung","i_lat":-6.330363},{"distance":1029,"station_name":"Univ. Pancasila","is_transit":false,"i_lat":-6.339291,"i_long":106.834175,"line":2,"transit":false,"time":2,"station_id":"UP"},{"i_long":106.831474,"time":3,"is_transit":false,"station_id":"UI","distance":2264,"i_lat":-6.360749,"line":2,"station_name":"Univ. Indonesia","transit":false},{"distance":1109,"station_id":"POC","station_name":"Pondok Cina","line":2,"i_lat":-6.369073,"i_long":106.831114,"time":2,"is_transit":false,"transit":false},{"transit":false,"station_id":"DPB","i_lat":-6.391065,"station_name":"Depokbaru","distance":2727,"i_long":106.819451,"time":4,"is_transit":false,"line":0},{"station_name":"Depok","transit":false,"time":3,"is_transit":false,"station_id":"DP","distance":1584,"i_lat":-6.405256,"i_long":106.816926,"line":0},{"station_name":"Citayam","i_lat":-6.448811,"time":6,"distance":5084,"station_id":"CTA","line":1,"transit":false,"is_transit":true,"i_long":106.800298},{"line":0,"i_lat":-6.46424,"transit":false,"time":10,"station_name":"Cibinong","i_long":106.851978,"station_id":"CBN","is_transit":false,"distance":6740},{"i_long":106.905196,"line":21,"station_id":"NMO","transit":false,"is_transit":false,"time":10,"station_name":"Nambo","distance":6527,"i_lat":-6.466285}]]}