{"data":[[{"station_name":"Cicayur","station_id":"CC","line":3,"time":0,"i_lat":-6.329547,"i_long":106.617853,"transit":false,"distance":0,"is_transit":false},{"distance":2519,"i_long":106.640411,"line":3,"station_id":"CSK","is_transit":false,"station_name":"Cisauk","transit":false,"time":4,"i_lat":-6.32484},{"transit":false,"station_name":"Serpong","i_long":106.66566,"i_lat":-6.319871,"time":4,"distance":1784,"station_id":"SRP","is_transit":false,"line":6},{"i_lat":-6.314823,"distance":2413,"time":4,"transit":false,"i_long":106.675475,"is_transit":false,"station_name":"Rawa Buntu","line":6,"station_id":"RU"},{"i_long":106.712277,"station_id":"SDM","is_transit":false,"distance":4566,"time":6,"line":6,"station_name":"Sudimara","i_lat":-6.296963,"transit":false},{"i_lat":-6.288927,"is_transit":false,"time":4,"line":6,"transit":false,"distance":1994,"station_id":"JMU","station_name":"Jurangmangu","i_long":106.728916},{"transit":false,"station_id":"PDJ","i_lat":-6.276362,"is_transit":false,"line":6,"distance":2179,"station_name":"Pondokranji","time":3,"i_long":106.74273},{"transit":false,"distance":6218,"i_long":106.780334,"station_name":"Kebayoran","is_transit":false,"station_id":"KBY","line":6,"time":8,"i_lat":-6.237242},{"i_long":106.79689,"i_lat":-6.207404,"is_transit":false,"station_id":"PLM","station_name":"Palmerah","time":7,"distance":3737,"transit":false,"line":6},{"distance":3191,"line":1,"transit":true,"is_transit":true,"station_id":"THB","i_lat":-6.185545,"time":6,"station_name":"Tanah Abang","i_long":106.811091},{"station_id":"KAT","line":1,"time":5,"is_transit":false,"i_lat":-6.20132,"distance":2029,"i_long":106.816351,"station_name":"Karet","transit":false},{"station_id":"SUDB","line":1,"transit":false,"time":1,"station_name":"Sudirman Baru","i_long":106.819881,"i_lat":-6.201433,"distance":471,"is_transit":false},{"station_name":"Sudirman","is_transit":false,"i_long":106.822649,"line":1,"station_id":"SUD","i_lat":-6.202263,"transit":false,"time":1,"distance":280},{"i_long":106.84912,"distance":3186,"station_name":"Manggarai","transit":true,"i_lat":-6.209883,"line":2,"station_id":"MRI","is_transit":true,"time":4},{"station_name":"Tebet","is_transit":false,"i_long":106.857948,"station_id":"TEB","distance":2610,"i_lat":-6.226659,"line":2,"time":4,"transit":false},{"is_transit":false,"station_id":"CW","line":2,"time":2,"transit":false,"station_name":"Cawang","distance":1230,"i_long":106.856607,"i_lat":-6.242512},{"station_id":"DRN","transit":false,"is_transit":false,"time":3,"distance":1546,"i_lat":-6.255332,"i_long":106.85449,"station_name":"Duren Kalibata","line":2},{"is_transit":false,"i_lat":-6.263214,"distance":824,"transit":false,"time":2,"station_name":"Pasar Minggu Baru","i_long":106.851577,"line":2,"station_id":"PSMB"},{"transit":false,"distance":2380,"line":2,"i_long":106.843999,"time":2,"station_id":"PSM","is_transit":false,"station_name":"Pasar Minggu","i_lat":-6.2842400000000005},{"line":2,"i_lat":-6.3080680000000005,"time":4,"station_name":"Tanjung Barat","is_transit":false,"transit":false,"station_id":"TNT","i_long":106.838896,"distance":2820},{"station_id":"LNA","i_lat":-6.330363,"transit":false,"time":3,"line":2,"station_name":"Lenteng Agung","distance":2671,"i_long":106.832616,"is_transit":false},{"station_name":"Univ. Pancasila","line":2,"is_transit":false,"time":2,"i_long":106.834175,"station_id":"UP","distance":1029,"i_lat":-6.339291,"transit":false},{"time":3,"distance":2264,"transit":false,"station_id":"UI","station_name":"Univ. Indonesia","i_lat":-6.360749,"is_transit":false,"line":2,"i_long":106.831474},{"time":2,"i_long":106.831114,"is_transit":false,"station_id":"POC","transit":false,"line":2,"station_name":"Pondok Cina","distance":1109,"i_lat":-6.369073},{"time":4,"station_id":"DPB","station_name":"Depokbaru","i_lat":-6.391065,"transit":false,"line":2,"i_long":106.819451,"distance":2727,"is_transit":false},{"line":2,"time":3,"distance":1584,"station_name":"Depok","is_transit":false,"transit":false,"i_lat":-6.405256,"station_id":"DP","i_long":106.816926},{"time":6,"i_long":106.800298,"transit":true,"is_transit":true,"distance":5084,"line":2,"station_id":"CTA","i_lat":-6.448811,"station_name":"Citayam"},{"station_name":"Pondok Rajeg","time":0,"i_lat":-6.460735,"line":21,"transit":false,"is_transit":false,"i_long":106.824374,"distance":0,"station_id":"PDRG"},{"station_id":"CBN","i_lat":-6.46424,"is_transit":false,"line":21,"transit":false,"i_long":106.851978,"time":0,"station_name":"Cibinong","distance":0},{"station_id":"NMO","station_name":"Nambo","time":10,"i_lat":-6.466285,"i_long":106.905196,"line":21,"distance":6527,"transit":false,"is_transit":false}],[{"is_transit":false,"station_id":"CC","time":0,"i_long":106.617853,"transit":false,"line":3,"i_lat":-6.329547,"distance":0,"station_name":"Cicayur"},{"station_name":"Cisauk","line":3,"station_id":"CSK","time":4,"transit":false,"is_transit":false,"i_lat":-6.32484,"distance":2519,"i_long":106.640411},{"transit":false,"station_name":"Serpong","line":6,"time":4,"i_lat":-6.319871,"i_long":106.66566,"is_transit":false,"distance":1784,"station_id":"SRP"},{"distance":2413,"station_name":"Rawa Buntu","i_long":106.675475,"is_transit":false,"time":4,"transit":false,"station_id":"RU","i_lat":-6.314823,"line":6},{"i_lat":-6.296963,"transit":false,"is_transit":false,"line":6,"station_id":"SDM","distance":4566,"station_name":"Sudimara","time":6,"i_long":106.712277},{"time":4,"line":6,"i_lat":-6.288927,"is_transit":false,"station_name":"Jurangmangu","distance":1994,"i_long":106.728916,"transit":false,"station_id":"JMU"},{"time":3,"line":6,"transit":false,"i_lat":-6.276362,"station_name":"Pondokranji","is_transit":false,"station_id":"PDJ","i_long":106.74273,"distance":2179},{"line":6,"station_id":"KBY","time":8,"i_long":106.780334,"station_name":"Kebayoran","transit":false,"i_lat":-6.237242,"is_transit":false,"distance":6218},{"station_name":"Palmerah","time":7,"transit":false,"is_transit":false,"i_long":106.79689,"i_lat":-6.207404,"distance":3737,"line":6,"station_id":"PLM"},{"line":1,"i_long":106.811091,"transit":true,"station_name":"Tanah Abang","station_id":"THB","distance":3191,"is_transit":true,"time":6,"i_lat":-6.185545},{"i_long":106.800832,"i_lat":-6.155215,"transit":false,"is_transit":false,"time":8,"station_name":"Duri","station_id":"DU","distance":3632,"line":1},{"is_transit":false,"station_name":"Angke","distance":1230,"time":4,"i_long":106.79867,"transit":false,"line":1,"i_lat":-6.144674,"station_id":"AK"},{"station_id":"KPB","time":9,"distance":4102,"station_name":"Kampung Bandan","line":4,"transit":true,"is_transit":true,"i_lat":-6.132549,"i_long":106.826365},{"is_transit":true,"station_id":"JAKK","line":2,"i_long":106.812439,"station_name":"Jakarta Kota","distance":1364,"time":3,"i_lat":-6.137569,"transit":true},{"station_id":"JAY","is_transit":false,"station_name":"Jayakarta","time":4,"distance":1264,"line":2,"transit":false,"i_lat":-6.141205,"i_long":106.820901},{"time":2,"line":2,"station_id":"MGB","i_long":106.82482,"station_name":"Manggabesar","i_lat":-6.149769,"is_transit":false,"transit":false,"distance":1080},{"i_lat":-6.160725,"transit":false,"station_name":"Sawah Besar","distance":906,"i_long":106.827103,"time":2,"station_id":"SW","line":2,"is_transit":false},{"distance":1149,"i_lat":-6.166716,"station_id":"JUA","i_long":106.828284,"transit":false,"line":2,"is_transit":false,"station_name":"Juanda","time":2},{"transit":false,"station_id":"GDD","line":2,"i_lat":-6.186295,"station_name":"Gondangdia","distance":2015,"i_long":106.832183,"is_transit":false,"time":4},{"station_name":"Cikini","distance":1750,"transit":false,"station_id":"CKI","i_lat":-6.198556,"line":2,"i_long":106.840169,"is_transit":false,"time":3},{"i_long":106.84912,"distance":1590,"station_name":"Manggarai","line":2,"station_id":"MRI","is_transit":false,"transit":false,"time":4,"i_lat":-6.209883},{"distance":2610,"time":4,"i_lat":-6.226659,"i_long":106.857948,"station_name":"Tebet","transit":false,"is_transit":false,"line":2,"station_id":"TEB"},{"transit":false,"is_transit":false,"distance":1230,"line":2,"station_id":"CW","i_lat":-6.242512,"time":2,"station_name":"Cawang","i_long":106.856607},{"i_lat":-6.255332,"is_transit":false,"station_id":"DRN","station_name":"Duren Kalibata","transit":false,"distance":1546,"i_long":106.85449,"time":3,"line":2},{"is_transit":false,"time":2,"station_name":"Pasar Minggu Baru","i_lat":-6.263214,"distance":824,"line":2,"transit":false,"station_id":"PSMB","i_long":106.851577},{"station_id":"PSM","distance":2380,"time":2,"is_transit":false,"i_long":106.843999,"i_lat":-6.2842400000000005,"transit":false,"line":2,"station_name":"Pasar Minggu"},{"line":2,"time":4,"station_name":"Tanjung Barat","station_id":"TNT","distance":2820,"i_long":106.838896,"is_transit":false,"i_lat":-6.3080680000000005,"transit":false},{"station_id":"LNA","is_transit":false,"i_lat":-6.330363,"transit":false,"distance":2671,"station_name":"Lenteng Agung","i_long":106.832616,"time":3,"line":2},{"station_id":"UP","line":2,"i_long":106.834175,"transit":false,"time":2,"distance":1029,"i_lat":-6.339291,"is_transit":false,"station_name":"Univ. Pancasila"},{"station_id":"UI","time":3,"i_long":106.831474,"line":2,"transit":false,"distance":2264,"is_transit":false,"station_name":"Univ. Indonesia","i_lat":-6.360749},{"line":2,"distance":1109,"time":2,"transit":false,"i_lat":-6.369073,"i_long":106.831114,"station_id":"POC","is_transit":false,"station_name":"Pondok Cina"},{"transit":false,"line":2,"station_id":"DPB","i_long":106.819451,"station_name":"Depokbaru","i_lat":-6.391065,"time":4,"distance":2727,"is_transit":false},{"station_name":"Depok","i_long":106.816926,"line":2,"time":3,"is_transit":false,"transit":false,"i_lat":-6.405256,"distance":1584,"station_id":"DP"},{"distance":5084,"station_name":"Citayam","i_lat":-6.448811,"time":6,"is_transit":true,"station_id":"CTA","i_long":106.800298,"transit":true,"line":2},{"transit":false,"is_transit":false,"station_id":"PDRG","i_long":106.824374,"line":21,"distance":0,"i_lat":-6.460735,"station_name":"Pondok Rajeg","time":0},{"station_id":"CBN","is_transit":false,"transit":false,"station_name":"Cibinong","time":0,"i_long":106.851978,"i_lat":-6.46424,"distance":0,"line":21},{"transit":false,"station_name":"Nambo","distance":6527,"i_long":106.905196,"is_transit":false,"i_lat":-6.466285,"line":21,"station_id":"NMO","time":10}],[{"is_transit":false,"line":3,"time":0,"i_long":106.617853,"station_name":"Cicayur","i_lat":-6.329547,"station_id":"CC","distance":0,"transit":false},{"is_transit":false,"time":4,"i_lat":-6.32484,"i_long":106.640411,"transit":false,"distance":2519,"station_id":"CSK","line":3,"station_name":"Cisauk"},{"time":4,"line":6,"i_long":106.66566,"is_transit":false,"i_lat":-6.319871,"station_id":"SRP","station_name":"Serpong","transit":false,"distance":1784},{"distance":2413,"time":4,"line":6,"station_name":"Rawa Buntu","station_id":"RU","i_long":106.675475,"transit":false,"i_lat":-6.314823,"is_transit":false},{"transit":false,"station_id":"SDM","time":6,"line":6,"is_transit":false,"distance":4566,"i_lat":-6.296963,"i_long":106.712277,"station_name":"Sudimara"},{"transit":false,"time":4,"distance":1994,"line":6,"station_name":"Jurangmangu","i_long":106.728916,"is_transit":false,"station_id":"JMU","i_lat":-6.288927},{"time":3,"station_id":"PDJ","distance":2179,"i_long":106.74273,"is_transit":false,"station_name":"Pondokranji","i_lat":-6.276362,"line":6,"transit":false},{"distance":6218,"line":6,"time":8,"transit":false,"station_name":"Kebayoran","i_lat":-6.237242,"is_transit":false,"station_id":"KBY","i_long":106.780334},{"i_lat":-6.207404,"distance":3737,"station_name":"Palmerah","is_transit":false,"station_id":"PLM","i_long":106.79689,"transit":false,"time":7,"line":6},{"i_long":106.811091,"transit":true,"distance":3191,"i_lat":-6.185545,"is_transit":true,"station_name":"Tanah Abang","time":6,"line":1,"station_id":"THB"},{"time":8,"distance":3632,"station_id":"DU","line":1,"i_lat":-6.155215,"is_transit":false,"i_long":106.800832,"transit":false,"station_name":"Duri"},{"line":1,"transit":false,"time":4,"distance":1230,"i_long":106.79867,"station_id":"AK","station_name":"Angke","i_lat":-6.144674,"is_transit":false},{"time":9,"station_name":"Kampung Bandan","i_long":106.826365,"line":4,"is_transit":true,"distance":4102,"station_id":"KPB","i_lat":-6.132549,"transit":true},{"station_name":"Rajawali","station_id":"RJW","distance":1444,"i_lat":-6.14505,"time":3,"is_transit":false,"i_long":106.836569,"line":11,"transit":false},{"distance":1901,"station_id":"KMO","i_lat":-6.161728,"i_long":106.839204,"transit":false,"is_transit":false,"station_name":"Kemayoran","time":5,"line":11},{"transit":false,"station_id":"PSE","distance":1436,"line":11,"is_transit":false,"station_name":"Pasar Senen","time":4,"i_lat":-6.174784,"i_long":106.84368},{"is_transit":false,"distance":1567,"station_id":"GST","time":8,"station_name":"Gang Sentiong","i_lat":-6.185975,"i_long":106.850107,"transit":false,"line":11},{"distance":973,"station_id":"KMT","transit":false,"station_name":"Kramat","is_transit":false,"time":1,"i_lat":-6.193792,"line":11,"i_long":106.855437},{"transit":false,"i_lat":-6.209188,"station_name":"Pondok Jati","line":11,"station_id":"POK","distance":1829,"time":2,"is_transit":false,"i_long":106.861737},{"time":9,"transit":true,"i_lat":-6.215091,"i_long":106.86807400000001,"is_transit":true,"distance":1236,"line":1,"station_id":"JNG","station_name":"Jatinegara"},{"is_transit":false,"station_id":"MTR","distance":1377,"station_name":"Matraman","i_long":106.858896,"transit":false,"line":1,"time":2,"i_lat":-6.212485},{"distance":1275,"station_name":"Manggarai","transit":true,"station_id":"MRI","i_long":106.84912,"time":2,"is_transit":true,"i_lat":-6.209883,"line":2},{"i_lat":-6.226659,"time":4,"is_transit":false,"transit":false,"i_long":106.857948,"distance":2610,"line":2,"station_name":"Tebet","station_id":"TEB"},{"time":2,"station_name":"Cawang","is_transit":false,"i_lat":-6.242512,"line":2,"station_id":"CW","transit":false,"distance":1230,"i_long":106.856607},{"transit":false,"line":2,"time":3,"station_name":"Duren Kalibata","station_id":"DRN","i_lat":-6.255332,"is_transit":false,"distance":1546,"i_long":106.85449},{"i_long":106.851577,"distance":824,"i_lat":-6.263214,"line":2,"is_transit":false,"station_id":"PSMB","station_name":"Pasar Minggu Baru","transit":false,"time":2},{"distance":2380,"transit":false,"time":2,"station_id":"PSM","line":2,"is_transit":false,"i_lat":-6.2842400000000005,"i_long":106.843999,"station_name":"Pasar Minggu"},{"distance":2820,"line":2,"i_long":106.838896,"time":4,"station_name":"Tanjung Barat","is_transit":false,"station_id":"TNT","i_lat":-6.3080680000000005,"transit":false},{"station_name":"Lenteng Agung","line":2,"station_id":"LNA","is_transit":false,"distance":2671,"i_lat":-6.330363,"time":3,"i_long":106.832616,"transit":false},{"transit":false,"i_lat":-6.339291,"i_long":106.834175,"station_id":"UP","line":2,"station_name":"Univ. Pancasila","distance":1029,"time":2,"is_transit":false},{"i_lat":-6.360749,"distance":2264,"i_long":106.831474,"is_transit":false,"time":3,"line":2,"station_name":"Univ. Indonesia","transit":false,"station_id":"UI"},{"station_name":"Pondok Cina","transit":false,"is_transit":false,"station_id":"POC","time":2,"line":2,"distance":1109,"i_lat":-6.369073,"i_long":106.831114},{"station_name":"Depokbaru","distance":2727,"i_lat":-6.391065,"line":2,"station_id":"DPB","is_transit":false,"time":4,"transit":false,"i_long":106.819451},{"transit":false,"distance":1584,"i_long":106.816926,"station_name":"Depok","i_lat":-6.405256,"line":2,"is_transit":false,"station_id":"DP","time":3},{"line":2,"transit":true,"station_id":"CTA","distance":5084,"i_lat":-6.448811,"time":6,"i_long":106.800298,"is_transit":true,"station_name":"Citayam"},{"transit":false,"distance":0,"i_long":106.824374,"line":21,"station_id":"PDRG","station_name":"Pondok Rajeg","is_transit":false,"time":0,"i_lat":-6.460735},{"line":21,"station_name":"Cibinong","transit":false,"distance":0,"is_transit":false,"station_id":"CBN","i_lat":-6.46424,"i_long":106.851978,"time":0},{"station_name":"Nambo","line":21,"time":10,"transit":false,"station_id":"NMO","distance":6527,"is_transit":false,"i_lat":-6.466285,"i_long":106.905196}]]}