{"data":[[{"line":0,"is_transit":false,"station_name":"Cicayur","distance":0,"i_lat":-6.329547,"station_id":"CC","time":0,"transit":false,"i_long":106.617853},{"line":0,"time":4,"station_id":"CSK","transit":false,"is_transit":false,"distance":2519,"i_lat":-6.32484,"station_name":"Cisauk","i_long":106.640411},{"station_id":"SRP","is_transit":false,"station_name":"Serpong","transit":false,"line":6,"distance":1784,"i_long":106.66566,"time":4,"i_lat":-6.319871},{"station_id":"RU","transit":false,"i_lat":-6.314823,"i_long":106.675475,"station_name":"Rawa Buntu","time":4,"line":6,"is_transit":false,"distance":2413},{"i_lat":-6.296963,"line":6,"station_id":"SDM","i_long":106.712277,"is_transit":false,"station_name":"Sudimara","transit":false,"distance":4566,"time":6},{"distance":1994,"line":6,"time":4,"transit":false,"station_name":"Jurangmangu","station_id":"JMU","is_transit":false,"i_lat":-6.288927,"i_long":106.728916},{"is_transit":false,"i_long":106.74273,"transit":false,"line":6,"distance":2179,"station_name":"Pondokranji","i_lat":-6.276362,"time":3,"station_id":"PDJ"},{"station_name":"Kebayoran","i_lat":-6.237242,"i_long":106.780334,"distance":6218,"line":6,"station_id":"KBY","transit":false,"is_transit":false,"time":8},{"station_name":"Palmerah","distance":3737,"line":6,"i_lat":-6.207404,"station_id":"PLM","is_transit":false,"i_long":106.79689,"time":7,"transit":false},{"time":6,"distance":3191,"station_id":"THB","transit":true,"i_lat":-6.185545,"station_name":"Tanah Abang","is_transit":true,"i_long":106.811091,"line":1},{"is_transit":true,"station_id":"DU","time":8,"station_name":"Duri","i_long":106.800832,"transit":true,"i_lat":-6.155215,"distance":3632,"line":1},{"is_transit":false,"i_long":106.788277,"distance":1700,"station_id":"GGL","station_name":"Grogol","i_lat":-6.162021,"line":5,"transit":false,"time":3},{"station_name":"Pesing","station_id":"PSG","time":2,"i_lat":-6.161433,"distance":2036,"i_long":106.771379,"line":5,"is_transit":false,"transit":false}],[{"i_lat":-6.329547,"line":0,"station_name":"Cicayur","station_id":"CC","time":0,"distance":0,"transit":false,"is_transit":false,"i_long":106.617853},{"station_name":"Cisauk","is_transit":false,"i_long":106.640411,"distance":2519,"i_lat":-6.32484,"station_id":"CSK","line":0,"transit":false,"time":4},{"transit":false,"is_transit":false,"time":4,"i_long":106.66566,"i_lat":-6.319871,"station_name":"Serpong","distance":1784,"station_id":"SRP","line":6},{"line":6,"time":4,"transit":false,"station_name":"Rawa Buntu","distance":2413,"station_id":"RU","is_transit":false,"i_lat":-6.314823,"i_long":106.675475},{"station_id":"SDM","i_long":106.712277,"station_name":"Sudimara","is_transit":false,"i_lat":-6.296963,"transit":false,"distance":4566,"line":6,"time":6},{"line":6,"time":4,"i_long":106.728916,"station_id":"JMU","transit":false,"is_transit":false,"i_lat":-6.288927,"station_name":"Jurangmangu","distance":1994},{"time":3,"station_id":"PDJ","is_transit":false,"transit":false,"distance":2179,"i_long":106.74273,"station_name":"Pondokranji","line":6,"i_lat":-6.276362},{"i_lat":-6.237242,"station_id":"KBY","transit":false,"i_long":106.780334,"time":8,"station_name":"Kebayoran","distance":6218,"line":6,"is_transit":false},{"transit":false,"line":6,"station_id":"PLM","station_name":"Palmerah","distance":3737,"i_long":106.79689,"i_lat":-6.207404,"time":7,"is_transit":false},{"is_transit":true,"station_id":"THB","time":6,"station_name":"Tanah Abang","distance":3191,"i_long":106.811091,"line":1,"transit":true,"i_lat":-6.185545},{"distance":2029,"is_transit":false,"station_id":"KAT","transit":false,"i_lat":-6.20132,"i_long":106.816351,"time":5,"line":1,"station_name":"Karet"},{"i_long":106.819881,"station_name":"Sudirman Baru","line":1,"i_lat":-6.201433,"transit":false,"time":1,"distance":471,"is_transit":false,"station_id":"SUDB"},{"station_name":"Sudirman","i_lat":-6.202263,"distance":280,"is_transit":false,"i_long":106.822649,"station_id":"SUD","transit":false,"time":1,"line":1},{"is_transit":true,"transit":true,"station_id":"MRI","station_name":"Manggarai","i_lat":-6.209883,"distance":3186,"time":4,"i_long":106.84912,"line":0},{"line":0,"distance":1590,"i_lat":-6.198556,"time":4,"station_id":"CKI","is_transit":false,"i_long":106.840169,"transit":false,"station_name":"Cikini"},{"time":3,"i_long":106.832183,"is_transit":false,"transit":false,"station_name":"Gondangdia","distance":1750,"line":2,"station_id":"GDD","i_lat":-6.186295},{"station_id":"JUA","line":2,"is_transit":false,"distance":2015,"i_lat":-6.166716,"transit":false,"i_long":106.828284,"station_name":"Juanda","time":4},{"is_transit":false,"i_lat":-6.160725,"transit":false,"distance":1149,"station_name":"Sawah Besar","i_long":106.827103,"time":2,"line":2,"station_id":"SW"},{"i_long":106.82482,"station_id":"MGB","distance":906,"station_name":"Manggabesar","i_lat":-6.149769,"line":2,"is_transit":false,"transit":false,"time":2},{"transit":false,"time":2,"station_id":"JAY","i_long":106.820901,"i_lat":-6.141205,"station_name":"Jayakarta","line":7,"is_transit":false,"distance":1080},{"line":0,"distance":1264,"time":4,"transit":true,"i_lat":-6.137569,"station_id":"JAKK","i_long":106.812439,"is_transit":true,"station_name":"Jakarta Kota"},{"station_id":"KPB","transit":false,"distance":1364,"is_transit":true,"time":3,"i_lat":-6.132549,"line":0,"i_long":106.826365,"station_name":"Kampung Bandan"},{"transit":false,"i_lat":-6.144674,"station_name":"Angke","station_id":"AK","distance":4102,"time":9,"i_long":106.79867,"is_transit":false,"line":0},{"time":4,"i_long":106.800832,"line":1,"is_transit":true,"station_name":"Duri","distance":1230,"i_lat":-6.155215,"transit":true,"station_id":"DU"},{"is_transit":false,"i_long":106.788277,"line":5,"station_id":"GGL","i_lat":-6.162021,"distance":1700,"station_name":"Grogol","transit":false,"time":3},{"is_transit":false,"i_lat":-6.161433,"transit":false,"i_long":106.771379,"distance":2036,"time":2,"station_id":"PSG","station_name":"Pesing","line":5}],[{"station_name":"Cicayur","i_long":106.617853,"station_id":"CC","time":0,"line":0,"distance":0,"is_transit":false,"i_lat":-6.329547,"transit":false},{"distance":2519,"station_id":"CSK","transit":false,"time":4,"i_long":106.640411,"station_name":"Cisauk","line":0,"is_transit":false,"i_lat":-6.32484},{"time":4,"is_transit":false,"line":6,"i_long":106.66566,"distance":1784,"station_id":"SRP","transit":false,"station_name":"Serpong","i_lat":-6.319871},{"is_transit":false,"station_id":"RU","time":4,"transit":false,"station_name":"Rawa Buntu","distance":2413,"i_lat":-6.314823,"i_long":106.675475,"line":6},{"station_name":"Sudimara","i_lat":-6.296963,"is_transit":false,"i_long":106.712277,"line":6,"distance":4566,"transit":false,"time":6,"station_id":"SDM"},{"line":6,"is_transit":false,"transit":false,"station_name":"Jurangmangu","station_id":"JMU","time":4,"distance":1994,"i_lat":-6.288927,"i_long":106.728916},{"distance":2179,"station_name":"Pondokranji","is_transit":false,"i_lat":-6.276362,"station_id":"PDJ","transit":false,"i_long":106.74273,"time":3,"line":6},{"i_lat":-6.237242,"i_long":106.780334,"line":6,"station_id":"KBY","transit":false,"time":8,"is_transit":false,"station_name":"Kebayoran","distance":6218},{"is_transit":false,"transit":false,"time":7,"station_name":"Palmerah","distance":3737,"line":6,"i_long":106.79689,"station_id":"PLM","i_lat":-6.207404},{"time":6,"i_lat":-6.185545,"i_long":106.811091,"line":1,"is_transit":true,"transit":true,"distance":3191,"station_name":"Tanah Abang","station_id":"THB"},{"time":5,"is_transit":false,"station_id":"KAT","transit":false,"station_name":"Karet","distance":2029,"i_lat":-6.20132,"i_long":106.816351,"line":1},{"time":1,"i_long":106.819881,"station_id":"SUDB","line":1,"distance":471,"transit":false,"i_lat":-6.201433,"is_transit":false,"station_name":"Sudirman Baru"},{"distance":280,"transit":false,"i_lat":-6.202263,"line":1,"station_id":"SUD","station_name":"Sudirman","is_transit":false,"i_long":106.822649,"time":1},{"transit":false,"time":4,"distance":3186,"i_lat":-6.209883,"station_id":"MRI","line":0,"is_transit":true,"i_long":106.84912,"station_name":"Manggarai"},{"station_name":"Matraman","transit":false,"i_long":106.858896,"line":1,"time":2,"station_id":"MTR","is_transit":false,"distance":1275,"i_lat":-6.212485},{"transit":true,"station_name":"Jatinegara","distance":1377,"i_lat":-6.215091,"line":0,"i_long":106.86807400000001,"time":8,"is_transit":true,"station_id":"JNG"},{"line":11,"time":2,"i_lat":-6.209188,"station_id":"POK","is_transit":false,"i_long":106.861737,"transit":false,"distance":1236,"station_name":"Pondok Jati"},{"transit":false,"i_long":106.855437,"line":11,"time":2,"station_name":"Kramat","i_lat":-6.193792,"station_id":"KMT","distance":1829,"is_transit":false},{"station_name":"Gang Sentiong","distance":973,"i_long":106.850107,"line":11,"station_id":"GST","time":1,"i_lat":-6.185975,"is_transit":false,"transit":false},{"transit":false,"station_id":"PSE","distance":1567,"i_long":106.84368,"station_name":"Pasar Senen","i_lat":-6.174784,"line":11,"is_transit":false,"time":8},{"transit":false,"i_long":106.839204,"i_lat":-6.161728,"distance":1436,"station_id":"KMO","time":4,"line":11,"station_name":"Kemayoran","is_transit":false},{"i_long":106.836569,"distance":1901,"is_transit":false,"transit":false,"station_id":"RJW","line":11,"time":5,"i_lat":-6.14505,"station_name":"Rajawali"},{"time":3,"i_long":106.826365,"is_transit":true,"station_name":"Kampung Bandan","distance":1444,"line":0,"i_lat":-6.132549,"transit":true,"station_id":"KPB"},{"time":9,"i_lat":-6.144674,"transit":false,"is_transit":false,"distance":4102,"station_name":"Angke","station_id":"AK","line":0,"i_long":106.79867},{"station_id":"DU","i_long":106.800832,"line":1,"i_lat":-6.155215,"distance":1230,"transit":true,"is_transit":true,"time":4,"station_name":"Duri"},{"is_transit":false,"distance":1700,"line":5,"transit":false,"i_lat":-6.162021,"i_long":106.788277,"station_name":"Grogol","time":3,"station_id":"GGL"},{"time":2,"is_transit":false,"transit":false,"i_lat":-6.161433,"station_id":"PSG","station_name":"Pesing","line":5,"i_long":106.771379,"distance":2036}]]}