{"data":[[{"time":0,"transit":false,"i_lat":-6.329547,"i_long":106.617853,"distance":0,"is_transit":false,"station_name":"Cicayur","line":3,"station_id":"CC"},{"station_id":"CSK","i_long":106.640411,"line":3,"distance":2519,"station_name":"Cisauk","time":4,"is_transit":false,"i_lat":-6.32484,"transit":false},{"i_long":106.66566,"station_id":"SRP","time":4,"station_name":"Serpong","line":6,"distance":1784,"transit":false,"i_lat":-6.319871,"is_transit":false},{"station_name":"Rawa Buntu","transit":false,"distance":2413,"time":4,"i_long":106.675475,"line":6,"i_lat":-6.314823,"is_transit":false,"station_id":"RU"},{"station_id":"SDM","transit":false,"line":6,"station_name":"Sudimara","is_transit":false,"time":6,"distance":4566,"i_long":106.712277,"i_lat":-6.296963},{"line":6,"time":4,"transit":false,"station_id":"JMU","station_name":"Jurangmangu","is_transit":false,"i_lat":-6.288927,"i_long":106.728916,"distance":1994},{"distance":2179,"transit":false,"i_long":106.74273,"time":3,"station_name":"Pondokranji","i_lat":-6.276362,"is_transit":false,"station_id":"PDJ","line":6},{"i_long":106.780334,"line":6,"time":8,"station_name":"Kebayoran","distance":6218,"transit":false,"station_id":"KBY","i_lat":-6.237242,"is_transit":false},{"time":7,"station_name":"Palmerah","transit":false,"line":6,"distance":3737,"station_id":"PLM","is_transit":false,"i_long":106.79689,"i_lat":-6.207404},{"is_transit":true,"station_id":"THB","transit":true,"line":1,"distance":3191,"i_long":106.811091,"time":6,"i_lat":-6.185545,"station_name":"Tanah Abang"},{"transit":true,"station_id":"DU","i_lat":-6.155215,"distance":3632,"i_long":106.800832,"station_name":"Duri","time":8,"line":1,"is_transit":true},{"distance":1700,"line":5,"is_transit":false,"transit":false,"i_long":106.788277,"station_name":"Grogol","time":3,"i_lat":-6.162021,"station_id":"GGL"},{"i_long":106.771379,"time":2,"i_lat":-6.161433,"transit":false,"station_name":"Pesing","is_transit":false,"line":5,"distance":2036,"station_id":"PSG"}],[{"i_lat":-6.329547,"i_long":106.617853,"is_transit":false,"station_id":"CC","line":3,"distance":0,"time":0,"station_name":"Cicayur","transit":false},{"i_lat":-6.32484,"line":3,"distance":2519,"station_name":"Cisauk","is_transit":false,"i_long":106.640411,"time":4,"station_id":"CSK","transit":false},{"i_lat":-6.319871,"distance":1784,"time":4,"station_id":"SRP","is_transit":false,"transit":false,"i_long":106.66566,"station_name":"Serpong","line":6},{"station_name":"Rawa Buntu","time":4,"distance":2413,"transit":false,"station_id":"RU","line":6,"i_long":106.675475,"is_transit":false,"i_lat":-6.314823},{"transit":false,"station_id":"SDM","i_lat":-6.296963,"time":6,"line":6,"i_long":106.712277,"station_name":"Sudimara","distance":4566,"is_transit":false},{"station_name":"Jurangmangu","is_transit":false,"transit":false,"i_long":106.728916,"station_id":"JMU","time":4,"line":6,"i_lat":-6.288927,"distance":1994},{"transit":false,"station_id":"PDJ","i_lat":-6.276362,"line":6,"station_name":"Pondokranji","is_transit":false,"time":3,"i_long":106.74273,"distance":2179},{"i_lat":-6.237242,"is_transit":false,"time":8,"transit":false,"distance":6218,"i_long":106.780334,"station_id":"KBY","station_name":"Kebayoran","line":6},{"station_id":"PLM","transit":false,"i_long":106.79689,"station_name":"Palmerah","is_transit":false,"distance":3737,"time":7,"line":6,"i_lat":-6.207404},{"line":1,"station_id":"THB","i_lat":-6.185545,"transit":true,"station_name":"Tanah Abang","time":6,"i_long":106.811091,"is_transit":true,"distance":3191},{"distance":2029,"is_transit":false,"i_lat":-6.20132,"transit":false,"i_long":106.816351,"station_name":"Karet","station_id":"KAT","line":1,"time":5},{"is_transit":false,"i_lat":-6.201433,"time":1,"station_name":"Sudirman Baru","i_long":106.819881,"line":1,"distance":471,"station_id":"SUDB","transit":false},{"i_lat":-6.202263,"is_transit":false,"station_id":"SUD","station_name":"Sudirman","transit":false,"i_long":106.822649,"line":1,"distance":280,"time":1},{"station_name":"Manggarai","line":2,"distance":3186,"station_id":"MRI","time":4,"transit":true,"is_transit":true,"i_lat":-6.209883,"i_long":106.84912},{"time":4,"i_lat":-6.198556,"i_long":106.840169,"is_transit":false,"transit":false,"station_name":"Cikini","line":2,"distance":1590,"station_id":"CKI"},{"is_transit":false,"i_lat":-6.186295,"line":2,"station_id":"GDD","time":3,"transit":false,"distance":1750,"station_name":"Gondangdia","i_long":106.832183},{"i_long":106.828284,"time":4,"station_id":"JUA","transit":false,"line":2,"station_name":"Juanda","distance":2015,"is_transit":false,"i_lat":-6.166716},{"time":2,"i_long":106.827103,"distance":1149,"transit":false,"station_name":"Sawah Besar","is_transit":false,"line":2,"station_id":"SW","i_lat":-6.160725},{"i_long":106.82482,"time":2,"transit":false,"line":2,"station_id":"MGB","is_transit":false,"distance":906,"station_name":"Manggabesar","i_lat":-6.149769},{"line":2,"transit":false,"i_long":106.820901,"station_id":"JAY","station_name":"Jayakarta","distance":1080,"time":2,"i_lat":-6.141205,"is_transit":false},{"distance":1264,"station_id":"JAKK","i_long":106.812439,"station_name":"Jakarta Kota","transit":true,"time":4,"i_lat":-6.137569,"line":2,"is_transit":true},{"i_long":106.826365,"transit":true,"time":3,"line":4,"distance":1364,"i_lat":-6.132549,"station_id":"KPB","station_name":"Kampung Bandan","is_transit":true},{"station_name":"Angke","distance":4102,"time":9,"line":1,"station_id":"AK","i_lat":-6.144674,"i_long":106.79867,"transit":false,"is_transit":false},{"is_transit":true,"i_long":106.800832,"time":4,"i_lat":-6.155215,"station_name":"Duri","line":1,"station_id":"DU","distance":1230,"transit":true},{"station_id":"GGL","transit":false,"station_name":"Grogol","line":5,"i_long":106.788277,"is_transit":false,"i_lat":-6.162021,"distance":1700,"time":3},{"line":5,"station_name":"Pesing","time":2,"i_lat":-6.161433,"distance":2036,"transit":false,"station_id":"PSG","is_transit":false,"i_long":106.771379}],[{"i_lat":-6.329547,"distance":0,"is_transit":false,"transit":false,"time":0,"station_id":"CC","line":3,"station_name":"Cicayur","i_long":106.617853},{"station_id":"CSK","line":3,"transit":false,"i_lat":-6.32484,"station_name":"Cisauk","distance":2519,"time":4,"i_long":106.640411,"is_transit":false},{"time":4,"line":6,"transit":false,"distance":1784,"i_long":106.66566,"station_id":"SRP","station_name":"Serpong","is_transit":false,"i_lat":-6.319871},{"station_id":"RU","station_name":"Rawa Buntu","i_lat":-6.314823,"line":6,"time":4,"i_long":106.675475,"distance":2413,"transit":false,"is_transit":false},{"transit":false,"station_name":"Sudimara","time":6,"distance":4566,"i_lat":-6.296963,"is_transit":false,"i_long":106.712277,"line":6,"station_id":"SDM"},{"i_lat":-6.288927,"transit":false,"line":6,"station_id":"JMU","distance":1994,"station_name":"Jurangmangu","is_transit":false,"time":4,"i_long":106.728916},{"i_lat":-6.276362,"station_name":"Pondokranji","is_transit":false,"time":3,"line":6,"station_id":"PDJ","distance":2179,"transit":false,"i_long":106.74273},{"is_transit":false,"station_id":"KBY","time":8,"station_name":"Kebayoran","line":6,"transit":false,"i_long":106.780334,"distance":6218,"i_lat":-6.237242},{"transit":false,"i_lat":-6.207404,"line":6,"distance":3737,"is_transit":false,"time":7,"station_name":"Palmerah","station_id":"PLM","i_long":106.79689},{"line":1,"i_long":106.811091,"i_lat":-6.185545,"transit":true,"station_id":"THB","distance":3191,"station_name":"Tanah Abang","is_transit":true,"time":6},{"transit":false,"line":1,"time":5,"distance":2029,"is_transit":false,"i_long":106.816351,"i_lat":-6.20132,"station_name":"Karet","station_id":"KAT"},{"station_id":"SUDB","line":1,"i_long":106.819881,"distance":471,"is_transit":false,"i_lat":-6.201433,"station_name":"Sudirman Baru","time":1,"transit":false},{"time":1,"i_lat":-6.202263,"station_id":"SUD","distance":280,"transit":false,"i_long":106.822649,"station_name":"Sudirman","is_transit":false,"line":1},{"transit":false,"is_transit":false,"time":4,"line":2,"station_id":"MRI","station_name":"Manggarai","i_lat":-6.209883,"i_long":106.84912,"distance":3186},{"distance":1275,"station_id":"MTR","i_long":106.858896,"transit":false,"is_transit":false,"i_lat":-6.212485,"station_name":"Matraman","line":1,"time":2},{"distance":1377,"transit":true,"line":1,"i_long":106.86807400000001,"i_lat":-6.215091,"station_id":"JNG","is_transit":true,"time":8,"station_name":"Jatinegara"},{"station_name":"Pondok Jati","line":11,"transit":false,"distance":1236,"i_lat":-6.209188,"is_transit":false,"station_id":"POK","time":2,"i_long":106.861737},{"station_name":"Kramat","is_transit":false,"transit":false,"i_lat":-6.193792,"time":2,"i_long":106.855437,"line":11,"station_id":"KMT","distance":1829},{"i_lat":-6.185975,"distance":973,"station_name":"Gang Sentiong","transit":false,"i_long":106.850107,"line":11,"station_id":"GST","time":1,"is_transit":false},{"i_long":106.84368,"transit":false,"i_lat":-6.174784,"station_id":"PSE","distance":1567,"line":11,"time":8,"station_name":"Pasar Senen","is_transit":false},{"distance":1436,"line":11,"station_id":"KMO","station_name":"Kemayoran","is_transit":false,"i_long":106.839204,"time":4,"i_lat":-6.161728,"transit":false},{"time":5,"i_lat":-6.14505,"line":11,"station_id":"RJW","i_long":106.836569,"transit":false,"is_transit":false,"distance":1901,"station_name":"Rajawali"},{"station_id":"KPB","is_transit":true,"i_lat":-6.132549,"i_long":106.826365,"station_name":"Kampung Bandan","transit":true,"distance":1444,"time":3,"line":4},{"line":1,"transit":false,"station_name":"Angke","time":9,"is_transit":false,"station_id":"AK","i_lat":-6.144674,"distance":4102,"i_long":106.79867},{"i_long":106.800832,"i_lat":-6.155215,"time":4,"station_name":"Duri","is_transit":true,"distance":1230,"transit":true,"line":1,"station_id":"DU"},{"line":5,"is_transit":false,"time":3,"station_name":"Grogol","station_id":"GGL","transit":false,"i_lat":-6.162021,"i_long":106.788277,"distance":1700},{"station_name":"Pesing","line":5,"i_long":106.771379,"i_lat":-6.161433,"distance":2036,"station_id":"PSG","transit":false,"is_transit":false,"time":2}]]}