{"data":[[{"is_transit":false,"i_lat":-6.329547,"transit":false,"i_long":106.617853,"distance":0,"time":0,"line":3,"station_name":"Cicayur","station_id":"CC"},{"line":3,"time":4,"distance":2519,"is_transit":false,"station_name":"Cisauk","transit":false,"i_lat":-6.32484,"i_long":106.640411,"station_id":"CSK"},{"distance":1784,"i_lat":-6.319871,"i_long":106.66566,"line":6,"station_id":"SRP","is_transit":false,"station_name":"Serpong","time":4,"transit":false},{"time":4,"i_lat":-6.314823,"transit":false,"i_long":106.675475,"station_name":"Rawa Buntu","distance":2413,"is_transit":false,"line":6,"station_id":"RU"},{"distance":4566,"is_transit":false,"time":6,"station_name":"Sudimara","transit":false,"station_id":"SDM","line":6,"i_lat":-6.296963,"i_long":106.712277},{"line":6,"time":4,"is_transit":false,"station_id":"JMU","station_name":"Jurangmangu","distance":1994,"transit":false,"i_lat":-6.288927,"i_long":106.728916},{"station_name":"Pondokranji","is_transit":false,"transit":false,"i_lat":-6.276362,"station_id":"PDJ","distance":2179,"time":3,"i_long":106.74273,"line":6},{"i_long":106.780334,"line":6,"time":8,"i_lat":-6.237242,"station_name":"Kebayoran","transit":false,"station_id":"KBY","distance":6218,"is_transit":false},{"station_name":"Palmerah","transit":false,"station_id":"PLM","is_transit":false,"i_long":106.79689,"distance":3737,"time":7,"i_lat":-6.207404,"line":6},{"is_transit":true,"station_name":"Tanah Abang","transit":true,"i_long":106.811091,"time":6,"line":1,"station_id":"THB","i_lat":-6.185545,"distance":3191},{"station_name":"Karet","distance":2029,"line":1,"i_long":106.816351,"station_id":"KAT","transit":false,"time":5,"is_transit":false,"i_lat":-6.20132},{"transit":false,"station_name":"Sudirman Baru","time":1,"i_lat":-6.201433,"i_long":106.819881,"line":1,"station_id":"SUDB","distance":471,"is_transit":false},{"transit":false,"i_long":106.822649,"station_name":"Sudirman","line":1,"i_lat":-6.202263,"is_transit":false,"time":1,"distance":280,"station_id":"SUD"},{"station_id":"MRI","distance":3186,"station_name":"Manggarai","line":2,"time":4,"is_transit":true,"i_lat":-6.209883,"i_long":106.84912,"transit":true},{"is_transit":false,"time":4,"station_id":"TEB","distance":2610,"line":2,"i_long":106.857948,"i_lat":-6.226659,"transit":false,"station_name":"Tebet"},{"transit":false,"i_long":106.856607,"station_id":"CW","time":2,"is_transit":false,"station_name":"Cawang","line":2,"distance":1230,"i_lat":-6.242512},{"station_name":"Duren Kalibata","is_transit":false,"distance":1546,"i_lat":-6.255332,"transit":false,"line":2,"time":3,"station_id":"DRN","i_long":106.85449},{"station_id":"PSMB","i_lat":-6.263214,"i_long":106.851577,"distance":824,"is_transit":false,"transit":false,"line":2,"station_name":"Pasar Minggu Baru","time":2}],[{"i_lat":-6.329547,"i_long":106.617853,"line":3,"station_id":"CC","distance":0,"is_transit":false,"transit":false,"time":0,"station_name":"Cicayur"},{"transit":false,"time":4,"i_lat":-6.32484,"line":3,"station_name":"Cisauk","distance":2519,"i_long":106.640411,"station_id":"CSK","is_transit":false},{"line":6,"station_name":"Serpong","station_id":"SRP","transit":false,"distance":1784,"is_transit":false,"i_long":106.66566,"time":4,"i_lat":-6.319871},{"is_transit":false,"distance":2413,"i_long":106.675475,"line":6,"station_id":"RU","i_lat":-6.314823,"transit":false,"time":4,"station_name":"Rawa Buntu"},{"line":6,"distance":4566,"is_transit":false,"station_name":"Sudimara","i_long":106.712277,"i_lat":-6.296963,"time":6,"transit":false,"station_id":"SDM"},{"is_transit":false,"line":6,"station_name":"Jurangmangu","station_id":"JMU","i_lat":-6.288927,"distance":1994,"i_long":106.728916,"transit":false,"time":4},{"transit":false,"station_id":"PDJ","time":3,"station_name":"Pondokranji","is_transit":false,"line":6,"distance":2179,"i_lat":-6.276362,"i_long":106.74273},{"transit":false,"station_id":"KBY","line":6,"i_lat":-6.237242,"distance":6218,"is_transit":false,"time":8,"i_long":106.780334,"station_name":"Kebayoran"},{"line":6,"transit":false,"station_name":"Palmerah","station_id":"PLM","i_lat":-6.207404,"distance":3737,"time":7,"i_long":106.79689,"is_transit":false},{"is_transit":true,"station_id":"THB","i_lat":-6.185545,"distance":3191,"transit":true,"i_long":106.811091,"line":1,"time":6,"station_name":"Tanah Abang"},{"transit":false,"is_transit":false,"line":1,"time":8,"station_name":"Duri","station_id":"DU","i_lat":-6.155215,"i_long":106.800832,"distance":3632},{"time":4,"station_name":"Angke","is_transit":false,"i_long":106.79867,"station_id":"AK","distance":1230,"transit":false,"i_lat":-6.144674,"line":1},{"transit":true,"i_long":106.826365,"is_transit":true,"station_name":"Kampung Bandan","i_lat":-6.132549,"distance":4102,"time":9,"station_id":"KPB","line":4},{"station_id":"JAKK","i_long":106.812439,"is_transit":true,"time":3,"transit":true,"station_name":"Jakarta Kota","line":2,"distance":1364,"i_lat":-6.137569},{"station_name":"Jayakarta","transit":false,"i_long":106.820901,"line":2,"i_lat":-6.141205,"time":4,"distance":1264,"is_transit":false,"station_id":"JAY"},{"station_name":"Manggabesar","line":2,"station_id":"MGB","time":2,"i_lat":-6.149769,"transit":false,"distance":1080,"is_transit":false,"i_long":106.82482},{"station_id":"SW","i_lat":-6.160725,"i_long":106.827103,"transit":false,"line":2,"time":2,"distance":906,"station_name":"Sawah Besar","is_transit":false},{"i_long":106.828284,"transit":false,"i_lat":-6.166716,"station_name":"Juanda","distance":1149,"time":2,"station_id":"JUA","is_transit":false,"line":2},{"station_id":"GDD","distance":2015,"time":4,"is_transit":false,"i_lat":-6.186295,"line":2,"transit":false,"i_long":106.832183,"station_name":"Gondangdia"},{"i_lat":-6.198556,"station_name":"Cikini","station_id":"CKI","line":2,"transit":false,"distance":1750,"is_transit":false,"i_long":106.840169,"time":3},{"line":2,"station_name":"Manggarai","station_id":"MRI","transit":false,"i_long":106.84912,"is_transit":false,"time":4,"i_lat":-6.209883,"distance":1590},{"station_id":"TEB","is_transit":false,"transit":false,"line":2,"i_lat":-6.226659,"i_long":106.857948,"time":4,"station_name":"Tebet","distance":2610},{"transit":false,"time":2,"station_id":"CW","is_transit":false,"distance":1230,"i_lat":-6.242512,"i_long":106.856607,"station_name":"Cawang","line":2},{"i_long":106.85449,"i_lat":-6.255332,"is_transit":false,"time":3,"station_name":"Duren Kalibata","distance":1546,"station_id":"DRN","transit":false,"line":2},{"station_id":"PSMB","is_transit":false,"time":2,"station_name":"Pasar Minggu Baru","transit":false,"i_long":106.851577,"line":2,"distance":824,"i_lat":-6.263214}],[{"station_id":"CC","i_lat":-6.329547,"line":3,"is_transit":false,"time":0,"i_long":106.617853,"transit":false,"distance":0,"station_name":"Cicayur"},{"i_lat":-6.32484,"station_id":"CSK","line":3,"transit":false,"station_name":"Cisauk","distance":2519,"i_long":106.640411,"is_transit":false,"time":4},{"station_id":"SRP","i_long":106.66566,"distance":1784,"station_name":"Serpong","transit":false,"line":6,"is_transit":false,"time":4,"i_lat":-6.319871},{"line":6,"distance":2413,"is_transit":false,"time":4,"station_id":"RU","station_name":"Rawa Buntu","i_lat":-6.314823,"transit":false,"i_long":106.675475},{"transit":false,"time":6,"station_name":"Sudimara","line":6,"station_id":"SDM","distance":4566,"i_lat":-6.296963,"i_long":106.712277,"is_transit":false},{"time":4,"station_name":"Jurangmangu","line":6,"distance":1994,"station_id":"JMU","transit":false,"i_lat":-6.288927,"i_long":106.728916,"is_transit":false},{"time":3,"station_name":"Pondokranji","transit":false,"distance":2179,"is_transit":false,"i_lat":-6.276362,"i_long":106.74273,"line":6,"station_id":"PDJ"},{"distance":6218,"time":8,"transit":false,"station_name":"Kebayoran","is_transit":false,"i_lat":-6.237242,"line":6,"i_long":106.780334,"station_id":"KBY"},{"transit":false,"time":7,"is_transit":false,"i_long":106.79689,"line":6,"station_name":"Palmerah","distance":3737,"i_lat":-6.207404,"station_id":"PLM"},{"is_transit":true,"station_name":"Tanah Abang","distance":3191,"time":6,"i_lat":-6.185545,"i_long":106.811091,"line":1,"station_id":"THB","transit":true},{"i_long":106.800832,"distance":3632,"line":1,"time":8,"is_transit":false,"station_name":"Duri","transit":false,"station_id":"DU","i_lat":-6.155215},{"is_transit":false,"distance":1230,"i_lat":-6.144674,"i_long":106.79867,"line":1,"time":4,"station_name":"Angke","station_id":"AK","transit":false},{"i_lat":-6.132549,"time":9,"is_transit":true,"i_long":106.826365,"station_name":"Kampung Bandan","distance":4102,"transit":true,"line":4,"station_id":"KPB"},{"station_name":"Rajawali","distance":1444,"transit":false,"i_lat":-6.14505,"i_long":106.836569,"station_id":"RJW","line":11,"time":3,"is_transit":false},{"line":11,"transit":false,"is_transit":false,"station_id":"KMO","distance":1901,"i_lat":-6.161728,"time":5,"station_name":"Kemayoran","i_long":106.839204},{"transit":false,"time":4,"station_id":"PSE","i_lat":-6.174784,"is_transit":false,"distance":1436,"line":11,"station_name":"Pasar Senen","i_long":106.84368},{"station_name":"Gang Sentiong","i_long":106.850107,"line":11,"time":8,"station_id":"GST","transit":false,"is_transit":false,"i_lat":-6.185975,"distance":1567},{"is_transit":false,"station_name":"Kramat","i_long":106.855437,"line":11,"station_id":"KMT","time":1,"transit":false,"distance":973,"i_lat":-6.193792},{"is_transit":false,"transit":false,"i_long":106.861737,"station_name":"Pondok Jati","i_lat":-6.209188,"station_id":"POK","time":2,"distance":1829,"line":11},{"i_lat":-6.215091,"distance":1236,"station_name":"Jatinegara","time":9,"is_transit":true,"station_id":"JNG","transit":true,"i_long":106.86807400000001,"line":1},{"time":2,"i_lat":-6.212485,"i_long":106.858896,"station_id":"MTR","line":1,"station_name":"Matraman","distance":1377,"transit":false,"is_transit":false},{"is_transit":true,"station_name":"Manggarai","i_long":106.84912,"i_lat":-6.209883,"line":2,"time":2,"transit":true,"station_id":"MRI","distance":1275},{"i_lat":-6.226659,"i_long":106.857948,"transit":false,"station_id":"TEB","station_name":"Tebet","line":2,"time":4,"distance":2610,"is_transit":false},{"i_lat":-6.242512,"distance":1230,"line":2,"is_transit":false,"time":2,"station_name":"Cawang","transit":false,"i_long":106.856607,"station_id":"CW"},{"is_transit":false,"station_id":"DRN","station_name":"Duren Kalibata","line":2,"distance":1546,"i_long":106.85449,"transit":false,"time":3,"i_lat":-6.255332},{"transit":false,"time":2,"distance":824,"i_lat":-6.263214,"i_long":106.851577,"line":2,"is_transit":false,"station_id":"PSMB","station_name":"Pasar Minggu Baru"}]]}