{"data":[[{"transit":false,"i_long":106.617853,"time":0,"distance":0,"i_lat":-6.329547,"station_name":"Cicayur","line":3,"station_id":"CC","is_transit":false},{"transit":false,"station_name":"Cisauk","line":3,"station_id":"CSK","distance":2519,"is_transit":false,"i_lat":-6.32484,"i_long":106.640411,"time":4},{"station_id":"SRP","i_long":106.66566,"time":4,"distance":1784,"i_lat":-6.319871,"station_name":"Serpong","is_transit":false,"transit":false,"line":6},{"i_long":106.675475,"station_name":"Rawa Buntu","i_lat":-6.314823,"transit":false,"is_transit":false,"line":6,"distance":2413,"time":4,"station_id":"RU"},{"station_name":"Sudimara","i_lat":-6.296963,"station_id":"SDM","transit":false,"i_long":106.712277,"is_transit":false,"line":6,"distance":4566,"time":6},{"time":4,"i_lat":-6.288927,"distance":1994,"is_transit":false,"line":6,"station_name":"Jurangmangu","station_id":"JMU","i_long":106.728916,"transit":false},{"i_lat":-6.276362,"line":6,"is_transit":false,"time":3,"distance":2179,"station_id":"PDJ","station_name":"Pondokranji","transit":false,"i_long":106.74273},{"is_transit":false,"station_name":"Kebayoran","i_lat":-6.237242,"line":6,"transit":false,"time":8,"station_id":"KBY","i_long":106.780334,"distance":6218},{"i_lat":-6.207404,"time":7,"station_name":"Palmerah","transit":false,"line":6,"station_id":"PLM","i_long":106.79689,"distance":3737,"is_transit":false},{"station_id":"THB","is_transit":true,"distance":3191,"station_name":"Tanah Abang","time":6,"transit":true,"line":1,"i_lat":-6.185545,"i_long":106.811091},{"station_name":"Duri","i_long":106.800832,"distance":3632,"is_transit":true,"transit":true,"i_lat":-6.155215,"time":8,"station_id":"DU","line":1},{"distance":1700,"station_name":"Grogol","is_transit":false,"line":5,"i_lat":-6.162021,"i_long":106.788277,"station_id":"GRG","time":3,"transit":false},{"transit":false,"line":5,"distance":2036,"time":2,"station_id":"PSG","station_name":"Pesing","is_transit":false,"i_lat":-6.161433,"i_long":106.771379},{"distance":1614,"station_id":"TKO","i_lat":-6.1587309999999995,"time":2,"station_name":"Taman Kota","line":5,"is_transit":false,"i_long":106.756522,"transit":false},{"station_name":"Bojongindah","is_transit":false,"transit":false,"i_lat":-6.159876,"i_long":106.737035,"line":5,"station_id":"BOI","distance":2334,"time":2},{"i_long":106.723064,"line":5,"is_transit":false,"transit":false,"station_name":"Rawa Buaya","distance":1152,"station_id":"RW","i_lat":-6.162758,"time":4},{"is_transit":false,"line":5,"i_long":106.701612,"time":3,"distance":2504,"station_id":"KDS","station_name":"Kalideres","transit":false,"i_lat":-6.166068},{"transit":false,"station_name":"Poris","i_lat":-6.169933,"line":5,"is_transit":false,"distance":2548,"station_id":"PI","time":3,"i_long":106.679458}],[{"transit":false,"is_transit":false,"i_lat":-6.329547,"i_long":106.617853,"line":3,"time":0,"station_id":"CC","station_name":"Cicayur","distance":0},{"transit":false,"station_id":"CSK","time":4,"line":3,"distance":2519,"i_long":106.640411,"is_transit":false,"station_name":"Cisauk","i_lat":-6.32484},{"is_transit":false,"station_name":"Serpong","line":6,"distance":1784,"transit":false,"time":4,"station_id":"SRP","i_lat":-6.319871,"i_long":106.66566},{"station_id":"RU","i_lat":-6.314823,"line":6,"time":4,"station_name":"Rawa Buntu","is_transit":false,"transit":false,"distance":2413,"i_long":106.675475},{"i_long":106.712277,"time":6,"transit":false,"i_lat":-6.296963,"distance":4566,"line":6,"is_transit":false,"station_name":"Sudimara","station_id":"SDM"},{"i_lat":-6.288927,"line":6,"station_name":"Jurangmangu","distance":1994,"is_transit":false,"i_long":106.728916,"time":4,"transit":false,"station_id":"JMU"},{"transit":false,"distance":2179,"i_lat":-6.276362,"i_long":106.74273,"station_id":"PDJ","line":6,"time":3,"station_name":"Pondokranji","is_transit":false},{"is_transit":false,"distance":6218,"i_long":106.780334,"time":8,"station_name":"Kebayoran","i_lat":-6.237242,"station_id":"KBY","line":6,"transit":false},{"distance":3737,"station_name":"Palmerah","i_long":106.79689,"transit":false,"time":7,"line":6,"i_lat":-6.207404,"is_transit":false,"station_id":"PLM"},{"is_transit":true,"transit":true,"i_lat":-6.185545,"station_id":"THB","i_long":106.811091,"distance":3191,"time":6,"station_name":"Tanah Abang","line":1},{"i_lat":-6.20132,"line":1,"is_transit":false,"station_name":"Karet","transit":false,"i_long":106.816351,"time":5,"station_id":"KAT","distance":2029},{"time":1,"i_lat":-6.201433,"transit":false,"station_name":"Sudirman Baru","i_long":106.819881,"line":1,"is_transit":false,"distance":471,"station_id":"SUDB"},{"time":1,"is_transit":false,"i_lat":-6.202263,"i_long":106.822649,"line":1,"transit":false,"station_id":"SUD","station_name":"Sudirman","distance":280},{"line":2,"station_id":"MRI","i_long":106.84912,"time":4,"station_name":"Manggarai","i_lat":-6.209883,"distance":3186,"is_transit":true,"transit":true},{"time":4,"transit":false,"station_id":"CKI","station_name":"Cikini","i_long":106.840169,"distance":1590,"is_transit":false,"i_lat":-6.198556,"line":2},{"transit":false,"distance":1750,"is_transit":false,"i_long":106.832183,"time":3,"station_name":"Gondangdia","station_id":"GDD","i_lat":-6.186295,"line":2},{"distance":2015,"line":2,"is_transit":false,"station_id":"JUA","station_name":"Juanda","i_long":106.828284,"i_lat":-6.166716,"time":4,"transit":false},{"time":2,"is_transit":false,"station_name":"Sawah Besar","station_id":"SW","transit":false,"i_long":106.827103,"distance":1149,"i_lat":-6.160725,"line":2},{"transit":false,"time":2,"station_id":"MGB","distance":906,"i_lat":-6.149769,"line":2,"i_long":106.82482,"station_name":"Manggabesar","is_transit":false},{"time":2,"is_transit":false,"station_id":"JAY","transit":false,"distance":1080,"i_lat":-6.141205,"i_long":106.820901,"station_name":"Jayakarta","line":2},{"i_lat":-6.137569,"transit":true,"i_long":106.812439,"time":4,"distance":1264,"line":2,"is_transit":true,"station_id":"JAKK","station_name":"Jakarta Kota"},{"i_long":106.826365,"i_lat":-6.132549,"line":4,"time":3,"station_name":"Kampung Bandan","station_id":"KPB","transit":true,"is_transit":true,"distance":1364},{"transit":false,"time":9,"i_lat":-6.144674,"station_id":"AK","is_transit":false,"station_name":"Angke","distance":4102,"i_long":106.79867,"line":1},{"transit":true,"is_transit":true,"station_id":"DU","time":4,"line":1,"distance":1230,"station_name":"Duri","i_long":106.800832,"i_lat":-6.155215},{"line":5,"is_transit":false,"i_lat":-6.162021,"station_id":"GRG","time":3,"station_name":"Grogol","distance":1700,"transit":false,"i_long":106.788277},{"transit":false,"line":5,"i_lat":-6.161433,"is_transit":false,"station_name":"Pesing","station_id":"PSG","i_long":106.771379,"distance":2036,"time":2},{"station_name":"Taman Kota","i_long":106.756522,"is_transit":false,"time":2,"distance":1614,"i_lat":-6.1587309999999995,"transit":false,"line":5,"station_id":"TKO"},{"station_name":"Bojongindah","transit":false,"i_lat":-6.159876,"distance":2334,"line":5,"i_long":106.737035,"time":2,"station_id":"BOI","is_transit":false},{"time":4,"transit":false,"distance":1152,"station_id":"RW","station_name":"Rawa Buaya","i_lat":-6.162758,"is_transit":false,"i_long":106.723064,"line":5},{"line":5,"i_long":106.701612,"i_lat":-6.166068,"station_id":"KDS","station_name":"Kalideres","transit":false,"distance":2504,"time":3,"is_transit":false},{"is_transit":false,"transit":false,"i_long":106.679458,"station_id":"PI","time":3,"distance":2548,"i_lat":-6.169933,"station_name":"Poris","line":5}],[{"station_id":"CC","is_transit":false,"distance":0,"i_long":106.617853,"i_lat":-6.329547,"time":0,"transit":false,"line":3,"station_name":"Cicayur"},{"i_lat":-6.32484,"station_name":"Cisauk","time":4,"station_id":"CSK","distance":2519,"i_long":106.640411,"line":3,"is_transit":false,"transit":false},{"time":4,"distance":1784,"is_transit":false,"station_id":"SRP","transit":false,"station_name":"Serpong","i_lat":-6.319871,"line":6,"i_long":106.66566},{"is_transit":false,"distance":2413,"line":6,"station_name":"Rawa Buntu","i_long":106.675475,"time":4,"station_id":"RU","transit":false,"i_lat":-6.314823},{"is_transit":false,"time":6,"transit":false,"i_long":106.712277,"station_id":"SDM","station_name":"Sudimara","i_lat":-6.296963,"distance":4566,"line":6},{"i_lat":-6.288927,"station_name":"Jurangmangu","line":6,"is_transit":false,"time":4,"station_id":"JMU","distance":1994,"i_long":106.728916,"transit":false},{"is_transit":false,"i_long":106.74273,"distance":2179,"time":3,"station_id":"PDJ","i_lat":-6.276362,"transit":false,"station_name":"Pondokranji","line":6},{"time":8,"transit":false,"is_transit":false,"station_id":"KBY","distance":6218,"i_long":106.780334,"station_name":"Kebayoran","i_lat":-6.237242,"line":6},{"transit":false,"is_transit":false,"station_id":"PLM","station_name":"Palmerah","i_long":106.79689,"line":6,"time":7,"distance":3737,"i_lat":-6.207404},{"station_name":"Tanah Abang","time":6,"i_lat":-6.185545,"transit":true,"station_id":"THB","i_long":106.811091,"line":1,"is_transit":true,"distance":3191},{"station_id":"KAT","time":5,"i_long":106.816351,"station_name":"Karet","is_transit":false,"distance":2029,"line":1,"i_lat":-6.20132,"transit":false},{"is_transit":false,"line":1,"distance":471,"i_lat":-6.201433,"station_id":"SUDB","transit":false,"i_long":106.819881,"station_name":"Sudirman Baru","time":1},{"time":1,"transit":false,"i_lat":-6.202263,"i_long":106.822649,"station_id":"SUD","distance":280,"station_name":"Sudirman","is_transit":false,"line":1},{"time":4,"line":2,"station_name":"Manggarai","i_lat":-6.209883,"is_transit":false,"station_id":"MRI","distance":3186,"transit":false,"i_long":106.84912},{"is_transit":false,"distance":1275,"line":1,"i_long":106.858896,"transit":false,"station_id":"MTR","station_name":"Matraman","time":2,"i_lat":-6.212485},{"time":8,"distance":1377,"i_lat":-6.215091,"line":1,"station_id":"JNG","transit":true,"i_long":106.86807400000001,"station_name":"Jatinegara","is_transit":true},{"is_transit":false,"distance":1236,"line":11,"i_lat":-6.209188,"time":2,"transit":false,"station_id":"POK","station_name":"Pondok Jati","i_long":106.861737},{"is_transit":false,"transit":false,"i_lat":-6.193792,"time":2,"station_id":"KMT","line":11,"distance":1829,"station_name":"Kramat","i_long":106.855437},{"transit":false,"i_lat":-6.185975,"time":1,"distance":973,"is_transit":false,"i_long":106.850107,"station_name":"Gang Sentiong","line":11,"station_id":"GST"},{"station_name":"Pasar Senen","station_id":"PSE","time":8,"transit":false,"line":11,"i_long":106.84368,"i_lat":-6.174784,"is_transit":false,"distance":1567},{"station_name":"Kemayoran","is_transit":false,"transit":false,"i_long":106.839204,"line":11,"distance":1436,"time":4,"i_lat":-6.161728,"station_id":"KMO"},{"i_long":106.836569,"is_transit":false,"transit":false,"station_name":"Rajawali","time":5,"line":11,"station_id":"RJW","distance":1901,"i_lat":-6.14505},{"i_long":106.826365,"i_lat":-6.132549,"transit":true,"time":3,"station_id":"KPB","station_name":"Kampung Bandan","line":4,"is_transit":true,"distance":1444},{"i_long":106.79867,"transit":false,"station_name":"Angke","line":1,"i_lat":-6.144674,"station_id":"AK","is_transit":false,"time":9,"distance":4102},{"i_long":106.800832,"station_name":"Duri","transit":true,"distance":1230,"time":4,"is_transit":true,"station_id":"DU","i_lat":-6.155215,"line":1},{"distance":1700,"line":5,"i_lat":-6.162021,"station_name":"Grogol","is_transit":false,"i_long":106.788277,"time":3,"station_id":"GRG","transit":false},{"time":2,"is_transit":false,"line":5,"transit":false,"station_id":"PSG","station_name":"Pesing","i_long":106.771379,"distance":2036,"i_lat":-6.161433},{"i_long":106.756522,"station_id":"TKO","time":2,"station_name":"Taman Kota","i_lat":-6.1587309999999995,"is_transit":false,"distance":1614,"transit":false,"line":5},{"line":5,"distance":2334,"station_name":"Bojongindah","is_transit":false,"i_long":106.737035,"time":2,"i_lat":-6.159876,"station_id":"BOI","transit":false},{"time":4,"i_lat":-6.162758,"station_id":"RW","transit":false,"is_transit":false,"i_long":106.723064,"line":5,"station_name":"Rawa Buaya","distance":1152},{"line":5,"time":3,"is_transit":false,"i_long":106.701612,"transit":false,"distance":2504,"i_lat":-6.166068,"station_id":"KDS","station_name":"Kalideres"},{"i_lat":-6.169933,"i_long":106.679458,"is_transit":false,"time":3,"line":5,"transit":false,"distance":2548,"station_id":"PI","station_name":"Poris"}]]}