{"data":[[{"i_lat":-6.329547,"line":3,"i_long":106.617853,"transit":false,"station_id":"CC","station_name":"Cicayur","is_transit":false,"distance":0,"time":0},{"i_long":106.640411,"line":3,"distance":2519,"is_transit":false,"station_name":"Cisauk","transit":false,"time":4,"station_id":"CSK","i_lat":-6.32484},{"i_long":106.66566,"transit":false,"station_id":"SRP","line":6,"time":4,"distance":1784,"is_transit":false,"station_name":"Serpong","i_lat":-6.319871},{"time":4,"transit":false,"station_name":"Rawa Buntu","is_transit":false,"line":6,"station_id":"RU","distance":2413,"i_long":106.675475,"i_lat":-6.314823},{"i_lat":-6.296963,"transit":false,"time":6,"is_transit":false,"i_long":106.712277,"line":6,"distance":4566,"station_id":"SDM","station_name":"Sudimara"},{"time":4,"station_name":"Jurangmangu","is_transit":false,"i_long":106.728916,"line":6,"i_lat":-6.288927,"station_id":"JMU","distance":1994,"transit":false},{"station_id":"PDJ","station_name":"Pondokranji","i_long":106.74273,"transit":false,"line":6,"i_lat":-6.276362,"is_transit":false,"time":3,"distance":2179},{"station_id":"KBY","i_lat":-6.237242,"is_transit":false,"station_name":"Kebayoran","transit":false,"time":8,"i_long":106.780334,"line":6,"distance":6218},{"station_id":"PLM","i_long":106.79689,"is_transit":false,"line":6,"time":7,"station_name":"Palmerah","distance":3737,"i_lat":-6.207404,"transit":false},{"transit":true,"station_name":"Tanah Abang","time":6,"i_lat":-6.185545,"is_transit":true,"station_id":"THB","line":1,"i_long":106.811091,"distance":3191},{"station_name":"Karet","is_transit":false,"station_id":"KAT","time":5,"i_lat":-6.20132,"i_long":106.816351,"transit":false,"line":1,"distance":2029},{"i_long":106.819881,"is_transit":false,"station_name":"Sudirman Baru","station_id":"SUDB","i_lat":-6.201433,"distance":471,"time":1,"line":1,"transit":false},{"distance":280,"station_id":"SUD","is_transit":false,"transit":false,"line":1,"i_lat":-6.202263,"i_long":106.822649,"time":1,"station_name":"Sudirman"},{"time":4,"transit":true,"distance":3186,"station_name":"Manggarai","is_transit":true,"i_lat":-6.209883,"i_long":106.84912,"line":2,"station_id":"MRI"},{"i_long":106.857948,"line":2,"is_transit":false,"i_lat":-6.226659,"time":4,"station_id":"TEB","station_name":"Tebet","distance":2610,"transit":false},{"distance":1230,"time":2,"station_id":"CW","station_name":"Cawang","is_transit":false,"transit":false,"i_lat":-6.242512,"line":2,"i_long":106.856607},{"is_transit":false,"i_long":106.85449,"distance":1546,"time":3,"i_lat":-6.255332,"station_id":"DRN","station_name":"Duren Kalibata","transit":false,"line":2},{"station_name":"Pasar Minggu Baru","is_transit":false,"transit":false,"i_lat":-6.263214,"i_long":106.851577,"station_id":"PSMB","time":2,"distance":824,"line":2}],[{"i_long":106.617853,"line":3,"station_id":"CC","is_transit":false,"time":0,"i_lat":-6.329547,"station_name":"Cicayur","transit":false,"distance":0},{"is_transit":false,"i_long":106.640411,"line":3,"time":4,"i_lat":-6.32484,"distance":2519,"transit":false,"station_name":"Cisauk","station_id":"CSK"},{"is_transit":false,"i_lat":-6.319871,"station_id":"SRP","station_name":"Serpong","distance":1784,"time":4,"i_long":106.66566,"line":6,"transit":false},{"line":6,"station_name":"Rawa Buntu","i_lat":-6.314823,"station_id":"RU","transit":false,"distance":2413,"time":4,"is_transit":false,"i_long":106.675475},{"distance":4566,"is_transit":false,"i_lat":-6.296963,"line":6,"time":6,"i_long":106.712277,"transit":false,"station_id":"SDM","station_name":"Sudimara"},{"i_long":106.728916,"station_id":"JMU","station_name":"Jurangmangu","transit":false,"distance":1994,"is_transit":false,"time":4,"i_lat":-6.288927,"line":6},{"transit":false,"time":3,"i_lat":-6.276362,"distance":2179,"i_long":106.74273,"line":6,"is_transit":false,"station_id":"PDJ","station_name":"Pondokranji"},{"line":6,"time":8,"station_id":"KBY","station_name":"Kebayoran","distance":6218,"is_transit":false,"transit":false,"i_lat":-6.237242,"i_long":106.780334},{"time":7,"station_name":"Palmerah","distance":3737,"i_lat":-6.207404,"i_long":106.79689,"line":6,"is_transit":false,"station_id":"PLM","transit":false},{"station_id":"THB","line":1,"distance":3191,"transit":true,"i_long":106.811091,"is_transit":true,"station_name":"Tanah Abang","time":6,"i_lat":-6.185545},{"distance":3632,"is_transit":false,"i_long":106.800832,"line":1,"station_name":"Duri","transit":false,"station_id":"DU","i_lat":-6.155215,"time":8},{"time":4,"is_transit":false,"line":1,"station_id":"AK","i_lat":-6.144674,"station_name":"Angke","distance":1230,"i_long":106.79867,"transit":false},{"line":4,"distance":4102,"i_long":106.826365,"time":9,"station_id":"KPB","station_name":"Kampung Bandan","transit":true,"is_transit":true,"i_lat":-6.132549},{"line":2,"is_transit":true,"transit":true,"distance":1364,"station_id":"JAKK","station_name":"Jakarta Kota","i_lat":-6.137569,"i_long":106.812439,"time":3},{"i_lat":-6.141205,"is_transit":false,"line":2,"i_long":106.820901,"station_id":"JAY","station_name":"Jayakarta","time":4,"distance":1264,"transit":false},{"i_lat":-6.149769,"is_transit":false,"time":2,"station_name":"Manggabesar","distance":1080,"i_long":106.82482,"line":2,"station_id":"MGB","transit":false},{"i_long":106.827103,"i_lat":-6.160725,"station_id":"SW","line":2,"is_transit":false,"transit":false,"station_name":"Sawah Besar","time":2,"distance":906},{"is_transit":false,"i_long":106.828284,"i_lat":-6.166716,"station_id":"JUA","line":2,"time":2,"station_name":"Juanda","distance":1149,"transit":false},{"time":4,"i_lat":-6.186295,"station_name":"Gondangdia","i_long":106.832183,"station_id":"GDD","is_transit":false,"transit":false,"line":2,"distance":2015},{"is_transit":false,"transit":false,"i_lat":-6.198556,"station_id":"CKI","i_long":106.840169,"line":2,"time":3,"station_name":"Cikini","distance":1750},{"station_name":"Manggarai","line":2,"transit":false,"time":4,"station_id":"MRI","is_transit":false,"i_long":106.84912,"distance":1590,"i_lat":-6.209883},{"station_id":"TEB","is_transit":false,"distance":2610,"time":4,"i_lat":-6.226659,"i_long":106.857948,"station_name":"Tebet","transit":false,"line":2},{"station_id":"CW","i_long":106.856607,"line":2,"is_transit":false,"station_name":"Cawang","distance":1230,"time":2,"transit":false,"i_lat":-6.242512},{"transit":false,"i_long":106.85449,"station_id":"DRN","time":3,"distance":1546,"i_lat":-6.255332,"line":2,"is_transit":false,"station_name":"Duren Kalibata"},{"station_name":"Pasar Minggu Baru","station_id":"PSMB","is_transit":false,"time":2,"i_lat":-6.263214,"distance":824,"transit":false,"line":2,"i_long":106.851577}],[{"transit":false,"station_name":"Cicayur","i_lat":-6.329547,"i_long":106.617853,"line":3,"time":0,"station_id":"CC","is_transit":false,"distance":0},{"distance":2519,"station_id":"CSK","i_lat":-6.32484,"station_name":"Cisauk","time":4,"is_transit":false,"transit":false,"line":3,"i_long":106.640411},{"is_transit":false,"time":4,"transit":false,"i_long":106.66566,"line":6,"station_id":"SRP","distance":1784,"station_name":"Serpong","i_lat":-6.319871},{"line":6,"time":4,"i_lat":-6.314823,"transit":false,"distance":2413,"i_long":106.675475,"is_transit":false,"station_name":"Rawa Buntu","station_id":"RU"},{"station_name":"Sudimara","i_lat":-6.296963,"i_long":106.712277,"distance":4566,"is_transit":false,"time":6,"transit":false,"station_id":"SDM","line":6},{"i_long":106.728916,"is_transit":false,"time":4,"station_id":"JMU","station_name":"Jurangmangu","i_lat":-6.288927,"distance":1994,"line":6,"transit":false},{"time":3,"i_long":106.74273,"line":6,"station_name":"Pondokranji","transit":false,"station_id":"PDJ","distance":2179,"i_lat":-6.276362,"is_transit":false},{"i_lat":-6.237242,"is_transit":false,"line":6,"i_long":106.780334,"station_name":"Kebayoran","distance":6218,"time":8,"station_id":"KBY","transit":false},{"i_long":106.79689,"line":6,"station_name":"Palmerah","time":7,"station_id":"PLM","distance":3737,"is_transit":false,"i_lat":-6.207404,"transit":false},{"transit":true,"station_id":"THB","is_transit":true,"i_lat":-6.185545,"time":6,"station_name":"Tanah Abang","distance":3191,"i_long":106.811091,"line":1},{"is_transit":false,"distance":3632,"station_id":"DU","station_name":"Duri","transit":false,"i_lat":-6.155215,"i_long":106.800832,"line":1,"time":8},{"i_long":106.79867,"station_name":"Angke","time":4,"station_id":"AK","distance":1230,"i_lat":-6.144674,"transit":false,"line":1,"is_transit":false},{"i_long":106.826365,"line":4,"station_id":"KPB","is_transit":true,"transit":true,"i_lat":-6.132549,"time":9,"station_name":"Kampung Bandan","distance":4102},{"line":11,"transit":false,"i_lat":-6.14505,"station_name":"Rajawali","i_long":106.836569,"distance":1444,"time":3,"station_id":"RJW","is_transit":false},{"distance":1901,"i_long":106.839204,"i_lat":-6.161728,"station_id":"KMO","transit":false,"station_name":"Kemayoran","is_transit":false,"line":11,"time":5},{"line":11,"station_name":"Pasar Senen","i_lat":-6.174784,"transit":false,"time":4,"is_transit":false,"i_long":106.84368,"station_id":"PSE","distance":1436},{"i_long":106.850107,"i_lat":-6.185975,"station_id":"GST","is_transit":false,"distance":1567,"station_name":"Gang Sentiong","transit":false,"time":8,"line":11},{"transit":false,"station_id":"KMT","i_lat":-6.193792,"is_transit":false,"time":1,"distance":973,"station_name":"Kramat","i_long":106.855437,"line":11},{"time":2,"station_id":"POK","distance":1829,"transit":false,"station_name":"Pondok Jati","i_lat":-6.209188,"i_long":106.861737,"is_transit":false,"line":11},{"is_transit":true,"transit":true,"time":9,"station_id":"JNG","distance":1236,"station_name":"Jatinegara","i_lat":-6.215091,"i_long":106.86807400000001,"line":1},{"distance":1377,"transit":false,"i_lat":-6.212485,"station_name":"Matraman","line":1,"is_transit":false,"station_id":"MTR","time":2,"i_long":106.858896},{"i_long":106.84912,"is_transit":true,"station_id":"MRI","i_lat":-6.209883,"time":2,"station_name":"Manggarai","transit":true,"line":2,"distance":1275},{"time":4,"station_name":"Tebet","is_transit":false,"transit":false,"i_long":106.857948,"i_lat":-6.226659,"distance":2610,"station_id":"TEB","line":2},{"i_long":106.856607,"is_transit":false,"line":2,"distance":1230,"transit":false,"time":2,"station_name":"Cawang","station_id":"CW","i_lat":-6.242512},{"i_lat":-6.255332,"station_name":"Duren Kalibata","i_long":106.85449,"time":3,"station_id":"DRN","transit":false,"line":2,"distance":1546,"is_transit":false},{"i_long":106.851577,"line":2,"station_id":"PSMB","station_name":"Pasar Minggu Baru","i_lat":-6.263214,"time":2,"is_transit":false,"distance":824,"transit":false}]]}