{"data":[[{"station_id":"CC","is_transit":false,"distance":0,"i_long":106.617853,"transit":false,"station_name":"Cicayur","i_lat":-6.329547,"line":0,"time":0},{"station_id":"CSK","i_long":106.640411,"is_transit":false,"transit":false,"line":0,"station_name":"Cisauk","time":4,"distance":2519,"i_lat":-6.32484},{"i_lat":-6.319871,"line":6,"is_transit":false,"time":4,"i_long":106.66566,"transit":false,"distance":1784,"station_id":"SRP","station_name":"Serpong"},{"time":4,"i_long":106.675475,"line":6,"is_transit":false,"i_lat":-6.314823,"station_id":"RU","transit":false,"station_name":"Rawa Buntu","distance":2413},{"i_long":106.712277,"line":6,"is_transit":false,"i_lat":-6.296963,"station_name":"Sudimara","transit":false,"station_id":"SDM","distance":4566,"time":6},{"line":6,"i_lat":-6.288927,"station_name":"Jurangmangu","station_id":"JMU","time":4,"i_long":106.728916,"transit":false,"distance":1994,"is_transit":false},{"i_lat":-6.276362,"i_long":106.74273,"line":6,"station_id":"PDJ","transit":false,"station_name":"Pondokranji","distance":2179,"time":3,"is_transit":false},{"is_transit":false,"i_long":106.780334,"time":8,"distance":6218,"i_lat":-6.237242,"line":6,"transit":false,"station_id":"KBY","station_name":"Kebayoran"},{"transit":false,"distance":3737,"time":7,"i_lat":-6.207404,"is_transit":false,"station_name":"Palmerah","line":6,"i_long":106.79689,"station_id":"PLM"},{"station_name":"Tanah Abang","i_long":106.811091,"station_id":"THB","distance":3191,"is_transit":true,"line":1,"transit":true,"i_lat":-6.185545,"time":6},{"station_name":"Karet","transit":false,"is_transit":false,"i_long":106.816351,"line":1,"station_id":"KAT","time":5,"distance":2029,"i_lat":-6.20132},{"distance":471,"line":1,"station_id":"SUDB","i_long":106.819881,"station_name":"Sudirman Baru","i_lat":-6.201433,"transit":false,"time":1,"is_transit":false},{"is_transit":false,"time":1,"i_lat":-6.202263,"station_id":"SUD","station_name":"Sudirman","line":1,"i_long":106.822649,"distance":280,"transit":false},{"i_long":106.84912,"station_name":"Manggarai","distance":3186,"is_transit":true,"line":0,"station_id":"MRI","time":4,"i_lat":-6.209883,"transit":true},{"station_id":"TEB","station_name":"Tebet","line":2,"i_lat":-6.226659,"i_long":106.857948,"transit":false,"distance":2610,"time":4,"is_transit":false},{"transit":false,"distance":1230,"is_transit":false,"i_long":106.856607,"station_id":"CW","time":2,"i_lat":-6.242512,"station_name":"Cawang","line":0},{"time":3,"transit":false,"i_lat":-6.255332,"line":0,"distance":1546,"i_long":106.85449,"is_transit":false,"station_id":"DRN","station_name":"Duren Kalibata"},{"transit":false,"station_name":"Pasar Minggu Baru","station_id":"PSMB","distance":824,"i_long":106.851577,"time":2,"is_transit":false,"i_lat":-6.263214,"line":2}],[{"i_long":106.617853,"line":0,"station_id":"CC","time":0,"transit":false,"i_lat":-6.329547,"is_transit":false,"station_name":"Cicayur","distance":0},{"line":0,"is_transit":false,"i_long":106.640411,"time":4,"i_lat":-6.32484,"station_id":"CSK","transit":false,"station_name":"Cisauk","distance":2519},{"time":4,"line":6,"i_long":106.66566,"transit":false,"is_transit":false,"station_id":"SRP","i_lat":-6.319871,"station_name":"Serpong","distance":1784},{"is_transit":false,"i_long":106.675475,"line":6,"distance":2413,"transit":false,"i_lat":-6.314823,"station_id":"RU","station_name":"Rawa Buntu","time":4},{"station_name":"Sudimara","time":6,"is_transit":false,"line":6,"i_long":106.712277,"distance":4566,"i_lat":-6.296963,"transit":false,"station_id":"SDM"},{"distance":1994,"i_long":106.728916,"i_lat":-6.288927,"transit":false,"station_name":"Jurangmangu","is_transit":false,"time":4,"station_id":"JMU","line":6},{"time":3,"i_long":106.74273,"distance":2179,"transit":false,"i_lat":-6.276362,"line":6,"station_id":"PDJ","is_transit":false,"station_name":"Pondokranji"},{"station_name":"Kebayoran","line":6,"time":8,"i_lat":-6.237242,"transit":false,"is_transit":false,"distance":6218,"i_long":106.780334,"station_id":"KBY"},{"i_long":106.79689,"station_name":"Palmerah","is_transit":false,"distance":3737,"transit":false,"i_lat":-6.207404,"line":6,"station_id":"PLM","time":7},{"transit":true,"is_transit":true,"line":1,"time":6,"i_lat":-6.185545,"station_id":"THB","station_name":"Tanah Abang","distance":3191,"i_long":106.811091},{"station_name":"Duri","transit":true,"is_transit":true,"station_id":"DU","i_long":106.800832,"line":1,"time":8,"i_lat":-6.155215,"distance":3632},{"station_id":"AK","line":0,"distance":1230,"is_transit":false,"time":4,"i_lat":-6.144674,"i_long":106.79867,"transit":false,"station_name":"Angke"},{"station_name":"Kampung Bandan","line":0,"station_id":"KPB","distance":4102,"time":9,"transit":false,"i_long":106.826365,"i_lat":-6.132549,"is_transit":true},{"transit":true,"station_id":"JAKK","station_name":"Jakarta Kota","i_lat":-6.137569,"i_long":106.812439,"distance":1364,"is_transit":true,"time":3,"line":0},{"is_transit":false,"station_name":"Jayakarta","i_long":106.820901,"line":7,"station_id":"JAY","time":4,"i_lat":-6.141205,"distance":1264,"transit":false},{"time":2,"is_transit":false,"line":2,"station_name":"Manggabesar","distance":1080,"i_lat":-6.149769,"transit":false,"i_long":106.82482,"station_id":"MGB"},{"station_id":"SW","distance":906,"is_transit":false,"time":2,"i_long":106.827103,"station_name":"Sawah Besar","line":2,"i_lat":-6.160725,"transit":false},{"i_lat":-6.166716,"is_transit":false,"time":2,"i_long":106.828284,"distance":1149,"line":2,"station_id":"JUA","station_name":"Juanda","transit":false},{"line":2,"is_transit":false,"i_long":106.832183,"station_name":"Gondangdia","i_lat":-6.186295,"distance":2015,"station_id":"GDD","transit":false,"time":4},{"i_long":106.840169,"line":0,"transit":false,"i_lat":-6.198556,"time":3,"distance":1750,"station_id":"CKI","station_name":"Cikini","is_transit":false},{"station_name":"Manggarai","i_long":106.84912,"time":4,"transit":true,"station_id":"MRI","line":0,"is_transit":true,"i_lat":-6.209883,"distance":1590},{"distance":2610,"is_transit":false,"station_name":"Tebet","transit":false,"i_lat":-6.226659,"i_long":106.857948,"station_id":"TEB","time":4,"line":2},{"station_id":"CW","line":0,"time":2,"is_transit":false,"transit":false,"i_long":106.856607,"station_name":"Cawang","i_lat":-6.242512,"distance":1230},{"transit":false,"distance":1546,"station_name":"Duren Kalibata","is_transit":false,"line":0,"i_lat":-6.255332,"time":3,"i_long":106.85449,"station_id":"DRN"},{"is_transit":false,"i_lat":-6.263214,"station_name":"Pasar Minggu Baru","time":2,"station_id":"PSMB","i_long":106.851577,"line":2,"distance":824,"transit":false}],[{"is_transit":false,"time":0,"i_lat":-6.329547,"station_id":"CC","i_long":106.617853,"transit":false,"line":0,"distance":0,"station_name":"Cicayur"},{"time":4,"station_name":"Cisauk","i_long":106.640411,"distance":2519,"transit":false,"i_lat":-6.32484,"is_transit":false,"station_id":"CSK","line":0},{"time":4,"i_lat":-6.319871,"station_name":"Serpong","station_id":"SRP","i_long":106.66566,"transit":false,"distance":1784,"is_transit":false,"line":6},{"transit":false,"line":6,"distance":2413,"time":4,"station_id":"RU","is_transit":false,"i_lat":-6.314823,"i_long":106.675475,"station_name":"Rawa Buntu"},{"transit":false,"i_long":106.712277,"station_id":"SDM","time":6,"is_transit":false,"distance":4566,"station_name":"Sudimara","line":6,"i_lat":-6.296963},{"is_transit":false,"distance":1994,"station_name":"Jurangmangu","transit":false,"time":4,"i_lat":-6.288927,"i_long":106.728916,"line":6,"station_id":"JMU"},{"i_long":106.74273,"distance":2179,"transit":false,"line":6,"station_name":"Pondokranji","station_id":"PDJ","i_lat":-6.276362,"is_transit":false,"time":3},{"is_transit":false,"station_id":"KBY","i_lat":-6.237242,"transit":false,"station_name":"Kebayoran","distance":6218,"time":8,"i_long":106.780334,"line":6},{"time":7,"i_long":106.79689,"is_transit":false,"station_name":"Palmerah","distance":3737,"line":6,"transit":false,"station_id":"PLM","i_lat":-6.207404},{"is_transit":true,"i_lat":-6.185545,"transit":true,"i_long":106.811091,"line":1,"station_name":"Tanah Abang","time":6,"distance":3191,"station_id":"THB"},{"i_lat":-6.155215,"line":1,"distance":3632,"i_long":106.800832,"station_id":"DU","station_name":"Duri","is_transit":true,"time":8,"transit":true},{"station_name":"Angke","is_transit":false,"i_long":106.79867,"line":0,"time":4,"transit":false,"distance":1230,"i_lat":-6.144674,"station_id":"AK"},{"i_long":106.826365,"time":9,"line":0,"transit":true,"distance":4102,"is_transit":true,"station_name":"Kampung Bandan","i_lat":-6.132549,"station_id":"KPB"},{"distance":1444,"i_long":106.836569,"station_id":"RJW","line":11,"station_name":"Rajawali","is_transit":false,"time":3,"i_lat":-6.14505,"transit":false},{"station_name":"Kemayoran","distance":1901,"transit":false,"is_transit":false,"i_lat":-6.161728,"time":5,"station_id":"KMO","i_long":106.839204,"line":11},{"transit":false,"station_name":"Pasar Senen","i_long":106.84368,"time":4,"i_lat":-6.174784,"station_id":"PSE","is_transit":false,"distance":1436,"line":11},{"transit":false,"distance":1567,"time":8,"station_id":"GST","is_transit":false,"station_name":"Gang Sentiong","i_lat":-6.185975,"i_long":106.850107,"line":11},{"transit":false,"i_lat":-6.193792,"distance":973,"time":1,"station_id":"KMT","i_long":106.855437,"station_name":"Kramat","is_transit":false,"line":11},{"i_long":106.861737,"transit":false,"station_id":"POK","time":2,"is_transit":false,"i_lat":-6.209188,"line":11,"station_name":"Pondok Jati","distance":1829},{"transit":true,"station_name":"Jatinegara","i_long":106.86807400000001,"distance":1236,"i_lat":-6.215091,"station_id":"JNG","is_transit":true,"time":9,"line":0},{"station_id":"MTR","station_name":"Matraman","is_transit":false,"i_lat":-6.212485,"distance":1377,"transit":false,"time":2,"i_long":106.858896,"line":1},{"time":2,"distance":1275,"transit":true,"station_id":"MRI","station_name":"Manggarai","is_transit":true,"i_long":106.84912,"line":0,"i_lat":-6.209883},{"station_id":"TEB","station_name":"Tebet","distance":2610,"time":4,"is_transit":false,"transit":false,"i_lat":-6.226659,"i_long":106.857948,"line":2},{"is_transit":false,"line":0,"station_name":"Cawang","distance":1230,"transit":false,"station_id":"CW","time":2,"i_long":106.856607,"i_lat":-6.242512},{"line":0,"i_long":106.85449,"station_id":"DRN","transit":false,"distance":1546,"time":3,"is_transit":false,"station_name":"Duren Kalibata","i_lat":-6.255332},{"line":2,"transit":false,"is_transit":false,"i_lat":-6.263214,"station_id":"PSMB","station_name":"Pasar Minggu Baru","distance":824,"i_long":106.851577,"time":2}]]}