{"data":[[{"distance":0,"line":3,"station_id":"CC","station_name":"Cicayur","transit":false,"i_lat":-6.329547,"time":0,"i_long":106.617853,"is_transit":false},{"line":3,"distance":2519,"i_lat":-6.32484,"station_name":"Cisauk","is_transit":false,"station_id":"CSK","time":4,"transit":false,"i_long":106.640411},{"transit":false,"station_id":"SRP","time":4,"i_lat":-6.319871,"station_name":"Serpong","is_transit":false,"distance":1784,"line":6,"i_long":106.66566},{"time":4,"station_id":"RU","transit":false,"i_long":106.675475,"i_lat":-6.314823,"line":6,"is_transit":false,"distance":2413,"station_name":"Rawa Buntu"},{"station_name":"Sudimara","station_id":"SDM","i_long":106.712277,"distance":4566,"time":6,"is_transit":false,"transit":false,"i_lat":-6.296963,"line":6},{"station_name":"Jurangmangu","is_transit":false,"distance":1994,"i_long":106.728916,"i_lat":-6.288927,"transit":false,"station_id":"JMU","time":4,"line":6},{"station_name":"Pondokranji","station_id":"PDJ","time":3,"distance":2179,"transit":false,"i_lat":-6.276362,"line":6,"is_transit":false,"i_long":106.74273},{"line":6,"is_transit":false,"time":8,"station_name":"Kebayoran","i_long":106.780334,"transit":false,"station_id":"KBY","i_lat":-6.237242,"distance":6218},{"i_lat":-6.207404,"distance":3737,"transit":false,"line":6,"time":7,"station_id":"PLM","i_long":106.79689,"station_name":"Palmerah","is_transit":false},{"i_long":106.811091,"time":6,"station_id":"THB","is_transit":true,"distance":3191,"i_lat":-6.185545,"station_name":"Tanah Abang","line":1,"transit":true},{"is_transit":true,"distance":3632,"station_id":"DU","i_long":106.800832,"station_name":"Duri","line":1,"i_lat":-6.155215,"transit":true,"time":8},{"transit":false,"distance":1700,"line":5,"i_lat":-6.162021,"time":3,"station_id":"GGL","is_transit":false,"station_name":"Grogol","i_long":106.788277},{"station_id":"PSG","i_lat":-6.161433,"i_long":106.771379,"transit":false,"line":5,"distance":2036,"station_name":"Pesing","is_transit":false,"time":2},{"station_id":"TKO","i_long":106.756522,"is_transit":false,"time":2,"distance":1614,"line":5,"transit":false,"i_lat":-6.1587309999999995,"station_name":"Taman Kota"},{"transit":false,"i_lat":-6.159876,"i_long":106.737035,"time":2,"station_name":"Bojongindah","station_id":"BOI","is_transit":false,"distance":2334,"line":5},{"transit":false,"is_transit":false,"time":4,"station_id":"RW","distance":1152,"i_lat":-6.162758,"i_long":106.723064,"station_name":"Rawa Buaya","line":5},{"time":3,"transit":false,"distance":2504,"i_lat":-6.166068,"i_long":106.701612,"line":5,"is_transit":false,"station_id":"KDS","station_name":"Kalideres"},{"station_name":"Poris","distance":2548,"i_lat":-6.169933,"is_transit":false,"time":3,"line":5,"i_long":106.679458,"transit":false,"station_id":"PI"}],[{"is_transit":false,"station_id":"CC","time":0,"i_long":106.617853,"station_name":"Cicayur","distance":0,"i_lat":-6.329547,"line":3,"transit":false},{"i_lat":-6.32484,"time":4,"is_transit":false,"line":3,"distance":2519,"station_id":"CSK","station_name":"Cisauk","i_long":106.640411,"transit":false},{"line":6,"station_id":"SRP","i_lat":-6.319871,"transit":false,"is_transit":false,"station_name":"Serpong","time":4,"distance":1784,"i_long":106.66566},{"distance":2413,"line":6,"is_transit":false,"transit":false,"i_long":106.675475,"i_lat":-6.314823,"time":4,"station_id":"RU","station_name":"Rawa Buntu"},{"i_lat":-6.296963,"is_transit":false,"time":6,"station_id":"SDM","i_long":106.712277,"transit":false,"station_name":"Sudimara","line":6,"distance":4566},{"line":6,"station_name":"Jurangmangu","is_transit":false,"i_long":106.728916,"distance":1994,"station_id":"JMU","time":4,"transit":false,"i_lat":-6.288927},{"station_id":"PDJ","i_lat":-6.276362,"time":3,"distance":2179,"station_name":"Pondokranji","i_long":106.74273,"line":6,"transit":false,"is_transit":false},{"station_name":"Kebayoran","transit":false,"i_long":106.780334,"i_lat":-6.237242,"is_transit":false,"line":6,"time":8,"station_id":"KBY","distance":6218},{"i_long":106.79689,"station_name":"Palmerah","time":7,"line":6,"is_transit":false,"transit":false,"station_id":"PLM","distance":3737,"i_lat":-6.207404},{"i_lat":-6.185545,"is_transit":true,"station_name":"Tanah Abang","transit":true,"distance":3191,"i_long":106.811091,"line":1,"station_id":"THB","time":6},{"time":5,"i_lat":-6.20132,"station_id":"KAT","station_name":"Karet","is_transit":false,"transit":false,"distance":2029,"i_long":106.816351,"line":1},{"line":1,"station_id":"SUDB","distance":471,"time":1,"transit":false,"i_lat":-6.201433,"is_transit":false,"station_name":"Sudirman Baru","i_long":106.819881},{"station_id":"SUD","line":1,"is_transit":false,"i_lat":-6.202263,"distance":280,"i_long":106.822649,"transit":false,"station_name":"Sudirman","time":1},{"time":4,"distance":3186,"i_long":106.84912,"station_name":"Manggarai","transit":true,"station_id":"MRI","is_transit":true,"i_lat":-6.209883,"line":2},{"time":4,"station_name":"Cikini","station_id":"CKI","is_transit":false,"i_long":106.840169,"transit":false,"i_lat":-6.198556,"line":2,"distance":1590},{"station_id":"GDD","time":3,"transit":false,"i_long":106.832183,"line":2,"station_name":"Gondangdia","i_lat":-6.186295,"is_transit":false,"distance":1750},{"is_transit":false,"transit":false,"i_long":106.828284,"line":2,"distance":2015,"time":4,"station_name":"Juanda","station_id":"JUA","i_lat":-6.166716},{"i_lat":-6.160725,"station_name":"Sawah Besar","time":2,"i_long":106.827103,"distance":1149,"station_id":"SW","line":2,"transit":false,"is_transit":false},{"is_transit":false,"line":2,"time":2,"i_long":106.82482,"i_lat":-6.149769,"station_name":"Manggabesar","transit":false,"station_id":"MGB","distance":906},{"time":2,"distance":1080,"i_long":106.820901,"station_name":"Jayakarta","line":2,"is_transit":false,"i_lat":-6.141205,"transit":false,"station_id":"JAY"},{"i_lat":-6.137569,"is_transit":true,"line":2,"transit":true,"time":4,"station_id":"JAKK","i_long":106.812439,"station_name":"Jakarta Kota","distance":1264},{"i_lat":-6.132549,"is_transit":true,"transit":true,"line":4,"time":3,"distance":1364,"station_name":"Kampung Bandan","i_long":106.826365,"station_id":"KPB"},{"station_id":"AK","time":9,"i_lat":-6.144674,"i_long":106.79867,"line":1,"station_name":"Angke","is_transit":false,"transit":false,"distance":4102},{"transit":true,"time":4,"i_long":106.800832,"line":1,"station_id":"DU","is_transit":true,"i_lat":-6.155215,"distance":1230,"station_name":"Duri"},{"distance":1700,"i_long":106.788277,"i_lat":-6.162021,"station_name":"Grogol","is_transit":false,"time":3,"line":5,"station_id":"GGL","transit":false},{"transit":false,"is_transit":false,"station_name":"Pesing","i_long":106.771379,"line":5,"station_id":"PSG","distance":2036,"i_lat":-6.161433,"time":2},{"line":5,"time":2,"distance":1614,"is_transit":false,"station_name":"Taman Kota","station_id":"TKO","i_lat":-6.1587309999999995,"i_long":106.756522,"transit":false},{"station_id":"BOI","is_transit":false,"distance":2334,"i_lat":-6.159876,"station_name":"Bojongindah","time":2,"i_long":106.737035,"line":5,"transit":false},{"is_transit":false,"distance":1152,"i_long":106.723064,"i_lat":-6.162758,"time":4,"station_id":"RW","transit":false,"line":5,"station_name":"Rawa Buaya"},{"i_long":106.701612,"i_lat":-6.166068,"is_transit":false,"station_name":"Kalideres","distance":2504,"transit":false,"station_id":"KDS","line":5,"time":3},{"time":3,"i_long":106.679458,"line":5,"i_lat":-6.169933,"station_name":"Poris","transit":false,"is_transit":false,"station_id":"PI","distance":2548}],[{"i_long":106.617853,"is_transit":false,"line":3,"station_id":"CC","i_lat":-6.329547,"station_name":"Cicayur","transit":false,"time":0,"distance":0},{"station_name":"Cisauk","time":4,"is_transit":false,"transit":false,"i_lat":-6.32484,"i_long":106.640411,"line":3,"distance":2519,"station_id":"CSK"},{"distance":1784,"station_id":"SRP","i_long":106.66566,"line":6,"i_lat":-6.319871,"time":4,"station_name":"Serpong","transit":false,"is_transit":false},{"distance":2413,"time":4,"i_long":106.675475,"line":6,"station_name":"Rawa Buntu","station_id":"RU","is_transit":false,"transit":false,"i_lat":-6.314823},{"transit":false,"distance":4566,"station_name":"Sudimara","is_transit":false,"station_id":"SDM","i_lat":-6.296963,"time":6,"i_long":106.712277,"line":6},{"distance":1994,"transit":false,"i_long":106.728916,"line":6,"station_id":"JMU","time":4,"is_transit":false,"station_name":"Jurangmangu","i_lat":-6.288927},{"i_lat":-6.276362,"time":3,"line":6,"station_name":"Pondokranji","distance":2179,"i_long":106.74273,"is_transit":false,"transit":false,"station_id":"PDJ"},{"i_long":106.780334,"line":6,"transit":false,"station_name":"Kebayoran","station_id":"KBY","is_transit":false,"time":8,"distance":6218,"i_lat":-6.237242},{"line":6,"station_name":"Palmerah","distance":3737,"i_lat":-6.207404,"i_long":106.79689,"station_id":"PLM","time":7,"transit":false,"is_transit":false},{"distance":3191,"i_lat":-6.185545,"station_id":"THB","is_transit":true,"time":6,"station_name":"Tanah Abang","line":1,"transit":true,"i_long":106.811091},{"i_long":106.816351,"line":1,"time":5,"is_transit":false,"station_id":"KAT","transit":false,"station_name":"Karet","i_lat":-6.20132,"distance":2029},{"is_transit":false,"line":1,"i_lat":-6.201433,"station_name":"Sudirman Baru","i_long":106.819881,"station_id":"SUDB","transit":false,"distance":471,"time":1},{"i_long":106.822649,"station_name":"Sudirman","station_id":"SUD","distance":280,"transit":false,"i_lat":-6.202263,"line":1,"time":1,"is_transit":false},{"i_lat":-6.209883,"station_name":"Manggarai","distance":3186,"is_transit":false,"station_id":"MRI","i_long":106.84912,"transit":false,"line":2,"time":4},{"i_lat":-6.212485,"distance":1275,"i_long":106.858896,"time":2,"station_id":"MTR","line":1,"transit":false,"is_transit":false,"station_name":"Matraman"},{"station_name":"Jatinegara","station_id":"JNG","time":8,"distance":1377,"i_lat":-6.215091,"i_long":106.86807400000001,"line":1,"transit":true,"is_transit":true},{"is_transit":false,"line":11,"transit":false,"station_name":"Pondok Jati","distance":1236,"station_id":"POK","i_lat":-6.209188,"time":2,"i_long":106.861737},{"is_transit":false,"i_long":106.855437,"distance":1829,"i_lat":-6.193792,"line":11,"station_name":"Kramat","station_id":"KMT","time":2,"transit":false},{"distance":973,"station_name":"Gang Sentiong","is_transit":false,"time":1,"station_id":"GST","transit":false,"i_long":106.850107,"line":11,"i_lat":-6.185975},{"station_id":"PSE","line":11,"is_transit":false,"transit":false,"station_name":"Pasar Senen","distance":1567,"i_lat":-6.174784,"time":8,"i_long":106.84368},{"distance":1436,"i_long":106.839204,"i_lat":-6.161728,"station_id":"KMO","time":4,"transit":false,"station_name":"Kemayoran","is_transit":false,"line":11},{"i_long":106.836569,"station_name":"Rajawali","is_transit":false,"transit":false,"station_id":"RJW","distance":1901,"i_lat":-6.14505,"line":11,"time":5},{"transit":true,"distance":1444,"station_id":"KPB","i_lat":-6.132549,"i_long":106.826365,"line":4,"is_transit":true,"station_name":"Kampung Bandan","time":3},{"i_long":106.79867,"line":1,"station_id":"AK","i_lat":-6.144674,"transit":false,"is_transit":false,"time":9,"station_name":"Angke","distance":4102},{"is_transit":true,"station_name":"Duri","distance":1230,"station_id":"DU","transit":true,"i_long":106.800832,"i_lat":-6.155215,"line":1,"time":4},{"line":5,"distance":1700,"is_transit":false,"i_lat":-6.162021,"transit":false,"station_name":"Grogol","station_id":"GGL","i_long":106.788277,"time":3},{"station_id":"PSG","is_transit":false,"i_long":106.771379,"station_name":"Pesing","transit":false,"time":2,"distance":2036,"i_lat":-6.161433,"line":5},{"i_long":106.756522,"line":5,"distance":1614,"station_id":"TKO","station_name":"Taman Kota","time":2,"i_lat":-6.1587309999999995,"transit":false,"is_transit":false},{"station_id":"BOI","is_transit":false,"transit":false,"time":2,"station_name":"Bojongindah","line":5,"distance":2334,"i_long":106.737035,"i_lat":-6.159876},{"is_transit":false,"time":4,"i_lat":-6.162758,"i_long":106.723064,"station_name":"Rawa Buaya","transit":false,"distance":1152,"line":5,"station_id":"RW"},{"transit":false,"station_name":"Kalideres","station_id":"KDS","is_transit":false,"distance":2504,"i_lat":-6.166068,"i_long":106.701612,"line":5,"time":3},{"i_lat":-6.169933,"line":5,"distance":2548,"transit":false,"is_transit":false,"station_id":"PI","station_name":"Poris","time":3,"i_long":106.679458}]]}