{"data":[[{"transit":false,"line":3,"distance":0,"i_lat":-6.329547,"station_name":"Cicayur","is_transit":false,"time":0,"station_id":"CC","i_long":106.617853},{"line":3,"station_name":"Cisauk","time":4,"station_id":"CSK","distance":2519,"i_lat":-6.32484,"transit":false,"i_long":106.640411,"is_transit":false},{"line":6,"transit":false,"i_long":106.66566,"station_name":"Serpong","is_transit":false,"station_id":"SRP","time":4,"distance":1784,"i_lat":-6.319871},{"time":4,"is_transit":false,"station_name":"Rawa Buntu","line":6,"distance":2413,"station_id":"RU","i_lat":-6.314823,"transit":false,"i_long":106.675475},{"station_id":"SDM","i_long":106.712277,"transit":false,"distance":4566,"is_transit":false,"i_lat":-6.296963,"station_name":"Sudimara","time":6,"line":6},{"i_lat":-6.288927,"is_transit":false,"station_id":"JMU","distance":1994,"transit":false,"i_long":106.728916,"station_name":"Jurangmangu","line":6,"time":4},{"time":3,"i_lat":-6.276362,"distance":2179,"transit":false,"station_name":"Pondokranji","i_long":106.74273,"line":6,"station_id":"PDJ","is_transit":false},{"station_name":"Kebayoran","transit":false,"distance":6218,"station_id":"KBY","time":8,"line":6,"i_lat":-6.237242,"is_transit":false,"i_long":106.780334},{"is_transit":false,"transit":false,"station_name":"Palmerah","station_id":"PLM","distance":3737,"i_lat":-6.207404,"line":6,"time":7,"i_long":106.79689},{"station_name":"Tanah Abang","station_id":"THB","line":1,"time":6,"transit":true,"is_transit":true,"distance":3191,"i_long":106.811091,"i_lat":-6.185545},{"station_name":"Duri","transit":true,"is_transit":true,"distance":3632,"i_lat":-6.155215,"time":8,"station_id":"DU","i_long":106.800832,"line":1},{"is_transit":false,"station_name":"Grogol","distance":1700,"line":5,"time":3,"station_id":"GGL","i_long":106.788277,"transit":false,"i_lat":-6.162021},{"station_id":"PSG","distance":2036,"i_lat":-6.161433,"i_long":106.771379,"station_name":"Pesing","transit":false,"is_transit":false,"line":5,"time":2}],[{"is_transit":false,"station_name":"Cicayur","distance":0,"i_long":106.617853,"line":3,"i_lat":-6.329547,"transit":false,"station_id":"CC","time":0},{"line":3,"station_name":"Cisauk","transit":false,"i_long":106.640411,"station_id":"CSK","time":4,"is_transit":false,"i_lat":-6.32484,"distance":2519},{"transit":false,"line":6,"distance":1784,"station_name":"Serpong","i_long":106.66566,"is_transit":false,"station_id":"SRP","time":4,"i_lat":-6.319871},{"i_long":106.675475,"station_name":"Rawa Buntu","transit":false,"is_transit":false,"station_id":"RU","time":4,"i_lat":-6.314823,"line":6,"distance":2413},{"transit":false,"station_id":"SDM","line":6,"time":6,"is_transit":false,"distance":4566,"station_name":"Sudimara","i_lat":-6.296963,"i_long":106.712277},{"transit":false,"is_transit":false,"distance":1994,"i_lat":-6.288927,"station_name":"Jurangmangu","i_long":106.728916,"line":6,"station_id":"JMU","time":4},{"station_name":"Pondokranji","distance":2179,"time":3,"line":6,"transit":false,"i_long":106.74273,"i_lat":-6.276362,"station_id":"PDJ","is_transit":false},{"i_lat":-6.237242,"station_id":"KBY","station_name":"Kebayoran","distance":6218,"i_long":106.780334,"transit":false,"line":6,"is_transit":false,"time":8},{"station_id":"PLM","i_lat":-6.207404,"station_name":"Palmerah","is_transit":false,"line":6,"distance":3737,"time":7,"i_long":106.79689,"transit":false},{"distance":3191,"station_name":"Tanah Abang","is_transit":true,"i_lat":-6.185545,"time":6,"i_long":106.811091,"line":1,"station_id":"THB","transit":true},{"station_id":"KAT","transit":false,"is_transit":false,"distance":2029,"line":1,"time":5,"station_name":"Karet","i_long":106.816351,"i_lat":-6.20132},{"line":1,"is_transit":false,"transit":false,"station_name":"Sudirman Baru","station_id":"SUDB","distance":471,"i_lat":-6.201433,"time":1,"i_long":106.819881},{"i_lat":-6.202263,"i_long":106.822649,"line":1,"station_id":"SUD","station_name":"Sudirman","transit":false,"is_transit":false,"time":1,"distance":280},{"i_lat":-6.209883,"transit":true,"i_long":106.84912,"time":4,"is_transit":true,"distance":3186,"station_id":"MRI","line":2,"station_name":"Manggarai"},{"i_lat":-6.198556,"i_long":106.840169,"line":2,"transit":false,"is_transit":false,"distance":1590,"time":4,"station_name":"Cikini","station_id":"CKI"},{"time":3,"i_long":106.832183,"transit":false,"station_name":"Gondangdia","station_id":"GDD","is_transit":false,"distance":1750,"i_lat":-6.186295,"line":2},{"is_transit":false,"station_id":"JUA","distance":2015,"station_name":"Juanda","line":2,"i_lat":-6.166716,"time":4,"transit":false,"i_long":106.828284},{"station_id":"SW","distance":1149,"i_long":106.827103,"line":2,"transit":false,"i_lat":-6.160725,"station_name":"Sawah Besar","is_transit":false,"time":2},{"distance":906,"station_id":"MGB","station_name":"Manggabesar","time":2,"i_long":106.82482,"i_lat":-6.149769,"line":2,"transit":false,"is_transit":false},{"station_id":"JAY","transit":false,"i_long":106.820901,"i_lat":-6.141205,"is_transit":false,"line":2,"time":2,"station_name":"Jayakarta","distance":1080},{"station_name":"Jakarta Kota","station_id":"JAKK","i_lat":-6.137569,"distance":1264,"time":4,"i_long":106.812439,"line":2,"transit":true,"is_transit":true},{"station_name":"Kampung Bandan","i_lat":-6.132549,"line":4,"transit":true,"station_id":"KPB","time":3,"is_transit":true,"i_long":106.826365,"distance":1364},{"line":1,"transit":false,"station_id":"AK","station_name":"Angke","time":9,"i_lat":-6.144674,"i_long":106.79867,"distance":4102,"is_transit":false},{"i_long":106.800832,"line":1,"station_id":"DU","time":4,"distance":1230,"is_transit":true,"station_name":"Duri","transit":true,"i_lat":-6.155215},{"i_lat":-6.162021,"is_transit":false,"i_long":106.788277,"station_id":"GGL","station_name":"Grogol","time":3,"line":5,"distance":1700,"transit":false},{"station_name":"Pesing","is_transit":false,"line":5,"i_long":106.771379,"transit":false,"time":2,"distance":2036,"i_lat":-6.161433,"station_id":"PSG"}],[{"line":3,"transit":false,"station_name":"Cicayur","station_id":"CC","distance":0,"i_lat":-6.329547,"time":0,"i_long":106.617853,"is_transit":false},{"line":3,"transit":false,"i_lat":-6.32484,"is_transit":false,"time":4,"i_long":106.640411,"station_id":"CSK","station_name":"Cisauk","distance":2519},{"i_lat":-6.319871,"station_id":"SRP","is_transit":false,"line":6,"i_long":106.66566,"station_name":"Serpong","distance":1784,"transit":false,"time":4},{"distance":2413,"i_lat":-6.314823,"line":6,"transit":false,"station_id":"RU","is_transit":false,"station_name":"Rawa Buntu","time":4,"i_long":106.675475},{"station_name":"Sudimara","transit":false,"distance":4566,"i_lat":-6.296963,"i_long":106.712277,"is_transit":false,"line":6,"station_id":"SDM","time":6},{"i_long":106.728916,"is_transit":false,"transit":false,"station_name":"Jurangmangu","station_id":"JMU","time":4,"distance":1994,"i_lat":-6.288927,"line":6},{"transit":false,"distance":2179,"time":3,"station_id":"PDJ","station_name":"Pondokranji","i_lat":-6.276362,"i_long":106.74273,"line":6,"is_transit":false},{"i_lat":-6.237242,"station_id":"KBY","station_name":"Kebayoran","time":8,"i_long":106.780334,"line":6,"is_transit":false,"distance":6218,"transit":false},{"line":6,"time":7,"distance":3737,"i_lat":-6.207404,"i_long":106.79689,"station_id":"PLM","station_name":"Palmerah","transit":false,"is_transit":false},{"time":6,"station_id":"THB","station_name":"Tanah Abang","line":1,"i_long":106.811091,"is_transit":true,"transit":true,"distance":3191,"i_lat":-6.185545},{"distance":2029,"station_id":"KAT","i_long":106.816351,"line":1,"transit":false,"station_name":"Karet","time":5,"is_transit":false,"i_lat":-6.20132},{"distance":471,"i_long":106.819881,"station_name":"Sudirman Baru","station_id":"SUDB","is_transit":false,"transit":false,"i_lat":-6.201433,"line":1,"time":1},{"station_name":"Sudirman","i_lat":-6.202263,"line":1,"is_transit":false,"distance":280,"transit":false,"station_id":"SUD","time":1,"i_long":106.822649},{"distance":3186,"i_long":106.84912,"is_transit":false,"time":4,"line":2,"station_name":"Manggarai","station_id":"MRI","i_lat":-6.209883,"transit":false},{"time":2,"station_id":"MTR","i_lat":-6.212485,"i_long":106.858896,"distance":1275,"line":1,"is_transit":false,"transit":false,"station_name":"Matraman"},{"line":1,"distance":1377,"time":8,"station_name":"Jatinegara","transit":true,"station_id":"JNG","is_transit":true,"i_long":106.86807400000001,"i_lat":-6.215091},{"transit":false,"time":2,"is_transit":false,"distance":1236,"line":11,"i_long":106.861737,"station_name":"Pondok Jati","station_id":"POK","i_lat":-6.209188},{"i_lat":-6.193792,"station_id":"KMT","transit":false,"i_long":106.855437,"line":11,"is_transit":false,"station_name":"Kramat","distance":1829,"time":2},{"i_lat":-6.185975,"transit":false,"station_name":"Gang Sentiong","time":1,"is_transit":false,"station_id":"GST","distance":973,"line":11,"i_long":106.850107},{"station_id":"PSE","line":11,"station_name":"Pasar Senen","distance":1567,"i_lat":-6.174784,"transit":false,"time":8,"is_transit":false,"i_long":106.84368},{"transit":false,"station_name":"Kemayoran","line":11,"time":4,"station_id":"KMO","i_lat":-6.161728,"distance":1436,"is_transit":false,"i_long":106.839204},{"transit":false,"station_id":"RJW","is_transit":false,"distance":1901,"time":5,"line":11,"i_lat":-6.14505,"i_long":106.836569,"station_name":"Rajawali"},{"time":3,"station_id":"KPB","i_lat":-6.132549,"line":4,"station_name":"Kampung Bandan","transit":true,"i_long":106.826365,"is_transit":true,"distance":1444},{"time":9,"is_transit":false,"distance":4102,"i_lat":-6.144674,"i_long":106.79867,"station_name":"Angke","line":1,"transit":false,"station_id":"AK"},{"transit":true,"distance":1230,"is_transit":true,"line":1,"station_id":"DU","i_long":106.800832,"station_name":"Duri","time":4,"i_lat":-6.155215},{"time":3,"is_transit":false,"distance":1700,"station_name":"Grogol","line":5,"i_lat":-6.162021,"i_long":106.788277,"transit":false,"station_id":"GGL"},{"station_name":"Pesing","is_transit":false,"i_long":106.771379,"line":5,"station_id":"PSG","distance":2036,"i_lat":-6.161433,"transit":false,"time":2}]]}