{"data":[[{"i_long":106.617853,"distance":0,"line":3,"i_lat":-6.329547,"time":0,"station_id":"CC","station_name":"Cicayur","is_transit":false,"transit":false},{"is_transit":false,"time":4,"line":3,"station_name":"Cisauk","station_id":"CSK","i_long":106.640411,"transit":false,"i_lat":-6.32484,"distance":2519},{"i_lat":-6.319871,"line":6,"station_name":"Serpong","station_id":"SRP","transit":false,"distance":1784,"is_transit":false,"i_long":106.66566,"time":4},{"line":6,"is_transit":false,"time":4,"distance":2413,"station_name":"Rawa Buntu","transit":false,"station_id":"RU","i_lat":-6.314823,"i_long":106.675475},{"station_name":"Sudimara","time":6,"is_transit":false,"station_id":"SDM","i_long":106.712277,"line":6,"i_lat":-6.296963,"transit":false,"distance":4566},{"transit":false,"distance":1994,"station_name":"Jurangmangu","line":6,"i_lat":-6.288927,"time":4,"i_long":106.728916,"station_id":"JMU","is_transit":false},{"station_id":"PDJ","i_lat":-6.276362,"distance":2179,"time":3,"is_transit":false,"station_name":"Pondokranji","transit":false,"i_long":106.74273,"line":6},{"i_lat":-6.237242,"line":6,"station_id":"KBY","transit":false,"station_name":"Kebayoran","i_long":106.780334,"distance":6218,"is_transit":false,"time":8},{"transit":false,"i_lat":-6.207404,"station_id":"PLM","i_long":106.79689,"line":6,"distance":3737,"time":7,"station_name":"Palmerah","is_transit":false},{"transit":true,"i_long":106.811091,"station_id":"THB","line":1,"distance":3191,"i_lat":-6.185545,"station_name":"Tanah Abang","is_transit":true,"time":6},{"time":8,"station_id":"DU","station_name":"Duri","is_transit":true,"transit":true,"line":1,"i_long":106.800832,"distance":3632,"i_lat":-6.155215},{"station_id":"GRG","i_lat":-6.162021,"i_long":106.788277,"time":3,"station_name":"Grogol","is_transit":false,"line":5,"distance":1700,"transit":false},{"i_lat":-6.161433,"i_long":106.771379,"station_id":"PSG","time":2,"station_name":"Pesing","is_transit":false,"transit":false,"line":5,"distance":2036}],[{"transit":false,"line":3,"i_lat":-6.329547,"distance":0,"station_id":"CC","station_name":"Cicayur","time":0,"is_transit":false,"i_long":106.617853},{"station_name":"Cisauk","distance":2519,"time":4,"i_long":106.640411,"i_lat":-6.32484,"line":3,"transit":false,"station_id":"CSK","is_transit":false},{"time":4,"distance":1784,"i_lat":-6.319871,"line":6,"i_long":106.66566,"station_name":"Serpong","is_transit":false,"station_id":"SRP","transit":false},{"line":6,"i_long":106.675475,"transit":false,"time":4,"station_id":"RU","station_name":"Rawa Buntu","is_transit":false,"distance":2413,"i_lat":-6.314823},{"station_name":"Sudimara","distance":4566,"is_transit":false,"line":6,"transit":false,"i_lat":-6.296963,"time":6,"i_long":106.712277,"station_id":"SDM"},{"station_name":"Jurangmangu","distance":1994,"is_transit":false,"transit":false,"i_lat":-6.288927,"line":6,"time":4,"i_long":106.728916,"station_id":"JMU"},{"time":3,"distance":2179,"transit":false,"line":6,"i_lat":-6.276362,"is_transit":false,"i_long":106.74273,"station_name":"Pondokranji","station_id":"PDJ"},{"is_transit":false,"i_long":106.780334,"station_id":"KBY","distance":6218,"station_name":"Kebayoran","transit":false,"i_lat":-6.237242,"line":6,"time":8},{"is_transit":false,"distance":3737,"transit":false,"i_lat":-6.207404,"i_long":106.79689,"station_name":"Palmerah","line":6,"time":7,"station_id":"PLM"},{"line":1,"is_transit":true,"i_long":106.811091,"time":6,"distance":3191,"station_name":"Tanah Abang","station_id":"THB","transit":true,"i_lat":-6.185545},{"station_id":"KAT","station_name":"Karet","i_long":106.816351,"time":5,"is_transit":false,"transit":false,"distance":2029,"line":1,"i_lat":-6.20132},{"is_transit":false,"station_name":"Sudirman Baru","time":1,"transit":false,"i_lat":-6.201433,"distance":471,"station_id":"SUDB","i_long":106.819881,"line":1},{"time":1,"line":1,"distance":280,"i_lat":-6.202263,"station_name":"Sudirman","i_long":106.822649,"transit":false,"station_id":"SUD","is_transit":false},{"station_name":"Manggarai","transit":true,"i_long":106.84912,"station_id":"MRI","distance":3186,"is_transit":true,"line":2,"i_lat":-6.209883,"time":4},{"station_name":"Cikini","i_lat":-6.198556,"line":2,"transit":false,"station_id":"CKI","distance":1590,"i_long":106.840169,"is_transit":false,"time":4},{"is_transit":false,"distance":1750,"line":2,"station_name":"Gondangdia","time":3,"station_id":"GDD","transit":false,"i_lat":-6.186295,"i_long":106.832183},{"station_id":"JUA","i_long":106.828284,"line":2,"time":4,"transit":false,"i_lat":-6.166716,"station_name":"Juanda","distance":2015,"is_transit":false},{"i_long":106.827103,"distance":1149,"station_id":"SW","line":2,"time":2,"i_lat":-6.160725,"transit":false,"station_name":"Sawah Besar","is_transit":false},{"is_transit":false,"i_long":106.82482,"i_lat":-6.149769,"station_id":"MGB","transit":false,"station_name":"Manggabesar","line":2,"distance":906,"time":2},{"i_lat":-6.141205,"station_id":"JAY","distance":1080,"line":2,"i_long":106.820901,"transit":false,"station_name":"Jayakarta","time":2,"is_transit":false},{"transit":true,"time":4,"station_name":"Jakarta Kota","i_lat":-6.137569,"line":2,"i_long":106.812439,"distance":1264,"station_id":"JAKK","is_transit":true},{"transit":true,"time":3,"station_id":"KPB","i_long":106.826365,"is_transit":true,"distance":1364,"station_name":"Kampung Bandan","i_lat":-6.132549,"line":4},{"station_id":"AK","transit":false,"time":9,"is_transit":false,"station_name":"Angke","i_lat":-6.144674,"distance":4102,"i_long":106.79867,"line":1},{"i_lat":-6.155215,"distance":1230,"line":1,"is_transit":true,"station_id":"DU","station_name":"Duri","i_long":106.800832,"transit":true,"time":4},{"is_transit":false,"line":5,"i_long":106.788277,"station_id":"GRG","distance":1700,"transit":false,"station_name":"Grogol","i_lat":-6.162021,"time":3},{"is_transit":false,"distance":2036,"i_long":106.771379,"line":5,"i_lat":-6.161433,"time":2,"station_id":"PSG","transit":false,"station_name":"Pesing"}],[{"transit":false,"distance":0,"i_long":106.617853,"station_name":"Cicayur","station_id":"CC","time":0,"i_lat":-6.329547,"line":3,"is_transit":false},{"time":4,"line":3,"distance":2519,"i_long":106.640411,"is_transit":false,"transit":false,"i_lat":-6.32484,"station_id":"CSK","station_name":"Cisauk"},{"i_long":106.66566,"line":6,"station_id":"SRP","transit":false,"is_transit":false,"i_lat":-6.319871,"time":4,"station_name":"Serpong","distance":1784},{"i_long":106.675475,"i_lat":-6.314823,"time":4,"transit":false,"is_transit":false,"distance":2413,"line":6,"station_id":"RU","station_name":"Rawa Buntu"},{"i_lat":-6.296963,"time":6,"line":6,"is_transit":false,"station_id":"SDM","i_long":106.712277,"distance":4566,"transit":false,"station_name":"Sudimara"},{"time":4,"distance":1994,"is_transit":false,"transit":false,"station_id":"JMU","i_long":106.728916,"station_name":"Jurangmangu","i_lat":-6.288927,"line":6},{"transit":false,"time":3,"i_lat":-6.276362,"line":6,"is_transit":false,"station_name":"Pondokranji","distance":2179,"station_id":"PDJ","i_long":106.74273},{"transit":false,"station_name":"Kebayoran","time":8,"distance":6218,"is_transit":false,"i_lat":-6.237242,"i_long":106.780334,"line":6,"station_id":"KBY"},{"distance":3737,"i_lat":-6.207404,"transit":false,"time":7,"is_transit":false,"station_name":"Palmerah","i_long":106.79689,"line":6,"station_id":"PLM"},{"transit":true,"i_lat":-6.185545,"station_id":"THB","is_transit":true,"distance":3191,"i_long":106.811091,"time":6,"station_name":"Tanah Abang","line":1},{"distance":2029,"time":5,"i_long":106.816351,"i_lat":-6.20132,"transit":false,"station_id":"KAT","line":1,"is_transit":false,"station_name":"Karet"},{"is_transit":false,"station_name":"Sudirman Baru","time":1,"distance":471,"transit":false,"i_lat":-6.201433,"line":1,"station_id":"SUDB","i_long":106.819881},{"i_long":106.822649,"line":1,"distance":280,"i_lat":-6.202263,"transit":false,"station_id":"SUD","station_name":"Sudirman","time":1,"is_transit":false},{"time":4,"i_long":106.84912,"i_lat":-6.209883,"line":2,"station_id":"MRI","is_transit":false,"station_name":"Manggarai","distance":3186,"transit":false},{"transit":false,"distance":1275,"time":2,"is_transit":false,"station_id":"MTR","line":1,"i_lat":-6.212485,"station_name":"Matraman","i_long":106.858896},{"time":8,"is_transit":true,"distance":1377,"station_name":"Jatinegara","line":1,"station_id":"JNG","transit":true,"i_lat":-6.215091,"i_long":106.86807400000001},{"time":2,"station_id":"POK","line":11,"is_transit":false,"i_long":106.861737,"station_name":"Pondok Jati","distance":1236,"transit":false,"i_lat":-6.209188},{"is_transit":false,"station_id":"KMT","line":11,"station_name":"Kramat","i_long":106.855437,"distance":1829,"transit":false,"i_lat":-6.193792,"time":2},{"station_id":"GST","time":1,"station_name":"Gang Sentiong","i_long":106.850107,"i_lat":-6.185975,"transit":false,"is_transit":false,"line":11,"distance":973},{"transit":false,"station_name":"Pasar Senen","is_transit":false,"line":11,"i_long":106.84368,"i_lat":-6.174784,"station_id":"PSE","time":8,"distance":1567},{"line":11,"transit":false,"i_lat":-6.161728,"station_name":"Kemayoran","time":4,"is_transit":false,"distance":1436,"station_id":"KMO","i_long":106.839204},{"station_name":"Rajawali","i_lat":-6.14505,"i_long":106.836569,"distance":1901,"time":5,"line":11,"station_id":"RJW","is_transit":false,"transit":false},{"transit":true,"i_long":106.826365,"line":4,"station_id":"KPB","is_transit":true,"distance":1444,"station_name":"Kampung Bandan","time":3,"i_lat":-6.132549},{"i_lat":-6.144674,"line":1,"distance":4102,"i_long":106.79867,"transit":false,"time":9,"station_id":"AK","is_transit":false,"station_name":"Angke"},{"is_transit":true,"station_name":"Duri","time":4,"transit":true,"i_lat":-6.155215,"distance":1230,"i_long":106.800832,"line":1,"station_id":"DU"},{"line":5,"time":3,"i_long":106.788277,"station_id":"GRG","i_lat":-6.162021,"distance":1700,"transit":false,"is_transit":false,"station_name":"Grogol"},{"station_id":"PSG","transit":false,"station_name":"Pesing","i_lat":-6.161433,"i_long":106.771379,"distance":2036,"is_transit":false,"line":5,"time":2}]]}