{"data":[[{"station_id":"CC","station_name":"Cicayur","transit":false,"time":0,"distance":0,"line":3,"i_long":106.617853,"is_transit":false,"i_lat":-6.329547},{"station_id":"CSK","is_transit":false,"line":3,"distance":2519,"transit":false,"time":4,"i_long":106.640411,"station_name":"Cisauk","i_lat":-6.32484},{"station_name":"Serpong","time":4,"distance":1784,"station_id":"SRP","i_lat":-6.319871,"i_long":106.66566,"transit":false,"is_transit":false,"line":6},{"i_lat":-6.314823,"i_long":106.675475,"distance":2413,"is_transit":false,"line":6,"transit":false,"station_id":"RU","time":4,"station_name":"Rawa Buntu"},{"time":6,"line":6,"station_name":"Sudimara","is_transit":false,"transit":false,"distance":4566,"station_id":"SDM","i_lat":-6.296963,"i_long":106.712277},{"line":6,"i_lat":-6.288927,"station_id":"JMU","station_name":"Jurangmangu","is_transit":false,"distance":1994,"i_long":106.728916,"transit":false,"time":4},{"i_long":106.74273,"transit":false,"time":3,"is_transit":false,"line":6,"distance":2179,"station_name":"Pondokranji","i_lat":-6.276362,"station_id":"PDJ"},{"time":8,"distance":6218,"station_id":"KBY","i_long":106.780334,"line":6,"transit":false,"i_lat":-6.237242,"station_name":"Kebayoran","is_transit":false},{"station_id":"PLM","station_name":"Palmerah","i_lat":-6.207404,"i_long":106.79689,"time":7,"line":6,"transit":false,"distance":3737,"is_transit":false},{"line":1,"i_long":106.811091,"distance":3191,"station_name":"Tanah Abang","station_id":"THB","time":6,"is_transit":true,"transit":true,"i_lat":-6.185545},{"distance":3632,"time":8,"i_lat":-6.155215,"station_id":"DU","line":1,"is_transit":false,"transit":false,"station_name":"Duri","i_long":106.800832},{"station_id":"AK","i_long":106.79867,"i_lat":-6.144674,"line":1,"is_transit":false,"distance":1230,"station_name":"Angke","transit":false,"time":4},{"station_name":"Kampung Bandan","time":9,"station_id":"KPB","transit":true,"is_transit":true,"i_lat":-6.132549,"distance":4102,"line":4,"i_long":106.826365},{"is_transit":true,"line":2,"i_lat":-6.137569,"time":3,"station_name":"Jakarta Kota","station_id":"JAKK","distance":1364,"i_long":106.812439,"transit":true},{"time":4,"station_name":"Jayakarta","distance":1264,"is_transit":false,"i_lat":-6.141205,"station_id":"JAY","i_long":106.820901,"line":2,"transit":false},{"distance":1080,"i_long":106.82482,"is_transit":false,"i_lat":-6.149769,"time":2,"transit":false,"station_name":"Manggabesar","station_id":"MGB","line":2},{"transit":false,"time":2,"is_transit":false,"i_lat":-6.160725,"i_long":106.827103,"distance":906,"station_id":"SW","station_name":"Sawah Besar","line":2}],[{"is_transit":false,"i_lat":-6.329547,"distance":0,"station_name":"Cicayur","i_long":106.617853,"line":3,"station_id":"CC","transit":false,"time":0},{"is_transit":false,"distance":2519,"i_long":106.640411,"station_name":"Cisauk","time":4,"i_lat":-6.32484,"transit":false,"line":3,"station_id":"CSK"},{"i_long":106.66566,"line":6,"station_name":"Serpong","distance":1784,"is_transit":false,"time":4,"i_lat":-6.319871,"transit":false,"station_id":"SRP"},{"station_name":"Rawa Buntu","i_long":106.675475,"line":6,"time":4,"transit":false,"distance":2413,"is_transit":false,"station_id":"RU","i_lat":-6.314823},{"line":6,"is_transit":false,"station_name":"Sudimara","time":6,"i_lat":-6.296963,"station_id":"SDM","distance":4566,"i_long":106.712277,"transit":false},{"time":4,"distance":1994,"i_lat":-6.288927,"is_transit":false,"station_id":"JMU","station_name":"Jurangmangu","i_long":106.728916,"transit":false,"line":6},{"station_name":"Pondokranji","i_lat":-6.276362,"station_id":"PDJ","distance":2179,"transit":false,"line":6,"i_long":106.74273,"time":3,"is_transit":false},{"is_transit":false,"station_name":"Kebayoran","i_long":106.780334,"i_lat":-6.237242,"time":8,"station_id":"KBY","transit":false,"distance":6218,"line":6},{"i_long":106.79689,"station_name":"Palmerah","line":6,"transit":false,"time":7,"distance":3737,"is_transit":false,"station_id":"PLM","i_lat":-6.207404},{"station_id":"THB","i_lat":-6.185545,"i_long":106.811091,"transit":true,"distance":3191,"time":6,"station_name":"Tanah Abang","line":1,"is_transit":true},{"i_long":106.816351,"transit":false,"distance":2029,"station_id":"KAT","line":1,"i_lat":-6.20132,"station_name":"Karet","time":5,"is_transit":false},{"is_transit":false,"i_long":106.819881,"station_id":"SUDB","i_lat":-6.201433,"line":1,"transit":false,"distance":471,"station_name":"Sudirman Baru","time":1},{"station_id":"SUD","i_long":106.822649,"i_lat":-6.202263,"transit":false,"station_name":"Sudirman","line":1,"distance":280,"time":1,"is_transit":false},{"line":2,"transit":true,"is_transit":true,"distance":3186,"i_lat":-6.209883,"i_long":106.84912,"station_name":"Manggarai","time":4,"station_id":"MRI"},{"time":4,"station_name":"Cikini","i_long":106.840169,"i_lat":-6.198556,"line":2,"is_transit":false,"station_id":"CKI","distance":1590,"transit":false},{"is_transit":false,"station_name":"Gondangdia","line":2,"i_lat":-6.186295,"time":3,"station_id":"GDD","distance":1750,"transit":false,"i_long":106.832183},{"i_long":106.828284,"station_id":"JUA","station_name":"Juanda","line":2,"is_transit":false,"transit":false,"time":4,"distance":2015,"i_lat":-6.166716},{"i_long":106.827103,"time":2,"is_transit":false,"distance":1149,"station_name":"Sawah Besar","i_lat":-6.160725,"station_id":"SW","line":2,"transit":false}],[{"i_lat":-6.329547,"i_long":106.617853,"transit":false,"station_id":"CC","is_transit":false,"line":3,"distance":0,"station_name":"Cicayur","time":0},{"station_id":"CSK","i_long":106.640411,"transit":false,"station_name":"Cisauk","line":3,"distance":2519,"i_lat":-6.32484,"time":4,"is_transit":false},{"station_name":"Serpong","time":4,"i_lat":-6.319871,"station_id":"SRP","distance":1784,"transit":false,"is_transit":false,"i_long":106.66566,"line":6},{"distance":2413,"is_transit":false,"transit":false,"station_id":"RU","station_name":"Rawa Buntu","i_lat":-6.314823,"i_long":106.675475,"line":6,"time":4},{"station_name":"Sudimara","i_lat":-6.296963,"i_long":106.712277,"time":6,"is_transit":false,"station_id":"SDM","line":6,"transit":false,"distance":4566},{"station_name":"Jurangmangu","i_long":106.728916,"transit":false,"station_id":"JMU","i_lat":-6.288927,"is_transit":false,"line":6,"distance":1994,"time":4},{"is_transit":false,"station_name":"Pondokranji","i_long":106.74273,"line":6,"station_id":"PDJ","transit":false,"distance":2179,"time":3,"i_lat":-6.276362},{"is_transit":false,"line":6,"i_long":106.780334,"distance":6218,"i_lat":-6.237242,"time":8,"station_id":"KBY","station_name":"Kebayoran","transit":false},{"is_transit":false,"i_long":106.79689,"time":7,"transit":false,"i_lat":-6.207404,"distance":3737,"station_name":"Palmerah","line":6,"station_id":"PLM"},{"i_long":106.811091,"is_transit":true,"line":1,"time":6,"station_id":"THB","i_lat":-6.185545,"station_name":"Tanah Abang","distance":3191,"transit":true},{"transit":false,"line":1,"station_id":"DU","station_name":"Duri","i_long":106.800832,"time":8,"distance":3632,"is_transit":false,"i_lat":-6.155215},{"distance":1230,"station_id":"AK","station_name":"Angke","is_transit":false,"time":4,"i_lat":-6.144674,"line":1,"transit":false,"i_long":106.79867},{"i_long":106.826365,"station_id":"KPB","distance":4102,"line":4,"is_transit":true,"transit":true,"station_name":"Kampung Bandan","i_lat":-6.132549,"time":9},{"i_lat":-6.14505,"line":11,"time":3,"distance":1444,"transit":false,"station_id":"RJW","i_long":106.836569,"is_transit":false,"station_name":"Rajawali"},{"is_transit":false,"station_name":"Kemayoran","i_long":106.839204,"time":5,"line":11,"station_id":"KMO","i_lat":-6.161728,"transit":false,"distance":1901},{"time":4,"transit":false,"i_lat":-6.174784,"station_id":"PSE","distance":1436,"i_long":106.84368,"is_transit":false,"station_name":"Pasar Senen","line":11},{"is_transit":false,"i_long":106.850107,"transit":false,"i_lat":-6.185975,"station_name":"Gang Sentiong","distance":1567,"line":11,"time":8,"station_id":"GST"},{"i_long":106.855437,"station_id":"KMT","distance":973,"transit":false,"time":1,"is_transit":false,"station_name":"Kramat","i_lat":-6.193792,"line":11},{"station_id":"POK","i_long":106.861737,"line":11,"is_transit":false,"time":2,"station_name":"Pondok Jati","distance":1829,"i_lat":-6.209188,"transit":false},{"time":9,"transit":true,"distance":1236,"i_lat":-6.215091,"i_long":106.86807400000001,"station_id":"JNG","station_name":"Jatinegara","is_transit":true,"line":1},{"time":2,"station_name":"Matraman","i_long":106.858896,"is_transit":false,"station_id":"MTR","i_lat":-6.212485,"line":1,"distance":1377,"transit":false},{"time":2,"station_id":"MRI","i_long":106.84912,"station_name":"Manggarai","transit":true,"is_transit":true,"i_lat":-6.209883,"line":2,"distance":1275},{"i_long":106.840169,"time":4,"transit":false,"station_name":"Cikini","i_lat":-6.198556,"line":2,"distance":1590,"station_id":"CKI","is_transit":false},{"line":2,"i_long":106.832183,"station_name":"Gondangdia","station_id":"GDD","transit":false,"distance":1750,"i_lat":-6.186295,"time":3,"is_transit":false},{"is_transit":false,"station_name":"Juanda","time":4,"transit":false,"i_long":106.828284,"station_id":"JUA","line":2,"i_lat":-6.166716,"distance":2015},{"line":2,"time":2,"transit":false,"station_name":"Sawah Besar","is_transit":false,"station_id":"SW","i_long":106.827103,"i_lat":-6.160725,"distance":1149}],[{"distance":0,"station_name":"Cicayur","time":0,"transit":false,"station_id":"CC","i_lat":-6.329547,"i_long":106.617853,"is_transit":false,"line":3},{"time":4,"distance":2519,"station_id":"CSK","i_long":106.640411,"station_name":"Cisauk","line":3,"is_transit":false,"i_lat":-6.32484,"transit":false},{"station_name":"Serpong","i_long":106.66566,"line":6,"i_lat":-6.319871,"distance":1784,"is_transit":false,"transit":false,"time":4,"station_id":"SRP"},{"i_lat":-6.314823,"transit":false,"distance":2413,"station_id":"RU","is_transit":false,"station_name":"Rawa Buntu","line":6,"i_long":106.675475,"time":4},{"time":6,"i_lat":-6.296963,"distance":4566,"line":6,"transit":false,"station_name":"Sudimara","station_id":"SDM","is_transit":false,"i_long":106.712277},{"i_lat":-6.288927,"is_transit":false,"line":6,"station_id":"JMU","transit":false,"time":4,"station_name":"Jurangmangu","i_long":106.728916,"distance":1994},{"station_id":"PDJ","is_transit":false,"time":3,"distance":2179,"i_lat":-6.276362,"station_name":"Pondokranji","i_long":106.74273,"line":6,"transit":false},{"distance":6218,"station_name":"Kebayoran","station_id":"KBY","i_long":106.780334,"transit":false,"time":8,"is_transit":false,"i_lat":-6.237242,"line":6},{"i_lat":-6.207404,"distance":3737,"is_transit":false,"line":6,"time":7,"station_name":"Palmerah","i_long":106.79689,"station_id":"PLM","transit":false},{"line":1,"distance":3191,"is_transit":true,"time":6,"station_id":"THB","transit":true,"station_name":"Tanah Abang","i_lat":-6.185545,"i_long":106.811091},{"station_id":"KAT","station_name":"Karet","line":1,"i_long":106.816351,"time":5,"is_transit":false,"distance":2029,"i_lat":-6.20132,"transit":false},{"i_long":106.819881,"i_lat":-6.201433,"time":1,"station_name":"Sudirman Baru","line":1,"transit":false,"station_id":"SUDB","is_transit":false,"distance":471},{"is_transit":false,"time":1,"transit":false,"station_id":"SUD","station_name":"Sudirman","distance":280,"i_long":106.822649,"line":1,"i_lat":-6.202263},{"time":4,"station_name":"Manggarai","i_lat":-6.209883,"i_long":106.84912,"transit":false,"is_transit":false,"line":2,"station_id":"MRI","distance":3186},{"is_transit":false,"transit":false,"i_lat":-6.212485,"time":2,"distance":1275,"i_long":106.858896,"station_id":"MTR","station_name":"Matraman","line":1},{"time":8,"transit":true,"distance":1377,"station_id":"JNG","i_lat":-6.215091,"station_name":"Jatinegara","is_transit":true,"i_long":106.86807400000001,"line":1},{"distance":1236,"is_transit":false,"i_lat":-6.209188,"i_long":106.861737,"transit":false,"line":11,"time":2,"station_id":"POK","station_name":"Pondok Jati"},{"time":2,"distance":1829,"station_id":"KMT","i_long":106.855437,"is_transit":false,"station_name":"Kramat","transit":false,"i_lat":-6.193792,"line":11},{"time":1,"is_transit":false,"station_id":"GST","i_lat":-6.185975,"i_long":106.850107,"distance":973,"station_name":"Gang Sentiong","line":11,"transit":false},{"is_transit":false,"distance":1567,"i_long":106.84368,"transit":false,"station_id":"PSE","line":11,"station_name":"Pasar Senen","i_lat":-6.174784,"time":8},{"station_name":"Kemayoran","transit":false,"i_lat":-6.161728,"station_id":"KMO","distance":1436,"time":4,"is_transit":false,"i_long":106.839204,"line":11},{"line":11,"i_long":106.836569,"station_name":"Rajawali","station_id":"RJW","distance":1901,"transit":false,"is_transit":false,"time":5,"i_lat":-6.14505},{"transit":true,"i_long":106.826365,"time":3,"station_name":"Kampung Bandan","line":4,"station_id":"KPB","distance":1444,"is_transit":true,"i_lat":-6.132549},{"i_lat":-6.137569,"line":2,"station_name":"Jakarta Kota","time":3,"transit":true,"distance":1364,"is_transit":true,"station_id":"JAKK","i_long":106.812439},{"i_long":106.820901,"is_transit":false,"transit":false,"station_id":"JAY","line":2,"i_lat":-6.141205,"time":4,"station_name":"Jayakarta","distance":1264},{"distance":1080,"line":2,"i_lat":-6.149769,"i_long":106.82482,"is_transit":false,"transit":false,"station_id":"MGB","station_name":"Manggabesar","time":2},{"time":2,"station_id":"SW","distance":906,"i_lat":-6.160725,"transit":false,"line":2,"station_name":"Sawah Besar","i_long":106.827103,"is_transit":false}]]}