{"data":[[{"station_name":"Cicayur","transit":false,"time":0,"i_lat":-6.329547,"i_long":106.617853,"line":3,"distance":0,"is_transit":false,"station_id":"CC"},{"station_id":"CSK","line":3,"time":4,"is_transit":false,"station_name":"Cisauk","distance":2519,"i_lat":-6.32484,"transit":false,"i_long":106.640411},{"is_transit":false,"i_lat":-6.319871,"i_long":106.66566,"line":6,"station_id":"SRP","transit":false,"time":4,"distance":1784,"station_name":"Serpong"},{"distance":2413,"i_lat":-6.314823,"station_id":"RU","time":4,"station_name":"Rawa Buntu","i_long":106.675475,"transit":false,"is_transit":false,"line":6},{"is_transit":false,"transit":false,"time":6,"i_lat":-6.296963,"station_name":"Sudimara","line":6,"station_id":"SDM","i_long":106.712277,"distance":4566},{"station_id":"JMU","is_transit":false,"line":6,"i_lat":-6.288927,"station_name":"Jurangmangu","time":4,"i_long":106.728916,"transit":false,"distance":1994},{"is_transit":false,"transit":false,"line":6,"i_lat":-6.276362,"time":3,"distance":2179,"station_id":"PDJ","i_long":106.74273,"station_name":"Pondokranji"},{"station_name":"Kebayoran","station_id":"KBY","line":6,"is_transit":false,"i_long":106.780334,"transit":false,"i_lat":-6.237242,"time":8,"distance":6218},{"i_long":106.79689,"station_id":"PLM","is_transit":false,"line":6,"transit":false,"time":7,"distance":3737,"station_name":"Palmerah","i_lat":-6.207404},{"time":6,"i_lat":-6.185545,"station_id":"THB","i_long":106.811091,"transit":true,"is_transit":true,"station_name":"Tanah Abang","line":1,"distance":3191},{"transit":false,"i_lat":-6.20132,"i_long":106.816351,"line":1,"station_id":"KAT","station_name":"Karet","is_transit":false,"time":5,"distance":2029},{"transit":false,"i_long":106.819881,"line":1,"is_transit":false,"time":1,"station_name":"Sudirman Baru","i_lat":-6.201433,"distance":471,"station_id":"SUDB"},{"station_id":"SUD","time":1,"transit":false,"distance":280,"is_transit":false,"station_name":"Sudirman","i_lat":-6.202263,"i_long":106.822649,"line":1}],[{"is_transit":false,"time":0,"station_id":"CC","i_lat":-6.329547,"distance":0,"transit":false,"station_name":"Cicayur","line":3,"i_long":106.617853},{"station_name":"Cisauk","time":4,"i_long":106.640411,"transit":false,"line":3,"distance":2519,"i_lat":-6.32484,"station_id":"CSK","is_transit":false},{"i_long":106.66566,"station_name":"Serpong","station_id":"SRP","i_lat":-6.319871,"line":6,"distance":1784,"time":4,"is_transit":false,"transit":false},{"i_lat":-6.314823,"station_id":"RU","transit":false,"i_long":106.675475,"is_transit":false,"line":6,"time":4,"distance":2413,"station_name":"Rawa Buntu"},{"time":6,"line":6,"distance":4566,"station_id":"SDM","station_name":"Sudimara","i_lat":-6.296963,"i_long":106.712277,"is_transit":false,"transit":false},{"is_transit":false,"distance":1994,"station_id":"JMU","line":6,"i_long":106.728916,"time":4,"transit":false,"i_lat":-6.288927,"station_name":"Jurangmangu"},{"transit":false,"i_long":106.74273,"distance":2179,"line":6,"time":3,"i_lat":-6.276362,"station_id":"PDJ","station_name":"Pondokranji","is_transit":false},{"i_lat":-6.237242,"i_long":106.780334,"station_id":"KBY","transit":false,"time":8,"distance":6218,"line":6,"is_transit":false,"station_name":"Kebayoran"},{"distance":3737,"station_name":"Palmerah","station_id":"PLM","time":7,"is_transit":false,"transit":false,"i_lat":-6.207404,"i_long":106.79689,"line":6},{"is_transit":true,"i_long":106.811091,"line":1,"i_lat":-6.185545,"distance":3191,"transit":true,"time":6,"station_id":"THB","station_name":"Tanah Abang"},{"distance":3632,"i_lat":-6.155215,"i_long":106.800832,"time":8,"transit":false,"station_id":"DU","station_name":"Duri","is_transit":false,"line":1},{"time":4,"transit":false,"station_id":"AK","distance":1230,"is_transit":false,"line":1,"i_long":106.79867,"station_name":"Angke","i_lat":-6.144674},{"distance":4102,"station_id":"KPB","line":4,"station_name":"Kampung Bandan","transit":true,"time":9,"is_transit":true,"i_lat":-6.132549,"i_long":106.826365},{"time":3,"station_id":"JAKK","line":2,"is_transit":true,"transit":true,"i_lat":-6.137569,"i_long":106.812439,"distance":1364,"station_name":"Jakarta Kota"},{"station_id":"JAY","transit":false,"i_lat":-6.141205,"line":2,"time":4,"is_transit":false,"i_long":106.820901,"distance":1264,"station_name":"Jayakarta"},{"i_lat":-6.149769,"station_id":"MGB","station_name":"Manggabesar","line":2,"transit":false,"time":2,"distance":1080,"is_transit":false,"i_long":106.82482},{"transit":false,"i_long":106.827103,"line":2,"i_lat":-6.160725,"time":2,"station_name":"Sawah Besar","is_transit":false,"distance":906,"station_id":"SW"},{"transit":false,"station_name":"Juanda","i_lat":-6.166716,"time":2,"line":2,"is_transit":false,"distance":1149,"i_long":106.828284,"station_id":"JUA"},{"i_lat":-6.186295,"i_long":106.832183,"is_transit":false,"line":2,"transit":false,"station_name":"Gondangdia","time":4,"station_id":"GDD","distance":2015},{"station_id":"CKI","is_transit":false,"time":3,"distance":1750,"line":2,"station_name":"Cikini","transit":false,"i_long":106.840169,"i_lat":-6.198556},{"i_long":106.84912,"time":4,"is_transit":true,"transit":true,"distance":1590,"i_lat":-6.209883,"line":2,"station_id":"MRI","station_name":"Manggarai"},{"line":1,"station_id":"SUD","is_transit":false,"distance":3186,"transit":false,"i_lat":-6.202263,"i_long":106.822649,"station_name":"Sudirman","time":4}],[{"line":3,"i_lat":-6.329547,"station_name":"Cicayur","i_long":106.617853,"time":0,"distance":0,"transit":false,"is_transit":false,"station_id":"CC"},{"station_id":"CSK","time":4,"i_lat":-6.32484,"line":3,"station_name":"Cisauk","transit":false,"distance":2519,"i_long":106.640411,"is_transit":false},{"i_long":106.66566,"transit":false,"line":6,"is_transit":false,"station_name":"Serpong","distance":1784,"station_id":"SRP","time":4,"i_lat":-6.319871},{"is_transit":false,"line":6,"station_id":"RU","time":4,"i_lat":-6.314823,"station_name":"Rawa Buntu","i_long":106.675475,"transit":false,"distance":2413},{"line":6,"is_transit":false,"station_id":"SDM","station_name":"Sudimara","distance":4566,"time":6,"i_lat":-6.296963,"transit":false,"i_long":106.712277},{"transit":false,"time":4,"distance":1994,"station_name":"Jurangmangu","is_transit":false,"i_long":106.728916,"line":6,"station_id":"JMU","i_lat":-6.288927},{"i_lat":-6.276362,"line":6,"distance":2179,"station_id":"PDJ","is_transit":false,"time":3,"i_long":106.74273,"transit":false,"station_name":"Pondokranji"},{"line":6,"i_long":106.780334,"time":8,"transit":false,"i_lat":-6.237242,"station_name":"Kebayoran","is_transit":false,"station_id":"KBY","distance":6218},{"time":7,"station_id":"PLM","i_lat":-6.207404,"i_long":106.79689,"station_name":"Palmerah","is_transit":false,"distance":3737,"line":6,"transit":false},{"transit":true,"distance":3191,"i_lat":-6.185545,"station_id":"THB","i_long":106.811091,"time":6,"line":1,"station_name":"Tanah Abang","is_transit":true},{"is_transit":false,"time":8,"i_long":106.800832,"transit":false,"i_lat":-6.155215,"station_name":"Duri","station_id":"DU","line":1,"distance":3632},{"is_transit":false,"i_lat":-6.144674,"station_id":"AK","i_long":106.79867,"station_name":"Angke","distance":1230,"time":4,"line":1,"transit":false},{"distance":4102,"transit":true,"station_id":"KPB","time":9,"station_name":"Kampung Bandan","is_transit":true,"i_lat":-6.132549,"line":4,"i_long":106.826365},{"station_id":"RJW","i_lat":-6.14505,"transit":false,"i_long":106.836569,"line":11,"time":3,"distance":1444,"station_name":"Rajawali","is_transit":false},{"i_lat":-6.161728,"line":11,"transit":false,"station_id":"KMO","distance":1901,"station_name":"Kemayoran","is_transit":false,"time":5,"i_long":106.839204},{"distance":1436,"transit":false,"station_id":"PSE","station_name":"Pasar Senen","is_transit":false,"i_long":106.84368,"line":11,"time":4,"i_lat":-6.174784},{"i_long":106.850107,"time":8,"station_name":"Gang Sentiong","line":11,"distance":1567,"transit":false,"is_transit":false,"i_lat":-6.185975,"station_id":"GST"},{"is_transit":false,"distance":973,"station_name":"Kramat","i_lat":-6.193792,"transit":false,"line":11,"station_id":"KMT","i_long":106.855437,"time":1},{"transit":false,"distance":1829,"i_long":106.861737,"is_transit":false,"i_lat":-6.209188,"station_id":"POK","station_name":"Pondok Jati","time":2,"line":11},{"transit":true,"i_long":106.86807400000001,"station_id":"JNG","station_name":"Jatinegara","i_lat":-6.215091,"time":9,"is_transit":true,"distance":1236,"line":1},{"station_name":"Matraman","i_long":106.858896,"is_transit":false,"transit":false,"line":1,"station_id":"MTR","time":2,"distance":1377,"i_lat":-6.212485},{"station_name":"Manggarai","station_id":"MRI","time":2,"is_transit":false,"transit":false,"distance":1275,"i_long":106.84912,"i_lat":-6.209883,"line":2},{"station_id":"SUD","line":1,"i_lat":-6.202263,"i_long":106.822649,"time":4,"distance":3186,"is_transit":false,"station_name":"Sudirman","transit":false}]]}