{"data":[[{"distance":0,"i_lat":-6.329547,"line":3,"transit":false,"i_long":106.617853,"is_transit":false,"station_name":"Cicayur","station_id":"CC","time":0},{"time":4,"line":3,"station_name":"Cisauk","is_transit":false,"station_id":"CSK","i_lat":-6.32484,"transit":false,"i_long":106.640411,"distance":2519},{"time":4,"station_id":"SRP","i_long":106.66566,"line":6,"station_name":"Serpong","transit":false,"is_transit":false,"i_lat":-6.319871,"distance":1784},{"i_lat":-6.314823,"station_name":"Rawa Buntu","is_transit":false,"line":6,"time":4,"distance":2413,"station_id":"RU","transit":false,"i_long":106.675475},{"i_long":106.712277,"distance":4566,"transit":false,"station_id":"SDM","station_name":"Sudimara","is_transit":false,"time":6,"line":6,"i_lat":-6.296963},{"time":4,"distance":1994,"station_name":"Jurangmangu","transit":false,"station_id":"JMU","is_transit":false,"i_long":106.728916,"line":6,"i_lat":-6.288927},{"is_transit":false,"station_id":"PDJ","distance":2179,"station_name":"Pondokranji","time":3,"line":6,"transit":false,"i_lat":-6.276362,"i_long":106.74273},{"time":8,"station_name":"Kebayoran","distance":6218,"i_lat":-6.237242,"i_long":106.780334,"line":6,"transit":false,"is_transit":false,"station_id":"KBY"},{"time":7,"distance":3737,"line":6,"is_transit":false,"i_lat":-6.207404,"transit":false,"i_long":106.79689,"station_name":"Palmerah","station_id":"PLM"},{"i_long":106.811091,"station_id":"THB","transit":true,"time":6,"distance":3191,"line":1,"is_transit":true,"i_lat":-6.185545,"station_name":"Tanah Abang"},{"time":5,"i_lat":-6.20132,"transit":false,"line":1,"i_long":106.816351,"station_name":"Karet","distance":2029,"is_transit":false,"station_id":"KAT"},{"line":1,"i_long":106.819881,"station_id":"SUDB","station_name":"Sudirman Baru","is_transit":false,"time":1,"transit":false,"i_lat":-6.201433,"distance":471},{"station_id":"SUD","station_name":"Sudirman","line":1,"i_lat":-6.202263,"distance":280,"i_long":106.822649,"transit":false,"is_transit":false,"time":1}],[{"station_id":"CC","distance":0,"station_name":"Cicayur","time":0,"is_transit":false,"transit":false,"i_long":106.617853,"i_lat":-6.329547,"line":3},{"station_id":"CSK","distance":2519,"time":4,"transit":false,"station_name":"Cisauk","line":3,"i_lat":-6.32484,"is_transit":false,"i_long":106.640411},{"time":4,"station_name":"Serpong","line":6,"transit":false,"distance":1784,"is_transit":false,"i_lat":-6.319871,"station_id":"SRP","i_long":106.66566},{"time":4,"distance":2413,"is_transit":false,"i_lat":-6.314823,"i_long":106.675475,"station_id":"RU","station_name":"Rawa Buntu","transit":false,"line":6},{"transit":false,"distance":4566,"station_name":"Sudimara","is_transit":false,"i_lat":-6.296963,"line":6,"i_long":106.712277,"station_id":"SDM","time":6},{"distance":1994,"line":6,"is_transit":false,"i_long":106.728916,"time":4,"transit":false,"i_lat":-6.288927,"station_name":"Jurangmangu","station_id":"JMU"},{"line":6,"is_transit":false,"station_name":"Pondokranji","i_long":106.74273,"i_lat":-6.276362,"transit":false,"station_id":"PDJ","time":3,"distance":2179},{"station_id":"KBY","distance":6218,"i_long":106.780334,"line":6,"transit":false,"is_transit":false,"time":8,"i_lat":-6.237242,"station_name":"Kebayoran"},{"transit":false,"is_transit":false,"time":7,"line":6,"distance":3737,"station_id":"PLM","i_lat":-6.207404,"i_long":106.79689,"station_name":"Palmerah"},{"i_lat":-6.185545,"time":6,"is_transit":true,"i_long":106.811091,"station_id":"THB","distance":3191,"transit":true,"station_name":"Tanah Abang","line":1},{"time":8,"distance":3632,"station_id":"DU","line":1,"i_long":106.800832,"station_name":"Duri","transit":false,"is_transit":false,"i_lat":-6.155215},{"station_name":"Angke","i_long":106.79867,"time":4,"line":1,"station_id":"AK","distance":1230,"is_transit":false,"i_lat":-6.144674,"transit":false},{"i_lat":-6.132549,"transit":true,"distance":4102,"station_name":"Kampung Bandan","is_transit":true,"line":4,"i_long":106.826365,"station_id":"KPB","time":9},{"time":3,"is_transit":true,"i_lat":-6.137569,"i_long":106.812439,"distance":1364,"line":2,"transit":true,"station_name":"Jakarta Kota","station_id":"JAKK"},{"transit":false,"i_lat":-6.141205,"station_id":"JAY","station_name":"Jayakarta","line":2,"distance":1264,"time":4,"i_long":106.820901,"is_transit":false},{"station_name":"Manggabesar","time":2,"distance":1080,"line":2,"station_id":"MGB","is_transit":false,"transit":false,"i_long":106.82482,"i_lat":-6.149769},{"transit":false,"i_lat":-6.160725,"line":2,"station_id":"SW","i_long":106.827103,"distance":906,"station_name":"Sawah Besar","time":2,"is_transit":false},{"i_lat":-6.166716,"transit":false,"time":2,"is_transit":false,"distance":1149,"station_id":"JUA","i_long":106.828284,"station_name":"Juanda","line":2},{"i_lat":-6.186295,"transit":false,"is_transit":false,"time":4,"station_id":"GDD","station_name":"Gondangdia","line":2,"distance":2015,"i_long":106.832183},{"i_lat":-6.198556,"station_name":"Cikini","time":3,"transit":false,"station_id":"CKI","is_transit":false,"distance":1750,"i_long":106.840169,"line":2},{"i_lat":-6.209883,"station_id":"MRI","transit":true,"distance":1590,"is_transit":true,"time":4,"i_long":106.84912,"station_name":"Manggarai","line":2},{"line":1,"distance":3186,"i_lat":-6.202263,"station_name":"Sudirman","is_transit":false,"time":4,"i_long":106.822649,"transit":false,"station_id":"SUD"}],[{"time":0,"transit":false,"station_id":"CC","i_long":106.617853,"distance":0,"station_name":"Cicayur","i_lat":-6.329547,"line":3,"is_transit":false},{"station_id":"CSK","time":4,"transit":false,"i_long":106.640411,"line":3,"is_transit":false,"i_lat":-6.32484,"station_name":"Cisauk","distance":2519},{"i_lat":-6.319871,"station_id":"SRP","time":4,"line":6,"transit":false,"i_long":106.66566,"is_transit":false,"station_name":"Serpong","distance":1784},{"station_name":"Rawa Buntu","i_long":106.675475,"distance":2413,"station_id":"RU","transit":false,"is_transit":false,"i_lat":-6.314823,"time":4,"line":6},{"i_long":106.712277,"time":6,"line":6,"station_id":"SDM","station_name":"Sudimara","distance":4566,"i_lat":-6.296963,"is_transit":false,"transit":false},{"line":6,"is_transit":false,"station_id":"JMU","i_lat":-6.288927,"time":4,"transit":false,"i_long":106.728916,"distance":1994,"station_name":"Jurangmangu"},{"transit":false,"time":3,"station_name":"Pondokranji","is_transit":false,"i_lat":-6.276362,"line":6,"station_id":"PDJ","distance":2179,"i_long":106.74273},{"distance":6218,"is_transit":false,"line":6,"time":8,"transit":false,"station_id":"KBY","i_lat":-6.237242,"station_name":"Kebayoran","i_long":106.780334},{"transit":false,"station_name":"Palmerah","distance":3737,"is_transit":false,"time":7,"i_long":106.79689,"i_lat":-6.207404,"line":6,"station_id":"PLM"},{"i_lat":-6.185545,"i_long":106.811091,"station_id":"THB","line":1,"distance":3191,"is_transit":true,"station_name":"Tanah Abang","time":6,"transit":true},{"i_lat":-6.155215,"station_name":"Duri","station_id":"DU","is_transit":false,"i_long":106.800832,"line":1,"time":8,"transit":false,"distance":3632},{"i_lat":-6.144674,"station_id":"AK","i_long":106.79867,"time":4,"distance":1230,"transit":false,"station_name":"Angke","is_transit":false,"line":1},{"distance":4102,"station_id":"KPB","is_transit":true,"transit":true,"station_name":"Kampung Bandan","line":4,"time":9,"i_long":106.826365,"i_lat":-6.132549},{"transit":false,"station_id":"RJW","distance":1444,"i_lat":-6.14505,"i_long":106.836569,"is_transit":false,"station_name":"Rajawali","line":11,"time":3},{"time":5,"station_id":"KMO","is_transit":false,"i_long":106.839204,"line":11,"distance":1901,"transit":false,"station_name":"Kemayoran","i_lat":-6.161728},{"i_lat":-6.174784,"line":11,"station_name":"Pasar Senen","distance":1436,"time":4,"station_id":"PSE","is_transit":false,"i_long":106.84368,"transit":false},{"i_long":106.850107,"station_name":"Gang Sentiong","station_id":"GST","line":11,"transit":false,"distance":1567,"is_transit":false,"time":8,"i_lat":-6.185975},{"i_long":106.855437,"distance":973,"i_lat":-6.193792,"is_transit":false,"line":11,"time":1,"transit":false,"station_name":"Kramat","station_id":"KMT"},{"station_id":"POK","line":11,"is_transit":false,"i_lat":-6.209188,"transit":false,"distance":1829,"station_name":"Pondok Jati","time":2,"i_long":106.861737},{"line":1,"distance":1236,"time":9,"station_name":"Jatinegara","i_long":106.86807400000001,"transit":true,"station_id":"JNG","is_transit":true,"i_lat":-6.215091},{"transit":false,"i_lat":-6.212485,"i_long":106.858896,"station_name":"Matraman","station_id":"MTR","distance":1377,"line":1,"time":2,"is_transit":false},{"is_transit":false,"time":2,"transit":false,"line":2,"station_id":"MRI","distance":1275,"station_name":"Manggarai","i_long":106.84912,"i_lat":-6.209883},{"distance":3186,"station_name":"Sudirman","i_lat":-6.202263,"transit":false,"line":1,"station_id":"SUD","i_long":106.822649,"time":4,"is_transit":false}]]}