{"data":[[{"is_transit":false,"i_lat":-6.329547,"line":3,"distance":0,"station_name":"Cicayur","time":0,"i_long":106.617853,"station_id":"CC","transit":false},{"is_transit":false,"i_lat":-6.32484,"transit":false,"station_name":"Cisauk","station_id":"CSK","i_long":106.640411,"time":4,"line":3,"distance":2519},{"line":6,"distance":1784,"station_id":"SRP","time":4,"transit":false,"i_lat":-6.319871,"is_transit":false,"station_name":"Serpong","i_long":106.66566},{"is_transit":false,"station_id":"RU","distance":2413,"time":4,"line":6,"station_name":"Rawa Buntu","i_long":106.675475,"transit":false,"i_lat":-6.314823},{"i_long":106.712277,"is_transit":false,"distance":4566,"transit":false,"time":6,"line":6,"station_id":"SDM","station_name":"Sudimara","i_lat":-6.296963},{"i_long":106.728916,"line":6,"station_id":"JMU","transit":false,"is_transit":false,"distance":1994,"i_lat":-6.288927,"time":4,"station_name":"Jurangmangu"},{"station_name":"Pondokranji","is_transit":false,"line":6,"i_lat":-6.276362,"station_id":"PDJ","i_long":106.74273,"transit":false,"time":3,"distance":2179},{"station_name":"Kebayoran","time":8,"is_transit":false,"line":6,"transit":false,"distance":6218,"station_id":"KBY","i_lat":-6.237242,"i_long":106.780334},{"is_transit":false,"line":6,"distance":3737,"i_long":106.79689,"transit":false,"time":7,"station_name":"Palmerah","station_id":"PLM","i_lat":-6.207404},{"i_long":106.811091,"transit":true,"time":6,"distance":3191,"station_id":"THB","is_transit":true,"station_name":"Tanah Abang","i_lat":-6.185545,"line":1},{"station_id":"DU","is_transit":false,"time":8,"line":1,"distance":3632,"i_lat":-6.155215,"i_long":106.800832,"station_name":"Duri","transit":false},{"i_lat":-6.144674,"distance":1230,"is_transit":false,"station_name":"Angke","line":1,"transit":false,"time":4,"i_long":106.79867,"station_id":"AK"},{"distance":4102,"is_transit":true,"line":4,"i_lat":-6.132549,"station_name":"Kampung Bandan","station_id":"KPB","time":9,"i_long":106.826365,"transit":true},{"distance":1364,"i_lat":-6.137569,"i_long":106.812439,"line":2,"station_id":"JAKK","station_name":"Jakarta Kota","is_transit":true,"time":3,"transit":true},{"transit":false,"distance":1264,"i_lat":-6.141205,"station_name":"Jayakarta","i_long":106.820901,"line":2,"station_id":"JAY","is_transit":false,"time":4},{"station_id":"MGB","i_lat":-6.149769,"transit":false,"is_transit":false,"time":2,"distance":1080,"station_name":"Manggabesar","i_long":106.82482,"line":2},{"i_lat":-6.160725,"i_long":106.827103,"is_transit":false,"transit":false,"time":2,"line":2,"distance":906,"station_name":"Sawah Besar","station_id":"SW"}],[{"i_lat":-6.329547,"station_name":"Cicayur","is_transit":false,"station_id":"CC","distance":0,"line":3,"transit":false,"time":0,"i_long":106.617853},{"station_name":"Cisauk","station_id":"CSK","i_lat":-6.32484,"is_transit":false,"i_long":106.640411,"line":3,"distance":2519,"transit":false,"time":4},{"transit":false,"is_transit":false,"station_id":"SRP","distance":1784,"i_lat":-6.319871,"line":6,"station_name":"Serpong","time":4,"i_long":106.66566},{"line":6,"i_lat":-6.314823,"station_id":"RU","time":4,"is_transit":false,"station_name":"Rawa Buntu","transit":false,"distance":2413,"i_long":106.675475},{"i_lat":-6.296963,"station_id":"SDM","line":6,"distance":4566,"station_name":"Sudimara","time":6,"is_transit":false,"transit":false,"i_long":106.712277},{"line":6,"transit":false,"station_id":"JMU","time":4,"i_lat":-6.288927,"is_transit":false,"i_long":106.728916,"station_name":"Jurangmangu","distance":1994},{"i_lat":-6.276362,"line":6,"i_long":106.74273,"station_name":"Pondokranji","is_transit":false,"station_id":"PDJ","distance":2179,"transit":false,"time":3},{"station_name":"Kebayoran","i_long":106.780334,"station_id":"KBY","i_lat":-6.237242,"transit":false,"is_transit":false,"time":8,"distance":6218,"line":6},{"is_transit":false,"station_id":"PLM","i_long":106.79689,"station_name":"Palmerah","time":7,"distance":3737,"i_lat":-6.207404,"line":6,"transit":false},{"station_name":"Tanah Abang","transit":true,"station_id":"THB","time":6,"i_lat":-6.185545,"is_transit":true,"i_long":106.811091,"distance":3191,"line":1},{"time":5,"transit":false,"station_id":"KAT","i_lat":-6.20132,"distance":2029,"line":1,"station_name":"Karet","is_transit":false,"i_long":106.816351},{"line":1,"station_id":"SUDB","time":1,"i_lat":-6.201433,"i_long":106.819881,"transit":false,"is_transit":false,"distance":471,"station_name":"Sudirman Baru"},{"station_name":"Sudirman","is_transit":false,"distance":280,"transit":false,"line":1,"time":1,"i_lat":-6.202263,"station_id":"SUD","i_long":106.822649},{"is_transit":true,"station_name":"Manggarai","i_lat":-6.209883,"station_id":"MRI","line":2,"time":4,"transit":true,"i_long":106.84912,"distance":3186},{"i_long":106.840169,"station_name":"Cikini","i_lat":-6.198556,"time":4,"distance":1590,"transit":false,"station_id":"CKI","is_transit":false,"line":2},{"station_id":"GDD","transit":false,"i_long":106.832183,"line":2,"station_name":"Gondangdia","is_transit":false,"distance":1750,"i_lat":-6.186295,"time":3},{"time":4,"line":2,"is_transit":false,"transit":false,"station_name":"Juanda","station_id":"JUA","i_lat":-6.166716,"distance":2015,"i_long":106.828284},{"station_id":"SW","is_transit":false,"distance":1149,"i_lat":-6.160725,"i_long":106.827103,"line":2,"time":2,"station_name":"Sawah Besar","transit":false}],[{"is_transit":false,"line":3,"transit":false,"i_long":106.617853,"station_id":"CC","time":0,"station_name":"Cicayur","i_lat":-6.329547,"distance":0},{"station_name":"Cisauk","station_id":"CSK","transit":false,"is_transit":false,"time":4,"i_lat":-6.32484,"i_long":106.640411,"distance":2519,"line":3},{"station_name":"Serpong","i_long":106.66566,"station_id":"SRP","is_transit":false,"i_lat":-6.319871,"time":4,"transit":false,"distance":1784,"line":6},{"station_id":"RU","i_long":106.675475,"line":6,"transit":false,"is_transit":false,"time":4,"distance":2413,"i_lat":-6.314823,"station_name":"Rawa Buntu"},{"station_id":"SDM","is_transit":false,"i_long":106.712277,"line":6,"transit":false,"distance":4566,"i_lat":-6.296963,"time":6,"station_name":"Sudimara"},{"time":4,"distance":1994,"is_transit":false,"i_long":106.728916,"line":6,"i_lat":-6.288927,"station_id":"JMU","transit":false,"station_name":"Jurangmangu"},{"station_id":"PDJ","is_transit":false,"i_long":106.74273,"line":6,"distance":2179,"i_lat":-6.276362,"transit":false,"time":3,"station_name":"Pondokranji"},{"station_id":"KBY","time":8,"i_lat":-6.237242,"transit":false,"station_name":"Kebayoran","is_transit":false,"i_long":106.780334,"distance":6218,"line":6},{"time":7,"i_long":106.79689,"i_lat":-6.207404,"distance":3737,"transit":false,"line":6,"station_name":"Palmerah","is_transit":false,"station_id":"PLM"},{"is_transit":true,"transit":true,"time":6,"station_id":"THB","i_long":106.811091,"distance":3191,"i_lat":-6.185545,"line":1,"station_name":"Tanah Abang"},{"i_lat":-6.155215,"time":8,"distance":3632,"transit":false,"is_transit":false,"i_long":106.800832,"line":1,"station_id":"DU","station_name":"Duri"},{"line":1,"i_long":106.79867,"station_id":"AK","transit":false,"is_transit":false,"time":4,"distance":1230,"station_name":"Angke","i_lat":-6.144674},{"line":4,"i_long":106.826365,"transit":true,"i_lat":-6.132549,"is_transit":true,"distance":4102,"station_id":"KPB","time":9,"station_name":"Kampung Bandan"},{"is_transit":false,"transit":false,"time":3,"i_lat":-6.14505,"station_id":"RJW","line":11,"station_name":"Rajawali","distance":1444,"i_long":106.836569},{"station_name":"Kemayoran","station_id":"KMO","i_long":106.839204,"time":5,"i_lat":-6.161728,"transit":false,"distance":1901,"line":11,"is_transit":false},{"station_id":"PSE","time":4,"station_name":"Pasar Senen","i_lat":-6.174784,"i_long":106.84368,"is_transit":false,"line":11,"transit":false,"distance":1436},{"is_transit":false,"time":8,"station_id":"GST","distance":1567,"i_lat":-6.185975,"transit":false,"station_name":"Gang Sentiong","i_long":106.850107,"line":11},{"station_name":"Kramat","transit":false,"time":1,"line":11,"station_id":"KMT","i_lat":-6.193792,"distance":973,"is_transit":false,"i_long":106.855437},{"is_transit":false,"distance":1829,"station_id":"POK","transit":false,"time":2,"i_lat":-6.209188,"station_name":"Pondok Jati","line":11,"i_long":106.861737},{"time":9,"line":1,"is_transit":true,"station_id":"JNG","distance":1236,"station_name":"Jatinegara","i_long":106.86807400000001,"i_lat":-6.215091,"transit":true},{"i_lat":-6.212485,"i_long":106.858896,"distance":1377,"time":2,"station_name":"Matraman","station_id":"MTR","is_transit":false,"line":1,"transit":false},{"distance":1275,"time":2,"station_id":"MRI","is_transit":true,"i_long":106.84912,"transit":true,"station_name":"Manggarai","line":2,"i_lat":-6.209883},{"station_name":"Cikini","i_lat":-6.198556,"line":2,"i_long":106.840169,"is_transit":false,"station_id":"CKI","distance":1590,"time":4,"transit":false},{"i_lat":-6.186295,"line":2,"station_name":"Gondangdia","time":3,"station_id":"GDD","transit":false,"distance":1750,"is_transit":false,"i_long":106.832183},{"i_long":106.828284,"transit":false,"distance":2015,"time":4,"i_lat":-6.166716,"line":2,"station_name":"Juanda","station_id":"JUA","is_transit":false},{"i_lat":-6.160725,"i_long":106.827103,"station_id":"SW","is_transit":false,"line":2,"station_name":"Sawah Besar","time":2,"transit":false,"distance":1149}],[{"time":0,"distance":0,"transit":false,"is_transit":false,"i_lat":-6.329547,"i_long":106.617853,"line":3,"station_name":"Cicayur","station_id":"CC"},{"station_name":"Cisauk","distance":2519,"i_lat":-6.32484,"time":4,"is_transit":false,"line":3,"station_id":"CSK","i_long":106.640411,"transit":false},{"line":6,"transit":false,"station_name":"Serpong","is_transit":false,"i_lat":-6.319871,"station_id":"SRP","distance":1784,"i_long":106.66566,"time":4},{"is_transit":false,"i_long":106.675475,"transit":false,"station_name":"Rawa Buntu","distance":2413,"time":4,"line":6,"i_lat":-6.314823,"station_id":"RU"},{"station_id":"SDM","i_long":106.712277,"time":6,"transit":false,"line":6,"distance":4566,"station_name":"Sudimara","is_transit":false,"i_lat":-6.296963},{"is_transit":false,"line":6,"time":4,"station_name":"Jurangmangu","station_id":"JMU","transit":false,"distance":1994,"i_lat":-6.288927,"i_long":106.728916},{"station_name":"Pondokranji","distance":2179,"i_long":106.74273,"is_transit":false,"station_id":"PDJ","time":3,"i_lat":-6.276362,"line":6,"transit":false},{"line":6,"station_id":"KBY","is_transit":false,"i_long":106.780334,"station_name":"Kebayoran","i_lat":-6.237242,"time":8,"transit":false,"distance":6218},{"distance":3737,"is_transit":false,"i_lat":-6.207404,"time":7,"line":6,"transit":false,"station_id":"PLM","i_long":106.79689,"station_name":"Palmerah"},{"station_name":"Tanah Abang","i_long":106.811091,"i_lat":-6.185545,"is_transit":true,"transit":true,"distance":3191,"line":1,"station_id":"THB","time":6},{"station_name":"Karet","is_transit":false,"time":5,"distance":2029,"transit":false,"station_id":"KAT","line":1,"i_lat":-6.20132,"i_long":106.816351},{"station_id":"SUDB","transit":false,"is_transit":false,"time":1,"line":1,"i_long":106.819881,"station_name":"Sudirman Baru","i_lat":-6.201433,"distance":471},{"is_transit":false,"distance":280,"time":1,"station_name":"Sudirman","station_id":"SUD","i_lat":-6.202263,"i_long":106.822649,"line":1,"transit":false},{"station_name":"Manggarai","is_transit":false,"i_long":106.84912,"time":4,"distance":3186,"i_lat":-6.209883,"transit":false,"line":2,"station_id":"MRI"},{"line":1,"station_name":"Matraman","distance":1275,"is_transit":false,"i_lat":-6.212485,"station_id":"MTR","i_long":106.858896,"transit":false,"time":2},{"i_long":106.86807400000001,"i_lat":-6.215091,"is_transit":true,"transit":true,"time":8,"station_id":"JNG","distance":1377,"line":1,"station_name":"Jatinegara"},{"station_id":"POK","distance":1236,"transit":false,"station_name":"Pondok Jati","time":2,"i_long":106.861737,"line":11,"is_transit":false,"i_lat":-6.209188},{"station_id":"KMT","line":11,"distance":1829,"transit":false,"time":2,"i_lat":-6.193792,"station_name":"Kramat","is_transit":false,"i_long":106.855437},{"is_transit":false,"line":11,"transit":false,"i_long":106.850107,"time":1,"distance":973,"i_lat":-6.185975,"station_name":"Gang Sentiong","station_id":"GST"},{"is_transit":false,"i_lat":-6.174784,"time":8,"distance":1567,"transit":false,"i_long":106.84368,"line":11,"station_id":"PSE","station_name":"Pasar Senen"},{"time":4,"transit":false,"i_lat":-6.161728,"distance":1436,"station_name":"Kemayoran","is_transit":false,"line":11,"station_id":"KMO","i_long":106.839204},{"distance":1901,"i_long":106.836569,"station_id":"RJW","i_lat":-6.14505,"time":5,"line":11,"station_name":"Rajawali","transit":false,"is_transit":false},{"line":4,"distance":1444,"station_name":"Kampung Bandan","station_id":"KPB","transit":true,"is_transit":true,"time":3,"i_lat":-6.132549,"i_long":106.826365},{"station_name":"Jakarta Kota","i_lat":-6.137569,"line":2,"transit":true,"station_id":"JAKK","is_transit":true,"i_long":106.812439,"time":3,"distance":1364},{"distance":1264,"is_transit":false,"i_long":106.820901,"line":2,"transit":false,"station_name":"Jayakarta","i_lat":-6.141205,"station_id":"JAY","time":4},{"transit":false,"station_id":"MGB","distance":1080,"line":2,"time":2,"is_transit":false,"station_name":"Manggabesar","i_lat":-6.149769,"i_long":106.82482},{"station_id":"SW","time":2,"i_lat":-6.160725,"distance":906,"i_long":106.827103,"line":2,"station_name":"Sawah Besar","transit":false,"is_transit":false}]]}