{"data":[[{"is_transit":false,"time":0,"transit":false,"distance":0,"station_id":"CC","i_long":106.617853,"station_name":"Cicayur","line":3,"i_lat":-6.329547},{"i_lat":-6.32484,"station_id":"CSK","is_transit":false,"distance":2519,"station_name":"Cisauk","i_long":106.640411,"transit":false,"time":4,"line":3},{"distance":1784,"i_lat":-6.319871,"line":6,"time":4,"is_transit":false,"station_id":"SRP","transit":false,"i_long":106.66566,"station_name":"Serpong"},{"station_name":"Rawa Buntu","is_transit":false,"i_long":106.675475,"distance":2413,"line":6,"time":4,"i_lat":-6.314823,"transit":false,"station_id":"RU"},{"station_name":"Sudimara","station_id":"SDM","is_transit":false,"i_lat":-6.296963,"distance":4566,"line":6,"time":6,"transit":false,"i_long":106.712277},{"is_transit":false,"station_id":"JMU","time":4,"line":6,"station_name":"Jurangmangu","transit":false,"i_lat":-6.288927,"distance":1994,"i_long":106.728916},{"i_lat":-6.276362,"time":3,"station_name":"Pondokranji","is_transit":false,"distance":2179,"line":6,"station_id":"PDJ","i_long":106.74273,"transit":false},{"station_id":"KBY","station_name":"Kebayoran","transit":false,"distance":6218,"i_lat":-6.237242,"line":6,"is_transit":false,"time":8,"i_long":106.780334},{"i_long":106.79689,"time":7,"transit":false,"is_transit":false,"i_lat":-6.207404,"station_name":"Palmerah","station_id":"PLM","line":6,"distance":3737},{"i_long":106.811091,"station_name":"Tanah Abang","station_id":"THB","is_transit":true,"time":6,"distance":3191,"transit":true,"i_lat":-6.185545,"line":1},{"station_name":"Karet","i_long":106.816351,"i_lat":-6.20132,"station_id":"KAT","is_transit":false,"time":5,"line":1,"transit":false,"distance":2029},{"line":1,"station_name":"Sudirman Baru","station_id":"SUDB","is_transit":false,"transit":false,"time":1,"i_long":106.819881,"i_lat":-6.201433,"distance":471},{"distance":280,"transit":false,"time":1,"i_long":106.822649,"is_transit":false,"station_id":"SUD","i_lat":-6.202263,"line":1,"station_name":"Sudirman"}],[{"line":3,"station_name":"Cicayur","time":0,"transit":false,"station_id":"CC","distance":0,"is_transit":false,"i_lat":-6.329547,"i_long":106.617853},{"station_name":"Cisauk","station_id":"CSK","distance":2519,"i_lat":-6.32484,"time":4,"i_long":106.640411,"transit":false,"line":3,"is_transit":false},{"i_lat":-6.319871,"is_transit":false,"i_long":106.66566,"line":6,"transit":false,"station_id":"SRP","distance":1784,"time":4,"station_name":"Serpong"},{"time":4,"is_transit":false,"i_long":106.675475,"station_name":"Rawa Buntu","station_id":"RU","i_lat":-6.314823,"distance":2413,"line":6,"transit":false},{"time":6,"transit":false,"station_name":"Sudimara","station_id":"SDM","distance":4566,"i_lat":-6.296963,"i_long":106.712277,"is_transit":false,"line":6},{"is_transit":false,"distance":1994,"i_long":106.728916,"i_lat":-6.288927,"line":6,"transit":false,"time":4,"station_name":"Jurangmangu","station_id":"JMU"},{"distance":2179,"line":6,"station_name":"Pondokranji","time":3,"transit":false,"station_id":"PDJ","i_lat":-6.276362,"is_transit":false,"i_long":106.74273},{"transit":false,"time":8,"distance":6218,"i_long":106.780334,"line":6,"station_id":"KBY","is_transit":false,"station_name":"Kebayoran","i_lat":-6.237242},{"is_transit":false,"distance":3737,"station_id":"PLM","time":7,"i_lat":-6.207404,"i_long":106.79689,"line":6,"transit":false,"station_name":"Palmerah"},{"station_id":"THB","i_lat":-6.185545,"i_long":106.811091,"station_name":"Tanah Abang","transit":true,"time":6,"is_transit":true,"line":1,"distance":3191},{"distance":3632,"time":8,"line":1,"transit":false,"i_lat":-6.155215,"is_transit":false,"station_name":"Duri","i_long":106.800832,"station_id":"DU"},{"station_name":"Angke","is_transit":false,"time":4,"distance":1230,"station_id":"AK","i_lat":-6.144674,"line":1,"i_long":106.79867,"transit":false},{"station_id":"KPB","time":9,"i_long":106.826365,"transit":true,"is_transit":true,"station_name":"Kampung Bandan","distance":4102,"i_lat":-6.132549,"line":4},{"i_long":106.812439,"is_transit":true,"line":2,"station_id":"JAKK","station_name":"Jakarta Kota","i_lat":-6.137569,"time":3,"distance":1364,"transit":true},{"line":2,"is_transit":false,"transit":false,"time":4,"station_id":"JAY","distance":1264,"i_lat":-6.141205,"station_name":"Jayakarta","i_long":106.820901},{"transit":false,"is_transit":false,"distance":1080,"i_lat":-6.149769,"i_long":106.82482,"station_id":"MGB","station_name":"Manggabesar","time":2,"line":2},{"distance":906,"transit":false,"station_id":"SW","is_transit":false,"time":2,"station_name":"Sawah Besar","i_lat":-6.160725,"i_long":106.827103,"line":2},{"station_name":"Juanda","i_lat":-6.166716,"i_long":106.828284,"transit":false,"station_id":"JUA","is_transit":false,"time":2,"distance":1149,"line":2},{"i_long":106.832183,"i_lat":-6.186295,"is_transit":false,"station_name":"Gondangdia","time":4,"transit":false,"line":2,"distance":2015,"station_id":"GDD"},{"i_lat":-6.198556,"is_transit":false,"station_id":"CKI","time":3,"transit":false,"station_name":"Cikini","line":2,"distance":1750,"i_long":106.840169},{"distance":1590,"line":2,"i_long":106.84912,"transit":true,"i_lat":-6.209883,"time":4,"station_name":"Manggarai","is_transit":true,"station_id":"MRI"},{"station_name":"Sudirman","transit":false,"time":4,"i_long":106.822649,"line":1,"station_id":"SUD","is_transit":false,"distance":3186,"i_lat":-6.202263}],[{"transit":false,"is_transit":false,"line":3,"station_name":"Cicayur","station_id":"CC","i_long":106.617853,"i_lat":-6.329547,"distance":0,"time":0},{"is_transit":false,"i_lat":-6.32484,"line":3,"time":4,"transit":false,"distance":2519,"station_name":"Cisauk","station_id":"CSK","i_long":106.640411},{"station_name":"Serpong","transit":false,"distance":1784,"station_id":"SRP","is_transit":false,"i_lat":-6.319871,"i_long":106.66566,"line":6,"time":4},{"time":4,"station_id":"RU","transit":false,"i_long":106.675475,"i_lat":-6.314823,"station_name":"Rawa Buntu","distance":2413,"is_transit":false,"line":6},{"station_name":"Sudimara","distance":4566,"line":6,"is_transit":false,"i_lat":-6.296963,"i_long":106.712277,"station_id":"SDM","time":6,"transit":false},{"station_id":"JMU","line":6,"station_name":"Jurangmangu","i_long":106.728916,"is_transit":false,"i_lat":-6.288927,"distance":1994,"transit":false,"time":4},{"time":3,"is_transit":false,"i_long":106.74273,"i_lat":-6.276362,"station_id":"PDJ","distance":2179,"line":6,"transit":false,"station_name":"Pondokranji"},{"distance":6218,"line":6,"station_id":"KBY","i_lat":-6.237242,"i_long":106.780334,"time":8,"station_name":"Kebayoran","transit":false,"is_transit":false},{"transit":false,"i_long":106.79689,"distance":3737,"i_lat":-6.207404,"is_transit":false,"time":7,"station_name":"Palmerah","line":6,"station_id":"PLM"},{"i_long":106.811091,"transit":true,"is_transit":true,"time":6,"i_lat":-6.185545,"station_name":"Tanah Abang","station_id":"THB","line":1,"distance":3191},{"station_id":"DU","distance":3632,"is_transit":false,"i_lat":-6.155215,"transit":false,"station_name":"Duri","time":8,"i_long":106.800832,"line":1},{"i_long":106.79867,"station_name":"Angke","transit":false,"distance":1230,"is_transit":false,"i_lat":-6.144674,"time":4,"station_id":"AK","line":1},{"i_lat":-6.132549,"i_long":106.826365,"time":9,"distance":4102,"line":4,"station_id":"KPB","station_name":"Kampung Bandan","is_transit":true,"transit":true},{"i_long":106.836569,"distance":1444,"time":3,"transit":false,"i_lat":-6.14505,"line":11,"station_name":"Rajawali","station_id":"RJW","is_transit":false},{"is_transit":false,"transit":false,"time":5,"i_lat":-6.161728,"line":11,"distance":1901,"station_id":"KMO","station_name":"Kemayoran","i_long":106.839204},{"is_transit":false,"line":11,"i_lat":-6.174784,"distance":1436,"i_long":106.84368,"transit":false,"station_id":"PSE","time":4,"station_name":"Pasar Senen"},{"station_id":"GST","i_lat":-6.185975,"distance":1567,"station_name":"Gang Sentiong","is_transit":false,"time":8,"i_long":106.850107,"transit":false,"line":11},{"i_long":106.855437,"transit":false,"line":11,"station_name":"Kramat","is_transit":false,"distance":973,"time":1,"i_lat":-6.193792,"station_id":"KMT"},{"i_lat":-6.209188,"is_transit":false,"i_long":106.861737,"station_id":"POK","line":11,"time":2,"station_name":"Pondok Jati","transit":false,"distance":1829},{"distance":1236,"station_id":"JNG","line":1,"transit":true,"station_name":"Jatinegara","time":9,"i_long":106.86807400000001,"i_lat":-6.215091,"is_transit":true},{"transit":false,"station_name":"Matraman","is_transit":false,"distance":1377,"line":1,"station_id":"MTR","time":2,"i_lat":-6.212485,"i_long":106.858896},{"station_id":"MRI","is_transit":false,"distance":1275,"line":2,"station_name":"Manggarai","i_long":106.84912,"time":2,"transit":false,"i_lat":-6.209883},{"time":4,"is_transit":false,"station_name":"Sudirman","line":1,"station_id":"SUD","transit":false,"i_lat":-6.202263,"distance":3186,"i_long":106.822649}]]}