{"data":[[{"station_name":"Cicayur","time":0,"distance":0,"station_id":"CC","i_long":106.617853,"line":3,"transit":false,"is_transit":false,"i_lat":-6.329547},{"station_id":"CSK","station_name":"Cisauk","i_long":106.640411,"line":3,"time":4,"distance":2519,"i_lat":-6.32484,"is_transit":false,"transit":false},{"i_lat":-6.319871,"i_long":106.66566,"distance":1784,"transit":false,"is_transit":false,"time":4,"station_id":"SRP","station_name":"Serpong","line":6},{"is_transit":false,"station_name":"Rawa Buntu","transit":false,"line":6,"distance":2413,"i_lat":-6.314823,"i_long":106.675475,"station_id":"RU","time":4},{"distance":4566,"transit":false,"station_name":"Sudimara","station_id":"SDM","i_long":106.712277,"line":6,"is_transit":false,"i_lat":-6.296963,"time":6},{"station_id":"JMU","transit":false,"line":6,"i_long":106.728916,"i_lat":-6.288927,"is_transit":false,"time":4,"station_name":"Jurangmangu","distance":1994},{"i_lat":-6.276362,"i_long":106.74273,"time":3,"station_name":"Pondokranji","distance":2179,"station_id":"PDJ","is_transit":false,"line":6,"transit":false},{"transit":false,"station_id":"KBY","is_transit":false,"i_long":106.780334,"i_lat":-6.237242,"line":6,"distance":6218,"station_name":"Kebayoran","time":8},{"is_transit":false,"i_long":106.79689,"i_lat":-6.207404,"station_name":"Palmerah","transit":false,"distance":3737,"line":6,"time":7,"station_id":"PLM"},{"time":6,"distance":3191,"station_id":"THB","is_transit":true,"transit":true,"i_lat":-6.185545,"line":1,"station_name":"Tanah Abang","i_long":106.811091},{"station_id":"DU","time":8,"is_transit":false,"transit":false,"i_long":106.800832,"line":1,"station_name":"Duri","i_lat":-6.155215,"distance":3632},{"transit":false,"is_transit":false,"station_id":"AK","i_long":106.79867,"time":4,"distance":1230,"line":1,"i_lat":-6.144674,"station_name":"Angke"},{"is_transit":true,"i_lat":-6.132549,"line":4,"transit":true,"time":9,"station_name":"Kampung Bandan","i_long":106.826365,"station_id":"KPB","distance":4102},{"station_name":"Jakarta Kota","distance":1364,"is_transit":true,"i_lat":-6.137569,"time":3,"transit":true,"i_long":106.812439,"line":2,"station_id":"JAKK"},{"line":2,"transit":false,"is_transit":false,"station_name":"Jayakarta","i_long":106.820901,"station_id":"JAY","distance":1264,"time":4,"i_lat":-6.141205},{"i_long":106.82482,"transit":false,"i_lat":-6.149769,"station_id":"MGB","is_transit":false,"station_name":"Manggabesar","time":2,"line":2,"distance":1080},{"station_name":"Sawah Besar","i_long":106.827103,"i_lat":-6.160725,"line":2,"transit":false,"station_id":"SW","is_transit":false,"time":2,"distance":906}],[{"distance":0,"station_id":"CC","station_name":"Cicayur","line":3,"i_lat":-6.329547,"i_long":106.617853,"time":0,"is_transit":false,"transit":false},{"station_id":"CSK","is_transit":false,"distance":2519,"station_name":"Cisauk","line":3,"i_long":106.640411,"time":4,"i_lat":-6.32484,"transit":false},{"is_transit":false,"station_id":"SRP","distance":1784,"station_name":"Serpong","transit":false,"time":4,"i_lat":-6.319871,"i_long":106.66566,"line":6},{"station_name":"Rawa Buntu","i_lat":-6.314823,"station_id":"RU","i_long":106.675475,"line":6,"transit":false,"time":4,"distance":2413,"is_transit":false},{"transit":false,"is_transit":false,"station_name":"Sudimara","distance":4566,"time":6,"line":6,"i_lat":-6.296963,"station_id":"SDM","i_long":106.712277},{"is_transit":false,"time":4,"line":6,"distance":1994,"i_long":106.728916,"station_id":"JMU","station_name":"Jurangmangu","i_lat":-6.288927,"transit":false},{"distance":2179,"line":6,"transit":false,"station_name":"Pondokranji","is_transit":false,"time":3,"station_id":"PDJ","i_lat":-6.276362,"i_long":106.74273},{"is_transit":false,"station_name":"Kebayoran","i_lat":-6.237242,"distance":6218,"station_id":"KBY","time":8,"i_long":106.780334,"line":6,"transit":false},{"station_name":"Palmerah","i_lat":-6.207404,"transit":false,"distance":3737,"time":7,"is_transit":false,"station_id":"PLM","i_long":106.79689,"line":6},{"is_transit":true,"station_id":"THB","distance":3191,"station_name":"Tanah Abang","i_long":106.811091,"transit":true,"i_lat":-6.185545,"time":6,"line":1},{"distance":2029,"station_name":"Karet","transit":false,"line":1,"station_id":"KAT","i_long":106.816351,"time":5,"is_transit":false,"i_lat":-6.20132},{"station_name":"Sudirman Baru","transit":false,"distance":471,"is_transit":false,"station_id":"SUDB","i_long":106.819881,"line":1,"i_lat":-6.201433,"time":1},{"station_name":"Sudirman","line":1,"is_transit":false,"transit":false,"i_long":106.822649,"distance":280,"station_id":"SUD","time":1,"i_lat":-6.202263},{"station_id":"MRI","station_name":"Manggarai","i_long":106.84912,"i_lat":-6.209883,"time":4,"is_transit":true,"line":2,"distance":3186,"transit":true},{"line":2,"distance":1590,"station_name":"Cikini","transit":false,"time":4,"station_id":"CKI","i_lat":-6.198556,"is_transit":false,"i_long":106.840169},{"transit":false,"station_id":"GDD","station_name":"Gondangdia","i_lat":-6.186295,"i_long":106.832183,"distance":1750,"time":3,"line":2,"is_transit":false},{"is_transit":false,"line":2,"transit":false,"distance":2015,"station_id":"JUA","i_lat":-6.166716,"time":4,"station_name":"Juanda","i_long":106.828284},{"time":2,"station_name":"Sawah Besar","i_long":106.827103,"i_lat":-6.160725,"line":2,"transit":false,"is_transit":false,"distance":1149,"station_id":"SW"}],[{"i_lat":-6.329547,"distance":0,"transit":false,"line":3,"time":0,"is_transit":false,"i_long":106.617853,"station_id":"CC","station_name":"Cicayur"},{"distance":2519,"station_name":"Cisauk","station_id":"CSK","i_lat":-6.32484,"transit":false,"is_transit":false,"time":4,"line":3,"i_long":106.640411},{"transit":false,"time":4,"is_transit":false,"station_id":"SRP","distance":1784,"i_long":106.66566,"line":6,"station_name":"Serpong","i_lat":-6.319871},{"time":4,"line":6,"distance":2413,"i_long":106.675475,"transit":false,"station_name":"Rawa Buntu","i_lat":-6.314823,"is_transit":false,"station_id":"RU"},{"i_long":106.712277,"line":6,"distance":4566,"is_transit":false,"station_name":"Sudimara","i_lat":-6.296963,"station_id":"SDM","transit":false,"time":6},{"transit":false,"distance":1994,"station_id":"JMU","station_name":"Jurangmangu","is_transit":false,"i_lat":-6.288927,"line":6,"i_long":106.728916,"time":4},{"is_transit":false,"station_id":"PDJ","i_long":106.74273,"transit":false,"distance":2179,"station_name":"Pondokranji","line":6,"time":3,"i_lat":-6.276362},{"i_long":106.780334,"i_lat":-6.237242,"is_transit":false,"distance":6218,"line":6,"transit":false,"time":8,"station_id":"KBY","station_name":"Kebayoran"},{"station_name":"Palmerah","is_transit":false,"i_long":106.79689,"i_lat":-6.207404,"transit":false,"time":7,"distance":3737,"line":6,"station_id":"PLM"},{"transit":true,"i_long":106.811091,"distance":3191,"station_id":"THB","is_transit":true,"i_lat":-6.185545,"station_name":"Tanah Abang","line":1,"time":6},{"time":8,"distance":3632,"station_name":"Duri","station_id":"DU","i_long":106.800832,"is_transit":false,"line":1,"i_lat":-6.155215,"transit":false},{"transit":false,"station_id":"AK","is_transit":false,"i_lat":-6.144674,"line":1,"time":4,"station_name":"Angke","distance":1230,"i_long":106.79867},{"i_long":106.826365,"is_transit":true,"distance":4102,"station_id":"KPB","time":9,"transit":true,"station_name":"Kampung Bandan","line":4,"i_lat":-6.132549},{"line":11,"distance":1444,"transit":false,"station_id":"RJW","i_long":106.836569,"is_transit":false,"station_name":"Rajawali","i_lat":-6.14505,"time":3},{"i_long":106.839204,"distance":1901,"line":11,"transit":false,"station_name":"Kemayoran","station_id":"KMO","is_transit":false,"time":5,"i_lat":-6.161728},{"time":4,"station_id":"PSE","distance":1436,"transit":false,"i_lat":-6.174784,"station_name":"Pasar Senen","is_transit":false,"line":11,"i_long":106.84368},{"i_lat":-6.185975,"station_id":"GST","station_name":"Gang Sentiong","time":8,"i_long":106.850107,"transit":false,"distance":1567,"line":11,"is_transit":false},{"station_id":"KMT","i_long":106.855437,"time":1,"line":11,"is_transit":false,"transit":false,"distance":973,"station_name":"Kramat","i_lat":-6.193792},{"i_lat":-6.209188,"i_long":106.861737,"is_transit":false,"time":2,"station_name":"Pondok Jati","transit":false,"station_id":"POK","distance":1829,"line":11},{"station_name":"Jatinegara","i_long":106.86807400000001,"line":1,"station_id":"JNG","transit":true,"distance":1236,"time":9,"i_lat":-6.215091,"is_transit":true},{"transit":false,"i_long":106.858896,"i_lat":-6.212485,"station_id":"MTR","time":2,"is_transit":false,"distance":1377,"station_name":"Matraman","line":1},{"i_lat":-6.209883,"station_name":"Manggarai","time":2,"transit":true,"i_long":106.84912,"line":2,"is_transit":true,"station_id":"MRI","distance":1275},{"transit":false,"station_id":"CKI","i_lat":-6.198556,"time":4,"i_long":106.840169,"is_transit":false,"station_name":"Cikini","line":2,"distance":1590},{"distance":1750,"i_lat":-6.186295,"time":3,"line":2,"is_transit":false,"station_id":"GDD","i_long":106.832183,"transit":false,"station_name":"Gondangdia"},{"is_transit":false,"station_id":"JUA","time":4,"station_name":"Juanda","i_lat":-6.166716,"line":2,"distance":2015,"transit":false,"i_long":106.828284},{"i_long":106.827103,"i_lat":-6.160725,"time":2,"line":2,"is_transit":false,"transit":false,"distance":1149,"station_id":"SW","station_name":"Sawah Besar"}],[{"station_id":"CC","time":0,"line":3,"station_name":"Cicayur","i_long":106.617853,"transit":false,"distance":0,"i_lat":-6.329547,"is_transit":false},{"is_transit":false,"time":4,"i_lat":-6.32484,"line":3,"station_id":"CSK","transit":false,"distance":2519,"station_name":"Cisauk","i_long":106.640411},{"is_transit":false,"transit":false,"line":6,"time":4,"i_long":106.66566,"distance":1784,"i_lat":-6.319871,"station_name":"Serpong","station_id":"SRP"},{"i_lat":-6.314823,"transit":false,"distance":2413,"i_long":106.675475,"time":4,"station_name":"Rawa Buntu","line":6,"is_transit":false,"station_id":"RU"},{"i_long":106.712277,"line":6,"station_id":"SDM","is_transit":false,"time":6,"i_lat":-6.296963,"station_name":"Sudimara","distance":4566,"transit":false},{"is_transit":false,"i_long":106.728916,"station_id":"JMU","station_name":"Jurangmangu","line":6,"distance":1994,"i_lat":-6.288927,"transit":false,"time":4},{"transit":false,"station_id":"PDJ","station_name":"Pondokranji","is_transit":false,"distance":2179,"time":3,"line":6,"i_long":106.74273,"i_lat":-6.276362},{"is_transit":false,"time":8,"transit":false,"i_long":106.780334,"station_name":"Kebayoran","line":6,"station_id":"KBY","distance":6218,"i_lat":-6.237242},{"line":6,"time":7,"is_transit":false,"station_name":"Palmerah","i_lat":-6.207404,"distance":3737,"station_id":"PLM","i_long":106.79689,"transit":false},{"i_lat":-6.185545,"i_long":106.811091,"time":6,"line":1,"transit":true,"is_transit":true,"station_id":"THB","station_name":"Tanah Abang","distance":3191},{"transit":false,"distance":2029,"line":1,"time":5,"is_transit":false,"station_name":"Karet","i_long":106.816351,"station_id":"KAT","i_lat":-6.20132},{"i_long":106.819881,"line":1,"is_transit":false,"i_lat":-6.201433,"station_name":"Sudirman Baru","station_id":"SUDB","distance":471,"transit":false,"time":1},{"i_long":106.822649,"station_name":"Sudirman","is_transit":false,"station_id":"SUD","transit":false,"distance":280,"line":1,"time":1,"i_lat":-6.202263},{"station_id":"MRI","line":2,"transit":false,"time":4,"i_lat":-6.209883,"i_long":106.84912,"station_name":"Manggarai","is_transit":false,"distance":3186},{"transit":false,"station_id":"MTR","is_transit":false,"line":1,"i_long":106.858896,"time":2,"station_name":"Matraman","i_lat":-6.212485,"distance":1275},{"distance":1377,"station_id":"JNG","transit":true,"i_long":106.86807400000001,"line":1,"is_transit":true,"i_lat":-6.215091,"time":8,"station_name":"Jatinegara"},{"time":2,"station_id":"POK","line":11,"distance":1236,"transit":false,"i_long":106.861737,"i_lat":-6.209188,"is_transit":false,"station_name":"Pondok Jati"},{"i_long":106.855437,"distance":1829,"time":2,"station_id":"KMT","i_lat":-6.193792,"transit":false,"is_transit":false,"line":11,"station_name":"Kramat"},{"is_transit":false,"line":11,"i_lat":-6.185975,"i_long":106.850107,"transit":false,"time":1,"station_id":"GST","station_name":"Gang Sentiong","distance":973},{"time":8,"distance":1567,"i_long":106.84368,"is_transit":false,"station_id":"PSE","station_name":"Pasar Senen","i_lat":-6.174784,"transit":false,"line":11},{"line":11,"is_transit":false,"station_id":"KMO","distance":1436,"transit":false,"station_name":"Kemayoran","i_lat":-6.161728,"i_long":106.839204,"time":4},{"is_transit":false,"i_lat":-6.14505,"line":11,"station_id":"RJW","transit":false,"i_long":106.836569,"station_name":"Rajawali","distance":1901,"time":5},{"i_long":106.826365,"time":3,"transit":true,"station_id":"KPB","line":4,"i_lat":-6.132549,"is_transit":true,"station_name":"Kampung Bandan","distance":1444},{"line":2,"distance":1364,"is_transit":true,"transit":true,"time":3,"i_lat":-6.137569,"station_id":"JAKK","station_name":"Jakarta Kota","i_long":106.812439},{"line":2,"transit":false,"is_transit":false,"distance":1264,"i_lat":-6.141205,"time":4,"station_name":"Jayakarta","i_long":106.820901,"station_id":"JAY"},{"station_name":"Manggabesar","i_lat":-6.149769,"distance":1080,"station_id":"MGB","is_transit":false,"transit":false,"line":2,"i_long":106.82482,"time":2},{"i_lat":-6.160725,"distance":906,"station_id":"SW","is_transit":false,"station_name":"Sawah Besar","i_long":106.827103,"time":2,"line":2,"transit":false}]]}