{"data":[[{"station_name":"Cicayur","i_lat":-6.329547,"line":0,"transit":false,"time":0,"i_long":106.617853,"distance":0,"station_id":"CC","is_transit":false},{"line":0,"time":4,"station_name":"Cisauk","i_long":106.640411,"is_transit":false,"transit":false,"i_lat":-6.32484,"station_id":"CSK","distance":2519},{"i_lat":-6.319871,"line":6,"transit":false,"is_transit":false,"time":4,"station_name":"Serpong","station_id":"SRP","distance":1784,"i_long":106.66566},{"station_id":"RU","time":4,"is_transit":false,"distance":2413,"i_lat":-6.314823,"station_name":"Rawa Buntu","line":6,"i_long":106.675475,"transit":false},{"station_id":"SDM","line":6,"transit":false,"is_transit":false,"i_lat":-6.296963,"station_name":"Sudimara","time":6,"distance":4566,"i_long":106.712277},{"transit":false,"is_transit":false,"i_lat":-6.288927,"time":4,"i_long":106.728916,"station_id":"JMU","station_name":"Jurangmangu","distance":1994,"line":6},{"station_id":"PDJ","station_name":"Pondokranji","is_transit":false,"time":3,"i_lat":-6.276362,"i_long":106.74273,"transit":false,"line":6,"distance":2179},{"transit":false,"is_transit":false,"i_long":106.780334,"i_lat":-6.237242,"station_name":"Kebayoran","station_id":"KBY","time":8,"distance":6218,"line":6},{"distance":3737,"line":6,"time":7,"station_id":"PLM","i_long":106.79689,"station_name":"Palmerah","transit":false,"is_transit":false,"i_lat":-6.207404},{"i_long":106.811091,"station_id":"THB","time":6,"station_name":"Tanah Abang","is_transit":true,"line":1,"i_lat":-6.185545,"distance":3191,"transit":true},{"station_id":"DU","time":8,"is_transit":true,"transit":true,"i_lat":-6.155215,"i_long":106.800832,"station_name":"Duri","line":1,"distance":3632},{"station_name":"Angke","i_long":106.79867,"line":0,"station_id":"AK","distance":1230,"time":4,"transit":false,"is_transit":false,"i_lat":-6.144674},{"distance":4102,"station_name":"Kampung Bandan","transit":false,"is_transit":true,"time":9,"i_lat":-6.132549,"station_id":"KPB","line":0,"i_long":106.826365},{"distance":1364,"station_name":"Jakarta Kota","time":3,"line":0,"i_lat":-6.137569,"station_id":"JAKK","is_transit":true,"transit":true,"i_long":106.812439},{"station_id":"JAY","station_name":"Jayakarta","i_lat":-6.141205,"is_transit":false,"distance":1264,"line":7,"transit":false,"time":4,"i_long":106.820901},{"is_transit":false,"transit":false,"time":2,"distance":1080,"i_long":106.82482,"station_id":"MGB","i_lat":-6.149769,"line":2,"station_name":"Manggabesar"},{"station_name":"Sawah Besar","station_id":"SW","transit":false,"is_transit":false,"time":2,"distance":906,"i_lat":-6.160725,"i_long":106.827103,"line":2}],[{"i_lat":-6.329547,"distance":0,"is_transit":false,"transit":false,"time":0,"i_long":106.617853,"station_name":"Cicayur","station_id":"CC","line":0},{"line":0,"station_name":"Cisauk","station_id":"CSK","time":4,"distance":2519,"i_lat":-6.32484,"transit":false,"is_transit":false,"i_long":106.640411},{"station_name":"Serpong","time":4,"i_lat":-6.319871,"i_long":106.66566,"station_id":"SRP","distance":1784,"transit":false,"is_transit":false,"line":6},{"i_lat":-6.314823,"i_long":106.675475,"time":4,"station_id":"RU","distance":2413,"transit":false,"line":6,"station_name":"Rawa Buntu","is_transit":false},{"station_id":"SDM","is_transit":false,"line":6,"i_lat":-6.296963,"distance":4566,"transit":false,"time":6,"station_name":"Sudimara","i_long":106.712277},{"i_long":106.728916,"line":6,"station_name":"Jurangmangu","station_id":"JMU","is_transit":false,"distance":1994,"transit":false,"time":4,"i_lat":-6.288927},{"station_name":"Pondokranji","station_id":"PDJ","is_transit":false,"time":3,"distance":2179,"transit":false,"i_long":106.74273,"line":6,"i_lat":-6.276362},{"station_id":"KBY","station_name":"Kebayoran","transit":false,"time":8,"is_transit":false,"i_long":106.780334,"i_lat":-6.237242,"line":6,"distance":6218},{"station_name":"Palmerah","i_lat":-6.207404,"time":7,"is_transit":false,"station_id":"PLM","distance":3737,"i_long":106.79689,"line":6,"transit":false},{"i_lat":-6.185545,"station_name":"Tanah Abang","transit":true,"station_id":"THB","distance":3191,"line":1,"is_transit":true,"i_long":106.811091,"time":6},{"time":5,"station_id":"KAT","station_name":"Karet","i_lat":-6.20132,"line":1,"is_transit":false,"i_long":106.816351,"transit":false,"distance":2029},{"is_transit":false,"station_name":"Sudirman Baru","station_id":"SUDB","transit":false,"time":1,"distance":471,"i_long":106.819881,"i_lat":-6.201433,"line":1},{"is_transit":false,"station_name":"Sudirman","distance":280,"line":1,"time":1,"transit":false,"i_lat":-6.202263,"station_id":"SUD","i_long":106.822649},{"i_long":106.84912,"line":0,"station_id":"MRI","is_transit":true,"time":4,"transit":true,"i_lat":-6.209883,"distance":3186,"station_name":"Manggarai"},{"is_transit":false,"station_id":"CKI","transit":false,"station_name":"Cikini","time":4,"i_long":106.840169,"line":0,"distance":1590,"i_lat":-6.198556},{"line":2,"i_long":106.832183,"station_name":"Gondangdia","transit":false,"distance":1750,"station_id":"GDD","is_transit":false,"time":3,"i_lat":-6.186295},{"station_id":"JUA","transit":false,"is_transit":false,"station_name":"Juanda","distance":2015,"time":4,"i_lat":-6.166716,"i_long":106.828284,"line":2},{"distance":1149,"line":2,"is_transit":false,"transit":false,"i_long":106.827103,"time":2,"station_name":"Sawah Besar","i_lat":-6.160725,"station_id":"SW"}],[{"transit":false,"i_lat":-6.329547,"i_long":106.617853,"line":0,"time":0,"station_id":"CC","is_transit":false,"distance":0,"station_name":"Cicayur"},{"i_long":106.640411,"distance":2519,"time":4,"station_name":"Cisauk","is_transit":false,"line":0,"i_lat":-6.32484,"station_id":"CSK","transit":false},{"i_long":106.66566,"station_name":"Serpong","i_lat":-6.319871,"line":6,"is_transit":false,"station_id":"SRP","transit":false,"time":4,"distance":1784},{"is_transit":false,"station_id":"RU","time":4,"distance":2413,"i_lat":-6.314823,"i_long":106.675475,"transit":false,"line":6,"station_name":"Rawa Buntu"},{"station_id":"SDM","station_name":"Sudimara","is_transit":false,"i_lat":-6.296963,"time":6,"transit":false,"distance":4566,"i_long":106.712277,"line":6},{"is_transit":false,"time":4,"distance":1994,"i_long":106.728916,"station_id":"JMU","i_lat":-6.288927,"line":6,"transit":false,"station_name":"Jurangmangu"},{"line":6,"is_transit":false,"station_name":"Pondokranji","time":3,"i_lat":-6.276362,"transit":false,"distance":2179,"station_id":"PDJ","i_long":106.74273},{"i_long":106.780334,"station_name":"Kebayoran","is_transit":false,"line":6,"station_id":"KBY","i_lat":-6.237242,"transit":false,"time":8,"distance":6218},{"time":7,"i_long":106.79689,"line":6,"i_lat":-6.207404,"is_transit":false,"transit":false,"station_id":"PLM","distance":3737,"station_name":"Palmerah"},{"is_transit":true,"time":6,"transit":true,"distance":3191,"station_name":"Tanah Abang","i_lat":-6.185545,"station_id":"THB","line":1,"i_long":106.811091},{"station_name":"Duri","line":1,"time":8,"i_lat":-6.155215,"transit":true,"is_transit":true,"distance":3632,"i_long":106.800832,"station_id":"DU"},{"i_lat":-6.144674,"i_long":106.79867,"is_transit":false,"station_name":"Angke","line":0,"station_id":"AK","transit":false,"time":4,"distance":1230},{"transit":true,"is_transit":true,"i_long":106.826365,"distance":4102,"line":0,"i_lat":-6.132549,"station_id":"KPB","time":9,"station_name":"Kampung Bandan"},{"time":3,"i_long":106.836569,"station_id":"RJW","transit":false,"distance":1444,"line":11,"i_lat":-6.14505,"is_transit":false,"station_name":"Rajawali"},{"time":5,"transit":false,"i_lat":-6.161728,"line":11,"station_name":"Kemayoran","station_id":"KMO","distance":1901,"i_long":106.839204,"is_transit":false},{"is_transit":false,"time":4,"line":11,"station_id":"PSE","station_name":"Pasar Senen","transit":false,"i_lat":-6.174784,"distance":1436,"i_long":106.84368},{"i_lat":-6.185975,"line":11,"time":8,"station_name":"Gang Sentiong","i_long":106.850107,"distance":1567,"transit":false,"is_transit":false,"station_id":"GST"},{"line":11,"transit":false,"i_lat":-6.193792,"station_name":"Kramat","station_id":"KMT","i_long":106.855437,"distance":973,"time":1,"is_transit":false},{"station_id":"POK","station_name":"Pondok Jati","distance":1829,"transit":false,"i_long":106.861737,"line":11,"i_lat":-6.209188,"is_transit":false,"time":2},{"transit":true,"station_id":"JNG","is_transit":true,"i_long":106.86807400000001,"time":9,"station_name":"Jatinegara","distance":1236,"i_lat":-6.215091,"line":0},{"i_long":106.858896,"station_id":"MTR","station_name":"Matraman","line":1,"is_transit":false,"time":2,"distance":1377,"transit":false,"i_lat":-6.212485},{"line":0,"transit":true,"distance":1275,"i_lat":-6.209883,"station_id":"MRI","time":2,"i_long":106.84912,"station_name":"Manggarai","is_transit":true},{"transit":false,"is_transit":false,"time":4,"distance":1590,"i_long":106.840169,"i_lat":-6.198556,"line":0,"station_name":"Cikini","station_id":"CKI"},{"i_long":106.832183,"distance":1750,"i_lat":-6.186295,"line":2,"transit":false,"is_transit":false,"station_id":"GDD","time":3,"station_name":"Gondangdia"},{"distance":2015,"transit":false,"station_name":"Juanda","line":2,"station_id":"JUA","is_transit":false,"time":4,"i_lat":-6.166716,"i_long":106.828284},{"station_id":"SW","line":2,"station_name":"Sawah Besar","transit":false,"distance":1149,"is_transit":false,"i_lat":-6.160725,"i_long":106.827103,"time":2}],[{"is_transit":false,"station_id":"CC","i_lat":-6.329547,"time":0,"i_long":106.617853,"transit":false,"station_name":"Cicayur","distance":0,"line":0},{"is_transit":false,"time":4,"distance":2519,"station_id":"CSK","i_lat":-6.32484,"i_long":106.640411,"station_name":"Cisauk","transit":false,"line":0},{"is_transit":false,"station_name":"Serpong","transit":false,"line":6,"i_long":106.66566,"distance":1784,"time":4,"i_lat":-6.319871,"station_id":"SRP"},{"transit":false,"station_id":"RU","is_transit":false,"station_name":"Rawa Buntu","distance":2413,"time":4,"i_long":106.675475,"line":6,"i_lat":-6.314823},{"line":6,"station_name":"Sudimara","time":6,"is_transit":false,"i_long":106.712277,"transit":false,"station_id":"SDM","distance":4566,"i_lat":-6.296963},{"time":4,"i_lat":-6.288927,"i_long":106.728916,"is_transit":false,"distance":1994,"station_id":"JMU","station_name":"Jurangmangu","transit":false,"line":6},{"i_long":106.74273,"i_lat":-6.276362,"line":6,"station_id":"PDJ","distance":2179,"station_name":"Pondokranji","transit":false,"time":3,"is_transit":false},{"station_id":"KBY","station_name":"Kebayoran","transit":false,"i_long":106.780334,"line":6,"i_lat":-6.237242,"distance":6218,"time":8,"is_transit":false},{"distance":3737,"transit":false,"is_transit":false,"i_long":106.79689,"line":6,"time":7,"station_name":"Palmerah","i_lat":-6.207404,"station_id":"PLM"},{"distance":3191,"line":1,"is_transit":true,"station_name":"Tanah Abang","station_id":"THB","i_lat":-6.185545,"i_long":106.811091,"transit":true,"time":6},{"i_long":106.816351,"station_name":"Karet","is_transit":false,"station_id":"KAT","transit":false,"distance":2029,"time":5,"i_lat":-6.20132,"line":1},{"is_transit":false,"line":1,"station_id":"SUDB","time":1,"distance":471,"station_name":"Sudirman Baru","transit":false,"i_lat":-6.201433,"i_long":106.819881},{"transit":false,"line":1,"i_long":106.822649,"station_id":"SUD","time":1,"station_name":"Sudirman","is_transit":false,"i_lat":-6.202263,"distance":280},{"i_lat":-6.209883,"station_name":"Manggarai","transit":false,"station_id":"MRI","distance":3186,"time":4,"i_long":106.84912,"line":0,"is_transit":true},{"station_id":"MTR","line":1,"i_long":106.858896,"distance":1275,"station_name":"Matraman","i_lat":-6.212485,"is_transit":false,"time":2,"transit":false},{"transit":true,"distance":1377,"station_id":"JNG","time":8,"i_lat":-6.215091,"i_long":106.86807400000001,"line":0,"station_name":"Jatinegara","is_transit":true},{"line":11,"time":2,"is_transit":false,"station_id":"POK","station_name":"Pondok Jati","distance":1236,"i_lat":-6.209188,"transit":false,"i_long":106.861737},{"station_id":"KMT","i_lat":-6.193792,"distance":1829,"transit":false,"is_transit":false,"i_long":106.855437,"time":2,"station_name":"Kramat","line":11},{"station_name":"Gang Sentiong","station_id":"GST","transit":false,"is_transit":false,"time":1,"i_lat":-6.185975,"line":11,"distance":973,"i_long":106.850107},{"i_long":106.84368,"line":11,"distance":1567,"i_lat":-6.174784,"station_id":"PSE","time":8,"transit":false,"station_name":"Pasar Senen","is_transit":false},{"station_name":"Kemayoran","i_lat":-6.161728,"station_id":"KMO","transit":false,"is_transit":false,"line":11,"time":4,"distance":1436,"i_long":106.839204},{"i_long":106.836569,"line":11,"station_id":"RJW","is_transit":false,"transit":false,"time":5,"station_name":"Rajawali","distance":1901,"i_lat":-6.14505},{"line":0,"distance":1444,"time":3,"is_transit":true,"i_lat":-6.132549,"transit":true,"station_name":"Kampung Bandan","i_long":106.826365,"station_id":"KPB"},{"time":3,"transit":true,"station_id":"JAKK","i_long":106.812439,"i_lat":-6.137569,"station_name":"Jakarta Kota","is_transit":true,"distance":1364,"line":0},{"distance":1264,"time":4,"station_id":"JAY","is_transit":false,"transit":false,"i_lat":-6.141205,"line":7,"i_long":106.820901,"station_name":"Jayakarta"},{"distance":1080,"station_id":"MGB","transit":false,"is_transit":false,"line":2,"time":2,"i_lat":-6.149769,"station_name":"Manggabesar","i_long":106.82482},{"i_long":106.827103,"time":2,"i_lat":-6.160725,"line":2,"is_transit":false,"station_name":"Sawah Besar","distance":906,"station_id":"SW","transit":false}]]}