{"data":[[{"i_long":106.617853,"station_id":"CC","transit":false,"time":0,"station_name":"Cicayur","i_lat":-6.329547,"is_transit":false,"line":3,"distance":0},{"station_name":"Cisauk","station_id":"CSK","time":4,"line":3,"transit":false,"is_transit":false,"i_long":106.640411,"distance":2519,"i_lat":-6.32484},{"line":6,"i_lat":-6.319871,"station_name":"Serpong","time":4,"transit":false,"is_transit":false,"i_long":106.66566,"distance":1784,"station_id":"SRP"},{"line":6,"distance":2413,"transit":false,"station_id":"RU","i_lat":-6.314823,"i_long":106.675475,"time":4,"station_name":"Rawa Buntu","is_transit":false},{"distance":4566,"transit":false,"i_long":106.712277,"time":6,"is_transit":false,"station_name":"Sudimara","station_id":"SDM","i_lat":-6.296963,"line":6},{"i_long":106.728916,"station_id":"JMU","distance":1994,"line":6,"station_name":"Jurangmangu","time":4,"i_lat":-6.288927,"transit":false,"is_transit":false},{"time":3,"transit":false,"i_lat":-6.276362,"station_id":"PDJ","station_name":"Pondokranji","i_long":106.74273,"is_transit":false,"line":6,"distance":2179},{"distance":6218,"transit":false,"line":6,"is_transit":false,"time":8,"station_id":"KBY","station_name":"Kebayoran","i_lat":-6.237242,"i_long":106.780334},{"station_name":"Palmerah","is_transit":false,"station_id":"PLM","transit":false,"i_long":106.79689,"i_lat":-6.207404,"distance":3737,"time":7,"line":6},{"is_transit":true,"time":6,"i_lat":-6.185545,"station_id":"THB","line":1,"station_name":"Tanah Abang","i_long":106.811091,"distance":3191,"transit":true},{"i_lat":-6.20132,"transit":false,"station_name":"Karet","distance":2029,"station_id":"KAT","time":5,"i_long":106.816351,"is_transit":false,"line":1},{"i_long":106.819881,"is_transit":false,"station_id":"SUDB","station_name":"Sudirman Baru","transit":false,"distance":471,"i_lat":-6.201433,"line":1,"time":1},{"line":1,"station_id":"SUD","is_transit":false,"time":1,"station_name":"Sudirman","i_long":106.822649,"transit":false,"distance":280,"i_lat":-6.202263},{"station_name":"Manggarai","station_id":"MRI","transit":false,"is_transit":false,"i_long":106.84912,"distance":3186,"i_lat":-6.209883,"line":2,"time":4},{"line":1,"station_id":"MTR","transit":false,"time":2,"i_long":106.858896,"is_transit":false,"distance":1275,"station_name":"Matraman","i_lat":-6.212485},{"i_long":106.86807400000001,"line":1,"station_name":"Jatinegara","distance":1377,"i_lat":-6.215091,"station_id":"JNG","is_transit":false,"transit":false,"time":8},{"transit":false,"time":3,"distance":3395,"station_id":"KLD","station_name":"Klender","i_long":106.899548,"line":1,"is_transit":false,"i_lat":-6.2135},{"i_long":106.922662,"time":2,"line":1,"distance":3100,"station_name":"Buaran","station_id":"BUA","i_lat":-6.215568,"transit":false,"is_transit":false},{"i_lat":-6.217455,"distance":1305,"is_transit":false,"line":1,"station_name":"Klenderbaru","time":1,"i_long":106.939679,"transit":false,"station_id":"KLDB"},{"station_id":"CUK","i_lat":-6.219053,"time":8,"i_long":106.951283,"station_name":"Cakung","is_transit":false,"line":1,"distance":1385,"transit":false},{"is_transit":false,"distance":3097,"line":1,"time":3,"station_id":"KRI","i_lat":-6.224515,"i_long":106.977657,"station_name":"Kranji","transit":false},{"transit":false,"station_name":"Bekasi","distance":2520,"station_id":"BKS","i_long":106.997013,"line":1,"time":4,"is_transit":false,"i_lat":-6.236616},{"time":2,"station_id":"BKST","i_long":107.016735,"line":1,"is_transit":false,"distance":2368,"i_lat":-6.248029,"station_name":"Bekasi Timur","transit":false},{"is_transit":false,"time":7,"line":1,"i_lat":-6.258864,"station_id":"TB","station_name":"Tambun","distance":4460,"transit":false,"i_long":107.055722},{"is_transit":false,"transit":false,"distance":3420,"station_name":"Cibitung","time":3,"i_lat":-6.261877,"i_long":107.083084,"station_id":"CIT","line":1},{"transit":false,"station_id":"TLM","i_long":107.093313,"time":2,"line":1,"station_name":"Metland Telaga Murni","distance":2800,"is_transit":false,"i_lat":-6.262938}],[{"line":3,"time":0,"distance":0,"station_name":"Cicayur","station_id":"CC","i_long":106.617853,"is_transit":false,"transit":false,"i_lat":-6.329547},{"is_transit":false,"station_id":"CSK","i_lat":-6.32484,"line":3,"distance":2519,"time":4,"i_long":106.640411,"station_name":"Cisauk","transit":false},{"distance":1784,"time":4,"station_id":"SRP","station_name":"Serpong","transit":false,"i_lat":-6.319871,"i_long":106.66566,"line":6,"is_transit":false},{"station_name":"Rawa Buntu","time":4,"transit":false,"station_id":"RU","i_lat":-6.314823,"line":6,"distance":2413,"i_long":106.675475,"is_transit":false},{"i_long":106.712277,"line":6,"time":6,"station_id":"SDM","distance":4566,"transit":false,"station_name":"Sudimara","is_transit":false,"i_lat":-6.296963},{"i_long":106.728916,"station_name":"Jurangmangu","transit":false,"line":6,"station_id":"JMU","time":4,"i_lat":-6.288927,"distance":1994,"is_transit":false},{"distance":2179,"i_long":106.74273,"time":3,"station_id":"PDJ","is_transit":false,"i_lat":-6.276362,"transit":false,"line":6,"station_name":"Pondokranji"},{"station_id":"KBY","is_transit":false,"line":6,"time":8,"distance":6218,"transit":false,"i_lat":-6.237242,"station_name":"Kebayoran","i_long":106.780334},{"station_name":"Palmerah","transit":false,"distance":3737,"station_id":"PLM","i_lat":-6.207404,"line":6,"time":7,"i_long":106.79689,"is_transit":false},{"time":6,"station_id":"THB","i_long":106.811091,"transit":true,"i_lat":-6.185545,"station_name":"Tanah Abang","is_transit":true,"distance":3191,"line":1},{"station_id":"DU","i_lat":-6.155215,"transit":false,"i_long":106.800832,"distance":3632,"time":8,"line":1,"is_transit":false,"station_name":"Duri"},{"station_id":"AK","transit":false,"station_name":"Angke","line":1,"i_lat":-6.144674,"i_long":106.79867,"distance":1230,"is_transit":false,"time":4},{"transit":true,"station_name":"Kampung Bandan","is_transit":true,"i_lat":-6.132549,"line":4,"time":9,"distance":4102,"i_long":106.826365,"station_id":"KPB"},{"station_name":"Rajawali","station_id":"RJW","transit":false,"is_transit":false,"i_lat":-6.14505,"distance":1444,"time":3,"i_long":106.836569,"line":11},{"i_long":106.839204,"time":5,"is_transit":false,"distance":1901,"station_name":"Kemayoran","i_lat":-6.161728,"station_id":"KMO","line":11,"transit":false},{"i_lat":-6.174784,"i_long":106.84368,"transit":false,"station_id":"PSE","is_transit":false,"line":11,"distance":1436,"station_name":"Pasar Senen","time":4},{"station_id":"GST","i_long":106.850107,"transit":false,"station_name":"Gang Sentiong","line":11,"distance":1567,"i_lat":-6.185975,"is_transit":false,"time":8},{"station_name":"Kramat","line":11,"transit":false,"i_lat":-6.193792,"time":1,"distance":973,"station_id":"KMT","i_long":106.855437,"is_transit":false},{"i_lat":-6.209188,"distance":1829,"i_long":106.861737,"time":2,"station_id":"POK","station_name":"Pondok Jati","line":11,"transit":false,"is_transit":false},{"line":1,"i_long":106.86807400000001,"i_lat":-6.215091,"station_name":"Jatinegara","is_transit":true,"transit":true,"time":9,"distance":1236,"station_id":"JNG"},{"time":3,"is_transit":false,"station_name":"Klender","station_id":"KLD","i_lat":-6.2135,"distance":3395,"transit":false,"i_long":106.899548,"line":1},{"station_name":"Buaran","time":2,"station_id":"BUA","i_long":106.922662,"distance":3100,"is_transit":false,"i_lat":-6.215568,"line":1,"transit":false},{"distance":1305,"i_long":106.939679,"is_transit":false,"i_lat":-6.217455,"transit":false,"station_name":"Klenderbaru","station_id":"KLDB","time":1,"line":1},{"transit":false,"station_name":"Cakung","time":8,"i_lat":-6.219053,"i_long":106.951283,"line":1,"is_transit":false,"distance":1385,"station_id":"CUK"},{"time":3,"transit":false,"station_id":"KRI","i_lat":-6.224515,"line":1,"i_long":106.977657,"station_name":"Kranji","is_transit":false,"distance":3097},{"station_name":"Bekasi","time":4,"station_id":"BKS","i_long":106.997013,"is_transit":false,"distance":2520,"i_lat":-6.236616,"transit":false,"line":1},{"distance":2368,"line":1,"station_name":"Bekasi Timur","i_lat":-6.248029,"transit":false,"i_long":107.016735,"time":2,"is_transit":false,"station_id":"BKST"},{"i_lat":-6.258864,"is_transit":false,"station_id":"TB","station_name":"Tambun","i_long":107.055722,"line":1,"transit":false,"time":7,"distance":4460},{"transit":false,"i_lat":-6.261877,"time":3,"i_long":107.083084,"is_transit":false,"station_id":"CIT","distance":3420,"station_name":"Cibitung","line":1},{"is_transit":false,"station_name":"Metland Telaga Murni","time":2,"station_id":"TLM","transit":false,"line":1,"i_lat":-6.262938,"i_long":107.093313,"distance":2800}],[{"is_transit":false,"time":0,"station_id":"CC","transit":false,"i_lat":-6.329547,"station_name":"Cicayur","line":3,"distance":0,"i_long":106.617853},{"station_id":"CSK","i_long":106.640411,"station_name":"Cisauk","time":4,"distance":2519,"i_lat":-6.32484,"line":3,"is_transit":false,"transit":false},{"i_long":106.66566,"station_id":"SRP","distance":1784,"transit":false,"is_transit":false,"station_name":"Serpong","time":4,"i_lat":-6.319871,"line":6},{"station_id":"RU","i_long":106.675475,"line":6,"is_transit":false,"time":4,"station_name":"Rawa Buntu","distance":2413,"i_lat":-6.314823,"transit":false},{"time":6,"transit":false,"distance":4566,"i_lat":-6.296963,"i_long":106.712277,"station_name":"Sudimara","station_id":"SDM","is_transit":false,"line":6},{"station_name":"Jurangmangu","time":4,"i_long":106.728916,"is_transit":false,"station_id":"JMU","i_lat":-6.288927,"line":6,"distance":1994,"transit":false},{"time":3,"station_id":"PDJ","i_long":106.74273,"station_name":"Pondokranji","transit":false,"is_transit":false,"i_lat":-6.276362,"line":6,"distance":2179},{"i_long":106.780334,"transit":false,"station_name":"Kebayoran","time":8,"i_lat":-6.237242,"line":6,"distance":6218,"station_id":"KBY","is_transit":false},{"line":6,"i_long":106.79689,"station_name":"Palmerah","station_id":"PLM","transit":false,"distance":3737,"i_lat":-6.207404,"time":7,"is_transit":false},{"is_transit":true,"distance":3191,"transit":true,"time":6,"i_long":106.811091,"station_id":"THB","line":1,"i_lat":-6.185545,"station_name":"Tanah Abang"},{"line":1,"transit":false,"time":8,"station_name":"Duri","is_transit":false,"station_id":"DU","i_long":106.800832,"i_lat":-6.155215,"distance":3632},{"station_name":"Angke","distance":1230,"time":4,"transit":false,"station_id":"AK","i_lat":-6.144674,"i_long":106.79867,"is_transit":false,"line":1},{"time":9,"distance":4102,"station_id":"KPB","i_long":106.826365,"station_name":"Kampung Bandan","line":4,"is_transit":true,"i_lat":-6.132549,"transit":true},{"station_name":"Jakarta Kota","i_long":106.812439,"line":2,"i_lat":-6.137569,"distance":1364,"is_transit":true,"transit":true,"time":3,"station_id":"JAKK"},{"i_lat":-6.141205,"transit":false,"distance":1264,"station_id":"JAY","is_transit":false,"station_name":"Jayakarta","line":2,"i_long":106.820901,"time":4},{"time":2,"i_lat":-6.149769,"distance":1080,"line":2,"transit":false,"station_name":"Manggabesar","station_id":"MGB","is_transit":false,"i_long":106.82482},{"i_lat":-6.160725,"is_transit":false,"line":2,"station_id":"SW","transit":false,"station_name":"Sawah Besar","time":2,"i_long":106.827103,"distance":906},{"transit":false,"station_name":"Juanda","distance":1149,"time":2,"station_id":"JUA","i_long":106.828284,"line":2,"is_transit":false,"i_lat":-6.166716},{"is_transit":false,"line":2,"time":4,"distance":2015,"i_long":106.832183,"station_name":"Gondangdia","i_lat":-6.186295,"station_id":"GDD","transit":false},{"i_long":106.840169,"distance":1750,"is_transit":false,"line":2,"i_lat":-6.198556,"station_id":"CKI","station_name":"Cikini","transit":false,"time":3},{"is_transit":true,"time":4,"transit":true,"i_long":106.84912,"station_name":"Manggarai","station_id":"MRI","distance":1590,"line":2,"i_lat":-6.209883},{"transit":false,"distance":1275,"line":1,"i_lat":-6.212485,"station_id":"MTR","i_long":106.858896,"is_transit":false,"station_name":"Matraman","time":2},{"time":8,"line":1,"transit":false,"station_name":"Jatinegara","is_transit":false,"distance":1377,"i_lat":-6.215091,"station_id":"JNG","i_long":106.86807400000001},{"is_transit":false,"time":3,"distance":3395,"i_lat":-6.2135,"transit":false,"station_name":"Klender","station_id":"KLD","i_long":106.899548,"line":1},{"is_transit":false,"station_id":"BUA","transit":false,"i_long":106.922662,"distance":3100,"i_lat":-6.215568,"station_name":"Buaran","line":1,"time":2},{"distance":1305,"is_transit":false,"i_lat":-6.217455,"i_long":106.939679,"line":1,"station_name":"Klenderbaru","time":1,"station_id":"KLDB","transit":false},{"time":8,"station_id":"CUK","transit":false,"is_transit":false,"station_name":"Cakung","i_lat":-6.219053,"i_long":106.951283,"distance":1385,"line":1},{"distance":3097,"station_name":"Kranji","transit":false,"station_id":"KRI","i_long":106.977657,"i_lat":-6.224515,"line":1,"time":3,"is_transit":false},{"time":4,"distance":2520,"station_id":"BKS","i_long":106.997013,"is_transit":false,"station_name":"Bekasi","transit":false,"i_lat":-6.236616,"line":1},{"time":2,"is_transit":false,"station_id":"BKST","i_lat":-6.248029,"i_long":107.016735,"distance":2368,"station_name":"Bekasi Timur","line":1,"transit":false},{"time":7,"distance":4460,"i_long":107.055722,"transit":false,"station_id":"TB","line":1,"station_name":"Tambun","i_lat":-6.258864,"is_transit":false},{"station_name":"Cibitung","transit":false,"i_lat":-6.261877,"station_id":"CIT","distance":3420,"time":3,"is_transit":false,"i_long":107.083084,"line":1},{"line":1,"i_long":107.093313,"station_name":"Metland Telaga Murni","station_id":"TLM","transit":false,"distance":2800,"is_transit":false,"time":2,"i_lat":-6.262938}],[{"station_name":"Cicayur","i_long":106.617853,"is_transit":false,"station_id":"CC","transit":false,"i_lat":-6.329547,"distance":0,"line":3,"time":0},{"line":3,"i_long":106.640411,"i_lat":-6.32484,"transit":false,"time":4,"is_transit":false,"distance":2519,"station_id":"CSK","station_name":"Cisauk"},{"station_name":"Serpong","station_id":"SRP","distance":1784,"i_lat":-6.319871,"transit":false,"i_long":106.66566,"is_transit":false,"time":4,"line":6},{"i_lat":-6.314823,"is_transit":false,"distance":2413,"i_long":106.675475,"transit":false,"line":6,"station_id":"RU","station_name":"Rawa Buntu","time":4},{"distance":4566,"transit":false,"station_id":"SDM","station_name":"Sudimara","line":6,"time":6,"i_lat":-6.296963,"is_transit":false,"i_long":106.712277},{"time":4,"is_transit":false,"station_name":"Jurangmangu","transit":false,"distance":1994,"i_long":106.728916,"station_id":"JMU","line":6,"i_lat":-6.288927},{"station_name":"Pondokranji","i_long":106.74273,"distance":2179,"transit":false,"is_transit":false,"time":3,"station_id":"PDJ","line":6,"i_lat":-6.276362},{"station_name":"Kebayoran","i_lat":-6.237242,"transit":false,"distance":6218,"line":6,"is_transit":false,"station_id":"KBY","time":8,"i_long":106.780334},{"distance":3737,"station_id":"PLM","line":6,"i_long":106.79689,"i_lat":-6.207404,"time":7,"station_name":"Palmerah","is_transit":false,"transit":false},{"station_id":"THB","transit":true,"i_long":106.811091,"line":1,"i_lat":-6.185545,"is_transit":true,"time":6,"distance":3191,"station_name":"Tanah Abang"},{"distance":2029,"transit":false,"i_long":106.816351,"line":1,"i_lat":-6.20132,"station_name":"Karet","time":5,"station_id":"KAT","is_transit":false},{"i_long":106.819881,"transit":false,"distance":471,"time":1,"station_id":"SUDB","line":1,"is_transit":false,"station_name":"Sudirman Baru","i_lat":-6.201433},{"i_lat":-6.202263,"distance":280,"time":1,"line":1,"transit":false,"is_transit":false,"i_long":106.822649,"station_id":"SUD","station_name":"Sudirman"},{"distance":3186,"i_lat":-6.209883,"time":4,"line":2,"station_name":"Manggarai","i_long":106.84912,"station_id":"MRI","transit":true,"is_transit":true},{"time":4,"line":2,"is_transit":false,"i_lat":-6.198556,"station_name":"Cikini","transit":false,"distance":1590,"station_id":"CKI","i_long":106.840169},{"station_id":"GDD","i_lat":-6.186295,"transit":false,"time":3,"i_long":106.832183,"line":2,"station_name":"Gondangdia","distance":1750,"is_transit":false},{"distance":2015,"station_id":"JUA","i_lat":-6.166716,"transit":false,"station_name":"Juanda","is_transit":false,"time":4,"i_long":106.828284,"line":2},{"is_transit":false,"i_lat":-6.160725,"line":2,"time":2,"station_name":"Sawah Besar","station_id":"SW","i_long":106.827103,"transit":false,"distance":1149},{"transit":false,"time":2,"distance":906,"station_id":"MGB","i_long":106.82482,"station_name":"Manggabesar","i_lat":-6.149769,"line":2,"is_transit":false},{"i_lat":-6.141205,"transit":false,"station_name":"Jayakarta","is_transit":false,"time":2,"distance":1080,"station_id":"JAY","i_long":106.820901,"line":2},{"transit":true,"i_long":106.812439,"is_transit":true,"time":4,"line":2,"distance":1264,"station_id":"JAKK","i_lat":-6.137569,"station_name":"Jakarta Kota"},{"i_lat":-6.132549,"distance":1364,"transit":true,"line":4,"time":3,"station_id":"KPB","i_long":106.826365,"station_name":"Kampung Bandan","is_transit":true},{"is_transit":false,"line":11,"station_name":"Rajawali","distance":1444,"i_lat":-6.14505,"transit":false,"i_long":106.836569,"time":3,"station_id":"RJW"},{"line":11,"i_lat":-6.161728,"distance":1901,"i_long":106.839204,"station_name":"Kemayoran","station_id":"KMO","transit":false,"is_transit":false,"time":5},{"distance":1436,"line":11,"is_transit":false,"time":4,"station_id":"PSE","i_lat":-6.174784,"transit":false,"i_long":106.84368,"station_name":"Pasar Senen"},{"distance":1567,"is_transit":false,"transit":false,"time":8,"i_lat":-6.185975,"station_id":"GST","line":11,"station_name":"Gang Sentiong","i_long":106.850107},{"is_transit":false,"transit":false,"station_id":"KMT","line":11,"i_lat":-6.193792,"time":1,"station_name":"Kramat","distance":973,"i_long":106.855437},{"station_id":"POK","i_lat":-6.209188,"line":11,"i_long":106.861737,"time":2,"is_transit":false,"transit":false,"distance":1829,"station_name":"Pondok Jati"},{"line":1,"station_name":"Jatinegara","distance":1236,"i_long":106.86807400000001,"transit":true,"time":9,"i_lat":-6.215091,"is_transit":true,"station_id":"JNG"},{"station_name":"Klender","transit":false,"distance":3395,"line":1,"time":3,"i_long":106.899548,"is_transit":false,"station_id":"KLD","i_lat":-6.2135},{"is_transit":false,"distance":3100,"line":1,"transit":false,"i_long":106.922662,"station_name":"Buaran","time":2,"station_id":"BUA","i_lat":-6.215568},{"station_id":"KLDB","distance":1305,"i_lat":-6.217455,"is_transit":false,"time":1,"i_long":106.939679,"station_name":"Klenderbaru","transit":false,"line":1},{"station_name":"Cakung","is_transit":false,"distance":1385,"station_id":"CUK","time":8,"i_long":106.951283,"transit":false,"i_lat":-6.219053,"line":1},{"line":1,"distance":3097,"time":3,"station_id":"KRI","station_name":"Kranji","is_transit":false,"i_lat":-6.224515,"i_long":106.977657,"transit":false},{"is_transit":false,"i_long":106.997013,"transit":false,"station_id":"BKS","distance":2520,"line":1,"station_name":"Bekasi","i_lat":-6.236616,"time":4},{"transit":false,"is_transit":false,"i_long":107.016735,"station_name":"Bekasi Timur","time":2,"station_id":"BKST","distance":2368,"i_lat":-6.248029,"line":1},{"station_name":"Tambun","i_long":107.055722,"is_transit":false,"i_lat":-6.258864,"distance":4460,"line":1,"transit":false,"station_id":"TB","time":7},{"is_transit":false,"station_id":"CIT","i_long":107.083084,"transit":false,"time":3,"distance":3420,"line":1,"i_lat":-6.261877,"station_name":"Cibitung"},{"is_transit":false,"station_id":"TLM","i_lat":-6.262938,"line":1,"station_name":"Metland Telaga Murni","transit":false,"distance":2800,"i_long":107.093313,"time":2}]]}