{"data":[[{"transit":false,"is_transit":false,"time":0,"station_id":"CC","i_lat":-6.329547,"station_name":"Cicayur","distance":0,"i_long":106.617853,"line":0},{"i_lat":-6.32484,"station_name":"Cisauk","is_transit":false,"i_long":106.640411,"transit":false,"distance":2519,"station_id":"CSK","line":0,"time":4},{"i_long":106.66566,"station_name":"Serpong","i_lat":-6.319871,"distance":1784,"transit":false,"station_id":"SRP","is_transit":false,"time":4,"line":6},{"i_long":106.675475,"is_transit":false,"distance":2413,"station_id":"RU","line":6,"time":4,"transit":false,"station_name":"Rawa Buntu","i_lat":-6.314823},{"line":6,"time":6,"i_lat":-6.296963,"i_long":106.712277,"is_transit":false,"transit":false,"station_name":"Sudimara","station_id":"SDM","distance":4566},{"station_name":"Jurangmangu","is_transit":false,"line":6,"station_id":"JMU","i_long":106.728916,"distance":1994,"time":4,"transit":false,"i_lat":-6.288927},{"time":3,"distance":2179,"i_lat":-6.276362,"station_name":"Pondokranji","station_id":"PDJ","line":6,"transit":false,"is_transit":false,"i_long":106.74273},{"station_id":"KBY","transit":false,"station_name":"Kebayoran","line":6,"i_lat":-6.237242,"distance":6218,"is_transit":false,"i_long":106.780334,"time":8},{"time":7,"i_long":106.79689,"i_lat":-6.207404,"transit":false,"is_transit":false,"station_name":"Palmerah","line":6,"distance":3737,"station_id":"PLM"},{"station_name":"Tanah Abang","transit":true,"distance":3191,"i_lat":-6.185545,"is_transit":true,"line":1,"time":6,"station_id":"THB","i_long":106.811091},{"distance":2029,"station_name":"Karet","i_long":106.816351,"time":5,"is_transit":false,"transit":false,"station_id":"KAT","i_lat":-6.20132,"line":1},{"time":1,"i_lat":-6.201433,"station_name":"Sudirman Baru","station_id":"SUDB","i_long":106.819881,"line":1,"distance":471,"transit":false,"is_transit":false},{"time":1,"station_id":"SUD","i_long":106.822649,"line":1,"transit":false,"is_transit":false,"station_name":"Sudirman","i_lat":-6.202263,"distance":280},{"is_transit":true,"distance":3186,"station_id":"MRI","station_name":"Manggarai","time":4,"transit":false,"i_long":106.84912,"line":0,"i_lat":-6.209883},{"transit":false,"i_lat":-6.212485,"i_long":106.858896,"distance":1275,"line":1,"time":2,"station_name":"Matraman","is_transit":false,"station_id":"MTR"},{"station_name":"Jatinegara","is_transit":true,"distance":1377,"line":0,"i_long":106.86807400000001,"time":8,"i_lat":-6.215091,"transit":false,"station_id":"JNG"},{"station_name":"Klender","i_lat":-6.2135,"distance":3395,"station_id":"KLD","i_long":106.899548,"line":1,"is_transit":false,"time":3,"transit":false},{"transit":false,"station_name":"Buaran","station_id":"BUA","i_long":106.922662,"is_transit":false,"distance":3100,"time":2,"i_lat":-6.215568,"line":0},{"i_lat":-6.217455,"line":1,"is_transit":false,"distance":1305,"time":1,"station_id":"KLDB","station_name":"Klenderbaru","i_long":106.939679,"transit":false},{"transit":false,"station_id":"CUK","i_long":106.951283,"distance":1385,"time":8,"line":0,"is_transit":false,"station_name":"Cakung","i_lat":-6.219053},{"distance":3097,"time":3,"is_transit":false,"station_id":"KRI","line":1,"i_long":106.977657,"station_name":"Kranji","i_lat":-6.224515,"transit":false},{"i_lat":-6.236616,"distance":2520,"is_transit":false,"station_name":"Bekasi","transit":false,"station_id":"BKS","i_long":106.997013,"time":4,"line":0},{"distance":2368,"is_transit":false,"line":0,"station_name":"Bekasi Timur","i_lat":-6.248029,"i_long":107.016735,"transit":false,"time":2,"station_id":"BKST"},{"i_lat":-6.258864,"time":7,"transit":false,"i_long":107.055722,"line":1,"is_transit":false,"distance":4460,"station_name":"Tambun","station_id":"TB"},{"station_id":"CIT","is_transit":false,"i_lat":-6.261877,"distance":3420,"station_name":"Cibitung","transit":false,"i_long":107.083084,"line":0,"time":3},{"is_transit":false,"transit":false,"distance":2800,"i_lat":-6.262938,"station_id":"TLM","i_long":107.093313,"line":1,"time":2,"station_name":"Metland Telaga Murni"}],[{"station_id":"CC","station_name":"Cicayur","is_transit":false,"distance":0,"i_lat":-6.329547,"transit":false,"i_long":106.617853,"line":0,"time":0},{"time":4,"i_lat":-6.32484,"i_long":106.640411,"transit":false,"is_transit":false,"line":0,"distance":2519,"station_id":"CSK","station_name":"Cisauk"},{"station_name":"Serpong","distance":1784,"i_lat":-6.319871,"is_transit":false,"station_id":"SRP","time":4,"line":6,"i_long":106.66566,"transit":false},{"i_lat":-6.314823,"i_long":106.675475,"is_transit":false,"station_name":"Rawa Buntu","line":6,"distance":2413,"time":4,"station_id":"RU","transit":false},{"station_name":"Sudimara","transit":false,"line":6,"is_transit":false,"distance":4566,"station_id":"SDM","i_lat":-6.296963,"time":6,"i_long":106.712277},{"i_long":106.728916,"time":4,"station_id":"JMU","line":6,"transit":false,"is_transit":false,"station_name":"Jurangmangu","distance":1994,"i_lat":-6.288927},{"station_name":"Pondokranji","distance":2179,"i_lat":-6.276362,"is_transit":false,"line":6,"i_long":106.74273,"time":3,"transit":false,"station_id":"PDJ"},{"is_transit":false,"distance":6218,"line":6,"station_id":"KBY","i_long":106.780334,"time":8,"i_lat":-6.237242,"station_name":"Kebayoran","transit":false},{"is_transit":false,"line":6,"station_name":"Palmerah","time":7,"i_long":106.79689,"distance":3737,"station_id":"PLM","i_lat":-6.207404,"transit":false},{"transit":true,"is_transit":true,"distance":3191,"i_lat":-6.185545,"time":6,"line":1,"station_id":"THB","i_long":106.811091,"station_name":"Tanah Abang"},{"transit":true,"station_name":"Duri","is_transit":true,"i_lat":-6.155215,"i_long":106.800832,"line":1,"distance":3632,"time":8,"station_id":"DU"},{"time":4,"transit":false,"line":0,"station_id":"AK","i_long":106.79867,"distance":1230,"i_lat":-6.144674,"station_name":"Angke","is_transit":false},{"i_long":106.826365,"line":0,"i_lat":-6.132549,"station_name":"Kampung Bandan","is_transit":true,"time":9,"distance":4102,"station_id":"KPB","transit":true},{"i_long":106.836569,"station_name":"Rajawali","i_lat":-6.14505,"time":3,"is_transit":false,"station_id":"RJW","transit":false,"distance":1444,"line":11},{"transit":false,"is_transit":false,"line":11,"time":5,"distance":1901,"station_id":"KMO","i_lat":-6.161728,"station_name":"Kemayoran","i_long":106.839204},{"line":11,"i_long":106.84368,"i_lat":-6.174784,"time":4,"is_transit":false,"station_name":"Pasar Senen","station_id":"PSE","transit":false,"distance":1436},{"is_transit":false,"distance":1567,"i_lat":-6.185975,"station_id":"GST","station_name":"Gang Sentiong","i_long":106.850107,"line":11,"transit":false,"time":8},{"i_lat":-6.193792,"station_id":"KMT","transit":false,"is_transit":false,"distance":973,"station_name":"Kramat","i_long":106.855437,"time":1,"line":11},{"transit":false,"line":11,"i_lat":-6.209188,"distance":1829,"time":2,"is_transit":false,"station_name":"Pondok Jati","station_id":"POK","i_long":106.861737},{"is_transit":true,"distance":1236,"transit":true,"i_lat":-6.215091,"line":0,"station_name":"Jatinegara","time":9,"station_id":"JNG","i_long":106.86807400000001},{"is_transit":false,"station_name":"Klender","transit":false,"i_lat":-6.2135,"station_id":"KLD","time":3,"i_long":106.899548,"distance":3395,"line":1},{"line":0,"i_lat":-6.215568,"time":2,"transit":false,"i_long":106.922662,"is_transit":false,"distance":3100,"station_name":"Buaran","station_id":"BUA"},{"time":1,"i_lat":-6.217455,"distance":1305,"is_transit":false,"station_name":"Klenderbaru","line":1,"i_long":106.939679,"transit":false,"station_id":"KLDB"},{"transit":false,"station_id":"CUK","i_lat":-6.219053,"distance":1385,"station_name":"Cakung","line":0,"i_long":106.951283,"is_transit":false,"time":8},{"time":3,"line":1,"i_long":106.977657,"distance":3097,"station_name":"Kranji","station_id":"KRI","transit":false,"is_transit":false,"i_lat":-6.224515},{"distance":2520,"i_long":106.997013,"line":0,"is_transit":false,"station_name":"Bekasi","transit":false,"time":4,"station_id":"BKS","i_lat":-6.236616},{"time":2,"station_name":"Bekasi Timur","i_long":107.016735,"is_transit":false,"distance":2368,"transit":false,"line":0,"station_id":"BKST","i_lat":-6.248029},{"is_transit":false,"i_lat":-6.258864,"time":7,"i_long":107.055722,"station_name":"Tambun","station_id":"TB","transit":false,"line":1,"distance":4460},{"transit":false,"is_transit":false,"station_name":"Cibitung","station_id":"CIT","distance":3420,"i_long":107.083084,"time":3,"i_lat":-6.261877,"line":0},{"i_long":107.093313,"station_id":"TLM","i_lat":-6.262938,"transit":false,"distance":2800,"is_transit":false,"station_name":"Metland Telaga Murni","line":1,"time":2}],[{"transit":false,"station_name":"Cicayur","time":0,"i_long":106.617853,"station_id":"CC","distance":0,"i_lat":-6.329547,"line":0,"is_transit":false},{"transit":false,"line":0,"is_transit":false,"time":4,"i_long":106.640411,"i_lat":-6.32484,"distance":2519,"station_name":"Cisauk","station_id":"CSK"},{"i_lat":-6.319871,"transit":false,"line":6,"distance":1784,"i_long":106.66566,"time":4,"station_name":"Serpong","station_id":"SRP","is_transit":false},{"station_name":"Rawa Buntu","line":6,"station_id":"RU","time":4,"is_transit":false,"i_lat":-6.314823,"distance":2413,"transit":false,"i_long":106.675475},{"time":6,"line":6,"transit":false,"station_id":"SDM","i_long":106.712277,"distance":4566,"i_lat":-6.296963,"station_name":"Sudimara","is_transit":false},{"i_long":106.728916,"is_transit":false,"i_lat":-6.288927,"station_id":"JMU","time":4,"station_name":"Jurangmangu","line":6,"distance":1994,"transit":false},{"transit":false,"station_name":"Pondokranji","time":3,"station_id":"PDJ","is_transit":false,"distance":2179,"i_lat":-6.276362,"i_long":106.74273,"line":6},{"transit":false,"time":8,"station_name":"Kebayoran","distance":6218,"station_id":"KBY","i_lat":-6.237242,"i_long":106.780334,"line":6,"is_transit":false},{"i_lat":-6.207404,"distance":3737,"i_long":106.79689,"is_transit":false,"station_name":"Palmerah","transit":false,"line":6,"station_id":"PLM","time":7},{"i_lat":-6.185545,"line":1,"time":6,"distance":3191,"is_transit":true,"station_name":"Tanah Abang","station_id":"THB","transit":true,"i_long":106.811091},{"transit":true,"station_name":"Duri","is_transit":true,"time":8,"line":1,"distance":3632,"station_id":"DU","i_lat":-6.155215,"i_long":106.800832},{"transit":false,"station_id":"AK","time":4,"station_name":"Angke","is_transit":false,"i_lat":-6.144674,"distance":1230,"i_long":106.79867,"line":0},{"time":9,"i_long":106.826365,"is_transit":true,"distance":4102,"line":0,"station_name":"Kampung Bandan","i_lat":-6.132549,"transit":false,"station_id":"KPB"},{"is_transit":true,"i_lat":-6.137569,"line":0,"station_id":"JAKK","time":3,"distance":1364,"transit":true,"station_name":"Jakarta Kota","i_long":106.812439},{"distance":1264,"station_id":"JAY","transit":false,"i_lat":-6.141205,"station_name":"Jayakarta","time":4,"i_long":106.820901,"is_transit":false,"line":7},{"time":2,"transit":false,"i_lat":-6.149769,"distance":1080,"line":2,"is_transit":false,"station_name":"Manggabesar","station_id":"MGB","i_long":106.82482},{"transit":false,"i_lat":-6.160725,"distance":906,"station_name":"Sawah Besar","station_id":"SW","is_transit":false,"i_long":106.827103,"time":2,"line":2},{"i_lat":-6.166716,"station_name":"Juanda","is_transit":false,"station_id":"JUA","line":2,"i_long":106.828284,"distance":1149,"time":2,"transit":false},{"i_long":106.832183,"i_lat":-6.186295,"is_transit":false,"time":4,"station_name":"Gondangdia","distance":2015,"station_id":"GDD","transit":false,"line":2},{"i_long":106.840169,"station_name":"Cikini","station_id":"CKI","transit":false,"is_transit":false,"i_lat":-6.198556,"distance":1750,"time":3,"line":0},{"line":0,"i_lat":-6.209883,"station_name":"Manggarai","distance":1590,"time":4,"station_id":"MRI","is_transit":true,"transit":true,"i_long":106.84912},{"time":2,"line":1,"distance":1275,"is_transit":false,"i_long":106.858896,"i_lat":-6.212485,"station_id":"MTR","station_name":"Matraman","transit":false},{"station_id":"JNG","i_lat":-6.215091,"station_name":"Jatinegara","time":8,"line":0,"i_long":106.86807400000001,"distance":1377,"transit":false,"is_transit":true},{"transit":false,"i_lat":-6.2135,"distance":3395,"time":3,"i_long":106.899548,"is_transit":false,"station_name":"Klender","station_id":"KLD","line":1},{"station_name":"Buaran","transit":false,"is_transit":false,"time":2,"i_long":106.922662,"distance":3100,"line":0,"station_id":"BUA","i_lat":-6.215568},{"station_name":"Klenderbaru","line":1,"i_lat":-6.217455,"is_transit":false,"transit":false,"time":1,"distance":1305,"i_long":106.939679,"station_id":"KLDB"},{"time":8,"station_name":"Cakung","is_transit":false,"i_long":106.951283,"line":0,"station_id":"CUK","transit":false,"i_lat":-6.219053,"distance":1385},{"is_transit":false,"station_name":"Kranji","station_id":"KRI","i_long":106.977657,"transit":false,"time":3,"line":1,"distance":3097,"i_lat":-6.224515},{"distance":2520,"station_id":"BKS","i_lat":-6.236616,"is_transit":false,"time":4,"station_name":"Bekasi","transit":false,"i_long":106.997013,"line":0},{"transit":false,"is_transit":false,"station_name":"Bekasi Timur","distance":2368,"time":2,"station_id":"BKST","i_long":107.016735,"i_lat":-6.248029,"line":0},{"transit":false,"station_id":"TB","distance":4460,"line":1,"time":7,"station_name":"Tambun","i_lat":-6.258864,"i_long":107.055722,"is_transit":false},{"time":3,"transit":false,"distance":3420,"station_name":"Cibitung","is_transit":false,"i_long":107.083084,"line":0,"i_lat":-6.261877,"station_id":"CIT"},{"distance":2800,"i_lat":-6.262938,"time":2,"station_name":"Metland Telaga Murni","station_id":"TLM","transit":false,"is_transit":false,"line":1,"i_long":107.093313}],[{"distance":0,"i_lat":-6.329547,"transit":false,"line":0,"station_name":"Cicayur","is_transit":false,"station_id":"CC","i_long":106.617853,"time":0},{"time":4,"station_name":"Cisauk","distance":2519,"station_id":"CSK","is_transit":false,"i_long":106.640411,"line":0,"i_lat":-6.32484,"transit":false},{"i_lat":-6.319871,"time":4,"station_name":"Serpong","station_id":"SRP","transit":false,"distance":1784,"is_transit":false,"i_long":106.66566,"line":6},{"line":6,"i_lat":-6.314823,"i_long":106.675475,"station_name":"Rawa Buntu","time":4,"station_id":"RU","distance":2413,"is_transit":false,"transit":false},{"station_id":"SDM","transit":false,"i_long":106.712277,"line":6,"is_transit":false,"i_lat":-6.296963,"distance":4566,"time":6,"station_name":"Sudimara"},{"station_id":"JMU","distance":1994,"i_long":106.728916,"station_name":"Jurangmangu","is_transit":false,"transit":false,"i_lat":-6.288927,"line":6,"time":4},{"line":6,"station_name":"Pondokranji","time":3,"transit":false,"station_id":"PDJ","is_transit":false,"i_lat":-6.276362,"i_long":106.74273,"distance":2179},{"station_id":"KBY","line":6,"time":8,"transit":false,"i_long":106.780334,"distance":6218,"is_transit":false,"station_name":"Kebayoran","i_lat":-6.237242},{"station_id":"PLM","i_long":106.79689,"i_lat":-6.207404,"distance":3737,"is_transit":false,"time":7,"line":6,"station_name":"Palmerah","transit":false},{"station_name":"Tanah Abang","station_id":"THB","i_long":106.811091,"transit":true,"is_transit":true,"i_lat":-6.185545,"distance":3191,"line":1,"time":6},{"station_name":"Karet","time":5,"distance":2029,"transit":false,"station_id":"KAT","i_lat":-6.20132,"is_transit":false,"i_long":106.816351,"line":1},{"is_transit":false,"i_lat":-6.201433,"station_id":"SUDB","time":1,"transit":false,"i_long":106.819881,"station_name":"Sudirman Baru","line":1,"distance":471},{"station_name":"Sudirman","is_transit":false,"line":1,"transit":false,"i_long":106.822649,"time":1,"distance":280,"station_id":"SUD","i_lat":-6.202263},{"station_name":"Manggarai","line":0,"i_long":106.84912,"distance":3186,"time":4,"station_id":"MRI","is_transit":true,"i_lat":-6.209883,"transit":true},{"line":0,"time":4,"station_id":"CKI","is_transit":false,"transit":false,"distance":1590,"station_name":"Cikini","i_long":106.840169,"i_lat":-6.198556},{"station_name":"Gondangdia","transit":false,"is_transit":false,"station_id":"GDD","i_lat":-6.186295,"time":3,"distance":1750,"i_long":106.832183,"line":2},{"is_transit":false,"time":4,"i_lat":-6.166716,"station_name":"Juanda","transit":false,"i_long":106.828284,"line":2,"distance":2015,"station_id":"JUA"},{"is_transit":false,"line":2,"station_id":"SW","station_name":"Sawah Besar","i_long":106.827103,"time":2,"i_lat":-6.160725,"transit":false,"distance":1149},{"is_transit":false,"distance":906,"station_id":"MGB","transit":false,"i_long":106.82482,"station_name":"Manggabesar","line":2,"time":2,"i_lat":-6.149769},{"station_id":"JAY","distance":1080,"time":2,"i_long":106.820901,"line":7,"station_name":"Jayakarta","is_transit":false,"i_lat":-6.141205,"transit":false},{"station_name":"Jakarta Kota","time":4,"is_transit":true,"station_id":"JAKK","transit":true,"i_lat":-6.137569,"distance":1264,"line":0,"i_long":106.812439},{"time":3,"distance":1364,"station_id":"KPB","is_transit":true,"transit":true,"station_name":"Kampung Bandan","i_long":106.826365,"line":0,"i_lat":-6.132549},{"distance":1444,"station_name":"Rajawali","station_id":"RJW","transit":false,"i_lat":-6.14505,"i_long":106.836569,"time":3,"is_transit":false,"line":11},{"station_id":"KMO","time":5,"is_transit":false,"transit":false,"station_name":"Kemayoran","distance":1901,"i_lat":-6.161728,"line":11,"i_long":106.839204},{"transit":false,"i_long":106.84368,"distance":1436,"i_lat":-6.174784,"station_name":"Pasar Senen","line":11,"station_id":"PSE","is_transit":false,"time":4},{"station_id":"GST","i_lat":-6.185975,"time":8,"station_name":"Gang Sentiong","i_long":106.850107,"distance":1567,"transit":false,"is_transit":false,"line":11},{"time":1,"distance":973,"station_id":"KMT","is_transit":false,"i_long":106.855437,"transit":false,"line":11,"station_name":"Kramat","i_lat":-6.193792},{"station_id":"POK","station_name":"Pondok Jati","i_long":106.861737,"time":2,"line":11,"is_transit":false,"i_lat":-6.209188,"distance":1829,"transit":false},{"line":0,"i_lat":-6.215091,"station_name":"Jatinegara","transit":true,"station_id":"JNG","is_transit":true,"distance":1236,"time":9,"i_long":106.86807400000001},{"time":3,"i_lat":-6.2135,"distance":3395,"line":1,"station_name":"Klender","station_id":"KLD","transit":false,"is_transit":false,"i_long":106.899548},{"station_name":"Buaran","station_id":"BUA","is_transit":false,"time":2,"transit":false,"i_long":106.922662,"distance":3100,"i_lat":-6.215568,"line":0},{"i_lat":-6.217455,"is_transit":false,"transit":false,"line":1,"distance":1305,"station_name":"Klenderbaru","station_id":"KLDB","time":1,"i_long":106.939679},{"i_lat":-6.219053,"time":8,"station_id":"CUK","transit":false,"distance":1385,"is_transit":false,"line":0,"i_long":106.951283,"station_name":"Cakung"},{"is_transit":false,"i_lat":-6.224515,"station_id":"KRI","transit":false,"i_long":106.977657,"station_name":"Kranji","distance":3097,"time":3,"line":1},{"transit":false,"i_lat":-6.236616,"line":0,"is_transit":false,"distance":2520,"time":4,"i_long":106.997013,"station_name":"Bekasi","station_id":"BKS"},{"distance":2368,"i_long":107.016735,"station_name":"Bekasi Timur","line":0,"i_lat":-6.248029,"time":2,"is_transit":false,"transit":false,"station_id":"BKST"},{"i_long":107.055722,"station_id":"TB","i_lat":-6.258864,"time":7,"is_transit":false,"line":1,"station_name":"Tambun","distance":4460,"transit":false},{"is_transit":false,"time":3,"i_long":107.083084,"station_id":"CIT","line":0,"station_name":"Cibitung","i_lat":-6.261877,"distance":3420,"transit":false},{"distance":2800,"time":2,"is_transit":false,"station_name":"Metland Telaga Murni","station_id":"TLM","line":1,"i_long":107.093313,"transit":false,"i_lat":-6.262938}]]}