{"data":[[{"transit":false,"is_transit":false,"i_lat":-6.329547,"time":0,"station_id":"CC","distance":0,"station_name":"Cicayur","i_long":106.617853,"line":3},{"station_id":"CSK","distance":2519,"station_name":"Cisauk","time":4,"i_long":106.640411,"transit":false,"is_transit":false,"i_lat":-6.32484,"line":3},{"is_transit":false,"station_name":"Serpong","time":4,"station_id":"SRP","i_lat":-6.319871,"i_long":106.66566,"distance":1784,"transit":false,"line":6},{"i_lat":-6.314823,"time":4,"is_transit":false,"i_long":106.675475,"station_name":"Rawa Buntu","station_id":"RU","line":6,"transit":false,"distance":2413},{"i_lat":-6.296963,"station_name":"Sudimara","line":6,"i_long":106.712277,"transit":false,"is_transit":false,"time":6,"station_id":"SDM","distance":4566},{"transit":false,"i_long":106.728916,"line":6,"station_name":"Jurangmangu","distance":1994,"i_lat":-6.288927,"time":4,"station_id":"JMU","is_transit":false},{"transit":false,"distance":2179,"i_lat":-6.276362,"i_long":106.74273,"station_id":"PDJ","station_name":"Pondokranji","line":6,"is_transit":false,"time":3},{"station_name":"Kebayoran","transit":false,"distance":6218,"time":8,"i_lat":-6.237242,"i_long":106.780334,"line":6,"station_id":"KBY","is_transit":false},{"station_id":"PLM","distance":3737,"i_lat":-6.207404,"i_long":106.79689,"is_transit":false,"transit":false,"station_name":"Palmerah","time":7,"line":6},{"line":1,"i_long":106.811091,"station_id":"THB","station_name":"Tanah Abang","transit":true,"is_transit":true,"distance":3191,"time":6,"i_lat":-6.185545},{"i_lat":-6.155215,"line":1,"time":8,"i_long":106.800832,"transit":true,"station_id":"DU","is_transit":true,"distance":3632,"station_name":"Duri"},{"transit":false,"line":5,"time":3,"i_lat":-6.162021,"station_name":"Grogol","distance":1700,"i_long":106.788277,"is_transit":false,"station_id":"GGL"},{"line":5,"time":2,"i_long":106.771379,"station_name":"Pesing","transit":false,"is_transit":false,"i_lat":-6.161433,"station_id":"PSG","distance":2036},{"station_name":"Taman Kota","station_id":"TKO","distance":1614,"i_lat":-6.1587309999999995,"is_transit":false,"line":5,"i_long":106.756522,"transit":false,"time":2}],[{"i_long":106.617853,"line":3,"station_id":"CC","is_transit":false,"time":0,"transit":false,"i_lat":-6.329547,"station_name":"Cicayur","distance":0},{"time":4,"station_id":"CSK","i_lat":-6.32484,"line":3,"station_name":"Cisauk","distance":2519,"is_transit":false,"i_long":106.640411,"transit":false},{"station_id":"SRP","transit":false,"distance":1784,"time":4,"i_lat":-6.319871,"i_long":106.66566,"is_transit":false,"line":6,"station_name":"Serpong"},{"time":4,"station_name":"Rawa Buntu","i_long":106.675475,"distance":2413,"line":6,"i_lat":-6.314823,"transit":false,"station_id":"RU","is_transit":false},{"line":6,"time":6,"i_long":106.712277,"transit":false,"station_name":"Sudimara","distance":4566,"station_id":"SDM","i_lat":-6.296963,"is_transit":false},{"is_transit":false,"distance":1994,"i_lat":-6.288927,"time":4,"i_long":106.728916,"transit":false,"line":6,"station_name":"Jurangmangu","station_id":"JMU"},{"is_transit":false,"station_id":"PDJ","distance":2179,"transit":false,"station_name":"Pondokranji","i_lat":-6.276362,"i_long":106.74273,"line":6,"time":3},{"line":6,"i_lat":-6.237242,"transit":false,"station_name":"Kebayoran","station_id":"KBY","is_transit":false,"time":8,"i_long":106.780334,"distance":6218},{"station_id":"PLM","i_long":106.79689,"is_transit":false,"line":6,"station_name":"Palmerah","distance":3737,"time":7,"i_lat":-6.207404,"transit":false},{"is_transit":true,"i_long":106.811091,"time":6,"i_lat":-6.185545,"transit":true,"line":1,"station_id":"THB","station_name":"Tanah Abang","distance":3191},{"i_lat":-6.20132,"station_id":"KAT","line":1,"transit":false,"station_name":"Karet","is_transit":false,"distance":2029,"time":5,"i_long":106.816351},{"distance":471,"time":1,"i_long":106.819881,"station_name":"Sudirman Baru","line":1,"transit":false,"station_id":"SUDB","is_transit":false,"i_lat":-6.201433},{"time":1,"transit":false,"station_id":"SUD","is_transit":false,"i_long":106.822649,"line":1,"i_lat":-6.202263,"distance":280,"station_name":"Sudirman"},{"transit":true,"is_transit":true,"i_lat":-6.209883,"i_long":106.84912,"line":2,"time":4,"station_name":"Manggarai","distance":3186,"station_id":"MRI"},{"i_long":106.840169,"station_name":"Cikini","i_lat":-6.198556,"time":4,"is_transit":false,"transit":false,"station_id":"CKI","distance":1590,"line":2},{"transit":false,"station_id":"GDD","time":3,"is_transit":false,"i_long":106.832183,"distance":1750,"i_lat":-6.186295,"line":2,"station_name":"Gondangdia"},{"time":4,"station_id":"JUA","i_lat":-6.166716,"line":2,"distance":2015,"station_name":"Juanda","is_transit":false,"i_long":106.828284,"transit":false},{"i_lat":-6.160725,"station_name":"Sawah Besar","distance":1149,"station_id":"SW","line":2,"time":2,"i_long":106.827103,"is_transit":false,"transit":false},{"i_long":106.82482,"line":2,"station_name":"Manggabesar","station_id":"MGB","distance":906,"time":2,"i_lat":-6.149769,"transit":false,"is_transit":false},{"i_lat":-6.141205,"line":2,"time":2,"station_name":"Jayakarta","transit":false,"station_id":"JAY","distance":1080,"is_transit":false,"i_long":106.820901},{"station_id":"JAKK","line":2,"transit":true,"i_lat":-6.137569,"i_long":106.812439,"station_name":"Jakarta Kota","is_transit":true,"distance":1264,"time":4},{"station_name":"Kampung Bandan","transit":true,"is_transit":true,"distance":1364,"station_id":"KPB","time":3,"i_long":106.826365,"i_lat":-6.132549,"line":4},{"station_name":"Angke","i_long":106.79867,"transit":false,"station_id":"AK","is_transit":false,"i_lat":-6.144674,"line":1,"distance":4102,"time":9},{"transit":true,"distance":1230,"line":1,"i_lat":-6.155215,"station_name":"Duri","station_id":"DU","is_transit":true,"time":4,"i_long":106.800832},{"i_lat":-6.162021,"is_transit":false,"i_long":106.788277,"station_name":"Grogol","line":5,"transit":false,"station_id":"GGL","distance":1700,"time":3},{"line":5,"transit":false,"i_lat":-6.161433,"i_long":106.771379,"is_transit":false,"station_name":"Pesing","distance":2036,"station_id":"PSG","time":2},{"i_lat":-6.1587309999999995,"i_long":106.756522,"distance":1614,"is_transit":false,"line":5,"time":2,"station_name":"Taman Kota","station_id":"TKO","transit":false}],[{"is_transit":false,"transit":false,"line":3,"distance":0,"station_name":"Cicayur","time":0,"i_lat":-6.329547,"station_id":"CC","i_long":106.617853},{"line":3,"station_id":"CSK","distance":2519,"time":4,"is_transit":false,"station_name":"Cisauk","transit":false,"i_lat":-6.32484,"i_long":106.640411},{"i_lat":-6.319871,"distance":1784,"time":4,"station_name":"Serpong","station_id":"SRP","is_transit":false,"line":6,"i_long":106.66566,"transit":false},{"time":4,"i_lat":-6.314823,"transit":false,"station_name":"Rawa Buntu","station_id":"RU","is_transit":false,"distance":2413,"i_long":106.675475,"line":6},{"station_name":"Sudimara","transit":false,"i_lat":-6.296963,"station_id":"SDM","time":6,"line":6,"i_long":106.712277,"is_transit":false,"distance":4566},{"i_lat":-6.288927,"transit":false,"i_long":106.728916,"time":4,"station_name":"Jurangmangu","is_transit":false,"station_id":"JMU","distance":1994,"line":6},{"is_transit":false,"transit":false,"distance":2179,"time":3,"i_long":106.74273,"station_id":"PDJ","station_name":"Pondokranji","line":6,"i_lat":-6.276362},{"station_name":"Kebayoran","transit":false,"distance":6218,"time":8,"station_id":"KBY","is_transit":false,"i_long":106.780334,"i_lat":-6.237242,"line":6},{"station_id":"PLM","distance":3737,"is_transit":false,"i_lat":-6.207404,"i_long":106.79689,"line":6,"station_name":"Palmerah","transit":false,"time":7},{"station_id":"THB","station_name":"Tanah Abang","time":6,"i_lat":-6.185545,"is_transit":true,"i_long":106.811091,"line":1,"transit":true,"distance":3191},{"station_name":"Karet","is_transit":false,"time":5,"station_id":"KAT","distance":2029,"i_long":106.816351,"line":1,"i_lat":-6.20132,"transit":false},{"is_transit":false,"distance":471,"i_lat":-6.201433,"time":1,"i_long":106.819881,"station_name":"Sudirman Baru","line":1,"transit":false,"station_id":"SUDB"},{"i_lat":-6.202263,"is_transit":false,"time":1,"station_id":"SUD","line":1,"station_name":"Sudirman","i_long":106.822649,"distance":280,"transit":false},{"line":2,"time":4,"transit":false,"station_name":"Manggarai","is_transit":false,"distance":3186,"i_long":106.84912,"i_lat":-6.209883,"station_id":"MRI"},{"time":2,"station_id":"MTR","is_transit":false,"i_long":106.858896,"station_name":"Matraman","line":1,"transit":false,"distance":1275,"i_lat":-6.212485},{"transit":true,"distance":1377,"i_long":106.86807400000001,"is_transit":true,"station_name":"Jatinegara","station_id":"JNG","time":8,"i_lat":-6.215091,"line":1},{"station_id":"POK","distance":1236,"transit":false,"i_lat":-6.209188,"i_long":106.861737,"station_name":"Pondok Jati","is_transit":false,"line":11,"time":2},{"line":11,"station_name":"Kramat","transit":false,"distance":1829,"i_long":106.855437,"time":2,"station_id":"KMT","is_transit":false,"i_lat":-6.193792},{"is_transit":false,"time":1,"line":11,"distance":973,"transit":false,"station_name":"Gang Sentiong","i_lat":-6.185975,"i_long":106.850107,"station_id":"GST"},{"station_name":"Pasar Senen","transit":false,"is_transit":false,"time":8,"distance":1567,"station_id":"PSE","i_lat":-6.174784,"line":11,"i_long":106.84368},{"distance":1436,"line":11,"i_lat":-6.161728,"station_name":"Kemayoran","time":4,"transit":false,"is_transit":false,"station_id":"KMO","i_long":106.839204},{"is_transit":false,"station_id":"RJW","transit":false,"distance":1901,"line":11,"i_lat":-6.14505,"i_long":106.836569,"station_name":"Rajawali","time":5},{"station_id":"KPB","is_transit":true,"line":4,"transit":true,"station_name":"Kampung Bandan","time":3,"i_long":106.826365,"i_lat":-6.132549,"distance":1444},{"line":1,"transit":false,"time":9,"station_id":"AK","distance":4102,"station_name":"Angke","i_lat":-6.144674,"is_transit":false,"i_long":106.79867},{"line":1,"is_transit":true,"distance":1230,"i_lat":-6.155215,"time":4,"i_long":106.800832,"station_name":"Duri","transit":true,"station_id":"DU"},{"i_lat":-6.162021,"station_name":"Grogol","distance":1700,"time":3,"line":5,"transit":false,"i_long":106.788277,"station_id":"GGL","is_transit":false},{"i_long":106.771379,"distance":2036,"time":2,"station_name":"Pesing","i_lat":-6.161433,"station_id":"PSG","line":5,"transit":false,"is_transit":false},{"line":5,"is_transit":false,"time":2,"station_id":"TKO","i_lat":-6.1587309999999995,"transit":false,"station_name":"Taman Kota","i_long":106.756522,"distance":1614}]]}