{"data":[[{"station_name":"Cicayur","distance":0,"i_lat":-6.329547,"i_long":106.617853,"line":3,"station_id":"CC","transit":false,"time":0,"is_transit":false},{"station_name":"Cisauk","i_lat":-6.32484,"station_id":"CSK","transit":false,"line":3,"time":4,"distance":2519,"is_transit":false,"i_long":106.640411},{"station_id":"SRP","i_lat":-6.319871,"transit":false,"is_transit":false,"time":4,"i_long":106.66566,"station_name":"Serpong","distance":1784,"line":6},{"time":4,"station_name":"Rawa Buntu","distance":2413,"line":6,"i_long":106.675475,"station_id":"RU","transit":false,"i_lat":-6.314823,"is_transit":false},{"time":6,"distance":4566,"station_id":"SDM","station_name":"Sudimara","i_long":106.712277,"i_lat":-6.296963,"line":6,"transit":false,"is_transit":false},{"station_id":"JMU","transit":false,"station_name":"Jurangmangu","time":4,"i_long":106.728916,"distance":1994,"i_lat":-6.288927,"line":6,"is_transit":false},{"station_name":"Pondokranji","i_lat":-6.276362,"transit":false,"line":6,"time":3,"i_long":106.74273,"station_id":"PDJ","distance":2179,"is_transit":false},{"line":6,"is_transit":false,"time":8,"station_id":"KBY","station_name":"Kebayoran","i_lat":-6.237242,"distance":6218,"i_long":106.780334,"transit":false},{"station_name":"Palmerah","line":6,"time":7,"station_id":"PLM","i_lat":-6.207404,"i_long":106.79689,"transit":false,"distance":3737,"is_transit":false},{"time":6,"is_transit":true,"station_id":"THB","distance":3191,"i_long":106.811091,"station_name":"Tanah Abang","transit":true,"i_lat":-6.185545,"line":1},{"distance":2029,"station_name":"Karet","is_transit":false,"line":1,"time":5,"station_id":"KAT","i_long":106.816351,"i_lat":-6.20132,"transit":false},{"distance":471,"station_id":"SUDB","station_name":"Sudirman Baru","line":1,"time":1,"i_lat":-6.201433,"transit":false,"i_long":106.819881,"is_transit":false},{"station_id":"SUD","station_name":"Sudirman","is_transit":false,"time":1,"i_lat":-6.202263,"i_long":106.822649,"line":1,"distance":280,"transit":false},{"station_id":"MRI","line":2,"station_name":"Manggarai","transit":false,"i_long":106.84912,"distance":3186,"time":4,"is_transit":false,"i_lat":-6.209883},{"is_transit":false,"transit":false,"i_lat":-6.212485,"station_id":"MTR","station_name":"Matraman","distance":1275,"i_long":106.858896,"line":1,"time":2},{"i_long":106.86807400000001,"line":1,"i_lat":-6.215091,"time":8,"station_id":"JNG","station_name":"Jatinegara","distance":1377,"transit":false,"is_transit":false},{"i_lat":-6.2135,"is_transit":false,"distance":3395,"i_long":106.899548,"station_name":"Klender","station_id":"KLD","transit":false,"line":1,"time":3},{"station_id":"BUA","time":2,"line":1,"i_lat":-6.215568,"i_long":106.922662,"distance":3100,"is_transit":false,"station_name":"Buaran","transit":false},{"is_transit":false,"line":1,"station_id":"KLDB","time":1,"i_long":106.939679,"i_lat":-6.217455,"distance":1305,"station_name":"Klenderbaru","transit":false},{"line":1,"distance":1385,"transit":false,"station_id":"CUK","i_lat":-6.219053,"station_name":"Cakung","i_long":106.951283,"time":8,"is_transit":false},{"transit":false,"line":1,"time":3,"is_transit":false,"station_id":"KRI","distance":3097,"station_name":"Kranji","i_lat":-6.224515,"i_long":106.977657},{"transit":false,"station_name":"Bekasi","distance":2520,"is_transit":false,"i_long":106.997013,"line":1,"i_lat":-6.236616,"station_id":"BKS","time":4},{"distance":2368,"time":2,"station_name":"Bekasi Timur","transit":false,"station_id":"BKST","is_transit":false,"i_lat":-6.248029,"line":1,"i_long":107.016735},{"line":1,"is_transit":false,"time":7,"station_id":"TB","i_lat":-6.258864,"transit":false,"i_long":107.055722,"station_name":"Tambun","distance":4460}],[{"station_id":"CC","i_lat":-6.329547,"i_long":106.617853,"time":0,"line":3,"transit":false,"is_transit":false,"distance":0,"station_name":"Cicayur"},{"time":4,"distance":2519,"line":3,"transit":false,"i_lat":-6.32484,"i_long":106.640411,"station_id":"CSK","is_transit":false,"station_name":"Cisauk"},{"time":4,"is_transit":false,"i_lat":-6.319871,"transit":false,"station_id":"SRP","i_long":106.66566,"line":6,"distance":1784,"station_name":"Serpong"},{"distance":2413,"i_lat":-6.314823,"is_transit":false,"i_long":106.675475,"line":6,"station_name":"Rawa Buntu","station_id":"RU","transit":false,"time":4},{"is_transit":false,"station_name":"Sudimara","time":6,"i_long":106.712277,"distance":4566,"i_lat":-6.296963,"station_id":"SDM","line":6,"transit":false},{"station_name":"Jurangmangu","station_id":"JMU","i_lat":-6.288927,"transit":false,"time":4,"is_transit":false,"distance":1994,"line":6,"i_long":106.728916},{"distance":2179,"time":3,"is_transit":false,"transit":false,"station_name":"Pondokranji","station_id":"PDJ","i_lat":-6.276362,"line":6,"i_long":106.74273},{"distance":6218,"is_transit":false,"line":6,"i_lat":-6.237242,"transit":false,"i_long":106.780334,"time":8,"station_name":"Kebayoran","station_id":"KBY"},{"line":6,"station_name":"Palmerah","i_lat":-6.207404,"distance":3737,"is_transit":false,"time":7,"i_long":106.79689,"transit":false,"station_id":"PLM"},{"transit":true,"station_id":"THB","distance":3191,"time":6,"i_lat":-6.185545,"i_long":106.811091,"line":1,"station_name":"Tanah Abang","is_transit":true},{"i_long":106.800832,"line":1,"is_transit":false,"time":8,"station_name":"Duri","distance":3632,"transit":false,"i_lat":-6.155215,"station_id":"DU"},{"transit":false,"distance":1230,"i_lat":-6.144674,"line":1,"time":4,"station_id":"AK","is_transit":false,"station_name":"Angke","i_long":106.79867},{"line":4,"i_lat":-6.132549,"transit":true,"station_id":"KPB","distance":4102,"time":9,"is_transit":true,"station_name":"Kampung Bandan","i_long":106.826365},{"distance":1444,"i_lat":-6.14505,"line":11,"is_transit":false,"transit":false,"i_long":106.836569,"station_id":"RJW","station_name":"Rajawali","time":3},{"distance":1901,"time":5,"is_transit":false,"station_name":"Kemayoran","transit":false,"i_lat":-6.161728,"station_id":"KMO","i_long":106.839204,"line":11},{"is_transit":false,"station_id":"PSE","i_lat":-6.174784,"distance":1436,"i_long":106.84368,"transit":false,"station_name":"Pasar Senen","line":11,"time":4},{"i_lat":-6.185975,"station_id":"GST","line":11,"distance":1567,"station_name":"Gang Sentiong","transit":false,"time":8,"i_long":106.850107,"is_transit":false},{"station_name":"Kramat","station_id":"KMT","line":11,"transit":false,"distance":973,"i_lat":-6.193792,"i_long":106.855437,"time":1,"is_transit":false},{"is_transit":false,"distance":1829,"time":2,"station_id":"POK","i_lat":-6.209188,"i_long":106.861737,"station_name":"Pondok Jati","line":11,"transit":false},{"transit":true,"i_lat":-6.215091,"is_transit":true,"station_id":"JNG","line":1,"station_name":"Jatinegara","distance":1236,"time":9,"i_long":106.86807400000001},{"station_id":"KLD","distance":3395,"station_name":"Klender","line":1,"i_lat":-6.2135,"time":3,"is_transit":false,"transit":false,"i_long":106.899548},{"i_lat":-6.215568,"station_name":"Buaran","i_long":106.922662,"station_id":"BUA","transit":false,"distance":3100,"time":2,"is_transit":false,"line":1},{"i_lat":-6.217455,"transit":false,"distance":1305,"i_long":106.939679,"is_transit":false,"time":1,"line":1,"station_name":"Klenderbaru","station_id":"KLDB"},{"is_transit":false,"i_lat":-6.219053,"time":8,"line":1,"station_name":"Cakung","distance":1385,"i_long":106.951283,"transit":false,"station_id":"CUK"},{"distance":3097,"is_transit":false,"i_lat":-6.224515,"station_id":"KRI","transit":false,"line":1,"time":3,"station_name":"Kranji","i_long":106.977657},{"i_lat":-6.236616,"line":1,"transit":false,"i_long":106.997013,"time":4,"distance":2520,"station_name":"Bekasi","station_id":"BKS","is_transit":false},{"station_id":"BKST","distance":2368,"is_transit":false,"i_lat":-6.248029,"transit":false,"i_long":107.016735,"line":1,"station_name":"Bekasi Timur","time":2},{"transit":false,"line":1,"time":7,"station_name":"Tambun","i_long":107.055722,"station_id":"TB","i_lat":-6.258864,"distance":4460,"is_transit":false}],[{"i_long":106.617853,"station_name":"Cicayur","distance":0,"i_lat":-6.329547,"station_id":"CC","time":0,"transit":false,"line":3,"is_transit":false},{"i_lat":-6.32484,"line":3,"station_id":"CSK","is_transit":false,"distance":2519,"i_long":106.640411,"time":4,"station_name":"Cisauk","transit":false},{"transit":false,"time":4,"is_transit":false,"station_id":"SRP","i_lat":-6.319871,"station_name":"Serpong","line":6,"i_long":106.66566,"distance":1784},{"time":4,"station_name":"Rawa Buntu","distance":2413,"i_lat":-6.314823,"station_id":"RU","transit":false,"is_transit":false,"line":6,"i_long":106.675475},{"station_id":"SDM","time":6,"transit":false,"is_transit":false,"i_long":106.712277,"line":6,"i_lat":-6.296963,"station_name":"Sudimara","distance":4566},{"transit":false,"i_lat":-6.288927,"i_long":106.728916,"is_transit":false,"line":6,"station_name":"Jurangmangu","time":4,"station_id":"JMU","distance":1994},{"transit":false,"is_transit":false,"i_lat":-6.276362,"station_id":"PDJ","distance":2179,"station_name":"Pondokranji","time":3,"line":6,"i_long":106.74273},{"station_name":"Kebayoran","station_id":"KBY","is_transit":false,"i_long":106.780334,"transit":false,"line":6,"i_lat":-6.237242,"time":8,"distance":6218},{"distance":3737,"station_id":"PLM","time":7,"transit":false,"i_long":106.79689,"line":6,"station_name":"Palmerah","is_transit":false,"i_lat":-6.207404},{"line":1,"i_lat":-6.185545,"station_id":"THB","station_name":"Tanah Abang","is_transit":true,"transit":true,"i_long":106.811091,"distance":3191,"time":6},{"transit":false,"station_id":"DU","line":1,"i_long":106.800832,"station_name":"Duri","i_lat":-6.155215,"is_transit":false,"distance":3632,"time":8},{"station_name":"Angke","time":4,"i_lat":-6.144674,"line":1,"station_id":"AK","is_transit":false,"i_long":106.79867,"distance":1230,"transit":false},{"time":9,"transit":true,"i_lat":-6.132549,"i_long":106.826365,"distance":4102,"is_transit":true,"station_name":"Kampung Bandan","line":4,"station_id":"KPB"},{"station_name":"Jakarta Kota","transit":true,"time":3,"distance":1364,"line":2,"station_id":"JAKK","is_transit":true,"i_lat":-6.137569,"i_long":106.812439},{"is_transit":false,"station_name":"Jayakarta","transit":false,"time":4,"i_long":106.820901,"i_lat":-6.141205,"line":2,"station_id":"JAY","distance":1264},{"time":2,"transit":false,"line":2,"station_id":"MGB","distance":1080,"is_transit":false,"i_long":106.82482,"i_lat":-6.149769,"station_name":"Manggabesar"},{"station_name":"Sawah Besar","transit":false,"station_id":"SW","time":2,"distance":906,"i_long":106.827103,"line":2,"is_transit":false,"i_lat":-6.160725},{"is_transit":false,"i_lat":-6.166716,"station_name":"Juanda","distance":1149,"time":2,"line":2,"station_id":"JUA","i_long":106.828284,"transit":false},{"time":4,"station_id":"GDD","line":2,"i_long":106.832183,"is_transit":false,"station_name":"Gondangdia","i_lat":-6.186295,"transit":false,"distance":2015},{"i_lat":-6.198556,"i_long":106.840169,"line":2,"is_transit":false,"transit":false,"distance":1750,"station_id":"CKI","time":3,"station_name":"Cikini"},{"transit":true,"line":2,"distance":1590,"station_id":"MRI","i_long":106.84912,"time":4,"station_name":"Manggarai","i_lat":-6.209883,"is_transit":true},{"transit":false,"distance":1275,"i_lat":-6.212485,"is_transit":false,"station_name":"Matraman","line":1,"station_id":"MTR","time":2,"i_long":106.858896},{"i_long":106.86807400000001,"station_name":"Jatinegara","transit":false,"time":8,"distance":1377,"station_id":"JNG","is_transit":false,"line":1,"i_lat":-6.215091},{"transit":false,"is_transit":false,"i_lat":-6.2135,"station_name":"Klender","line":1,"station_id":"KLD","i_long":106.899548,"time":3,"distance":3395},{"time":2,"line":1,"station_name":"Buaran","station_id":"BUA","i_long":106.922662,"i_lat":-6.215568,"transit":false,"is_transit":false,"distance":3100},{"i_lat":-6.217455,"station_name":"Klenderbaru","i_long":106.939679,"transit":false,"station_id":"KLDB","distance":1305,"time":1,"line":1,"is_transit":false},{"distance":1385,"i_lat":-6.219053,"i_long":106.951283,"time":8,"is_transit":false,"line":1,"transit":false,"station_id":"CUK","station_name":"Cakung"},{"distance":3097,"line":1,"time":3,"station_name":"Kranji","transit":false,"station_id":"KRI","is_transit":false,"i_lat":-6.224515,"i_long":106.977657},{"i_lat":-6.236616,"line":1,"station_id":"BKS","distance":2520,"is_transit":false,"time":4,"station_name":"Bekasi","transit":false,"i_long":106.997013},{"line":1,"i_long":107.016735,"distance":2368,"time":2,"is_transit":false,"i_lat":-6.248029,"station_name":"Bekasi Timur","station_id":"BKST","transit":false},{"i_long":107.055722,"transit":false,"station_id":"TB","station_name":"Tambun","time":7,"i_lat":-6.258864,"is_transit":false,"distance":4460,"line":1}],[{"line":3,"transit":false,"time":0,"distance":0,"is_transit":false,"i_lat":-6.329547,"station_name":"Cicayur","station_id":"CC","i_long":106.617853},{"i_long":106.640411,"line":3,"station_name":"Cisauk","transit":false,"time":4,"distance":2519,"is_transit":false,"i_lat":-6.32484,"station_id":"CSK"},{"station_id":"SRP","time":4,"distance":1784,"i_long":106.66566,"line":6,"i_lat":-6.319871,"station_name":"Serpong","is_transit":false,"transit":false},{"is_transit":false,"i_long":106.675475,"distance":2413,"station_id":"RU","i_lat":-6.314823,"line":6,"transit":false,"time":4,"station_name":"Rawa Buntu"},{"i_lat":-6.296963,"line":6,"time":6,"station_name":"Sudimara","transit":false,"distance":4566,"is_transit":false,"i_long":106.712277,"station_id":"SDM"},{"time":4,"station_name":"Jurangmangu","station_id":"JMU","is_transit":false,"i_long":106.728916,"i_lat":-6.288927,"line":6,"distance":1994,"transit":false},{"station_name":"Pondokranji","distance":2179,"line":6,"transit":false,"is_transit":false,"time":3,"i_lat":-6.276362,"station_id":"PDJ","i_long":106.74273},{"transit":false,"station_id":"KBY","station_name":"Kebayoran","distance":6218,"is_transit":false,"i_lat":-6.237242,"i_long":106.780334,"time":8,"line":6},{"station_name":"Palmerah","distance":3737,"is_transit":false,"i_long":106.79689,"time":7,"i_lat":-6.207404,"transit":false,"station_id":"PLM","line":6},{"station_name":"Tanah Abang","time":6,"i_lat":-6.185545,"transit":true,"line":1,"i_long":106.811091,"station_id":"THB","distance":3191,"is_transit":true},{"transit":false,"time":5,"is_transit":false,"line":1,"i_lat":-6.20132,"i_long":106.816351,"station_id":"KAT","distance":2029,"station_name":"Karet"},{"station_name":"Sudirman Baru","transit":false,"i_lat":-6.201433,"distance":471,"time":1,"station_id":"SUDB","i_long":106.819881,"is_transit":false,"line":1},{"station_id":"SUD","distance":280,"transit":false,"is_transit":false,"line":1,"i_lat":-6.202263,"station_name":"Sudirman","time":1,"i_long":106.822649},{"time":4,"station_id":"MRI","is_transit":true,"distance":3186,"transit":true,"i_long":106.84912,"station_name":"Manggarai","line":2,"i_lat":-6.209883},{"transit":false,"distance":1590,"i_lat":-6.198556,"i_long":106.840169,"time":4,"line":2,"station_id":"CKI","is_transit":false,"station_name":"Cikini"},{"station_id":"GDD","time":3,"distance":1750,"i_long":106.832183,"is_transit":false,"i_lat":-6.186295,"station_name":"Gondangdia","transit":false,"line":2},{"station_name":"Juanda","transit":false,"station_id":"JUA","distance":2015,"time":4,"is_transit":false,"line":2,"i_lat":-6.166716,"i_long":106.828284},{"i_long":106.827103,"station_name":"Sawah Besar","time":2,"transit":false,"i_lat":-6.160725,"distance":1149,"station_id":"SW","is_transit":false,"line":2},{"line":2,"station_name":"Manggabesar","transit":false,"is_transit":false,"time":2,"station_id":"MGB","i_lat":-6.149769,"distance":906,"i_long":106.82482},{"transit":false,"line":2,"distance":1080,"station_id":"JAY","i_lat":-6.141205,"time":2,"i_long":106.820901,"is_transit":false,"station_name":"Jayakarta"},{"time":4,"i_long":106.812439,"is_transit":true,"i_lat":-6.137569,"distance":1264,"station_id":"JAKK","line":2,"transit":true,"station_name":"Jakarta Kota"},{"transit":true,"i_lat":-6.132549,"line":4,"i_long":106.826365,"station_name":"Kampung Bandan","time":3,"station_id":"KPB","distance":1364,"is_transit":true},{"time":3,"station_id":"RJW","transit":false,"is_transit":false,"distance":1444,"i_long":106.836569,"i_lat":-6.14505,"line":11,"station_name":"Rajawali"},{"station_id":"KMO","distance":1901,"time":5,"i_long":106.839204,"is_transit":false,"station_name":"Kemayoran","i_lat":-6.161728,"transit":false,"line":11},{"station_name":"Pasar Senen","distance":1436,"is_transit":false,"transit":false,"time":4,"i_lat":-6.174784,"i_long":106.84368,"line":11,"station_id":"PSE"},{"i_long":106.850107,"transit":false,"distance":1567,"station_name":"Gang Sentiong","time":8,"is_transit":false,"i_lat":-6.185975,"station_id":"GST","line":11},{"distance":973,"transit":false,"is_transit":false,"station_name":"Kramat","station_id":"KMT","i_long":106.855437,"line":11,"i_lat":-6.193792,"time":1},{"line":11,"distance":1829,"time":2,"is_transit":false,"station_name":"Pondok Jati","transit":false,"station_id":"POK","i_lat":-6.209188,"i_long":106.861737},{"station_id":"JNG","distance":1236,"i_long":106.86807400000001,"line":1,"transit":true,"is_transit":true,"station_name":"Jatinegara","i_lat":-6.215091,"time":9},{"station_id":"KLD","station_name":"Klender","i_lat":-6.2135,"i_long":106.899548,"time":3,"transit":false,"distance":3395,"is_transit":false,"line":1},{"line":1,"station_id":"BUA","time":2,"i_lat":-6.215568,"station_name":"Buaran","transit":false,"distance":3100,"is_transit":false,"i_long":106.922662},{"time":1,"station_id":"KLDB","distance":1305,"station_name":"Klenderbaru","is_transit":false,"i_lat":-6.217455,"transit":false,"i_long":106.939679,"line":1},{"i_lat":-6.219053,"distance":1385,"i_long":106.951283,"line":1,"transit":false,"is_transit":false,"station_id":"CUK","time":8,"station_name":"Cakung"},{"distance":3097,"i_lat":-6.224515,"i_long":106.977657,"transit":false,"time":3,"station_id":"KRI","is_transit":false,"line":1,"station_name":"Kranji"},{"is_transit":false,"i_long":106.997013,"transit":false,"time":4,"i_lat":-6.236616,"line":1,"station_name":"Bekasi","distance":2520,"station_id":"BKS"},{"is_transit":false,"transit":false,"line":1,"station_name":"Bekasi Timur","i_lat":-6.248029,"time":2,"station_id":"BKST","distance":2368,"i_long":107.016735},{"is_transit":false,"distance":4460,"station_name":"Tambun","i_long":107.055722,"time":7,"line":1,"transit":false,"station_id":"TB","i_lat":-6.258864}]]}