{"data":[[{"time":0,"i_long":106.617853,"distance":0,"is_transit":false,"transit":false,"station_id":"CC","station_name":"Cicayur","i_lat":-6.329547,"line":3},{"station_name":"Cisauk","transit":false,"time":4,"station_id":"CSK","i_lat":-6.32484,"i_long":106.640411,"is_transit":false,"distance":2519,"line":3},{"station_id":"SRP","distance":1784,"i_long":106.66566,"transit":false,"station_name":"Serpong","i_lat":-6.319871,"is_transit":false,"line":6,"time":4},{"distance":2413,"time":4,"line":6,"is_transit":false,"station_name":"Rawa Buntu","i_lat":-6.314823,"transit":false,"i_long":106.675475,"station_id":"RU"},{"station_name":"Sudimara","line":6,"transit":false,"i_lat":-6.296963,"station_id":"SDM","is_transit":false,"i_long":106.712277,"time":6,"distance":4566},{"i_lat":-6.288927,"is_transit":false,"i_long":106.728916,"line":6,"transit":false,"distance":1994,"station_id":"JMU","time":4,"station_name":"Jurangmangu"},{"i_lat":-6.276362,"time":3,"transit":false,"line":6,"is_transit":false,"distance":2179,"station_id":"PDJ","station_name":"Pondokranji","i_long":106.74273},{"station_id":"KBY","i_long":106.780334,"transit":false,"is_transit":false,"distance":6218,"station_name":"Kebayoran","i_lat":-6.237242,"time":8,"line":6},{"line":6,"time":7,"transit":false,"is_transit":false,"i_long":106.79689,"station_name":"Palmerah","i_lat":-6.207404,"station_id":"PLM","distance":3737},{"station_name":"Tanah Abang","station_id":"THB","time":6,"transit":true,"is_transit":true,"i_long":106.811091,"line":1,"distance":3191,"i_lat":-6.185545},{"is_transit":true,"i_lat":-6.155215,"transit":true,"line":1,"distance":3632,"station_name":"Duri","station_id":"DU","time":8,"i_long":106.800832},{"line":5,"i_long":106.788277,"time":3,"transit":false,"is_transit":false,"station_id":"GRG","i_lat":-6.162021,"station_name":"Grogol","distance":1700},{"is_transit":false,"line":5,"transit":false,"station_name":"Pesing","time":2,"distance":2036,"station_id":"PSG","i_lat":-6.161433,"i_long":106.771379},{"station_id":"TKO","is_transit":false,"line":5,"i_lat":-6.1587309999999995,"distance":1614,"time":2,"transit":false,"station_name":"Taman Kota","i_long":106.756522},{"i_long":106.737035,"i_lat":-6.159876,"station_id":"BOI","time":2,"distance":2334,"is_transit":false,"transit":false,"line":5,"station_name":"Bojongindah"},{"i_long":106.723064,"distance":1152,"is_transit":false,"station_name":"Rawa Buaya","station_id":"RW","line":5,"i_lat":-6.162758,"time":4,"transit":false},{"line":5,"i_lat":-6.166068,"distance":2504,"station_name":"Kalideres","transit":false,"is_transit":false,"i_long":106.701612,"time":3,"station_id":"KDS"},{"time":3,"i_lat":-6.169933,"station_id":"PI","line":5,"is_transit":false,"station_name":"Poris","distance":2548,"transit":false,"i_long":106.679458},{"is_transit":false,"station_name":"Batuceper","i_lat":-6.171811,"transit":false,"i_long":106.665036,"line":5,"station_id":"BPR","distance":1834,"time":3},{"line":5,"station_name":"Tanah Tinggi","i_long":106.64657,"is_transit":false,"transit":false,"time":3,"station_id":"TTI","i_lat":-6.17331,"distance":2028}],[{"time":0,"i_lat":-6.329547,"station_name":"Cicayur","station_id":"CC","is_transit":false,"line":3,"i_long":106.617853,"transit":false,"distance":0},{"is_transit":false,"station_name":"Cisauk","distance":2519,"station_id":"CSK","i_long":106.640411,"transit":false,"time":4,"line":3,"i_lat":-6.32484},{"distance":1784,"line":6,"station_id":"SRP","time":4,"transit":false,"station_name":"Serpong","i_lat":-6.319871,"is_transit":false,"i_long":106.66566},{"i_lat":-6.314823,"line":6,"time":4,"transit":false,"i_long":106.675475,"distance":2413,"is_transit":false,"station_id":"RU","station_name":"Rawa Buntu"},{"station_name":"Sudimara","is_transit":false,"i_lat":-6.296963,"distance":4566,"station_id":"SDM","line":6,"transit":false,"i_long":106.712277,"time":6},{"station_name":"Jurangmangu","i_lat":-6.288927,"line":6,"is_transit":false,"transit":false,"station_id":"JMU","time":4,"i_long":106.728916,"distance":1994},{"time":3,"line":6,"distance":2179,"transit":false,"station_id":"PDJ","i_long":106.74273,"station_name":"Pondokranji","i_lat":-6.276362,"is_transit":false},{"is_transit":false,"station_name":"Kebayoran","i_lat":-6.237242,"station_id":"KBY","line":6,"time":8,"transit":false,"i_long":106.780334,"distance":6218},{"i_long":106.79689,"distance":3737,"is_transit":false,"station_id":"PLM","time":7,"i_lat":-6.207404,"transit":false,"line":6,"station_name":"Palmerah"},{"is_transit":true,"transit":true,"i_long":106.811091,"line":1,"distance":3191,"station_name":"Tanah Abang","i_lat":-6.185545,"time":6,"station_id":"THB"},{"i_lat":-6.20132,"time":5,"is_transit":false,"i_long":106.816351,"line":1,"station_name":"Karet","station_id":"KAT","transit":false,"distance":2029},{"transit":false,"distance":471,"station_name":"Sudirman Baru","i_lat":-6.201433,"is_transit":false,"line":1,"time":1,"station_id":"SUDB","i_long":106.819881},{"i_long":106.822649,"transit":false,"is_transit":false,"station_name":"Sudirman","distance":280,"i_lat":-6.202263,"time":1,"line":1,"station_id":"SUD"},{"i_long":106.84912,"time":4,"line":2,"transit":true,"station_name":"Manggarai","distance":3186,"i_lat":-6.209883,"is_transit":true,"station_id":"MRI"},{"is_transit":false,"i_long":106.840169,"distance":1590,"transit":false,"time":4,"station_id":"CKI","station_name":"Cikini","i_lat":-6.198556,"line":2},{"time":3,"station_id":"GDD","i_long":106.832183,"transit":false,"is_transit":false,"i_lat":-6.186295,"distance":1750,"line":2,"station_name":"Gondangdia"},{"time":4,"i_lat":-6.166716,"line":2,"distance":2015,"station_name":"Juanda","i_long":106.828284,"is_transit":false,"transit":false,"station_id":"JUA"},{"distance":1149,"i_lat":-6.160725,"time":2,"is_transit":false,"i_long":106.827103,"line":2,"transit":false,"station_name":"Sawah Besar","station_id":"SW"},{"is_transit":false,"time":2,"station_name":"Manggabesar","station_id":"MGB","transit":false,"i_long":106.82482,"distance":906,"i_lat":-6.149769,"line":2},{"i_long":106.820901,"transit":false,"station_name":"Jayakarta","line":2,"is_transit":false,"distance":1080,"station_id":"JAY","i_lat":-6.141205,"time":2},{"station_id":"JAKK","i_lat":-6.137569,"line":2,"i_long":106.812439,"distance":1264,"station_name":"Jakarta Kota","time":4,"is_transit":true,"transit":true},{"station_name":"Kampung Bandan","is_transit":true,"line":4,"i_long":106.826365,"i_lat":-6.132549,"station_id":"KPB","time":3,"distance":1364,"transit":true},{"transit":false,"distance":4102,"i_lat":-6.144674,"i_long":106.79867,"time":9,"station_id":"AK","is_transit":false,"station_name":"Angke","line":1},{"time":4,"station_id":"DU","transit":true,"distance":1230,"i_long":106.800832,"line":1,"is_transit":true,"station_name":"Duri","i_lat":-6.155215},{"i_lat":-6.162021,"station_name":"Grogol","i_long":106.788277,"station_id":"GRG","time":3,"distance":1700,"line":5,"is_transit":false,"transit":false},{"line":5,"station_id":"PSG","transit":false,"is_transit":false,"time":2,"station_name":"Pesing","distance":2036,"i_lat":-6.161433,"i_long":106.771379},{"transit":false,"is_transit":false,"time":2,"station_name":"Taman Kota","line":5,"distance":1614,"station_id":"TKO","i_long":106.756522,"i_lat":-6.1587309999999995},{"distance":2334,"station_name":"Bojongindah","i_long":106.737035,"transit":false,"i_lat":-6.159876,"line":5,"is_transit":false,"time":2,"station_id":"BOI"},{"line":5,"transit":false,"is_transit":false,"station_name":"Rawa Buaya","station_id":"RW","i_lat":-6.162758,"i_long":106.723064,"time":4,"distance":1152},{"distance":2504,"is_transit":false,"time":3,"line":5,"i_long":106.701612,"station_id":"KDS","i_lat":-6.166068,"transit":false,"station_name":"Kalideres"},{"station_name":"Poris","distance":2548,"i_long":106.679458,"time":3,"is_transit":false,"station_id":"PI","line":5,"transit":false,"i_lat":-6.169933},{"station_name":"Batuceper","station_id":"BPR","distance":1834,"transit":false,"i_long":106.665036,"i_lat":-6.171811,"line":5,"time":3,"is_transit":false},{"transit":false,"is_transit":false,"station_name":"Tanah Tinggi","time":3,"distance":2028,"i_lat":-6.17331,"line":5,"station_id":"TTI","i_long":106.64657}],[{"is_transit":false,"distance":0,"transit":false,"i_lat":-6.329547,"i_long":106.617853,"station_id":"CC","station_name":"Cicayur","time":0,"line":3},{"i_long":106.640411,"i_lat":-6.32484,"distance":2519,"is_transit":false,"station_id":"CSK","station_name":"Cisauk","line":3,"time":4,"transit":false},{"station_name":"Serpong","distance":1784,"transit":false,"i_lat":-6.319871,"line":6,"i_long":106.66566,"time":4,"is_transit":false,"station_id":"SRP"},{"station_id":"RU","transit":false,"is_transit":false,"time":4,"distance":2413,"station_name":"Rawa Buntu","i_lat":-6.314823,"line":6,"i_long":106.675475},{"line":6,"transit":false,"distance":4566,"is_transit":false,"station_id":"SDM","station_name":"Sudimara","i_lat":-6.296963,"i_long":106.712277,"time":6},{"station_id":"JMU","i_lat":-6.288927,"is_transit":false,"distance":1994,"i_long":106.728916,"station_name":"Jurangmangu","line":6,"transit":false,"time":4},{"time":3,"transit":false,"i_lat":-6.276362,"line":6,"i_long":106.74273,"distance":2179,"is_transit":false,"station_id":"PDJ","station_name":"Pondokranji"},{"i_lat":-6.237242,"transit":false,"distance":6218,"i_long":106.780334,"is_transit":false,"station_name":"Kebayoran","line":6,"station_id":"KBY","time":8},{"station_id":"PLM","station_name":"Palmerah","transit":false,"time":7,"i_lat":-6.207404,"distance":3737,"is_transit":false,"line":6,"i_long":106.79689},{"is_transit":true,"time":6,"distance":3191,"transit":true,"i_long":106.811091,"line":1,"station_name":"Tanah Abang","station_id":"THB","i_lat":-6.185545},{"time":5,"distance":2029,"station_id":"KAT","line":1,"i_long":106.816351,"i_lat":-6.20132,"station_name":"Karet","transit":false,"is_transit":false},{"station_id":"SUDB","i_lat":-6.201433,"is_transit":false,"i_long":106.819881,"distance":471,"transit":false,"line":1,"station_name":"Sudirman Baru","time":1},{"i_lat":-6.202263,"time":1,"is_transit":false,"distance":280,"i_long":106.822649,"line":1,"transit":false,"station_id":"SUD","station_name":"Sudirman"},{"transit":false,"time":4,"station_name":"Manggarai","i_long":106.84912,"distance":3186,"i_lat":-6.209883,"line":2,"station_id":"MRI","is_transit":false},{"station_id":"MTR","i_long":106.858896,"time":2,"station_name":"Matraman","line":1,"i_lat":-6.212485,"is_transit":false,"distance":1275,"transit":false},{"station_name":"Jatinegara","is_transit":true,"transit":true,"distance":1377,"station_id":"JNG","time":8,"i_long":106.86807400000001,"line":1,"i_lat":-6.215091},{"station_id":"POK","line":11,"station_name":"Pondok Jati","i_long":106.861737,"i_lat":-6.209188,"distance":1236,"transit":false,"time":2,"is_transit":false},{"is_transit":false,"transit":false,"station_name":"Kramat","i_lat":-6.193792,"line":11,"distance":1829,"i_long":106.855437,"time":2,"station_id":"KMT"},{"time":1,"line":11,"distance":973,"i_long":106.850107,"transit":false,"is_transit":false,"station_id":"GST","station_name":"Gang Sentiong","i_lat":-6.185975},{"is_transit":false,"station_id":"PSE","distance":1567,"time":8,"i_long":106.84368,"i_lat":-6.174784,"line":11,"station_name":"Pasar Senen","transit":false},{"transit":false,"distance":1436,"i_lat":-6.161728,"line":11,"station_name":"Kemayoran","station_id":"KMO","time":4,"i_long":106.839204,"is_transit":false},{"i_long":106.836569,"distance":1901,"transit":false,"station_id":"RJW","is_transit":false,"time":5,"i_lat":-6.14505,"station_name":"Rajawali","line":11},{"distance":1444,"transit":true,"station_id":"KPB","station_name":"Kampung Bandan","time":3,"line":4,"i_lat":-6.132549,"is_transit":true,"i_long":106.826365},{"is_transit":false,"distance":4102,"station_id":"AK","transit":false,"i_long":106.79867,"i_lat":-6.144674,"station_name":"Angke","time":9,"line":1},{"transit":true,"line":1,"distance":1230,"station_id":"DU","i_lat":-6.155215,"is_transit":true,"station_name":"Duri","i_long":106.800832,"time":4},{"station_name":"Grogol","line":5,"is_transit":false,"transit":false,"i_lat":-6.162021,"distance":1700,"time":3,"i_long":106.788277,"station_id":"GRG"},{"line":5,"distance":2036,"transit":false,"station_name":"Pesing","is_transit":false,"i_lat":-6.161433,"i_long":106.771379,"station_id":"PSG","time":2},{"distance":1614,"i_long":106.756522,"transit":false,"station_id":"TKO","i_lat":-6.1587309999999995,"is_transit":false,"time":2,"station_name":"Taman Kota","line":5},{"station_name":"Bojongindah","time":2,"is_transit":false,"distance":2334,"station_id":"BOI","transit":false,"i_lat":-6.159876,"i_long":106.737035,"line":5},{"station_name":"Rawa Buaya","distance":1152,"i_long":106.723064,"i_lat":-6.162758,"time":4,"transit":false,"is_transit":false,"station_id":"RW","line":5},{"time":3,"distance":2504,"i_long":106.701612,"transit":false,"station_name":"Kalideres","i_lat":-6.166068,"line":5,"station_id":"KDS","is_transit":false},{"distance":2548,"is_transit":false,"station_name":"Poris","i_long":106.679458,"line":5,"transit":false,"time":3,"station_id":"PI","i_lat":-6.169933},{"line":5,"transit":false,"i_lat":-6.171811,"is_transit":false,"time":3,"distance":1834,"station_id":"BPR","station_name":"Batuceper","i_long":106.665036},{"is_transit":false,"station_name":"Tanah Tinggi","transit":false,"station_id":"TTI","i_long":106.64657,"time":3,"i_lat":-6.17331,"line":5,"distance":2028}]]}