{"data":[[{"is_transit":false,"station_name":"Cicayur","time":0,"i_lat":-6.329547,"i_long":106.617853,"transit":false,"line":0,"distance":0,"station_id":"CC"},{"is_transit":false,"transit":false,"time":4,"station_name":"Cisauk","i_long":106.640411,"line":0,"distance":2519,"i_lat":-6.32484,"station_id":"CSK"},{"time":4,"i_lat":-6.319871,"transit":false,"station_id":"SRP","line":6,"is_transit":false,"i_long":106.66566,"distance":1784,"station_name":"Serpong"},{"is_transit":false,"transit":false,"time":4,"line":6,"station_id":"RU","i_long":106.675475,"i_lat":-6.314823,"distance":2413,"station_name":"Rawa Buntu"},{"is_transit":false,"i_lat":-6.296963,"station_name":"Sudimara","line":6,"station_id":"SDM","time":6,"i_long":106.712277,"transit":false,"distance":4566},{"i_lat":-6.288927,"station_name":"Jurangmangu","station_id":"JMU","is_transit":false,"transit":false,"i_long":106.728916,"time":4,"distance":1994,"line":6},{"time":3,"distance":2179,"i_lat":-6.276362,"station_name":"Pondokranji","i_long":106.74273,"is_transit":false,"transit":false,"line":6,"station_id":"PDJ"},{"i_long":106.780334,"transit":false,"time":8,"is_transit":false,"station_id":"KBY","distance":6218,"i_lat":-6.237242,"station_name":"Kebayoran","line":6},{"station_id":"PLM","distance":3737,"time":7,"i_long":106.79689,"transit":false,"station_name":"Palmerah","is_transit":false,"i_lat":-6.207404,"line":6},{"time":6,"i_long":106.811091,"distance":3191,"station_id":"THB","i_lat":-6.185545,"transit":true,"is_transit":true,"station_name":"Tanah Abang","line":1},{"i_lat":-6.155215,"station_id":"DU","i_long":106.800832,"transit":true,"station_name":"Duri","is_transit":true,"line":1,"distance":3632,"time":8},{"i_long":106.788277,"line":5,"station_name":"Grogol","i_lat":-6.162021,"distance":1700,"is_transit":false,"transit":false,"time":3,"station_id":"GGL"},{"station_id":"PSG","time":2,"i_long":106.771379,"transit":false,"line":5,"distance":2036,"is_transit":false,"i_lat":-6.161433,"station_name":"Pesing"},{"line":5,"station_name":"Taman Kota","i_lat":-6.1587309999999995,"i_long":106.756522,"is_transit":false,"distance":1614,"station_id":"TKO","transit":false,"time":2},{"station_name":"Bojongindah","transit":false,"time":2,"i_lat":-6.159876,"line":0,"distance":2334,"is_transit":false,"i_long":106.737035,"station_id":"BOI"},{"station_id":"RW","distance":1152,"station_name":"Rawa Buaya","time":4,"line":5,"is_transit":false,"i_long":106.723064,"i_lat":-6.162758,"transit":false},{"is_transit":false,"station_id":"KDS","time":3,"station_name":"Kalideres","line":5,"i_long":106.701612,"transit":false,"distance":2504,"i_lat":-6.166068},{"station_id":"PI","i_lat":-6.169933,"i_long":106.679458,"is_transit":false,"transit":false,"time":3,"line":5,"distance":2548,"station_name":"Poris"},{"i_lat":-6.171811,"is_transit":false,"time":3,"i_long":106.665036,"line":0,"transit":false,"station_id":"BPR","distance":1834,"station_name":"Batuceper"},{"is_transit":false,"station_id":"TTI","time":3,"distance":2028,"i_lat":-6.17331,"i_long":106.64657,"transit":false,"station_name":"Tanah Tinggi","line":5}],[{"station_id":"CC","time":0,"i_lat":-6.329547,"is_transit":false,"distance":0,"i_long":106.617853,"transit":false,"line":0,"station_name":"Cicayur"},{"station_name":"Cisauk","station_id":"CSK","distance":2519,"time":4,"i_lat":-6.32484,"i_long":106.640411,"line":0,"is_transit":false,"transit":false},{"is_transit":false,"station_name":"Serpong","transit":false,"distance":1784,"i_lat":-6.319871,"time":4,"station_id":"SRP","i_long":106.66566,"line":6},{"station_name":"Rawa Buntu","time":4,"transit":false,"distance":2413,"station_id":"RU","i_lat":-6.314823,"line":6,"i_long":106.675475,"is_transit":false},{"time":6,"station_id":"SDM","distance":4566,"i_long":106.712277,"transit":false,"i_lat":-6.296963,"is_transit":false,"station_name":"Sudimara","line":6},{"time":4,"is_transit":false,"i_long":106.728916,"station_name":"Jurangmangu","line":6,"i_lat":-6.288927,"distance":1994,"station_id":"JMU","transit":false},{"station_name":"Pondokranji","i_lat":-6.276362,"i_long":106.74273,"station_id":"PDJ","transit":false,"time":3,"line":6,"is_transit":false,"distance":2179},{"distance":6218,"station_id":"KBY","time":8,"transit":false,"i_lat":-6.237242,"is_transit":false,"station_name":"Kebayoran","i_long":106.780334,"line":6},{"is_transit":false,"time":7,"distance":3737,"station_name":"Palmerah","i_long":106.79689,"station_id":"PLM","i_lat":-6.207404,"line":6,"transit":false},{"distance":3191,"station_name":"Tanah Abang","time":6,"i_lat":-6.185545,"transit":true,"i_long":106.811091,"is_transit":true,"line":1,"station_id":"THB"},{"i_lat":-6.20132,"station_id":"KAT","distance":2029,"is_transit":false,"time":5,"i_long":106.816351,"station_name":"Karet","line":1,"transit":false},{"transit":false,"i_lat":-6.201433,"line":1,"station_id":"SUDB","is_transit":false,"distance":471,"time":1,"station_name":"Sudirman Baru","i_long":106.819881},{"i_long":106.822649,"station_id":"SUD","line":1,"station_name":"Sudirman","time":1,"transit":false,"distance":280,"is_transit":false,"i_lat":-6.202263},{"station_name":"Manggarai","is_transit":true,"i_lat":-6.209883,"line":0,"transit":true,"time":4,"i_long":106.84912,"station_id":"MRI","distance":3186},{"line":0,"transit":false,"i_long":106.840169,"is_transit":false,"station_id":"CKI","station_name":"Cikini","i_lat":-6.198556,"distance":1590,"time":4},{"time":3,"station_id":"GDD","distance":1750,"i_long":106.832183,"line":2,"is_transit":false,"transit":false,"i_lat":-6.186295,"station_name":"Gondangdia"},{"station_id":"JUA","time":4,"i_lat":-6.166716,"i_long":106.828284,"line":2,"station_name":"Juanda","transit":false,"distance":2015,"is_transit":false},{"transit":false,"distance":1149,"station_name":"Sawah Besar","time":2,"i_long":106.827103,"line":2,"station_id":"SW","is_transit":false,"i_lat":-6.160725},{"is_transit":false,"station_id":"MGB","transit":false,"line":2,"distance":906,"station_name":"Manggabesar","time":2,"i_lat":-6.149769,"i_long":106.82482},{"station_name":"Jayakarta","station_id":"JAY","transit":false,"time":2,"line":7,"is_transit":false,"i_long":106.820901,"distance":1080,"i_lat":-6.141205},{"line":0,"distance":1264,"time":4,"is_transit":true,"i_lat":-6.137569,"station_name":"Jakarta Kota","transit":true,"i_long":106.812439,"station_id":"JAKK"},{"station_name":"Kampung Bandan","i_lat":-6.132549,"is_transit":true,"station_id":"KPB","transit":false,"time":3,"line":0,"i_long":106.826365,"distance":1364},{"station_id":"AK","is_transit":false,"transit":false,"station_name":"Angke","time":9,"distance":4102,"i_lat":-6.144674,"i_long":106.79867,"line":0},{"transit":true,"station_name":"Duri","i_lat":-6.155215,"line":1,"i_long":106.800832,"station_id":"DU","is_transit":true,"time":4,"distance":1230},{"transit":false,"time":3,"line":5,"station_id":"GGL","i_lat":-6.162021,"is_transit":false,"i_long":106.788277,"distance":1700,"station_name":"Grogol"},{"transit":false,"is_transit":false,"i_lat":-6.161433,"i_long":106.771379,"station_id":"PSG","time":2,"station_name":"Pesing","distance":2036,"line":5},{"transit":false,"i_long":106.756522,"line":5,"time":2,"station_name":"Taman Kota","distance":1614,"i_lat":-6.1587309999999995,"station_id":"TKO","is_transit":false},{"time":2,"i_lat":-6.159876,"is_transit":false,"line":0,"i_long":106.737035,"station_name":"Bojongindah","distance":2334,"transit":false,"station_id":"BOI"},{"transit":false,"station_name":"Rawa Buaya","station_id":"RW","time":4,"distance":1152,"i_lat":-6.162758,"is_transit":false,"i_long":106.723064,"line":5},{"transit":false,"distance":2504,"i_long":106.701612,"is_transit":false,"time":3,"station_name":"Kalideres","station_id":"KDS","i_lat":-6.166068,"line":5},{"station_name":"Poris","transit":false,"line":5,"distance":2548,"i_lat":-6.169933,"i_long":106.679458,"station_id":"PI","time":3,"is_transit":false},{"line":0,"time":3,"i_lat":-6.171811,"is_transit":false,"distance":1834,"station_name":"Batuceper","station_id":"BPR","transit":false,"i_long":106.665036},{"distance":2028,"is_transit":false,"transit":false,"station_id":"TTI","station_name":"Tanah Tinggi","i_lat":-6.17331,"line":5,"i_long":106.64657,"time":3}],[{"transit":false,"time":0,"station_id":"CC","distance":0,"i_lat":-6.329547,"is_transit":false,"line":0,"i_long":106.617853,"station_name":"Cicayur"},{"distance":2519,"line":0,"i_lat":-6.32484,"is_transit":false,"station_id":"CSK","transit":false,"i_long":106.640411,"time":4,"station_name":"Cisauk"},{"is_transit":false,"time":4,"station_id":"SRP","station_name":"Serpong","distance":1784,"line":6,"i_lat":-6.319871,"i_long":106.66566,"transit":false},{"transit":false,"station_id":"RU","distance":2413,"i_lat":-6.314823,"time":4,"is_transit":false,"i_long":106.675475,"line":6,"station_name":"Rawa Buntu"},{"i_long":106.712277,"distance":4566,"station_id":"SDM","transit":false,"station_name":"Sudimara","time":6,"i_lat":-6.296963,"is_transit":false,"line":6},{"is_transit":false,"station_id":"JMU","time":4,"distance":1994,"transit":false,"i_long":106.728916,"station_name":"Jurangmangu","line":6,"i_lat":-6.288927},{"i_lat":-6.276362,"line":6,"transit":false,"time":3,"is_transit":false,"distance":2179,"i_long":106.74273,"station_name":"Pondokranji","station_id":"PDJ"},{"distance":6218,"i_long":106.780334,"time":8,"line":6,"is_transit":false,"station_name":"Kebayoran","station_id":"KBY","transit":false,"i_lat":-6.237242},{"station_id":"PLM","is_transit":false,"transit":false,"time":7,"i_long":106.79689,"line":6,"station_name":"Palmerah","i_lat":-6.207404,"distance":3737},{"distance":3191,"is_transit":true,"time":6,"i_lat":-6.185545,"station_id":"THB","transit":true,"station_name":"Tanah Abang","line":1,"i_long":106.811091},{"transit":false,"i_lat":-6.20132,"station_id":"KAT","is_transit":false,"time":5,"station_name":"Karet","line":1,"i_long":106.816351,"distance":2029},{"station_name":"Sudirman Baru","is_transit":false,"distance":471,"station_id":"SUDB","i_lat":-6.201433,"line":1,"time":1,"i_long":106.819881,"transit":false},{"distance":280,"transit":false,"i_lat":-6.202263,"line":1,"is_transit":false,"time":1,"station_name":"Sudirman","station_id":"SUD","i_long":106.822649},{"transit":false,"is_transit":true,"distance":3186,"time":4,"station_name":"Manggarai","station_id":"MRI","i_lat":-6.209883,"line":0,"i_long":106.84912},{"time":2,"station_name":"Matraman","i_lat":-6.212485,"line":1,"is_transit":false,"i_long":106.858896,"station_id":"MTR","transit":false,"distance":1275},{"time":8,"i_long":106.86807400000001,"transit":true,"i_lat":-6.215091,"distance":1377,"station_name":"Jatinegara","is_transit":true,"line":0,"station_id":"JNG"},{"station_name":"Pondok Jati","i_long":106.861737,"transit":false,"is_transit":false,"i_lat":-6.209188,"line":11,"time":2,"distance":1236,"station_id":"POK"},{"i_lat":-6.193792,"transit":false,"is_transit":false,"i_long":106.855437,"line":11,"station_name":"Kramat","station_id":"KMT","distance":1829,"time":2},{"station_name":"Gang Sentiong","line":11,"is_transit":false,"i_lat":-6.185975,"i_long":106.850107,"transit":false,"time":1,"station_id":"GST","distance":973},{"transit":false,"line":11,"i_long":106.84368,"i_lat":-6.174784,"station_name":"Pasar Senen","station_id":"PSE","time":8,"distance":1567,"is_transit":false},{"is_transit":false,"station_id":"KMO","station_name":"Kemayoran","i_lat":-6.161728,"i_long":106.839204,"line":11,"transit":false,"time":4,"distance":1436},{"time":5,"station_name":"Rajawali","i_lat":-6.14505,"is_transit":false,"distance":1901,"i_long":106.836569,"line":11,"station_id":"RJW","transit":false},{"line":0,"time":3,"distance":1444,"i_lat":-6.132549,"is_transit":true,"station_id":"KPB","transit":true,"station_name":"Kampung Bandan","i_long":106.826365},{"distance":4102,"line":0,"time":9,"is_transit":false,"station_id":"AK","transit":false,"station_name":"Angke","i_lat":-6.144674,"i_long":106.79867},{"transit":true,"i_long":106.800832,"station_name":"Duri","i_lat":-6.155215,"line":1,"distance":1230,"is_transit":true,"station_id":"DU","time":4},{"transit":false,"distance":1700,"station_name":"Grogol","line":5,"time":3,"station_id":"GGL","i_lat":-6.162021,"i_long":106.788277,"is_transit":false},{"distance":2036,"line":5,"station_id":"PSG","i_lat":-6.161433,"is_transit":false,"station_name":"Pesing","i_long":106.771379,"time":2,"transit":false},{"station_id":"TKO","transit":false,"i_long":106.756522,"is_transit":false,"station_name":"Taman Kota","distance":1614,"line":5,"time":2,"i_lat":-6.1587309999999995},{"i_long":106.737035,"time":2,"line":0,"i_lat":-6.159876,"station_name":"Bojongindah","is_transit":false,"station_id":"BOI","distance":2334,"transit":false},{"transit":false,"i_lat":-6.162758,"i_long":106.723064,"distance":1152,"station_id":"RW","time":4,"is_transit":false,"line":5,"station_name":"Rawa Buaya"},{"transit":false,"is_transit":false,"distance":2504,"i_long":106.701612,"i_lat":-6.166068,"station_id":"KDS","line":5,"station_name":"Kalideres","time":3},{"distance":2548,"transit":false,"station_id":"PI","is_transit":false,"i_long":106.679458,"line":5,"time":3,"station_name":"Poris","i_lat":-6.169933},{"i_lat":-6.171811,"time":3,"station_name":"Batuceper","line":0,"distance":1834,"station_id":"BPR","is_transit":false,"transit":false,"i_long":106.665036},{"i_lat":-6.17331,"is_transit":false,"station_name":"Tanah Tinggi","time":3,"line":5,"station_id":"TTI","transit":false,"distance":2028,"i_long":106.64657}]]}