{"data":[[{"station_name":"Cicayur","transit":false,"line":3,"station_id":"CC","time":0,"distance":0,"i_lat":-6.329547,"is_transit":false,"i_long":106.617853},{"is_transit":false,"transit":false,"time":4,"station_id":"CSK","i_lat":-6.32484,"station_name":"Cisauk","distance":2519,"i_long":106.640411,"line":3},{"is_transit":false,"i_long":106.66566,"transit":false,"time":4,"i_lat":-6.319871,"station_name":"Serpong","line":6,"distance":1784,"station_id":"SRP"},{"transit":false,"time":4,"i_lat":-6.314823,"station_name":"Rawa Buntu","is_transit":false,"i_long":106.675475,"line":6,"distance":2413,"station_id":"RU"},{"i_long":106.712277,"station_id":"SDM","transit":false,"distance":4566,"i_lat":-6.296963,"line":6,"is_transit":false,"station_name":"Sudimara","time":6},{"i_long":106.728916,"transit":false,"distance":1994,"line":6,"time":4,"station_id":"JMU","station_name":"Jurangmangu","is_transit":false,"i_lat":-6.288927},{"transit":false,"i_long":106.74273,"time":3,"distance":2179,"i_lat":-6.276362,"line":6,"station_name":"Pondokranji","station_id":"PDJ","is_transit":false},{"i_long":106.780334,"transit":false,"is_transit":false,"distance":6218,"line":6,"station_name":"Kebayoran","i_lat":-6.237242,"time":8,"station_id":"KBY"},{"time":7,"station_id":"PLM","station_name":"Palmerah","is_transit":false,"distance":3737,"transit":false,"i_lat":-6.207404,"i_long":106.79689,"line":6},{"i_lat":-6.185545,"station_name":"Tanah Abang","time":6,"is_transit":true,"distance":3191,"i_long":106.811091,"station_id":"THB","transit":true,"line":1},{"time":5,"i_long":106.816351,"is_transit":false,"line":1,"station_name":"Karet","transit":false,"i_lat":-6.20132,"distance":2029,"station_id":"KAT"},{"distance":471,"line":1,"time":1,"station_name":"Sudirman Baru","is_transit":false,"transit":false,"i_lat":-6.201433,"i_long":106.819881,"station_id":"SUDB"},{"time":1,"distance":280,"station_id":"SUD","i_lat":-6.202263,"line":1,"station_name":"Sudirman","i_long":106.822649,"is_transit":false,"transit":false},{"time":4,"station_name":"Manggarai","transit":false,"i_long":106.84912,"is_transit":false,"distance":3186,"line":2,"i_lat":-6.209883,"station_id":"MRI"},{"line":1,"time":2,"distance":1275,"is_transit":false,"i_lat":-6.212485,"i_long":106.858896,"station_id":"MTR","station_name":"Matraman","transit":false},{"i_long":106.86807400000001,"station_id":"JNG","i_lat":-6.215091,"transit":false,"distance":1377,"line":1,"station_name":"Jatinegara","is_transit":false,"time":8},{"distance":3395,"i_lat":-6.2135,"time":3,"line":1,"i_long":106.899548,"station_name":"Klender","transit":false,"is_transit":false,"station_id":"KLD"},{"transit":false,"i_long":106.922662,"line":1,"station_name":"Buaran","distance":3100,"station_id":"BUA","is_transit":false,"i_lat":-6.215568,"time":2},{"station_name":"Klenderbaru","i_long":106.939679,"is_transit":false,"station_id":"KLDB","time":1,"distance":1305,"line":1,"i_lat":-6.217455,"transit":false},{"station_name":"Cakung","i_long":106.951283,"line":1,"transit":false,"i_lat":-6.219053,"is_transit":false,"station_id":"CUK","time":8,"distance":1385},{"station_name":"Kranji","distance":3097,"station_id":"KRI","time":3,"i_long":106.977657,"line":1,"transit":false,"is_transit":false,"i_lat":-6.224515},{"distance":2520,"time":4,"i_long":106.997013,"i_lat":-6.236616,"line":1,"station_id":"BKS","transit":false,"station_name":"Bekasi","is_transit":false},{"is_transit":false,"line":1,"station_id":"BKST","i_lat":-6.248029,"time":2,"distance":2368,"station_name":"Bekasi Timur","i_long":107.016735,"transit":false},{"time":7,"is_transit":false,"distance":4460,"line":1,"i_lat":-6.258864,"station_name":"Tambun","i_long":107.055722,"transit":false,"station_id":"TB"},{"station_id":"CIT","line":1,"i_long":107.083084,"is_transit":false,"i_lat":-6.261877,"distance":3420,"transit":false,"station_name":"Cibitung","time":3},{"distance":2800,"i_lat":-6.262938,"station_id":"TLM","time":2,"is_transit":false,"i_long":107.093313,"station_name":"Metland Telaga Murni","transit":false,"line":1}],[{"transit":false,"station_name":"Cicayur","i_long":106.617853,"line":3,"time":0,"station_id":"CC","distance":0,"i_lat":-6.329547,"is_transit":false},{"station_name":"Cisauk","distance":2519,"line":3,"station_id":"CSK","i_long":106.640411,"is_transit":false,"i_lat":-6.32484,"transit":false,"time":4},{"station_name":"Serpong","station_id":"SRP","line":6,"is_transit":false,"distance":1784,"time":4,"transit":false,"i_lat":-6.319871,"i_long":106.66566},{"i_lat":-6.314823,"line":6,"time":4,"station_name":"Rawa Buntu","station_id":"RU","distance":2413,"is_transit":false,"transit":false,"i_long":106.675475},{"station_id":"SDM","transit":false,"distance":4566,"time":6,"i_lat":-6.296963,"line":6,"i_long":106.712277,"station_name":"Sudimara","is_transit":false},{"i_long":106.728916,"line":6,"transit":false,"time":4,"is_transit":false,"station_name":"Jurangmangu","station_id":"JMU","i_lat":-6.288927,"distance":1994},{"station_name":"Pondokranji","transit":false,"station_id":"PDJ","distance":2179,"i_long":106.74273,"is_transit":false,"time":3,"line":6,"i_lat":-6.276362},{"i_lat":-6.237242,"distance":6218,"station_id":"KBY","line":6,"is_transit":false,"station_name":"Kebayoran","transit":false,"time":8,"i_long":106.780334},{"station_name":"Palmerah","transit":false,"distance":3737,"line":6,"station_id":"PLM","time":7,"is_transit":false,"i_long":106.79689,"i_lat":-6.207404},{"transit":true,"distance":3191,"i_lat":-6.185545,"line":1,"is_transit":true,"station_name":"Tanah Abang","i_long":106.811091,"station_id":"THB","time":6},{"distance":3632,"i_lat":-6.155215,"station_id":"DU","time":8,"transit":false,"station_name":"Duri","i_long":106.800832,"is_transit":false,"line":1},{"i_lat":-6.144674,"i_long":106.79867,"transit":false,"time":4,"is_transit":false,"distance":1230,"station_id":"AK","station_name":"Angke","line":1},{"station_name":"Kampung Bandan","is_transit":true,"i_long":106.826365,"distance":4102,"line":4,"transit":true,"station_id":"KPB","time":9,"i_lat":-6.132549},{"line":11,"i_lat":-6.14505,"distance":1444,"transit":false,"i_long":106.836569,"station_id":"RJW","station_name":"Rajawali","time":3,"is_transit":false},{"transit":false,"station_id":"KMO","station_name":"Kemayoran","is_transit":false,"distance":1901,"i_lat":-6.161728,"line":11,"time":5,"i_long":106.839204},{"time":4,"is_transit":false,"transit":false,"distance":1436,"i_lat":-6.174784,"line":11,"i_long":106.84368,"station_name":"Pasar Senen","station_id":"PSE"},{"station_id":"GST","line":11,"transit":false,"i_long":106.850107,"time":8,"is_transit":false,"distance":1567,"station_name":"Gang Sentiong","i_lat":-6.185975},{"line":11,"is_transit":false,"transit":false,"station_name":"Kramat","station_id":"KMT","distance":973,"i_lat":-6.193792,"i_long":106.855437,"time":1},{"i_long":106.861737,"i_lat":-6.209188,"station_id":"POK","line":11,"time":2,"distance":1829,"transit":false,"is_transit":false,"station_name":"Pondok Jati"},{"time":9,"is_transit":true,"i_long":106.86807400000001,"transit":true,"station_name":"Jatinegara","i_lat":-6.215091,"distance":1236,"line":1,"station_id":"JNG"},{"i_lat":-6.2135,"station_name":"Klender","time":3,"line":1,"is_transit":false,"i_long":106.899548,"distance":3395,"transit":false,"station_id":"KLD"},{"distance":3100,"is_transit":false,"time":2,"i_long":106.922662,"transit":false,"station_name":"Buaran","station_id":"BUA","i_lat":-6.215568,"line":1},{"station_id":"KLDB","distance":1305,"transit":false,"is_transit":false,"time":1,"i_long":106.939679,"line":1,"station_name":"Klenderbaru","i_lat":-6.217455},{"i_lat":-6.219053,"transit":false,"time":8,"is_transit":false,"distance":1385,"line":1,"station_name":"Cakung","i_long":106.951283,"station_id":"CUK"},{"transit":false,"line":1,"i_lat":-6.224515,"is_transit":false,"station_id":"KRI","station_name":"Kranji","time":3,"i_long":106.977657,"distance":3097},{"transit":false,"station_id":"BKS","line":1,"is_transit":false,"distance":2520,"i_long":106.997013,"time":4,"i_lat":-6.236616,"station_name":"Bekasi"},{"transit":false,"i_long":107.016735,"time":2,"station_id":"BKST","distance":2368,"i_lat":-6.248029,"station_name":"Bekasi Timur","is_transit":false,"line":1},{"transit":false,"distance":4460,"station_id":"TB","time":7,"is_transit":false,"station_name":"Tambun","i_lat":-6.258864,"line":1,"i_long":107.055722},{"line":1,"transit":false,"distance":3420,"time":3,"is_transit":false,"station_id":"CIT","i_lat":-6.261877,"i_long":107.083084,"station_name":"Cibitung"},{"is_transit":false,"transit":false,"line":1,"i_lat":-6.262938,"time":2,"station_id":"TLM","station_name":"Metland Telaga Murni","i_long":107.093313,"distance":2800}],[{"line":3,"transit":false,"station_name":"Cicayur","distance":0,"is_transit":false,"i_lat":-6.329547,"i_long":106.617853,"station_id":"CC","time":0},{"time":4,"station_id":"CSK","line":3,"station_name":"Cisauk","is_transit":false,"distance":2519,"i_lat":-6.32484,"i_long":106.640411,"transit":false},{"station_id":"SRP","time":4,"i_long":106.66566,"i_lat":-6.319871,"line":6,"station_name":"Serpong","transit":false,"is_transit":false,"distance":1784},{"distance":2413,"i_lat":-6.314823,"transit":false,"is_transit":false,"time":4,"station_id":"RU","i_long":106.675475,"line":6,"station_name":"Rawa Buntu"},{"transit":false,"station_id":"SDM","i_lat":-6.296963,"line":6,"i_long":106.712277,"station_name":"Sudimara","time":6,"distance":4566,"is_transit":false},{"station_name":"Jurangmangu","transit":false,"time":4,"station_id":"JMU","is_transit":false,"line":6,"i_lat":-6.288927,"distance":1994,"i_long":106.728916},{"line":6,"station_id":"PDJ","distance":2179,"time":3,"station_name":"Pondokranji","transit":false,"i_lat":-6.276362,"i_long":106.74273,"is_transit":false},{"station_id":"KBY","is_transit":false,"i_lat":-6.237242,"station_name":"Kebayoran","transit":false,"distance":6218,"line":6,"i_long":106.780334,"time":8},{"transit":false,"i_long":106.79689,"station_name":"Palmerah","i_lat":-6.207404,"distance":3737,"station_id":"PLM","line":6,"time":7,"is_transit":false},{"station_name":"Tanah Abang","transit":true,"is_transit":true,"distance":3191,"i_lat":-6.185545,"station_id":"THB","i_long":106.811091,"line":1,"time":6},{"station_name":"Duri","time":8,"i_lat":-6.155215,"i_long":106.800832,"station_id":"DU","is_transit":false,"line":1,"distance":3632,"transit":false},{"i_lat":-6.144674,"time":4,"distance":1230,"station_id":"AK","line":1,"is_transit":false,"i_long":106.79867,"transit":false,"station_name":"Angke"},{"station_id":"KPB","i_lat":-6.132549,"transit":true,"time":9,"line":4,"is_transit":true,"distance":4102,"i_long":106.826365,"station_name":"Kampung Bandan"},{"time":3,"station_name":"Jakarta Kota","i_long":106.812439,"line":2,"i_lat":-6.137569,"is_transit":true,"transit":true,"station_id":"JAKK","distance":1364},{"station_id":"JAY","distance":1264,"transit":false,"time":4,"is_transit":false,"i_lat":-6.141205,"station_name":"Jayakarta","line":2,"i_long":106.820901},{"station_id":"MGB","time":2,"station_name":"Manggabesar","is_transit":false,"i_long":106.82482,"line":2,"distance":1080,"i_lat":-6.149769,"transit":false},{"distance":906,"line":2,"i_lat":-6.160725,"station_name":"Sawah Besar","transit":false,"time":2,"is_transit":false,"station_id":"SW","i_long":106.827103},{"line":2,"i_lat":-6.166716,"time":2,"station_id":"JUA","is_transit":false,"station_name":"Juanda","distance":1149,"i_long":106.828284,"transit":false},{"station_name":"Gondangdia","transit":false,"line":2,"station_id":"GDD","distance":2015,"is_transit":false,"i_long":106.832183,"time":4,"i_lat":-6.186295},{"station_id":"CKI","station_name":"Cikini","distance":1750,"transit":false,"time":3,"i_lat":-6.198556,"line":2,"i_long":106.840169,"is_transit":false},{"i_lat":-6.209883,"line":2,"distance":1590,"station_id":"MRI","i_long":106.84912,"station_name":"Manggarai","time":4,"is_transit":true,"transit":true},{"distance":1275,"time":2,"i_lat":-6.212485,"line":1,"is_transit":false,"station_name":"Matraman","station_id":"MTR","i_long":106.858896,"transit":false},{"i_long":106.86807400000001,"i_lat":-6.215091,"transit":false,"station_id":"JNG","time":8,"line":1,"station_name":"Jatinegara","is_transit":false,"distance":1377},{"time":3,"station_id":"KLD","distance":3395,"i_lat":-6.2135,"i_long":106.899548,"is_transit":false,"station_name":"Klender","line":1,"transit":false},{"time":2,"i_lat":-6.215568,"station_id":"BUA","is_transit":false,"station_name":"Buaran","transit":false,"i_long":106.922662,"distance":3100,"line":1},{"distance":1305,"i_long":106.939679,"transit":false,"time":1,"station_id":"KLDB","line":1,"station_name":"Klenderbaru","is_transit":false,"i_lat":-6.217455},{"distance":1385,"i_lat":-6.219053,"i_long":106.951283,"line":1,"is_transit":false,"station_name":"Cakung","station_id":"CUK","transit":false,"time":8},{"line":1,"time":3,"is_transit":false,"distance":3097,"station_name":"Kranji","transit":false,"i_lat":-6.224515,"station_id":"KRI","i_long":106.977657},{"station_id":"BKS","time":4,"station_name":"Bekasi","is_transit":false,"i_lat":-6.236616,"line":1,"distance":2520,"transit":false,"i_long":106.997013},{"station_name":"Bekasi Timur","transit":false,"i_lat":-6.248029,"line":1,"distance":2368,"time":2,"station_id":"BKST","i_long":107.016735,"is_transit":false},{"time":7,"i_long":107.055722,"transit":false,"line":1,"is_transit":false,"station_id":"TB","distance":4460,"station_name":"Tambun","i_lat":-6.258864},{"time":3,"station_id":"CIT","line":1,"i_long":107.083084,"station_name":"Cibitung","is_transit":false,"transit":false,"distance":3420,"i_lat":-6.261877},{"i_lat":-6.262938,"line":1,"station_id":"TLM","time":2,"is_transit":false,"station_name":"Metland Telaga Murni","transit":false,"i_long":107.093313,"distance":2800}],[{"distance":0,"time":0,"transit":false,"line":3,"i_lat":-6.329547,"station_id":"CC","station_name":"Cicayur","is_transit":false,"i_long":106.617853},{"transit":false,"distance":2519,"i_long":106.640411,"station_name":"Cisauk","station_id":"CSK","time":4,"is_transit":false,"line":3,"i_lat":-6.32484},{"i_lat":-6.319871,"i_long":106.66566,"line":6,"transit":false,"station_name":"Serpong","station_id":"SRP","time":4,"distance":1784,"is_transit":false},{"line":6,"i_long":106.675475,"transit":false,"distance":2413,"station_name":"Rawa Buntu","i_lat":-6.314823,"station_id":"RU","time":4,"is_transit":false},{"time":6,"is_transit":false,"station_id":"SDM","transit":false,"distance":4566,"i_long":106.712277,"i_lat":-6.296963,"station_name":"Sudimara","line":6},{"time":4,"i_lat":-6.288927,"station_id":"JMU","distance":1994,"transit":false,"i_long":106.728916,"line":6,"station_name":"Jurangmangu","is_transit":false},{"i_lat":-6.276362,"is_transit":false,"station_id":"PDJ","time":3,"distance":2179,"station_name":"Pondokranji","transit":false,"i_long":106.74273,"line":6},{"time":8,"i_lat":-6.237242,"is_transit":false,"line":6,"i_long":106.780334,"station_name":"Kebayoran","station_id":"KBY","distance":6218,"transit":false},{"time":7,"transit":false,"i_long":106.79689,"station_name":"Palmerah","station_id":"PLM","line":6,"i_lat":-6.207404,"distance":3737,"is_transit":false},{"transit":true,"line":1,"is_transit":true,"station_id":"THB","time":6,"station_name":"Tanah Abang","i_lat":-6.185545,"i_long":106.811091,"distance":3191},{"station_name":"Karet","distance":2029,"time":5,"transit":false,"i_lat":-6.20132,"is_transit":false,"station_id":"KAT","i_long":106.816351,"line":1},{"line":1,"i_long":106.819881,"distance":471,"station_id":"SUDB","station_name":"Sudirman Baru","transit":false,"time":1,"is_transit":false,"i_lat":-6.201433},{"is_transit":false,"line":1,"station_id":"SUD","i_lat":-6.202263,"station_name":"Sudirman","transit":false,"i_long":106.822649,"time":1,"distance":280},{"station_name":"Manggarai","distance":3186,"i_lat":-6.209883,"time":4,"is_transit":true,"line":2,"i_long":106.84912,"transit":true,"station_id":"MRI"},{"time":4,"i_lat":-6.198556,"station_id":"CKI","line":2,"i_long":106.840169,"distance":1590,"transit":false,"is_transit":false,"station_name":"Cikini"},{"i_lat":-6.186295,"station_name":"Gondangdia","line":2,"transit":false,"is_transit":false,"station_id":"GDD","i_long":106.832183,"time":3,"distance":1750},{"station_name":"Juanda","station_id":"JUA","time":4,"transit":false,"is_transit":false,"i_lat":-6.166716,"line":2,"i_long":106.828284,"distance":2015},{"line":2,"distance":1149,"station_id":"SW","transit":false,"i_lat":-6.160725,"station_name":"Sawah Besar","time":2,"is_transit":false,"i_long":106.827103},{"station_name":"Manggabesar","transit":false,"station_id":"MGB","i_long":106.82482,"distance":906,"i_lat":-6.149769,"line":2,"is_transit":false,"time":2},{"station_id":"JAY","i_long":106.820901,"distance":1080,"is_transit":false,"time":2,"line":2,"transit":false,"i_lat":-6.141205,"station_name":"Jayakarta"},{"station_id":"JAKK","line":2,"time":4,"distance":1264,"transit":true,"is_transit":true,"i_long":106.812439,"station_name":"Jakarta Kota","i_lat":-6.137569},{"line":4,"station_name":"Kampung Bandan","station_id":"KPB","is_transit":true,"distance":1364,"i_lat":-6.132549,"transit":true,"i_long":106.826365,"time":3},{"i_lat":-6.14505,"is_transit":false,"station_name":"Rajawali","line":11,"station_id":"RJW","transit":false,"time":3,"i_long":106.836569,"distance":1444},{"i_long":106.839204,"station_name":"Kemayoran","line":11,"is_transit":false,"time":5,"transit":false,"distance":1901,"station_id":"KMO","i_lat":-6.161728},{"distance":1436,"i_lat":-6.174784,"transit":false,"station_name":"Pasar Senen","station_id":"PSE","time":4,"i_long":106.84368,"line":11,"is_transit":false},{"station_id":"GST","station_name":"Gang Sentiong","i_long":106.850107,"line":11,"time":8,"is_transit":false,"distance":1567,"i_lat":-6.185975,"transit":false},{"i_lat":-6.193792,"is_transit":false,"station_id":"KMT","transit":false,"station_name":"Kramat","i_long":106.855437,"line":11,"time":1,"distance":973},{"i_long":106.861737,"transit":false,"time":2,"station_name":"Pondok Jati","is_transit":false,"distance":1829,"station_id":"POK","i_lat":-6.209188,"line":11},{"station_id":"JNG","station_name":"Jatinegara","line":1,"transit":true,"i_long":106.86807400000001,"distance":1236,"time":9,"i_lat":-6.215091,"is_transit":true},{"station_name":"Klender","distance":3395,"time":3,"i_lat":-6.2135,"line":1,"is_transit":false,"i_long":106.899548,"transit":false,"station_id":"KLD"},{"station_id":"BUA","i_lat":-6.215568,"line":1,"time":2,"is_transit":false,"transit":false,"distance":3100,"i_long":106.922662,"station_name":"Buaran"},{"distance":1305,"transit":false,"station_id":"KLDB","i_lat":-6.217455,"line":1,"station_name":"Klenderbaru","time":1,"is_transit":false,"i_long":106.939679},{"i_lat":-6.219053,"i_long":106.951283,"transit":false,"station_name":"Cakung","time":8,"distance":1385,"line":1,"is_transit":false,"station_id":"CUK"},{"station_id":"KRI","time":3,"distance":3097,"is_transit":false,"line":1,"station_name":"Kranji","transit":false,"i_long":106.977657,"i_lat":-6.224515},{"i_long":106.997013,"is_transit":false,"time":4,"i_lat":-6.236616,"transit":false,"line":1,"station_name":"Bekasi","station_id":"BKS","distance":2520},{"time":2,"station_name":"Bekasi Timur","is_transit":false,"distance":2368,"i_lat":-6.248029,"i_long":107.016735,"transit":false,"line":1,"station_id":"BKST"},{"i_lat":-6.258864,"station_id":"TB","distance":4460,"station_name":"Tambun","line":1,"time":7,"transit":false,"i_long":107.055722,"is_transit":false},{"time":3,"i_lat":-6.261877,"station_name":"Cibitung","station_id":"CIT","i_long":107.083084,"is_transit":false,"line":1,"distance":3420,"transit":false},{"is_transit":false,"station_id":"TLM","line":1,"i_lat":-6.262938,"distance":2800,"station_name":"Metland Telaga Murni","transit":false,"i_long":107.093313,"time":2}]]}