{"data":[[{"time":0,"station_name":"Cicayur","station_id":"CC","i_long":106.617853,"is_transit":false,"i_lat":-6.329547,"transit":false,"distance":0,"line":3},{"time":4,"station_id":"CSK","i_lat":-6.32484,"station_name":"Cisauk","i_long":106.640411,"transit":false,"is_transit":false,"distance":2519,"line":3},{"distance":1784,"i_lat":-6.319871,"time":4,"station_name":"Serpong","i_long":106.66566,"line":6,"is_transit":false,"station_id":"SRP","transit":false},{"station_name":"Rawa Buntu","line":6,"time":4,"distance":2413,"i_lat":-6.314823,"transit":false,"station_id":"RU","is_transit":false,"i_long":106.675475},{"i_long":106.712277,"transit":false,"time":6,"i_lat":-6.296963,"station_id":"SDM","station_name":"Sudimara","is_transit":false,"distance":4566,"line":6},{"time":4,"station_name":"Jurangmangu","i_long":106.728916,"line":6,"i_lat":-6.288927,"station_id":"JMU","distance":1994,"is_transit":false,"transit":false},{"time":3,"distance":2179,"transit":false,"line":6,"station_id":"PDJ","is_transit":false,"i_lat":-6.276362,"i_long":106.74273,"station_name":"Pondokranji"},{"station_id":"KBY","is_transit":false,"distance":6218,"line":6,"i_lat":-6.237242,"time":8,"station_name":"Kebayoran","i_long":106.780334,"transit":false},{"transit":false,"distance":3737,"line":6,"i_lat":-6.207404,"time":7,"i_long":106.79689,"station_name":"Palmerah","station_id":"PLM","is_transit":false},{"transit":true,"is_transit":true,"distance":3191,"station_id":"THB","i_long":106.811091,"i_lat":-6.185545,"line":1,"station_name":"Tanah Abang","time":6},{"i_lat":-6.155215,"line":1,"station_id":"DU","i_long":106.800832,"distance":3632,"transit":true,"station_name":"Duri","time":8,"is_transit":true},{"station_id":"GGL","is_transit":false,"i_lat":-6.162021,"line":5,"transit":false,"time":3,"station_name":"Grogol","distance":1700,"i_long":106.788277},{"line":5,"station_id":"PSG","i_lat":-6.161433,"transit":false,"station_name":"Pesing","is_transit":false,"distance":2036,"i_long":106.771379,"time":2},{"i_lat":-6.1587309999999995,"is_transit":false,"station_id":"TKO","station_name":"Taman Kota","i_long":106.756522,"line":5,"transit":false,"time":2,"distance":1614}],[{"is_transit":false,"time":0,"i_lat":-6.329547,"line":3,"transit":false,"station_id":"CC","station_name":"Cicayur","distance":0,"i_long":106.617853},{"time":4,"distance":2519,"station_name":"Cisauk","is_transit":false,"i_lat":-6.32484,"station_id":"CSK","transit":false,"i_long":106.640411,"line":3},{"is_transit":false,"transit":false,"station_id":"SRP","station_name":"Serpong","i_lat":-6.319871,"distance":1784,"i_long":106.66566,"time":4,"line":6},{"is_transit":false,"distance":2413,"line":6,"time":4,"transit":false,"i_long":106.675475,"i_lat":-6.314823,"station_id":"RU","station_name":"Rawa Buntu"},{"station_name":"Sudimara","transit":false,"is_transit":false,"station_id":"SDM","i_lat":-6.296963,"i_long":106.712277,"line":6,"time":6,"distance":4566},{"i_long":106.728916,"station_id":"JMU","is_transit":false,"distance":1994,"line":6,"station_name":"Jurangmangu","i_lat":-6.288927,"transit":false,"time":4},{"i_long":106.74273,"time":3,"station_name":"Pondokranji","distance":2179,"line":6,"i_lat":-6.276362,"transit":false,"station_id":"PDJ","is_transit":false},{"is_transit":false,"distance":6218,"transit":false,"station_name":"Kebayoran","station_id":"KBY","time":8,"i_lat":-6.237242,"i_long":106.780334,"line":6},{"distance":3737,"station_id":"PLM","station_name":"Palmerah","i_long":106.79689,"time":7,"i_lat":-6.207404,"transit":false,"line":6,"is_transit":false},{"i_lat":-6.185545,"line":1,"i_long":106.811091,"is_transit":true,"distance":3191,"station_id":"THB","time":6,"transit":true,"station_name":"Tanah Abang"},{"is_transit":false,"transit":false,"i_lat":-6.20132,"i_long":106.816351,"station_id":"KAT","time":5,"distance":2029,"line":1,"station_name":"Karet"},{"time":1,"is_transit":false,"line":1,"station_name":"Sudirman Baru","distance":471,"station_id":"SUDB","i_lat":-6.201433,"i_long":106.819881,"transit":false},{"distance":280,"transit":false,"line":1,"is_transit":false,"station_id":"SUD","i_lat":-6.202263,"station_name":"Sudirman","i_long":106.822649,"time":1},{"station_name":"Manggarai","i_lat":-6.209883,"distance":3186,"line":2,"station_id":"MRI","is_transit":true,"time":4,"i_long":106.84912,"transit":true},{"distance":1590,"station_id":"CKI","time":4,"line":2,"i_lat":-6.198556,"is_transit":false,"transit":false,"i_long":106.840169,"station_name":"Cikini"},{"i_long":106.832183,"station_name":"Gondangdia","i_lat":-6.186295,"station_id":"GDD","line":2,"is_transit":false,"time":3,"distance":1750,"transit":false},{"i_long":106.828284,"time":4,"i_lat":-6.166716,"station_id":"JUA","transit":false,"station_name":"Juanda","line":2,"is_transit":false,"distance":2015},{"station_id":"SW","time":2,"i_long":106.827103,"station_name":"Sawah Besar","line":2,"transit":false,"distance":1149,"i_lat":-6.160725,"is_transit":false},{"transit":false,"station_id":"MGB","i_long":106.82482,"station_name":"Manggabesar","time":2,"is_transit":false,"distance":906,"line":2,"i_lat":-6.149769},{"station_name":"Jayakarta","line":2,"distance":1080,"transit":false,"station_id":"JAY","is_transit":false,"time":2,"i_long":106.820901,"i_lat":-6.141205},{"is_transit":true,"station_name":"Jakarta Kota","station_id":"JAKK","i_long":106.812439,"time":4,"distance":1264,"line":2,"transit":true,"i_lat":-6.137569},{"time":3,"station_id":"KPB","station_name":"Kampung Bandan","is_transit":true,"i_lat":-6.132549,"line":4,"distance":1364,"i_long":106.826365,"transit":true},{"station_id":"AK","transit":false,"i_lat":-6.144674,"is_transit":false,"distance":4102,"time":9,"station_name":"Angke","i_long":106.79867,"line":1},{"time":4,"distance":1230,"line":1,"transit":true,"station_id":"DU","is_transit":true,"i_long":106.800832,"i_lat":-6.155215,"station_name":"Duri"},{"station_name":"Grogol","i_lat":-6.162021,"is_transit":false,"distance":1700,"station_id":"GGL","line":5,"time":3,"i_long":106.788277,"transit":false},{"line":5,"is_transit":false,"transit":false,"time":2,"i_long":106.771379,"distance":2036,"i_lat":-6.161433,"station_name":"Pesing","station_id":"PSG"},{"line":5,"is_transit":false,"time":2,"station_id":"TKO","transit":false,"i_long":106.756522,"distance":1614,"station_name":"Taman Kota","i_lat":-6.1587309999999995}],[{"time":0,"i_lat":-6.329547,"i_long":106.617853,"is_transit":false,"line":3,"station_id":"CC","station_name":"Cicayur","transit":false,"distance":0},{"line":3,"distance":2519,"is_transit":false,"time":4,"i_lat":-6.32484,"transit":false,"station_name":"Cisauk","i_long":106.640411,"station_id":"CSK"},{"transit":false,"station_id":"SRP","time":4,"is_transit":false,"i_lat":-6.319871,"i_long":106.66566,"station_name":"Serpong","distance":1784,"line":6},{"i_long":106.675475,"line":6,"distance":2413,"transit":false,"i_lat":-6.314823,"station_id":"RU","time":4,"is_transit":false,"station_name":"Rawa Buntu"},{"time":6,"station_name":"Sudimara","station_id":"SDM","is_transit":false,"distance":4566,"i_lat":-6.296963,"transit":false,"line":6,"i_long":106.712277},{"i_lat":-6.288927,"distance":1994,"line":6,"station_id":"JMU","station_name":"Jurangmangu","time":4,"transit":false,"is_transit":false,"i_long":106.728916},{"time":3,"distance":2179,"i_long":106.74273,"is_transit":false,"station_name":"Pondokranji","i_lat":-6.276362,"line":6,"station_id":"PDJ","transit":false},{"is_transit":false,"station_id":"KBY","distance":6218,"i_lat":-6.237242,"line":6,"station_name":"Kebayoran","transit":false,"time":8,"i_long":106.780334},{"station_id":"PLM","distance":3737,"i_lat":-6.207404,"is_transit":false,"time":7,"i_long":106.79689,"transit":false,"station_name":"Palmerah","line":6},{"i_lat":-6.185545,"station_id":"THB","distance":3191,"station_name":"Tanah Abang","i_long":106.811091,"is_transit":true,"transit":true,"time":6,"line":1},{"is_transit":false,"station_id":"KAT","line":1,"distance":2029,"i_long":106.816351,"station_name":"Karet","transit":false,"i_lat":-6.20132,"time":5},{"station_id":"SUDB","i_long":106.819881,"time":1,"line":1,"station_name":"Sudirman Baru","is_transit":false,"transit":false,"i_lat":-6.201433,"distance":471},{"is_transit":false,"transit":false,"i_long":106.822649,"i_lat":-6.202263,"line":1,"time":1,"station_name":"Sudirman","station_id":"SUD","distance":280},{"distance":3186,"i_long":106.84912,"line":2,"is_transit":false,"station_id":"MRI","station_name":"Manggarai","time":4,"transit":false,"i_lat":-6.209883},{"time":2,"i_long":106.858896,"i_lat":-6.212485,"station_name":"Matraman","distance":1275,"transit":false,"is_transit":false,"station_id":"MTR","line":1},{"time":8,"is_transit":true,"station_id":"JNG","distance":1377,"i_lat":-6.215091,"i_long":106.86807400000001,"line":1,"station_name":"Jatinegara","transit":true},{"time":2,"line":11,"transit":false,"station_name":"Pondok Jati","station_id":"POK","is_transit":false,"distance":1236,"i_long":106.861737,"i_lat":-6.209188},{"line":11,"i_lat":-6.193792,"is_transit":false,"transit":false,"time":2,"station_name":"Kramat","distance":1829,"station_id":"KMT","i_long":106.855437},{"is_transit":false,"station_name":"Gang Sentiong","line":11,"transit":false,"station_id":"GST","i_lat":-6.185975,"distance":973,"i_long":106.850107,"time":1},{"station_id":"PSE","is_transit":false,"time":8,"line":11,"distance":1567,"transit":false,"station_name":"Pasar Senen","i_lat":-6.174784,"i_long":106.84368},{"time":4,"station_name":"Kemayoran","distance":1436,"station_id":"KMO","is_transit":false,"transit":false,"i_long":106.839204,"i_lat":-6.161728,"line":11},{"distance":1901,"line":11,"transit":false,"station_id":"RJW","time":5,"is_transit":false,"i_lat":-6.14505,"i_long":106.836569,"station_name":"Rajawali"},{"i_lat":-6.132549,"station_id":"KPB","station_name":"Kampung Bandan","line":4,"distance":1444,"is_transit":true,"transit":true,"i_long":106.826365,"time":3},{"station_id":"AK","is_transit":false,"transit":false,"i_lat":-6.144674,"i_long":106.79867,"line":1,"time":9,"station_name":"Angke","distance":4102},{"station_id":"DU","time":4,"i_lat":-6.155215,"i_long":106.800832,"transit":true,"is_transit":true,"station_name":"Duri","distance":1230,"line":1},{"station_name":"Grogol","station_id":"GGL","is_transit":false,"distance":1700,"line":5,"transit":false,"i_long":106.788277,"time":3,"i_lat":-6.162021},{"i_lat":-6.161433,"time":2,"station_name":"Pesing","distance":2036,"line":5,"is_transit":false,"transit":false,"i_long":106.771379,"station_id":"PSG"},{"i_long":106.756522,"distance":1614,"line":5,"station_id":"TKO","is_transit":false,"transit":false,"time":2,"i_lat":-6.1587309999999995,"station_name":"Taman Kota"}]]}