{"data":[[{"i_lat":-6.329547,"is_transit":false,"i_long":106.617853,"line":3,"station_id":"CC","time":0,"transit":false,"distance":0,"station_name":"Cicayur"},{"station_name":"Cisauk","is_transit":false,"line":3,"time":4,"i_long":106.640411,"transit":false,"station_id":"CSK","i_lat":-6.32484,"distance":2519},{"i_long":106.66566,"distance":1784,"station_id":"SRP","line":6,"transit":false,"is_transit":false,"i_lat":-6.319871,"time":4,"station_name":"Serpong"},{"transit":false,"line":6,"i_lat":-6.314823,"time":4,"distance":2413,"station_id":"RU","is_transit":false,"i_long":106.675475,"station_name":"Rawa Buntu"},{"station_id":"SDM","time":6,"line":6,"i_lat":-6.296963,"i_long":106.712277,"station_name":"Sudimara","is_transit":false,"distance":4566,"transit":false},{"station_name":"Jurangmangu","station_id":"JMU","distance":1994,"i_long":106.728916,"transit":false,"i_lat":-6.288927,"is_transit":false,"line":6,"time":4},{"transit":false,"station_name":"Pondokranji","i_lat":-6.276362,"is_transit":false,"line":6,"time":3,"i_long":106.74273,"station_id":"PDJ","distance":2179},{"station_id":"KBY","is_transit":false,"line":6,"distance":6218,"time":8,"i_long":106.780334,"transit":false,"station_name":"Kebayoran","i_lat":-6.237242},{"i_long":106.79689,"transit":false,"station_id":"PLM","i_lat":-6.207404,"time":7,"station_name":"Palmerah","distance":3737,"is_transit":false,"line":6},{"station_name":"Tanah Abang","i_lat":-6.185545,"distance":3191,"time":6,"station_id":"THB","i_long":106.811091,"is_transit":true,"line":1,"transit":true},{"time":5,"station_id":"KAT","i_long":106.816351,"station_name":"Karet","line":1,"i_lat":-6.20132,"distance":2029,"transit":false,"is_transit":false},{"i_long":106.819881,"line":1,"distance":471,"station_id":"SUDB","is_transit":false,"transit":false,"station_name":"Sudirman Baru","time":1,"i_lat":-6.201433},{"station_name":"Sudirman","station_id":"SUD","is_transit":false,"distance":280,"i_lat":-6.202263,"i_long":106.822649,"time":1,"transit":false,"line":1},{"station_id":"MRI","i_long":106.84912,"station_name":"Manggarai","time":4,"is_transit":false,"i_lat":-6.209883,"distance":3186,"transit":false,"line":2},{"station_id":"MTR","i_long":106.858896,"time":2,"transit":false,"line":1,"is_transit":false,"distance":1275,"i_lat":-6.212485,"station_name":"Matraman"},{"transit":false,"line":1,"i_lat":-6.215091,"station_id":"JNG","station_name":"Jatinegara","i_long":106.86807400000001,"is_transit":false,"distance":1377,"time":8},{"time":3,"transit":false,"is_transit":false,"line":1,"distance":3395,"i_long":106.899548,"i_lat":-6.2135,"station_id":"KLD","station_name":"Klender"},{"transit":false,"station_name":"Buaran","time":2,"station_id":"BUA","i_long":106.922662,"is_transit":false,"i_lat":-6.215568,"line":1,"distance":3100},{"station_name":"Klenderbaru","is_transit":false,"time":1,"station_id":"KLDB","distance":1305,"i_lat":-6.217455,"i_long":106.939679,"line":1,"transit":false},{"station_id":"CUK","i_long":106.951283,"line":1,"i_lat":-6.219053,"station_name":"Cakung","transit":false,"is_transit":false,"distance":1385,"time":8},{"station_id":"KRI","time":3,"transit":false,"i_lat":-6.224515,"is_transit":false,"line":1,"distance":3097,"i_long":106.977657,"station_name":"Kranji"},{"station_id":"BKS","i_lat":-6.236616,"i_long":106.997013,"station_name":"Bekasi","time":4,"transit":false,"line":1,"distance":2520,"is_transit":false},{"distance":2368,"transit":false,"station_name":"Bekasi Timur","time":2,"i_long":107.016735,"line":1,"station_id":"BKST","is_transit":false,"i_lat":-6.248029},{"station_name":"Tambun","time":7,"station_id":"TB","i_long":107.055722,"line":1,"is_transit":false,"i_lat":-6.258864,"transit":false,"distance":4460}],[{"i_lat":-6.329547,"i_long":106.617853,"time":0,"transit":false,"station_name":"Cicayur","distance":0,"is_transit":false,"line":3,"station_id":"CC"},{"distance":2519,"station_id":"CSK","i_long":106.640411,"transit":false,"station_name":"Cisauk","i_lat":-6.32484,"is_transit":false,"time":4,"line":3},{"i_long":106.66566,"is_transit":false,"time":4,"transit":false,"station_id":"SRP","line":6,"distance":1784,"station_name":"Serpong","i_lat":-6.319871},{"line":6,"transit":false,"i_long":106.675475,"time":4,"station_name":"Rawa Buntu","distance":2413,"is_transit":false,"station_id":"RU","i_lat":-6.314823},{"time":6,"distance":4566,"station_name":"Sudimara","i_lat":-6.296963,"i_long":106.712277,"line":6,"station_id":"SDM","transit":false,"is_transit":false},{"i_long":106.728916,"distance":1994,"i_lat":-6.288927,"is_transit":false,"line":6,"station_id":"JMU","station_name":"Jurangmangu","transit":false,"time":4},{"is_transit":false,"time":3,"transit":false,"station_name":"Pondokranji","i_lat":-6.276362,"station_id":"PDJ","line":6,"distance":2179,"i_long":106.74273},{"station_id":"KBY","i_lat":-6.237242,"time":8,"station_name":"Kebayoran","i_long":106.780334,"transit":false,"distance":6218,"line":6,"is_transit":false},{"time":7,"station_name":"Palmerah","i_long":106.79689,"is_transit":false,"transit":false,"station_id":"PLM","distance":3737,"i_lat":-6.207404,"line":6},{"i_long":106.811091,"line":1,"i_lat":-6.185545,"time":6,"transit":true,"station_name":"Tanah Abang","station_id":"THB","distance":3191,"is_transit":true},{"is_transit":false,"time":8,"distance":3632,"line":1,"station_id":"DU","transit":false,"station_name":"Duri","i_lat":-6.155215,"i_long":106.800832},{"i_long":106.79867,"line":1,"transit":false,"station_name":"Angke","is_transit":false,"distance":1230,"time":4,"i_lat":-6.144674,"station_id":"AK"},{"is_transit":true,"time":9,"station_id":"KPB","i_lat":-6.132549,"station_name":"Kampung Bandan","i_long":106.826365,"line":4,"distance":4102,"transit":true},{"station_id":"RJW","i_lat":-6.14505,"is_transit":false,"time":3,"distance":1444,"station_name":"Rajawali","i_long":106.836569,"transit":false,"line":11},{"station_id":"KMO","time":5,"transit":false,"distance":1901,"station_name":"Kemayoran","i_long":106.839204,"line":11,"i_lat":-6.161728,"is_transit":false},{"transit":false,"station_id":"PSE","is_transit":false,"time":4,"distance":1436,"i_lat":-6.174784,"i_long":106.84368,"station_name":"Pasar Senen","line":11},{"time":8,"distance":1567,"i_long":106.850107,"station_id":"GST","line":11,"station_name":"Gang Sentiong","is_transit":false,"i_lat":-6.185975,"transit":false},{"transit":false,"time":1,"line":11,"station_id":"KMT","is_transit":false,"station_name":"Kramat","distance":973,"i_lat":-6.193792,"i_long":106.855437},{"station_name":"Pondok Jati","station_id":"POK","distance":1829,"transit":false,"i_long":106.861737,"time":2,"is_transit":false,"i_lat":-6.209188,"line":11},{"distance":1236,"transit":true,"station_id":"JNG","time":9,"is_transit":true,"i_lat":-6.215091,"i_long":106.86807400000001,"line":1,"station_name":"Jatinegara"},{"station_name":"Klender","i_long":106.899548,"transit":false,"is_transit":false,"station_id":"KLD","distance":3395,"i_lat":-6.2135,"time":3,"line":1},{"line":1,"station_id":"BUA","time":2,"is_transit":false,"station_name":"Buaran","i_long":106.922662,"i_lat":-6.215568,"transit":false,"distance":3100},{"distance":1305,"station_id":"KLDB","line":1,"station_name":"Klenderbaru","i_lat":-6.217455,"transit":false,"time":1,"i_long":106.939679,"is_transit":false},{"i_lat":-6.219053,"i_long":106.951283,"transit":false,"station_name":"Cakung","time":8,"distance":1385,"is_transit":false,"station_id":"CUK","line":1},{"time":3,"line":1,"i_lat":-6.224515,"station_name":"Kranji","station_id":"KRI","i_long":106.977657,"distance":3097,"transit":false,"is_transit":false},{"is_transit":false,"station_id":"BKS","i_lat":-6.236616,"transit":false,"i_long":106.997013,"station_name":"Bekasi","line":1,"distance":2520,"time":4},{"line":1,"i_long":107.016735,"is_transit":false,"station_id":"BKST","i_lat":-6.248029,"station_name":"Bekasi Timur","time":2,"distance":2368,"transit":false},{"station_id":"TB","i_lat":-6.258864,"station_name":"Tambun","i_long":107.055722,"distance":4460,"is_transit":false,"line":1,"transit":false,"time":7}],[{"i_lat":-6.329547,"i_long":106.617853,"is_transit":false,"line":3,"station_id":"CC","transit":false,"time":0,"distance":0,"station_name":"Cicayur"},{"is_transit":false,"transit":false,"station_name":"Cisauk","time":4,"station_id":"CSK","line":3,"i_lat":-6.32484,"i_long":106.640411,"distance":2519},{"station_id":"SRP","is_transit":false,"i_lat":-6.319871,"station_name":"Serpong","distance":1784,"i_long":106.66566,"time":4,"line":6,"transit":false},{"station_name":"Rawa Buntu","time":4,"line":6,"station_id":"RU","distance":2413,"is_transit":false,"i_lat":-6.314823,"i_long":106.675475,"transit":false},{"station_id":"SDM","station_name":"Sudimara","distance":4566,"i_lat":-6.296963,"transit":false,"is_transit":false,"line":6,"i_long":106.712277,"time":6},{"time":4,"line":6,"distance":1994,"station_id":"JMU","station_name":"Jurangmangu","is_transit":false,"transit":false,"i_lat":-6.288927,"i_long":106.728916},{"i_long":106.74273,"transit":false,"i_lat":-6.276362,"line":6,"is_transit":false,"station_id":"PDJ","station_name":"Pondokranji","distance":2179,"time":3},{"transit":false,"station_id":"KBY","distance":6218,"i_long":106.780334,"is_transit":false,"station_name":"Kebayoran","time":8,"i_lat":-6.237242,"line":6},{"station_id":"PLM","station_name":"Palmerah","distance":3737,"line":6,"transit":false,"is_transit":false,"time":7,"i_lat":-6.207404,"i_long":106.79689},{"distance":3191,"i_lat":-6.185545,"i_long":106.811091,"station_id":"THB","is_transit":true,"transit":true,"station_name":"Tanah Abang","time":6,"line":1},{"i_long":106.800832,"distance":3632,"line":1,"transit":false,"is_transit":false,"i_lat":-6.155215,"station_name":"Duri","time":8,"station_id":"DU"},{"transit":false,"station_name":"Angke","station_id":"AK","is_transit":false,"i_long":106.79867,"distance":1230,"i_lat":-6.144674,"time":4,"line":1},{"station_id":"KPB","line":4,"time":9,"i_lat":-6.132549,"distance":4102,"station_name":"Kampung Bandan","is_transit":true,"transit":true,"i_long":106.826365},{"i_long":106.812439,"station_name":"Jakarta Kota","transit":true,"time":3,"is_transit":true,"distance":1364,"station_id":"JAKK","line":2,"i_lat":-6.137569},{"is_transit":false,"time":4,"i_lat":-6.141205,"station_id":"JAY","station_name":"Jayakarta","transit":false,"distance":1264,"i_long":106.820901,"line":2},{"time":2,"i_long":106.82482,"station_id":"MGB","distance":1080,"line":2,"i_lat":-6.149769,"transit":false,"station_name":"Manggabesar","is_transit":false},{"station_name":"Sawah Besar","is_transit":false,"transit":false,"station_id":"SW","distance":906,"i_lat":-6.160725,"time":2,"i_long":106.827103,"line":2},{"i_long":106.828284,"station_name":"Juanda","line":2,"station_id":"JUA","transit":false,"i_lat":-6.166716,"is_transit":false,"time":2,"distance":1149},{"i_long":106.832183,"time":4,"is_transit":false,"i_lat":-6.186295,"line":2,"distance":2015,"transit":false,"station_id":"GDD","station_name":"Gondangdia"},{"line":2,"station_name":"Cikini","i_lat":-6.198556,"transit":false,"is_transit":false,"station_id":"CKI","time":3,"distance":1750,"i_long":106.840169},{"station_id":"MRI","line":2,"is_transit":true,"transit":true,"time":4,"i_long":106.84912,"distance":1590,"i_lat":-6.209883,"station_name":"Manggarai"},{"station_name":"Matraman","i_lat":-6.212485,"time":2,"is_transit":false,"i_long":106.858896,"distance":1275,"transit":false,"line":1,"station_id":"MTR"},{"station_name":"Jatinegara","transit":false,"distance":1377,"time":8,"i_long":106.86807400000001,"line":1,"i_lat":-6.215091,"station_id":"JNG","is_transit":false},{"transit":false,"time":3,"line":1,"is_transit":false,"station_name":"Klender","i_long":106.899548,"distance":3395,"station_id":"KLD","i_lat":-6.2135},{"transit":false,"i_long":106.922662,"station_id":"BUA","time":2,"station_name":"Buaran","distance":3100,"line":1,"is_transit":false,"i_lat":-6.215568},{"time":1,"distance":1305,"i_lat":-6.217455,"is_transit":false,"transit":false,"station_name":"Klenderbaru","station_id":"KLDB","i_long":106.939679,"line":1},{"line":1,"i_lat":-6.219053,"station_id":"CUK","time":8,"distance":1385,"is_transit":false,"transit":false,"i_long":106.951283,"station_name":"Cakung"},{"i_lat":-6.224515,"station_id":"KRI","is_transit":false,"station_name":"Kranji","time":3,"line":1,"i_long":106.977657,"transit":false,"distance":3097},{"line":1,"i_lat":-6.236616,"i_long":106.997013,"transit":false,"station_id":"BKS","is_transit":false,"distance":2520,"station_name":"Bekasi","time":4},{"station_name":"Bekasi Timur","time":2,"distance":2368,"i_long":107.016735,"transit":false,"station_id":"BKST","i_lat":-6.248029,"is_transit":false,"line":1},{"station_id":"TB","line":1,"i_lat":-6.258864,"i_long":107.055722,"distance":4460,"is_transit":false,"transit":false,"time":7,"station_name":"Tambun"}],[{"station_id":"CC","line":3,"transit":false,"i_lat":-6.329547,"station_name":"Cicayur","is_transit":false,"distance":0,"i_long":106.617853,"time":0},{"i_lat":-6.32484,"line":3,"is_transit":false,"distance":2519,"i_long":106.640411,"station_name":"Cisauk","time":4,"transit":false,"station_id":"CSK"},{"time":4,"station_id":"SRP","is_transit":false,"station_name":"Serpong","i_lat":-6.319871,"i_long":106.66566,"line":6,"transit":false,"distance":1784},{"line":6,"transit":false,"i_lat":-6.314823,"i_long":106.675475,"distance":2413,"station_id":"RU","is_transit":false,"station_name":"Rawa Buntu","time":4},{"station_id":"SDM","transit":false,"is_transit":false,"station_name":"Sudimara","time":6,"distance":4566,"i_long":106.712277,"i_lat":-6.296963,"line":6},{"line":6,"station_id":"JMU","distance":1994,"i_lat":-6.288927,"transit":false,"station_name":"Jurangmangu","time":4,"i_long":106.728916,"is_transit":false},{"station_name":"Pondokranji","i_long":106.74273,"i_lat":-6.276362,"transit":false,"distance":2179,"time":3,"line":6,"is_transit":false,"station_id":"PDJ"},{"i_lat":-6.237242,"transit":false,"time":8,"station_id":"KBY","station_name":"Kebayoran","is_transit":false,"i_long":106.780334,"line":6,"distance":6218},{"distance":3737,"station_id":"PLM","transit":false,"station_name":"Palmerah","i_lat":-6.207404,"is_transit":false,"line":6,"i_long":106.79689,"time":7},{"station_name":"Tanah Abang","distance":3191,"i_long":106.811091,"transit":true,"i_lat":-6.185545,"line":1,"is_transit":true,"station_id":"THB","time":6},{"station_name":"Karet","distance":2029,"i_long":106.816351,"line":1,"is_transit":false,"transit":false,"i_lat":-6.20132,"station_id":"KAT","time":5},{"i_lat":-6.201433,"station_name":"Sudirman Baru","is_transit":false,"transit":false,"line":1,"time":1,"station_id":"SUDB","distance":471,"i_long":106.819881},{"line":1,"station_name":"Sudirman","i_long":106.822649,"distance":280,"transit":false,"i_lat":-6.202263,"time":1,"station_id":"SUD","is_transit":false},{"station_name":"Manggarai","line":2,"transit":true,"i_long":106.84912,"station_id":"MRI","is_transit":true,"time":4,"distance":3186,"i_lat":-6.209883},{"line":2,"station_name":"Cikini","transit":false,"station_id":"CKI","i_long":106.840169,"i_lat":-6.198556,"distance":1590,"time":4,"is_transit":false},{"is_transit":false,"transit":false,"station_id":"GDD","i_lat":-6.186295,"i_long":106.832183,"time":3,"distance":1750,"line":2,"station_name":"Gondangdia"},{"station_id":"JUA","i_lat":-6.166716,"distance":2015,"i_long":106.828284,"station_name":"Juanda","transit":false,"is_transit":false,"time":4,"line":2},{"is_transit":false,"station_id":"SW","time":2,"station_name":"Sawah Besar","distance":1149,"i_lat":-6.160725,"i_long":106.827103,"line":2,"transit":false},{"distance":906,"i_long":106.82482,"is_transit":false,"time":2,"i_lat":-6.149769,"station_id":"MGB","line":2,"station_name":"Manggabesar","transit":false},{"distance":1080,"station_id":"JAY","transit":false,"i_long":106.820901,"line":2,"time":2,"station_name":"Jayakarta","is_transit":false,"i_lat":-6.141205},{"i_lat":-6.137569,"station_name":"Jakarta Kota","is_transit":true,"i_long":106.812439,"transit":true,"distance":1264,"time":4,"station_id":"JAKK","line":2},{"line":4,"is_transit":true,"time":3,"i_long":106.826365,"i_lat":-6.132549,"distance":1364,"station_name":"Kampung Bandan","transit":true,"station_id":"KPB"},{"is_transit":false,"station_id":"RJW","distance":1444,"station_name":"Rajawali","time":3,"i_long":106.836569,"transit":false,"i_lat":-6.14505,"line":11},{"i_lat":-6.161728,"station_id":"KMO","time":5,"is_transit":false,"i_long":106.839204,"station_name":"Kemayoran","distance":1901,"transit":false,"line":11},{"line":11,"distance":1436,"time":4,"transit":false,"station_id":"PSE","station_name":"Pasar Senen","is_transit":false,"i_lat":-6.174784,"i_long":106.84368},{"time":8,"transit":false,"distance":1567,"i_long":106.850107,"i_lat":-6.185975,"is_transit":false,"station_name":"Gang Sentiong","station_id":"GST","line":11},{"station_id":"KMT","time":1,"station_name":"Kramat","is_transit":false,"i_long":106.855437,"i_lat":-6.193792,"transit":false,"distance":973,"line":11},{"station_name":"Pondok Jati","station_id":"POK","time":2,"is_transit":false,"line":11,"transit":false,"distance":1829,"i_lat":-6.209188,"i_long":106.861737},{"is_transit":true,"i_long":106.86807400000001,"station_id":"JNG","transit":true,"time":9,"distance":1236,"i_lat":-6.215091,"station_name":"Jatinegara","line":1},{"station_name":"Klender","station_id":"KLD","distance":3395,"line":1,"time":3,"is_transit":false,"i_lat":-6.2135,"transit":false,"i_long":106.899548},{"i_long":106.922662,"transit":false,"i_lat":-6.215568,"line":1,"distance":3100,"station_id":"BUA","station_name":"Buaran","is_transit":false,"time":2},{"station_name":"Klenderbaru","i_lat":-6.217455,"is_transit":false,"distance":1305,"transit":false,"line":1,"i_long":106.939679,"station_id":"KLDB","time":1},{"i_lat":-6.219053,"i_long":106.951283,"distance":1385,"station_name":"Cakung","station_id":"CUK","is_transit":false,"time":8,"transit":false,"line":1},{"time":3,"line":1,"station_name":"Kranji","is_transit":false,"i_long":106.977657,"station_id":"KRI","distance":3097,"i_lat":-6.224515,"transit":false},{"station_name":"Bekasi","distance":2520,"i_lat":-6.236616,"is_transit":false,"transit":false,"i_long":106.997013,"time":4,"line":1,"station_id":"BKS"},{"line":1,"is_transit":false,"distance":2368,"i_long":107.016735,"transit":false,"station_name":"Bekasi Timur","station_id":"BKST","time":2,"i_lat":-6.248029},{"distance":4460,"is_transit":false,"line":1,"time":7,"transit":false,"station_id":"TB","station_name":"Tambun","i_lat":-6.258864,"i_long":107.055722}]]}