{"data":[[{"time":0,"i_lat":-6.329547,"line":3,"transit":false,"station_name":"Cicayur","is_transit":false,"station_id":"CC","distance":0,"i_long":106.617853},{"distance":2519,"line":3,"i_lat":-6.32484,"station_name":"Cisauk","time":4,"transit":false,"is_transit":false,"station_id":"CSK","i_long":106.640411},{"transit":false,"station_id":"SRP","line":6,"i_long":106.66566,"distance":1784,"time":4,"is_transit":false,"i_lat":-6.319871,"station_name":"Serpong"},{"i_long":106.675475,"is_transit":false,"i_lat":-6.314823,"station_name":"Rawa Buntu","line":6,"transit":false,"station_id":"RU","time":4,"distance":2413},{"line":6,"transit":false,"time":6,"is_transit":false,"i_lat":-6.296963,"station_id":"SDM","station_name":"Sudimara","i_long":106.712277,"distance":4566},{"transit":false,"i_lat":-6.288927,"line":6,"distance":1994,"i_long":106.728916,"station_name":"Jurangmangu","station_id":"JMU","is_transit":false,"time":4},{"station_name":"Pondokranji","distance":2179,"i_lat":-6.276362,"transit":false,"is_transit":false,"time":3,"i_long":106.74273,"line":6,"station_id":"PDJ"},{"line":6,"i_lat":-6.237242,"station_name":"Kebayoran","station_id":"KBY","transit":false,"distance":6218,"time":8,"i_long":106.780334,"is_transit":false},{"station_name":"Palmerah","is_transit":false,"station_id":"PLM","transit":false,"time":7,"i_long":106.79689,"line":6,"distance":3737,"i_lat":-6.207404},{"distance":3191,"is_transit":true,"transit":true,"time":6,"i_long":106.811091,"station_name":"Tanah Abang","i_lat":-6.185545,"line":1,"station_id":"THB"},{"i_lat":-6.155215,"i_long":106.800832,"distance":3632,"transit":true,"is_transit":true,"station_id":"DU","time":8,"station_name":"Duri","line":1},{"time":3,"station_name":"Grogol","transit":false,"station_id":"GGL","is_transit":false,"i_lat":-6.162021,"i_long":106.788277,"line":5,"distance":1700},{"line":5,"time":2,"is_transit":false,"i_lat":-6.161433,"transit":false,"station_id":"PSG","station_name":"Pesing","distance":2036,"i_long":106.771379},{"distance":1614,"station_name":"Taman Kota","is_transit":false,"time":2,"line":5,"station_id":"TKO","i_lat":-6.1587309999999995,"transit":false,"i_long":106.756522},{"station_id":"BOI","distance":2334,"is_transit":false,"time":2,"i_long":106.737035,"i_lat":-6.159876,"station_name":"Bojongindah","transit":false,"line":5},{"is_transit":false,"station_name":"Rawa Buaya","line":5,"transit":false,"i_lat":-6.162758,"distance":1152,"i_long":106.723064,"time":4,"station_id":"RW"},{"i_lat":-6.166068,"distance":2504,"line":5,"i_long":106.701612,"station_name":"Kalideres","transit":false,"time":3,"station_id":"KDS","is_transit":false},{"line":5,"is_transit":false,"distance":2548,"i_long":106.679458,"transit":false,"i_lat":-6.169933,"station_name":"Poris","station_id":"PI","time":3},{"transit":false,"distance":1834,"is_transit":false,"i_long":106.665036,"station_name":"Batuceper","time":3,"station_id":"BPR","line":5,"i_lat":-6.171811},{"is_transit":false,"transit":false,"station_id":"TTI","i_long":106.64657,"station_name":"Tanah Tinggi","distance":2028,"time":3,"line":5,"i_lat":-6.17331}],[{"time":0,"line":3,"is_transit":false,"distance":0,"station_id":"CC","station_name":"Cicayur","i_lat":-6.329547,"i_long":106.617853,"transit":false},{"station_name":"Cisauk","i_long":106.640411,"distance":2519,"station_id":"CSK","i_lat":-6.32484,"transit":false,"time":4,"line":3,"is_transit":false},{"station_id":"SRP","i_lat":-6.319871,"i_long":106.66566,"station_name":"Serpong","is_transit":false,"time":4,"line":6,"distance":1784,"transit":false},{"distance":2413,"transit":false,"time":4,"i_lat":-6.314823,"is_transit":false,"i_long":106.675475,"station_name":"Rawa Buntu","station_id":"RU","line":6},{"station_id":"SDM","line":6,"distance":4566,"i_lat":-6.296963,"i_long":106.712277,"time":6,"is_transit":false,"station_name":"Sudimara","transit":false},{"station_id":"JMU","station_name":"Jurangmangu","transit":false,"i_lat":-6.288927,"i_long":106.728916,"is_transit":false,"distance":1994,"time":4,"line":6},{"distance":2179,"station_name":"Pondokranji","transit":false,"station_id":"PDJ","i_lat":-6.276362,"time":3,"i_long":106.74273,"is_transit":false,"line":6},{"transit":false,"line":6,"station_id":"KBY","i_lat":-6.237242,"time":8,"i_long":106.780334,"distance":6218,"station_name":"Kebayoran","is_transit":false},{"distance":3737,"i_lat":-6.207404,"transit":false,"i_long":106.79689,"station_name":"Palmerah","line":6,"is_transit":false,"time":7,"station_id":"PLM"},{"distance":3191,"station_id":"THB","i_long":106.811091,"i_lat":-6.185545,"transit":true,"station_name":"Tanah Abang","is_transit":true,"time":6,"line":1},{"i_lat":-6.20132,"time":5,"i_long":106.816351,"is_transit":false,"line":1,"station_name":"Karet","transit":false,"distance":2029,"station_id":"KAT"},{"line":1,"transit":false,"station_id":"SUDB","is_transit":false,"i_long":106.819881,"station_name":"Sudirman Baru","i_lat":-6.201433,"distance":471,"time":1},{"is_transit":false,"time":1,"distance":280,"i_lat":-6.202263,"station_name":"Sudirman","i_long":106.822649,"line":1,"transit":false,"station_id":"SUD"},{"station_name":"Manggarai","time":4,"line":2,"transit":true,"i_lat":-6.209883,"station_id":"MRI","is_transit":true,"i_long":106.84912,"distance":3186},{"i_long":106.840169,"i_lat":-6.198556,"line":2,"distance":1590,"transit":false,"time":4,"is_transit":false,"station_name":"Cikini","station_id":"CKI"},{"i_long":106.832183,"station_name":"Gondangdia","time":3,"transit":false,"distance":1750,"station_id":"GDD","is_transit":false,"i_lat":-6.186295,"line":2},{"line":2,"station_id":"JUA","i_lat":-6.166716,"is_transit":false,"i_long":106.828284,"transit":false,"time":4,"station_name":"Juanda","distance":2015},{"is_transit":false,"line":2,"i_lat":-6.160725,"station_id":"SW","i_long":106.827103,"transit":false,"station_name":"Sawah Besar","distance":1149,"time":2},{"is_transit":false,"line":2,"distance":906,"station_name":"Manggabesar","i_lat":-6.149769,"i_long":106.82482,"transit":false,"station_id":"MGB","time":2},{"i_long":106.820901,"transit":false,"time":2,"is_transit":false,"distance":1080,"station_id":"JAY","i_lat":-6.141205,"line":2,"station_name":"Jayakarta"},{"station_id":"JAKK","i_long":106.812439,"distance":1264,"transit":true,"is_transit":true,"line":2,"time":4,"i_lat":-6.137569,"station_name":"Jakarta Kota"},{"time":3,"distance":1364,"transit":true,"station_name":"Kampung Bandan","station_id":"KPB","is_transit":true,"line":4,"i_lat":-6.132549,"i_long":106.826365},{"station_name":"Angke","transit":false,"i_lat":-6.144674,"time":9,"line":1,"distance":4102,"station_id":"AK","i_long":106.79867,"is_transit":false},{"transit":true,"i_lat":-6.155215,"is_transit":true,"distance":1230,"i_long":106.800832,"line":1,"time":4,"station_name":"Duri","station_id":"DU"},{"distance":1700,"i_lat":-6.162021,"transit":false,"line":5,"i_long":106.788277,"station_id":"GGL","is_transit":false,"time":3,"station_name":"Grogol"},{"line":5,"distance":2036,"time":2,"i_long":106.771379,"is_transit":false,"transit":false,"station_name":"Pesing","station_id":"PSG","i_lat":-6.161433},{"is_transit":false,"time":2,"station_id":"TKO","station_name":"Taman Kota","transit":false,"i_lat":-6.1587309999999995,"i_long":106.756522,"distance":1614,"line":5},{"station_name":"Bojongindah","distance":2334,"transit":false,"i_lat":-6.159876,"i_long":106.737035,"station_id":"BOI","time":2,"is_transit":false,"line":5},{"time":4,"station_id":"RW","i_long":106.723064,"distance":1152,"line":5,"station_name":"Rawa Buaya","is_transit":false,"transit":false,"i_lat":-6.162758},{"transit":false,"station_id":"KDS","station_name":"Kalideres","line":5,"distance":2504,"time":3,"is_transit":false,"i_lat":-6.166068,"i_long":106.701612},{"transit":false,"station_id":"PI","i_long":106.679458,"station_name":"Poris","line":5,"distance":2548,"time":3,"i_lat":-6.169933,"is_transit":false},{"station_id":"BPR","is_transit":false,"time":3,"distance":1834,"i_lat":-6.171811,"station_name":"Batuceper","i_long":106.665036,"line":5,"transit":false},{"i_long":106.64657,"station_name":"Tanah Tinggi","distance":2028,"station_id":"TTI","is_transit":false,"i_lat":-6.17331,"line":5,"time":3,"transit":false}],[{"station_name":"Cicayur","is_transit":false,"time":0,"station_id":"CC","line":3,"distance":0,"transit":false,"i_lat":-6.329547,"i_long":106.617853},{"time":4,"station_name":"Cisauk","i_long":106.640411,"is_transit":false,"station_id":"CSK","distance":2519,"i_lat":-6.32484,"line":3,"transit":false},{"station_name":"Serpong","is_transit":false,"distance":1784,"transit":false,"time":4,"i_lat":-6.319871,"i_long":106.66566,"line":6,"station_id":"SRP"},{"time":4,"distance":2413,"line":6,"i_lat":-6.314823,"station_name":"Rawa Buntu","is_transit":false,"station_id":"RU","transit":false,"i_long":106.675475},{"distance":4566,"line":6,"i_long":106.712277,"i_lat":-6.296963,"transit":false,"is_transit":false,"time":6,"station_name":"Sudimara","station_id":"SDM"},{"line":6,"transit":false,"station_name":"Jurangmangu","i_long":106.728916,"i_lat":-6.288927,"distance":1994,"is_transit":false,"time":4,"station_id":"JMU"},{"is_transit":false,"i_long":106.74273,"transit":false,"distance":2179,"station_name":"Pondokranji","station_id":"PDJ","i_lat":-6.276362,"line":6,"time":3},{"distance":6218,"transit":false,"station_name":"Kebayoran","i_lat":-6.237242,"is_transit":false,"time":8,"i_long":106.780334,"station_id":"KBY","line":6},{"distance":3737,"is_transit":false,"transit":false,"i_long":106.79689,"line":6,"i_lat":-6.207404,"station_id":"PLM","time":7,"station_name":"Palmerah"},{"transit":true,"distance":3191,"time":6,"is_transit":true,"line":1,"station_id":"THB","i_lat":-6.185545,"station_name":"Tanah Abang","i_long":106.811091},{"station_id":"KAT","is_transit":false,"i_long":106.816351,"distance":2029,"i_lat":-6.20132,"transit":false,"line":1,"station_name":"Karet","time":5},{"station_name":"Sudirman Baru","i_lat":-6.201433,"transit":false,"is_transit":false,"i_long":106.819881,"line":1,"time":1,"distance":471,"station_id":"SUDB"},{"line":1,"i_lat":-6.202263,"is_transit":false,"transit":false,"distance":280,"station_id":"SUD","station_name":"Sudirman","i_long":106.822649,"time":1},{"distance":3186,"station_name":"Manggarai","i_lat":-6.209883,"i_long":106.84912,"transit":false,"time":4,"is_transit":false,"station_id":"MRI","line":2},{"i_long":106.858896,"time":2,"distance":1275,"station_name":"Matraman","is_transit":false,"transit":false,"station_id":"MTR","line":1,"i_lat":-6.212485},{"transit":true,"station_name":"Jatinegara","line":1,"station_id":"JNG","i_long":106.86807400000001,"is_transit":true,"i_lat":-6.215091,"distance":1377,"time":8},{"transit":false,"station_id":"POK","i_lat":-6.209188,"is_transit":false,"time":2,"station_name":"Pondok Jati","i_long":106.861737,"line":11,"distance":1236},{"station_id":"KMT","transit":false,"time":2,"station_name":"Kramat","i_lat":-6.193792,"i_long":106.855437,"is_transit":false,"distance":1829,"line":11},{"station_name":"Gang Sentiong","transit":false,"time":1,"is_transit":false,"distance":973,"station_id":"GST","i_lat":-6.185975,"i_long":106.850107,"line":11},{"station_id":"PSE","distance":1567,"time":8,"transit":false,"line":11,"station_name":"Pasar Senen","i_long":106.84368,"i_lat":-6.174784,"is_transit":false},{"i_lat":-6.161728,"station_id":"KMO","is_transit":false,"transit":false,"i_long":106.839204,"line":11,"distance":1436,"station_name":"Kemayoran","time":4},{"distance":1901,"station_name":"Rajawali","i_long":106.836569,"station_id":"RJW","is_transit":false,"i_lat":-6.14505,"transit":false,"line":11,"time":5},{"line":4,"time":3,"is_transit":true,"transit":true,"distance":1444,"station_id":"KPB","station_name":"Kampung Bandan","i_lat":-6.132549,"i_long":106.826365},{"i_long":106.79867,"is_transit":false,"transit":false,"line":1,"station_id":"AK","i_lat":-6.144674,"time":9,"station_name":"Angke","distance":4102},{"station_id":"DU","is_transit":true,"line":1,"distance":1230,"i_long":106.800832,"transit":true,"time":4,"i_lat":-6.155215,"station_name":"Duri"},{"station_id":"GGL","station_name":"Grogol","time":3,"i_lat":-6.162021,"i_long":106.788277,"line":5,"is_transit":false,"distance":1700,"transit":false},{"is_transit":false,"station_name":"Pesing","transit":false,"station_id":"PSG","i_lat":-6.161433,"time":2,"line":5,"i_long":106.771379,"distance":2036},{"is_transit":false,"distance":1614,"i_long":106.756522,"transit":false,"time":2,"line":5,"station_id":"TKO","i_lat":-6.1587309999999995,"station_name":"Taman Kota"},{"is_transit":false,"transit":false,"i_long":106.737035,"line":5,"i_lat":-6.159876,"time":2,"distance":2334,"station_id":"BOI","station_name":"Bojongindah"},{"i_long":106.723064,"distance":1152,"time":4,"station_id":"RW","is_transit":false,"line":5,"transit":false,"i_lat":-6.162758,"station_name":"Rawa Buaya"},{"station_id":"KDS","i_long":106.701612,"line":5,"i_lat":-6.166068,"station_name":"Kalideres","transit":false,"is_transit":false,"distance":2504,"time":3},{"time":3,"is_transit":false,"i_long":106.679458,"station_name":"Poris","distance":2548,"station_id":"PI","line":5,"i_lat":-6.169933,"transit":false},{"station_id":"BPR","station_name":"Batuceper","time":3,"transit":false,"line":5,"is_transit":false,"distance":1834,"i_long":106.665036,"i_lat":-6.171811},{"transit":false,"station_id":"TTI","is_transit":false,"time":3,"i_lat":-6.17331,"i_long":106.64657,"line":5,"distance":2028,"station_name":"Tanah Tinggi"}]]}