{"data":[[{"line":3,"time":0,"station_name":"Cicayur","i_lat":-6.329547,"transit":false,"i_long":106.617853,"distance":0,"is_transit":false,"station_id":"CC"},{"distance":2519,"is_transit":false,"line":3,"station_id":"CSK","transit":false,"i_long":106.640411,"station_name":"Cisauk","time":4,"i_lat":-6.32484},{"line":6,"i_long":106.66566,"is_transit":false,"i_lat":-6.319871,"distance":1784,"time":4,"station_id":"SRP","station_name":"Serpong","transit":false},{"distance":2413,"station_name":"Rawa Buntu","line":6,"station_id":"RU","is_transit":false,"transit":false,"i_lat":-6.314823,"time":4,"i_long":106.675475},{"is_transit":false,"transit":false,"distance":4566,"i_long":106.712277,"i_lat":-6.296963,"line":6,"station_name":"Sudimara","time":6,"station_id":"SDM"},{"line":6,"distance":1994,"station_id":"JMU","time":4,"station_name":"Jurangmangu","i_lat":-6.288927,"transit":false,"is_transit":false,"i_long":106.728916},{"line":6,"station_id":"PDJ","station_name":"Pondokranji","transit":false,"distance":2179,"is_transit":false,"time":3,"i_lat":-6.276362,"i_long":106.74273},{"i_long":106.780334,"is_transit":false,"distance":6218,"station_id":"KBY","i_lat":-6.237242,"time":8,"station_name":"Kebayoran","transit":false,"line":6},{"distance":3737,"transit":false,"line":6,"i_long":106.79689,"station_name":"Palmerah","time":7,"station_id":"PLM","is_transit":false,"i_lat":-6.207404},{"distance":3191,"is_transit":true,"station_id":"THB","time":6,"transit":true,"i_lat":-6.185545,"line":1,"i_long":106.811091,"station_name":"Tanah Abang"},{"transit":true,"i_long":106.800832,"line":1,"station_id":"DU","distance":3632,"station_name":"Duri","is_transit":true,"i_lat":-6.155215,"time":8},{"i_long":106.788277,"time":3,"station_name":"Grogol","i_lat":-6.162021,"distance":1700,"is_transit":false,"line":5,"station_id":"GRG","transit":false},{"i_long":106.771379,"line":5,"station_id":"PSG","station_name":"Pesing","time":2,"transit":false,"distance":2036,"is_transit":false,"i_lat":-6.161433},{"distance":1614,"line":5,"time":2,"i_lat":-6.1587309999999995,"station_name":"Taman Kota","is_transit":false,"transit":false,"i_long":106.756522,"station_id":"TKO"}],[{"distance":0,"station_id":"CC","station_name":"Cicayur","transit":false,"i_lat":-6.329547,"time":0,"is_transit":false,"i_long":106.617853,"line":3},{"station_name":"Cisauk","is_transit":false,"transit":false,"station_id":"CSK","time":4,"distance":2519,"i_long":106.640411,"line":3,"i_lat":-6.32484},{"transit":false,"i_long":106.66566,"station_id":"SRP","time":4,"i_lat":-6.319871,"is_transit":false,"distance":1784,"line":6,"station_name":"Serpong"},{"time":4,"is_transit":false,"transit":false,"station_id":"RU","i_long":106.675475,"i_lat":-6.314823,"line":6,"distance":2413,"station_name":"Rawa Buntu"},{"station_id":"SDM","is_transit":false,"i_long":106.712277,"time":6,"transit":false,"distance":4566,"station_name":"Sudimara","i_lat":-6.296963,"line":6},{"distance":1994,"station_id":"JMU","is_transit":false,"time":4,"transit":false,"station_name":"Jurangmangu","i_lat":-6.288927,"i_long":106.728916,"line":6},{"station_id":"PDJ","transit":false,"i_long":106.74273,"station_name":"Pondokranji","is_transit":false,"i_lat":-6.276362,"distance":2179,"time":3,"line":6},{"is_transit":false,"station_id":"KBY","station_name":"Kebayoran","distance":6218,"i_long":106.780334,"time":8,"transit":false,"line":6,"i_lat":-6.237242},{"distance":3737,"is_transit":false,"station_id":"PLM","station_name":"Palmerah","transit":false,"time":7,"line":6,"i_lat":-6.207404,"i_long":106.79689},{"station_id":"THB","transit":true,"is_transit":true,"time":6,"station_name":"Tanah Abang","line":1,"i_lat":-6.185545,"distance":3191,"i_long":106.811091},{"is_transit":false,"station_name":"Karet","i_long":106.816351,"line":1,"time":5,"distance":2029,"station_id":"KAT","transit":false,"i_lat":-6.20132},{"distance":471,"station_id":"SUDB","transit":false,"station_name":"Sudirman Baru","i_lat":-6.201433,"i_long":106.819881,"time":1,"line":1,"is_transit":false},{"distance":280,"line":1,"station_id":"SUD","i_long":106.822649,"i_lat":-6.202263,"station_name":"Sudirman","time":1,"is_transit":false,"transit":false},{"time":4,"is_transit":true,"station_name":"Manggarai","line":2,"distance":3186,"transit":true,"i_lat":-6.209883,"station_id":"MRI","i_long":106.84912},{"time":4,"line":2,"station_name":"Cikini","station_id":"CKI","i_lat":-6.198556,"is_transit":false,"distance":1590,"i_long":106.840169,"transit":false},{"time":3,"station_name":"Gondangdia","distance":1750,"i_lat":-6.186295,"line":2,"station_id":"GDD","is_transit":false,"transit":false,"i_long":106.832183},{"distance":2015,"i_lat":-6.166716,"line":2,"time":4,"is_transit":false,"station_name":"Juanda","i_long":106.828284,"station_id":"JUA","transit":false},{"i_long":106.827103,"line":2,"station_id":"SW","i_lat":-6.160725,"station_name":"Sawah Besar","transit":false,"is_transit":false,"distance":1149,"time":2},{"station_name":"Manggabesar","i_long":106.82482,"transit":false,"station_id":"MGB","is_transit":false,"distance":906,"time":2,"i_lat":-6.149769,"line":2},{"station_name":"Jayakarta","time":2,"line":2,"transit":false,"station_id":"JAY","distance":1080,"i_lat":-6.141205,"i_long":106.820901,"is_transit":false},{"i_lat":-6.137569,"i_long":106.812439,"transit":true,"station_id":"JAKK","distance":1264,"time":4,"line":2,"station_name":"Jakarta Kota","is_transit":true},{"distance":1364,"station_name":"Kampung Bandan","line":4,"station_id":"KPB","i_lat":-6.132549,"time":3,"i_long":106.826365,"transit":true,"is_transit":true},{"distance":4102,"transit":false,"i_long":106.79867,"station_name":"Angke","i_lat":-6.144674,"station_id":"AK","time":9,"is_transit":false,"line":1},{"line":1,"time":4,"station_name":"Duri","is_transit":true,"distance":1230,"i_lat":-6.155215,"station_id":"DU","transit":true,"i_long":106.800832},{"station_id":"GRG","time":3,"i_lat":-6.162021,"line":5,"station_name":"Grogol","is_transit":false,"transit":false,"i_long":106.788277,"distance":1700},{"is_transit":false,"line":5,"distance":2036,"station_id":"PSG","time":2,"i_lat":-6.161433,"transit":false,"station_name":"Pesing","i_long":106.771379},{"station_id":"TKO","station_name":"Taman Kota","i_long":106.756522,"i_lat":-6.1587309999999995,"transit":false,"distance":1614,"time":2,"line":5,"is_transit":false}],[{"i_lat":-6.329547,"line":3,"is_transit":false,"distance":0,"transit":false,"station_name":"Cicayur","station_id":"CC","time":0,"i_long":106.617853},{"distance":2519,"i_lat":-6.32484,"i_long":106.640411,"station_name":"Cisauk","is_transit":false,"transit":false,"line":3,"station_id":"CSK","time":4},{"station_name":"Serpong","transit":false,"time":4,"is_transit":false,"line":6,"i_lat":-6.319871,"i_long":106.66566,"distance":1784,"station_id":"SRP"},{"line":6,"is_transit":false,"time":4,"transit":false,"station_id":"RU","station_name":"Rawa Buntu","distance":2413,"i_lat":-6.314823,"i_long":106.675475},{"distance":4566,"station_id":"SDM","station_name":"Sudimara","i_lat":-6.296963,"transit":false,"is_transit":false,"i_long":106.712277,"line":6,"time":6},{"station_id":"JMU","is_transit":false,"i_lat":-6.288927,"i_long":106.728916,"line":6,"transit":false,"distance":1994,"time":4,"station_name":"Jurangmangu"},{"i_long":106.74273,"line":6,"time":3,"station_name":"Pondokranji","station_id":"PDJ","i_lat":-6.276362,"transit":false,"is_transit":false,"distance":2179},{"i_long":106.780334,"transit":false,"i_lat":-6.237242,"station_id":"KBY","is_transit":false,"station_name":"Kebayoran","time":8,"line":6,"distance":6218},{"station_id":"PLM","i_long":106.79689,"station_name":"Palmerah","is_transit":false,"time":7,"transit":false,"i_lat":-6.207404,"distance":3737,"line":6},{"station_id":"THB","time":6,"i_lat":-6.185545,"i_long":106.811091,"station_name":"Tanah Abang","distance":3191,"line":1,"is_transit":true,"transit":true},{"distance":2029,"i_lat":-6.20132,"line":1,"station_name":"Karet","station_id":"KAT","i_long":106.816351,"transit":false,"is_transit":false,"time":5},{"station_id":"SUDB","distance":471,"is_transit":false,"station_name":"Sudirman Baru","i_lat":-6.201433,"transit":false,"i_long":106.819881,"line":1,"time":1},{"i_lat":-6.202263,"distance":280,"time":1,"station_name":"Sudirman","i_long":106.822649,"station_id":"SUD","transit":false,"is_transit":false,"line":1},{"station_name":"Manggarai","i_lat":-6.209883,"time":4,"transit":false,"distance":3186,"is_transit":false,"line":2,"i_long":106.84912,"station_id":"MRI"},{"time":2,"station_name":"Matraman","i_lat":-6.212485,"i_long":106.858896,"station_id":"MTR","distance":1275,"is_transit":false,"transit":false,"line":1},{"time":8,"line":1,"transit":true,"is_transit":true,"distance":1377,"station_id":"JNG","i_lat":-6.215091,"i_long":106.86807400000001,"station_name":"Jatinegara"},{"station_id":"POK","time":2,"i_lat":-6.209188,"transit":false,"i_long":106.861737,"station_name":"Pondok Jati","distance":1236,"is_transit":false,"line":11},{"i_lat":-6.193792,"is_transit":false,"station_id":"KMT","distance":1829,"time":2,"station_name":"Kramat","transit":false,"i_long":106.855437,"line":11},{"time":1,"i_lat":-6.185975,"is_transit":false,"line":11,"i_long":106.850107,"station_name":"Gang Sentiong","station_id":"GST","distance":973,"transit":false},{"time":8,"transit":false,"i_long":106.84368,"station_name":"Pasar Senen","station_id":"PSE","line":11,"i_lat":-6.174784,"distance":1567,"is_transit":false},{"transit":false,"line":11,"is_transit":false,"station_id":"KMO","time":4,"station_name":"Kemayoran","i_lat":-6.161728,"i_long":106.839204,"distance":1436},{"station_name":"Rajawali","distance":1901,"time":5,"transit":false,"i_lat":-6.14505,"is_transit":false,"station_id":"RJW","i_long":106.836569,"line":11},{"line":4,"i_long":106.826365,"distance":1444,"station_id":"KPB","station_name":"Kampung Bandan","transit":true,"is_transit":true,"time":3,"i_lat":-6.132549},{"is_transit":false,"line":1,"station_id":"AK","i_lat":-6.144674,"station_name":"Angke","transit":false,"i_long":106.79867,"distance":4102,"time":9},{"station_name":"Duri","distance":1230,"i_lat":-6.155215,"time":4,"is_transit":true,"line":1,"i_long":106.800832,"transit":true,"station_id":"DU"},{"time":3,"i_lat":-6.162021,"station_id":"GRG","line":5,"i_long":106.788277,"distance":1700,"transit":false,"is_transit":false,"station_name":"Grogol"},{"i_lat":-6.161433,"station_name":"Pesing","line":5,"transit":false,"is_transit":false,"station_id":"PSG","i_long":106.771379,"distance":2036,"time":2},{"station_name":"Taman Kota","station_id":"TKO","time":2,"transit":false,"is_transit":false,"i_lat":-6.1587309999999995,"line":5,"i_long":106.756522,"distance":1614}]]}