{"data":[[{"time":0,"transit":false,"i_lat":-6.329547,"i_long":106.617853,"distance":0,"is_transit":false,"station_name":"Cicayur","line":3,"station_id":"CC"},{"station_id":"CSK","i_long":106.640411,"line":3,"distance":2519,"station_name":"Cisauk","time":4,"is_transit":false,"i_lat":-6.32484,"transit":false},{"i_long":106.66566,"station_id":"SRP","time":4,"station_name":"Serpong","line":6,"distance":1784,"transit":false,"i_lat":-6.319871,"is_transit":false},{"station_name":"Rawa Buntu","transit":false,"distance":2413,"time":4,"i_long":106.675475,"line":6,"i_lat":-6.314823,"is_transit":false,"station_id":"RU"},{"station_id":"SDM","transit":false,"line":6,"station_name":"Sudimara","is_transit":false,"time":6,"distance":4566,"i_long":106.712277,"i_lat":-6.296963},{"line":6,"time":4,"transit":false,"station_id":"JMU","station_name":"Jurangmangu","is_transit":false,"i_lat":-6.288927,"i_long":106.728916,"distance":1994},{"distance":2179,"transit":false,"i_long":106.74273,"time":3,"station_name":"Pondokranji","i_lat":-6.276362,"is_transit":false,"station_id":"PDJ","line":6},{"i_long":106.780334,"line":6,"time":8,"station_name":"Kebayoran","distance":6218,"transit":false,"station_id":"KBY","i_lat":-6.237242,"is_transit":false},{"time":7,"station_name":"Palmerah","transit":false,"line":6,"distance":3737,"station_id":"PLM","is_transit":false,"i_long":106.79689,"i_lat":-6.207404},{"is_transit":true,"station_id":"THB","transit":true,"line":1,"distance":3191,"i_long":106.811091,"time":6,"i_lat":-6.185545,"station_name":"Tanah Abang"},{"transit":true,"station_id":"DU","i_lat":-6.155215,"distance":3632,"i_long":106.800832,"station_name":"Duri","time":8,"line":1,"is_transit":true},{"distance":1700,"line":5,"is_transit":false,"transit":false,"i_long":106.788277,"station_name":"Grogol","time":3,"i_lat":-6.162021,"station_id":"GGL"},{"i_long":106.771379,"time":2,"i_lat":-6.161433,"transit":false,"station_name":"Pesing","is_transit":false,"line":5,"distance":2036,"station_id":"PSG"},{"i_lat":-6.1587309999999995,"i_long":106.756522,"is_transit":false,"station_id":"TKO","line":5,"distance":1614,"time":2,"station_name":"Taman Kota","transit":false},{"i_lat":-6.159876,"line":5,"distance":2334,"station_name":"Bojongindah","is_transit":false,"i_long":106.737035,"time":2,"station_id":"BOI","transit":false},{"i_lat":-6.162758,"distance":1152,"time":4,"station_id":"RW","is_transit":false,"transit":false,"i_long":106.723064,"station_name":"Rawa Buaya","line":5},{"station_name":"Kalideres","time":3,"distance":2504,"transit":false,"station_id":"KDS","line":5,"i_long":106.701612,"is_transit":false,"i_lat":-6.166068},{"i_lat":-6.169933,"line":5,"station_id":"PI","station_name":"Poris","is_transit":false,"i_long":106.679458,"transit":false,"distance":2548,"time":3},{"i_lat":-6.171811,"station_id":"BPR","station_name":"Batuceper","line":5,"transit":false,"is_transit":false,"distance":1834,"i_long":106.665036,"time":3},{"distance":2028,"station_id":"TTI","station_name":"Tanah Tinggi","i_long":106.64657,"time":3,"is_transit":false,"transit":false,"i_lat":-6.17331,"line":5}],[{"i_lat":-6.329547,"station_name":"Cicayur","line":3,"distance":0,"station_id":"CC","time":0,"transit":false,"i_long":106.617853,"is_transit":false},{"is_transit":false,"transit":false,"station_name":"Cisauk","i_long":106.640411,"i_lat":-6.32484,"line":3,"station_id":"CSK","time":4,"distance":2519},{"station_id":"SRP","i_long":106.66566,"is_transit":false,"i_lat":-6.319871,"time":4,"station_name":"Serpong","transit":false,"line":6,"distance":1784},{"time":4,"i_lat":-6.314823,"transit":false,"line":6,"is_transit":false,"station_name":"Rawa Buntu","station_id":"RU","i_long":106.675475,"distance":2413},{"transit":false,"i_long":106.712277,"i_lat":-6.296963,"distance":4566,"station_id":"SDM","station_name":"Sudimara","is_transit":false,"line":6,"time":6},{"time":4,"transit":false,"i_lat":-6.288927,"distance":1994,"station_id":"JMU","i_long":106.728916,"line":6,"station_name":"Jurangmangu","is_transit":false},{"station_id":"PDJ","station_name":"Pondokranji","is_transit":false,"i_long":106.74273,"line":6,"time":3,"distance":2179,"i_lat":-6.276362,"transit":false},{"station_name":"Kebayoran","i_lat":-6.237242,"is_transit":false,"line":6,"time":8,"station_id":"KBY","i_long":106.780334,"transit":false,"distance":6218},{"time":7,"is_transit":false,"i_lat":-6.207404,"line":6,"transit":false,"distance":3737,"station_id":"PLM","i_long":106.79689,"station_name":"Palmerah"},{"distance":3191,"i_long":106.811091,"line":1,"i_lat":-6.185545,"is_transit":true,"station_name":"Tanah Abang","station_id":"THB","transit":true,"time":6},{"time":5,"i_long":106.816351,"distance":2029,"station_name":"Karet","transit":false,"is_transit":false,"line":1,"station_id":"KAT","i_lat":-6.20132},{"i_long":106.819881,"time":1,"transit":false,"line":1,"station_id":"SUDB","is_transit":false,"distance":471,"station_name":"Sudirman Baru","i_lat":-6.201433},{"line":1,"transit":false,"i_long":106.822649,"station_id":"SUD","station_name":"Sudirman","distance":280,"time":1,"i_lat":-6.202263,"is_transit":false},{"distance":3186,"station_id":"MRI","i_long":106.84912,"station_name":"Manggarai","transit":true,"time":4,"i_lat":-6.209883,"line":2,"is_transit":true},{"i_long":106.840169,"transit":false,"time":4,"line":2,"distance":1590,"i_lat":-6.198556,"station_id":"CKI","station_name":"Cikini","is_transit":false},{"station_name":"Gondangdia","distance":1750,"time":3,"line":2,"station_id":"GDD","i_lat":-6.186295,"i_long":106.832183,"transit":false,"is_transit":false},{"is_transit":false,"i_long":106.828284,"time":4,"i_lat":-6.166716,"station_name":"Juanda","line":2,"station_id":"JUA","distance":2015,"transit":false},{"time":2,"transit":false,"i_long":106.827103,"i_lat":-6.160725,"station_name":"Sawah Besar","is_transit":false,"distance":1149,"station_id":"SW","line":2},{"is_transit":false,"i_long":106.82482,"i_lat":-6.149769,"time":2,"station_id":"MGB","distance":906,"transit":false,"line":2,"station_name":"Manggabesar"},{"i_long":106.820901,"station_name":"Jayakarta","station_id":"JAY","distance":1080,"is_transit":false,"time":2,"i_lat":-6.141205,"line":2,"transit":false},{"line":2,"i_long":106.812439,"distance":1264,"is_transit":true,"time":4,"transit":true,"i_lat":-6.137569,"station_id":"JAKK","station_name":"Jakarta Kota"},{"station_name":"Kampung Bandan","distance":1364,"is_transit":true,"station_id":"KPB","transit":true,"i_long":106.826365,"time":3,"i_lat":-6.132549,"line":4},{"station_id":"AK","distance":4102,"i_long":106.79867,"transit":false,"station_name":"Angke","i_lat":-6.144674,"time":9,"line":1,"is_transit":false},{"distance":1230,"is_transit":true,"station_name":"Duri","i_long":106.800832,"line":1,"i_lat":-6.155215,"time":4,"transit":true,"station_id":"DU"},{"station_id":"GGL","line":5,"station_name":"Grogol","transit":false,"is_transit":false,"time":3,"i_long":106.788277,"i_lat":-6.162021,"distance":1700},{"i_long":106.771379,"distance":2036,"time":2,"line":5,"station_id":"PSG","station_name":"Pesing","i_lat":-6.161433,"transit":false,"is_transit":false},{"station_id":"TKO","line":5,"i_lat":-6.1587309999999995,"transit":false,"is_transit":false,"i_long":106.756522,"distance":1614,"time":2,"station_name":"Taman Kota"},{"is_transit":false,"line":5,"i_lat":-6.159876,"i_long":106.737035,"station_id":"BOI","station_name":"Bojongindah","time":2,"transit":false,"distance":2334},{"i_long":106.723064,"distance":1152,"i_lat":-6.162758,"station_name":"Rawa Buaya","station_id":"RW","is_transit":false,"transit":false,"line":5,"time":4},{"time":3,"transit":false,"is_transit":false,"distance":2504,"station_name":"Kalideres","line":5,"i_long":106.701612,"i_lat":-6.166068,"station_id":"KDS"},{"station_id":"PI","i_lat":-6.169933,"line":5,"is_transit":false,"time":3,"i_long":106.679458,"distance":2548,"station_name":"Poris","transit":false},{"line":5,"station_name":"Batuceper","distance":1834,"transit":false,"i_long":106.665036,"time":3,"station_id":"BPR","is_transit":false,"i_lat":-6.171811},{"is_transit":false,"i_long":106.64657,"station_id":"TTI","line":5,"station_name":"Tanah Tinggi","time":3,"transit":false,"i_lat":-6.17331,"distance":2028}],[{"time":0,"line":3,"distance":0,"i_long":106.617853,"transit":false,"station_name":"Cicayur","station_id":"CC","i_lat":-6.329547,"is_transit":false},{"station_id":"CSK","i_lat":-6.32484,"line":3,"i_long":106.640411,"station_name":"Cisauk","transit":false,"is_transit":false,"distance":2519,"time":4},{"is_transit":false,"distance":1784,"transit":false,"i_lat":-6.319871,"i_long":106.66566,"station_id":"SRP","station_name":"Serpong","time":4,"line":6},{"station_id":"RU","time":4,"is_transit":false,"transit":false,"i_long":106.675475,"distance":2413,"station_name":"Rawa Buntu","i_lat":-6.314823,"line":6},{"is_transit":false,"distance":4566,"i_long":106.712277,"station_id":"SDM","i_lat":-6.296963,"line":6,"station_name":"Sudimara","transit":false,"time":6},{"line":6,"station_name":"Jurangmangu","is_transit":false,"i_lat":-6.288927,"distance":1994,"time":4,"station_id":"JMU","transit":false,"i_long":106.728916},{"is_transit":false,"i_lat":-6.276362,"station_id":"PDJ","i_long":106.74273,"time":3,"line":6,"distance":2179,"station_name":"Pondokranji","transit":false},{"line":6,"time":8,"transit":false,"is_transit":false,"station_id":"KBY","distance":6218,"i_long":106.780334,"station_name":"Kebayoran","i_lat":-6.237242},{"transit":false,"is_transit":false,"i_long":106.79689,"station_id":"PLM","station_name":"Palmerah","i_lat":-6.207404,"distance":3737,"line":6,"time":7},{"line":1,"distance":3191,"transit":true,"i_long":106.811091,"is_transit":true,"i_lat":-6.185545,"station_id":"THB","station_name":"Tanah Abang","time":6},{"i_lat":-6.20132,"i_long":106.816351,"is_transit":false,"time":5,"line":1,"station_name":"Karet","station_id":"KAT","distance":2029,"transit":false},{"transit":false,"i_long":106.819881,"station_name":"Sudirman Baru","distance":471,"time":1,"i_lat":-6.201433,"station_id":"SUDB","line":1,"is_transit":false},{"distance":280,"time":1,"i_long":106.822649,"transit":false,"line":1,"i_lat":-6.202263,"station_id":"SUD","station_name":"Sudirman","is_transit":false},{"i_lat":-6.209883,"is_transit":false,"time":4,"transit":false,"line":2,"station_id":"MRI","distance":3186,"station_name":"Manggarai","i_long":106.84912},{"i_lat":-6.212485,"line":1,"transit":false,"i_long":106.858896,"is_transit":false,"station_name":"Matraman","station_id":"MTR","distance":1275,"time":2},{"distance":1377,"i_long":106.86807400000001,"station_name":"Jatinegara","line":1,"is_transit":true,"time":8,"transit":true,"i_lat":-6.215091,"station_id":"JNG"},{"station_id":"POK","time":2,"station_name":"Pondok Jati","transit":false,"line":11,"i_lat":-6.209188,"distance":1236,"is_transit":false,"i_long":106.861737},{"is_transit":false,"line":11,"station_name":"Kramat","time":2,"i_lat":-6.193792,"i_long":106.855437,"distance":1829,"station_id":"KMT","transit":false},{"distance":973,"is_transit":false,"station_id":"GST","time":1,"station_name":"Gang Sentiong","i_lat":-6.185975,"i_long":106.850107,"transit":false,"line":11},{"is_transit":false,"i_long":106.84368,"line":11,"station_name":"Pasar Senen","i_lat":-6.174784,"distance":1567,"transit":false,"time":8,"station_id":"PSE"},{"station_id":"KMO","distance":1436,"line":11,"is_transit":false,"i_long":106.839204,"time":4,"i_lat":-6.161728,"transit":false,"station_name":"Kemayoran"},{"time":5,"line":11,"i_lat":-6.14505,"station_name":"Rajawali","is_transit":false,"station_id":"RJW","i_long":106.836569,"distance":1901,"transit":false},{"i_long":106.826365,"time":3,"line":4,"station_name":"Kampung Bandan","i_lat":-6.132549,"is_transit":true,"station_id":"KPB","distance":1444,"transit":true},{"station_name":"Angke","distance":4102,"transit":false,"is_transit":false,"i_lat":-6.144674,"i_long":106.79867,"line":1,"station_id":"AK","time":9},{"distance":1230,"transit":true,"is_transit":true,"time":4,"i_lat":-6.155215,"station_id":"DU","line":1,"station_name":"Duri","i_long":106.800832},{"i_lat":-6.162021,"time":3,"i_long":106.788277,"distance":1700,"is_transit":false,"station_name":"Grogol","station_id":"GGL","transit":false,"line":5},{"i_long":106.771379,"time":2,"line":5,"distance":2036,"i_lat":-6.161433,"station_name":"Pesing","station_id":"PSG","is_transit":false,"transit":false},{"station_id":"TKO","i_long":106.756522,"is_transit":false,"line":5,"time":2,"distance":1614,"station_name":"Taman Kota","transit":false,"i_lat":-6.1587309999999995},{"station_id":"BOI","station_name":"Bojongindah","i_long":106.737035,"i_lat":-6.159876,"distance":2334,"line":5,"transit":false,"time":2,"is_transit":false},{"distance":1152,"line":5,"i_lat":-6.162758,"time":4,"station_id":"RW","transit":false,"is_transit":false,"i_long":106.723064,"station_name":"Rawa Buaya"},{"i_long":106.701612,"distance":2504,"line":5,"station_name":"Kalideres","i_lat":-6.166068,"is_transit":false,"time":3,"station_id":"KDS","transit":false},{"transit":false,"line":5,"i_long":106.679458,"is_transit":false,"station_name":"Poris","distance":2548,"i_lat":-6.169933,"time":3,"station_id":"PI"},{"time":3,"i_lat":-6.171811,"i_long":106.665036,"station_id":"BPR","line":5,"is_transit":false,"distance":1834,"station_name":"Batuceper","transit":false},{"station_id":"TTI","i_lat":-6.17331,"line":5,"time":3,"distance":2028,"station_name":"Tanah Tinggi","is_transit":false,"transit":false,"i_long":106.64657}]]}