{"data":[[{"distance":0,"is_transit":false,"i_lat":-6.329547,"station_id":"CC","time":0,"transit":false,"i_long":106.617853,"line":0,"station_name":"Cicayur"},{"transit":false,"station_id":"CSK","i_long":106.640411,"is_transit":false,"station_name":"Cisauk","time":4,"distance":2519,"i_lat":-6.32484,"line":0},{"transit":false,"station_id":"SRP","line":6,"time":4,"is_transit":false,"station_name":"Serpong","distance":1784,"i_lat":-6.319871,"i_long":106.66566},{"station_name":"Rawa Buntu","line":6,"distance":2413,"station_id":"RU","transit":false,"is_transit":false,"time":4,"i_lat":-6.314823,"i_long":106.675475},{"is_transit":false,"transit":false,"time":6,"i_lat":-6.296963,"i_long":106.712277,"distance":4566,"line":6,"station_id":"SDM","station_name":"Sudimara"},{"line":6,"station_id":"JMU","station_name":"Jurangmangu","time":4,"i_lat":-6.288927,"i_long":106.728916,"transit":false,"distance":1994,"is_transit":false},{"is_transit":false,"line":6,"station_id":"PDJ","transit":false,"i_lat":-6.276362,"station_name":"Pondokranji","time":3,"distance":2179,"i_long":106.74273},{"station_id":"KBY","distance":6218,"station_name":"Kebayoran","line":6,"i_lat":-6.237242,"is_transit":false,"transit":false,"i_long":106.780334,"time":8},{"distance":3737,"i_long":106.79689,"i_lat":-6.207404,"station_id":"PLM","is_transit":false,"station_name":"Palmerah","time":7,"transit":false,"line":6},{"distance":3191,"i_lat":-6.185545,"station_name":"Tanah Abang","time":6,"line":1,"transit":true,"i_long":106.811091,"station_id":"THB","is_transit":true},{"line":1,"is_transit":true,"i_lat":-6.155215,"i_long":106.800832,"transit":true,"distance":3632,"station_name":"Duri","station_id":"DU","time":8},{"is_transit":false,"station_name":"Grogol","distance":1700,"station_id":"GGL","time":3,"i_lat":-6.162021,"line":5,"i_long":106.788277,"transit":false},{"i_long":106.771379,"station_id":"PSG","distance":2036,"transit":false,"time":2,"station_name":"Pesing","line":5,"i_lat":-6.161433,"is_transit":false},{"i_lat":-6.1587309999999995,"station_name":"Taman Kota","transit":false,"station_id":"TKO","is_transit":false,"distance":1614,"time":2,"line":5,"i_long":106.756522}],[{"is_transit":false,"station_id":"CC","line":0,"distance":0,"i_long":106.617853,"station_name":"Cicayur","transit":false,"time":0,"i_lat":-6.329547},{"is_transit":false,"time":4,"distance":2519,"transit":false,"station_id":"CSK","i_lat":-6.32484,"station_name":"Cisauk","i_long":106.640411,"line":0},{"time":4,"station_name":"Serpong","i_lat":-6.319871,"station_id":"SRP","is_transit":false,"line":6,"distance":1784,"transit":false,"i_long":106.66566},{"station_id":"RU","distance":2413,"line":6,"is_transit":false,"station_name":"Rawa Buntu","i_lat":-6.314823,"time":4,"transit":false,"i_long":106.675475},{"station_name":"Sudimara","line":6,"transit":false,"distance":4566,"i_long":106.712277,"time":6,"is_transit":false,"station_id":"SDM","i_lat":-6.296963},{"i_long":106.728916,"station_name":"Jurangmangu","is_transit":false,"i_lat":-6.288927,"station_id":"JMU","transit":false,"line":6,"distance":1994,"time":4},{"line":6,"distance":2179,"station_name":"Pondokranji","transit":false,"is_transit":false,"i_lat":-6.276362,"station_id":"PDJ","time":3,"i_long":106.74273},{"distance":6218,"i_lat":-6.237242,"is_transit":false,"transit":false,"station_name":"Kebayoran","time":8,"i_long":106.780334,"line":6,"station_id":"KBY"},{"time":7,"i_long":106.79689,"is_transit":false,"distance":3737,"transit":false,"i_lat":-6.207404,"station_name":"Palmerah","line":6,"station_id":"PLM"},{"distance":3191,"station_id":"THB","i_long":106.811091,"transit":true,"is_transit":true,"line":1,"time":6,"station_name":"Tanah Abang","i_lat":-6.185545},{"station_name":"Karet","time":5,"i_lat":-6.20132,"station_id":"KAT","transit":false,"distance":2029,"is_transit":false,"i_long":106.816351,"line":1},{"time":1,"i_lat":-6.201433,"station_name":"Sudirman Baru","station_id":"SUDB","is_transit":false,"i_long":106.819881,"distance":471,"transit":false,"line":1},{"distance":280,"transit":false,"is_transit":false,"i_lat":-6.202263,"i_long":106.822649,"station_name":"Sudirman","time":1,"line":1,"station_id":"SUD"},{"station_name":"Manggarai","transit":true,"time":4,"i_lat":-6.209883,"line":0,"station_id":"MRI","is_transit":true,"i_long":106.84912,"distance":3186},{"line":0,"time":4,"i_long":106.840169,"distance":1590,"transit":false,"station_name":"Cikini","station_id":"CKI","is_transit":false,"i_lat":-6.198556},{"time":3,"i_long":106.832183,"line":2,"distance":1750,"station_name":"Gondangdia","transit":false,"i_lat":-6.186295,"station_id":"GDD","is_transit":false},{"i_long":106.828284,"distance":2015,"is_transit":false,"station_id":"JUA","station_name":"Juanda","transit":false,"time":4,"i_lat":-6.166716,"line":2},{"station_name":"Sawah Besar","is_transit":false,"i_lat":-6.160725,"distance":1149,"i_long":106.827103,"transit":false,"time":2,"line":2,"station_id":"SW"},{"station_id":"MGB","is_transit":false,"time":2,"i_long":106.82482,"station_name":"Manggabesar","i_lat":-6.149769,"transit":false,"line":2,"distance":906},{"time":2,"line":7,"i_long":106.820901,"station_id":"JAY","station_name":"Jayakarta","is_transit":false,"i_lat":-6.141205,"transit":false,"distance":1080},{"i_lat":-6.137569,"is_transit":true,"i_long":106.812439,"line":0,"station_id":"JAKK","transit":true,"distance":1264,"station_name":"Jakarta Kota","time":4},{"time":3,"station_name":"Kampung Bandan","line":0,"distance":1364,"i_long":106.826365,"i_lat":-6.132549,"transit":false,"station_id":"KPB","is_transit":true},{"distance":4102,"transit":false,"i_lat":-6.144674,"line":0,"is_transit":false,"station_id":"AK","time":9,"i_long":106.79867,"station_name":"Angke"},{"time":4,"i_long":106.800832,"i_lat":-6.155215,"line":1,"distance":1230,"station_name":"Duri","station_id":"DU","transit":true,"is_transit":true},{"i_lat":-6.162021,"i_long":106.788277,"line":5,"distance":1700,"transit":false,"time":3,"station_name":"Grogol","station_id":"GGL","is_transit":false},{"is_transit":false,"time":2,"distance":2036,"station_name":"Pesing","i_lat":-6.161433,"i_long":106.771379,"line":5,"transit":false,"station_id":"PSG"},{"station_name":"Taman Kota","i_long":106.756522,"transit":false,"time":2,"line":5,"station_id":"TKO","i_lat":-6.1587309999999995,"is_transit":false,"distance":1614}],[{"i_lat":-6.329547,"i_long":106.617853,"distance":0,"transit":false,"is_transit":false,"time":0,"station_id":"CC","line":0,"station_name":"Cicayur"},{"i_lat":-6.32484,"transit":false,"is_transit":false,"time":4,"i_long":106.640411,"station_name":"Cisauk","line":0,"distance":2519,"station_id":"CSK"},{"station_name":"Serpong","station_id":"SRP","transit":false,"line":6,"i_long":106.66566,"i_lat":-6.319871,"distance":1784,"time":4,"is_transit":false},{"station_id":"RU","i_lat":-6.314823,"distance":2413,"time":4,"i_long":106.675475,"line":6,"is_transit":false,"transit":false,"station_name":"Rawa Buntu"},{"i_lat":-6.296963,"transit":false,"line":6,"distance":4566,"station_name":"Sudimara","time":6,"station_id":"SDM","i_long":106.712277,"is_transit":false},{"station_name":"Jurangmangu","i_long":106.728916,"transit":false,"station_id":"JMU","is_transit":false,"distance":1994,"time":4,"i_lat":-6.288927,"line":6},{"time":3,"i_lat":-6.276362,"i_long":106.74273,"station_name":"Pondokranji","is_transit":false,"distance":2179,"transit":false,"station_id":"PDJ","line":6},{"distance":6218,"line":6,"time":8,"i_lat":-6.237242,"transit":false,"station_name":"Kebayoran","i_long":106.780334,"is_transit":false,"station_id":"KBY"},{"station_name":"Palmerah","i_long":106.79689,"line":6,"station_id":"PLM","transit":false,"i_lat":-6.207404,"distance":3737,"is_transit":false,"time":7},{"station_name":"Tanah Abang","time":6,"line":1,"station_id":"THB","distance":3191,"i_long":106.811091,"transit":true,"i_lat":-6.185545,"is_transit":true},{"transit":false,"station_id":"KAT","line":1,"i_lat":-6.20132,"station_name":"Karet","time":5,"distance":2029,"i_long":106.816351,"is_transit":false},{"transit":false,"i_lat":-6.201433,"time":1,"line":1,"i_long":106.819881,"station_name":"Sudirman Baru","station_id":"SUDB","is_transit":false,"distance":471},{"transit":false,"is_transit":false,"station_name":"Sudirman","station_id":"SUD","i_lat":-6.202263,"line":1,"distance":280,"time":1,"i_long":106.822649},{"line":0,"station_id":"MRI","station_name":"Manggarai","time":4,"i_long":106.84912,"distance":3186,"is_transit":true,"transit":false,"i_lat":-6.209883},{"transit":false,"is_transit":false,"station_id":"MTR","distance":1275,"station_name":"Matraman","time":2,"i_lat":-6.212485,"i_long":106.858896,"line":1},{"line":0,"distance":1377,"station_id":"JNG","station_name":"Jatinegara","is_transit":true,"i_long":106.86807400000001,"time":8,"i_lat":-6.215091,"transit":true},{"distance":1236,"transit":false,"station_id":"POK","is_transit":false,"i_lat":-6.209188,"time":2,"i_long":106.861737,"station_name":"Pondok Jati","line":11},{"is_transit":false,"station_id":"KMT","i_long":106.855437,"time":2,"i_lat":-6.193792,"distance":1829,"transit":false,"line":11,"station_name":"Kramat"},{"distance":973,"i_long":106.850107,"time":1,"station_name":"Gang Sentiong","is_transit":false,"i_lat":-6.185975,"line":11,"transit":false,"station_id":"GST"},{"time":8,"distance":1567,"transit":false,"line":11,"i_lat":-6.174784,"station_id":"PSE","is_transit":false,"i_long":106.84368,"station_name":"Pasar Senen"},{"distance":1436,"station_name":"Kemayoran","station_id":"KMO","is_transit":false,"i_long":106.839204,"transit":false,"time":4,"i_lat":-6.161728,"line":11},{"station_id":"RJW","station_name":"Rajawali","transit":false,"distance":1901,"i_long":106.836569,"time":5,"is_transit":false,"line":11,"i_lat":-6.14505},{"is_transit":true,"i_lat":-6.132549,"distance":1444,"station_name":"Kampung Bandan","time":3,"station_id":"KPB","line":0,"i_long":106.826365,"transit":true},{"is_transit":false,"line":0,"time":9,"i_lat":-6.144674,"station_id":"AK","distance":4102,"station_name":"Angke","i_long":106.79867,"transit":false},{"station_id":"DU","is_transit":true,"time":4,"station_name":"Duri","i_lat":-6.155215,"distance":1230,"transit":true,"i_long":106.800832,"line":1},{"i_long":106.788277,"line":5,"transit":false,"distance":1700,"time":3,"station_id":"GGL","station_name":"Grogol","is_transit":false,"i_lat":-6.162021},{"transit":false,"time":2,"is_transit":false,"station_name":"Pesing","i_lat":-6.161433,"i_long":106.771379,"distance":2036,"station_id":"PSG","line":5},{"transit":false,"distance":1614,"line":5,"is_transit":false,"station_id":"TKO","i_long":106.756522,"time":2,"i_lat":-6.1587309999999995,"station_name":"Taman Kota"}]]}