{"data":[[{"distance":0,"i_lat":-6.329547,"station_id":"CC","station_name":"Cicayur","time":0,"i_long":106.617853,"line":3,"transit":false,"is_transit":false},{"i_lat":-6.32484,"is_transit":false,"transit":false,"line":3,"time":4,"station_name":"Cisauk","distance":2519,"station_id":"CSK","i_long":106.640411},{"i_lat":-6.319871,"station_name":"Serpong","is_transit":false,"station_id":"SRP","line":6,"time":4,"transit":false,"i_long":106.66566,"distance":1784},{"i_lat":-6.314823,"transit":false,"distance":2413,"is_transit":false,"time":4,"station_id":"RU","i_long":106.675475,"line":6,"station_name":"Rawa Buntu"},{"time":6,"i_long":106.712277,"is_transit":false,"station_name":"Sudimara","transit":false,"station_id":"SDM","distance":4566,"i_lat":-6.296963,"line":6},{"is_transit":false,"station_name":"Jurangmangu","distance":1994,"transit":false,"time":4,"i_long":106.728916,"station_id":"JMU","line":6,"i_lat":-6.288927},{"station_name":"Pondokranji","is_transit":false,"i_lat":-6.276362,"i_long":106.74273,"time":3,"station_id":"PDJ","transit":false,"distance":2179,"line":6},{"time":8,"i_lat":-6.237242,"distance":6218,"station_id":"KBY","line":6,"transit":false,"i_long":106.780334,"station_name":"Kebayoran","is_transit":false},{"is_transit":false,"station_id":"PLM","station_name":"Palmerah","distance":3737,"time":7,"i_long":106.79689,"transit":false,"i_lat":-6.207404,"line":6},{"distance":3191,"time":6,"i_long":106.811091,"line":1,"transit":true,"is_transit":true,"i_lat":-6.185545,"station_id":"THB","station_name":"Tanah Abang"},{"is_transit":false,"distance":2029,"line":1,"station_name":"Karet","transit":false,"i_long":106.816351,"station_id":"KAT","time":5,"i_lat":-6.20132},{"distance":471,"line":1,"station_name":"Sudirman Baru","station_id":"SUDB","is_transit":false,"transit":false,"time":1,"i_lat":-6.201433,"i_long":106.819881},{"is_transit":false,"distance":280,"line":1,"i_long":106.822649,"transit":false,"station_id":"SUD","time":1,"i_lat":-6.202263,"station_name":"Sudirman"},{"i_lat":-6.209883,"line":2,"station_name":"Manggarai","station_id":"MRI","i_long":106.84912,"distance":3186,"transit":false,"time":4,"is_transit":false},{"distance":1275,"station_name":"Matraman","station_id":"MTR","i_lat":-6.212485,"line":1,"time":2,"is_transit":false,"i_long":106.858896,"transit":false},{"i_long":106.86807400000001,"transit":false,"is_transit":false,"station_name":"Jatinegara","distance":1377,"time":8,"i_lat":-6.215091,"station_id":"JNG","line":1},{"i_lat":-6.2135,"station_name":"Klender","line":1,"i_long":106.899548,"transit":false,"is_transit":false,"station_id":"KLD","distance":3395,"time":3},{"time":2,"is_transit":false,"i_lat":-6.215568,"i_long":106.922662,"station_name":"Buaran","station_id":"BUA","distance":3100,"line":1,"transit":false},{"is_transit":false,"station_id":"KLDB","time":1,"station_name":"Klenderbaru","distance":1305,"line":1,"i_lat":-6.217455,"transit":false,"i_long":106.939679},{"station_id":"CUK","distance":1385,"station_name":"Cakung","i_long":106.951283,"is_transit":false,"time":8,"i_lat":-6.219053,"transit":false,"line":1},{"line":1,"distance":3097,"is_transit":false,"transit":false,"station_name":"Kranji","station_id":"KRI","i_lat":-6.224515,"i_long":106.977657,"time":3},{"i_long":106.997013,"station_id":"BKS","line":1,"i_lat":-6.236616,"station_name":"Bekasi","distance":2520,"time":4,"is_transit":false,"transit":false},{"transit":false,"station_name":"Bekasi Timur","distance":2368,"time":2,"i_lat":-6.248029,"i_long":107.016735,"line":1,"is_transit":false,"station_id":"BKST"},{"i_lat":-6.258864,"station_name":"Tambun","station_id":"TB","time":7,"i_long":107.055722,"is_transit":false,"transit":false,"line":1,"distance":4460}],[{"distance":0,"time":0,"station_name":"Cicayur","i_lat":-6.329547,"i_long":106.617853,"line":3,"station_id":"CC","is_transit":false,"transit":false},{"is_transit":false,"time":4,"line":3,"transit":false,"distance":2519,"i_long":106.640411,"i_lat":-6.32484,"station_id":"CSK","station_name":"Cisauk"},{"time":4,"i_lat":-6.319871,"station_name":"Serpong","transit":false,"i_long":106.66566,"station_id":"SRP","distance":1784,"line":6,"is_transit":false},{"transit":false,"i_lat":-6.314823,"is_transit":false,"station_id":"RU","line":6,"i_long":106.675475,"station_name":"Rawa Buntu","time":4,"distance":2413},{"distance":4566,"line":6,"is_transit":false,"station_id":"SDM","i_lat":-6.296963,"station_name":"Sudimara","i_long":106.712277,"time":6,"transit":false},{"i_lat":-6.288927,"i_long":106.728916,"station_name":"Jurangmangu","is_transit":false,"distance":1994,"transit":false,"station_id":"JMU","line":6,"time":4},{"station_id":"PDJ","is_transit":false,"distance":2179,"time":3,"station_name":"Pondokranji","i_lat":-6.276362,"line":6,"i_long":106.74273,"transit":false},{"line":6,"i_lat":-6.237242,"station_id":"KBY","distance":6218,"time":8,"station_name":"Kebayoran","is_transit":false,"transit":false,"i_long":106.780334},{"is_transit":false,"distance":3737,"i_lat":-6.207404,"transit":false,"line":6,"time":7,"station_id":"PLM","i_long":106.79689,"station_name":"Palmerah"},{"distance":3191,"i_long":106.811091,"time":6,"i_lat":-6.185545,"line":1,"transit":true,"station_id":"THB","is_transit":true,"station_name":"Tanah Abang"},{"station_id":"DU","is_transit":false,"distance":3632,"time":8,"transit":false,"line":1,"i_long":106.800832,"station_name":"Duri","i_lat":-6.155215},{"i_lat":-6.144674,"time":4,"i_long":106.79867,"transit":false,"distance":1230,"line":1,"station_id":"AK","station_name":"Angke","is_transit":false},{"line":4,"i_lat":-6.132549,"station_name":"Kampung Bandan","is_transit":true,"station_id":"KPB","i_long":106.826365,"distance":4102,"transit":true,"time":9},{"time":3,"i_long":106.836569,"is_transit":false,"transit":false,"distance":1444,"line":11,"i_lat":-6.14505,"station_id":"RJW","station_name":"Rajawali"},{"distance":1901,"i_long":106.839204,"station_name":"Kemayoran","i_lat":-6.161728,"transit":false,"line":11,"is_transit":false,"station_id":"KMO","time":5},{"distance":1436,"i_long":106.84368,"line":11,"transit":false,"station_id":"PSE","time":4,"is_transit":false,"station_name":"Pasar Senen","i_lat":-6.174784},{"station_name":"Gang Sentiong","line":11,"transit":false,"time":8,"station_id":"GST","is_transit":false,"i_lat":-6.185975,"distance":1567,"i_long":106.850107},{"is_transit":false,"transit":false,"i_long":106.855437,"station_id":"KMT","i_lat":-6.193792,"time":1,"station_name":"Kramat","distance":973,"line":11},{"distance":1829,"line":11,"station_id":"POK","i_lat":-6.209188,"time":2,"is_transit":false,"station_name":"Pondok Jati","transit":false,"i_long":106.861737},{"i_long":106.86807400000001,"station_name":"Jatinegara","is_transit":true,"distance":1236,"time":9,"transit":true,"i_lat":-6.215091,"line":1,"station_id":"JNG"},{"station_id":"KLD","transit":false,"i_lat":-6.2135,"line":1,"station_name":"Klender","i_long":106.899548,"is_transit":false,"time":3,"distance":3395},{"time":2,"station_name":"Buaran","i_long":106.922662,"is_transit":false,"distance":3100,"transit":false,"station_id":"BUA","i_lat":-6.215568,"line":1},{"station_name":"Klenderbaru","time":1,"station_id":"KLDB","is_transit":false,"transit":false,"i_long":106.939679,"line":1,"distance":1305,"i_lat":-6.217455},{"transit":false,"distance":1385,"i_lat":-6.219053,"time":8,"station_name":"Cakung","station_id":"CUK","is_transit":false,"i_long":106.951283,"line":1},{"is_transit":false,"i_lat":-6.224515,"station_id":"KRI","line":1,"i_long":106.977657,"distance":3097,"time":3,"station_name":"Kranji","transit":false},{"transit":false,"station_id":"BKS","station_name":"Bekasi","i_long":106.997013,"is_transit":false,"time":4,"i_lat":-6.236616,"distance":2520,"line":1},{"distance":2368,"station_name":"Bekasi Timur","line":1,"is_transit":false,"i_long":107.016735,"transit":false,"i_lat":-6.248029,"station_id":"BKST","time":2},{"i_long":107.055722,"i_lat":-6.258864,"station_id":"TB","station_name":"Tambun","is_transit":false,"time":7,"transit":false,"line":1,"distance":4460}],[{"station_name":"Cicayur","time":0,"transit":false,"i_lat":-6.329547,"station_id":"CC","line":3,"i_long":106.617853,"is_transit":false,"distance":0},{"station_id":"CSK","is_transit":false,"i_lat":-6.32484,"i_long":106.640411,"station_name":"Cisauk","distance":2519,"time":4,"line":3,"transit":false},{"i_long":106.66566,"station_name":"Serpong","time":4,"line":6,"transit":false,"station_id":"SRP","distance":1784,"is_transit":false,"i_lat":-6.319871},{"time":4,"station_id":"RU","line":6,"transit":false,"i_long":106.675475,"distance":2413,"i_lat":-6.314823,"station_name":"Rawa Buntu","is_transit":false},{"distance":4566,"station_id":"SDM","i_lat":-6.296963,"i_long":106.712277,"line":6,"station_name":"Sudimara","transit":false,"is_transit":false,"time":6},{"station_id":"JMU","station_name":"Jurangmangu","distance":1994,"i_lat":-6.288927,"i_long":106.728916,"transit":false,"is_transit":false,"line":6,"time":4},{"station_id":"PDJ","is_transit":false,"i_lat":-6.276362,"time":3,"i_long":106.74273,"line":6,"station_name":"Pondokranji","transit":false,"distance":2179},{"transit":false,"station_id":"KBY","line":6,"distance":6218,"is_transit":false,"i_long":106.780334,"station_name":"Kebayoran","i_lat":-6.237242,"time":8},{"station_name":"Palmerah","is_transit":false,"i_lat":-6.207404,"time":7,"i_long":106.79689,"transit":false,"distance":3737,"line":6,"station_id":"PLM"},{"distance":3191,"station_name":"Tanah Abang","transit":true,"station_id":"THB","time":6,"i_lat":-6.185545,"i_long":106.811091,"line":1,"is_transit":true},{"line":1,"is_transit":false,"station_id":"DU","distance":3632,"i_long":106.800832,"transit":false,"time":8,"i_lat":-6.155215,"station_name":"Duri"},{"i_lat":-6.144674,"i_long":106.79867,"station_id":"AK","transit":false,"line":1,"distance":1230,"time":4,"station_name":"Angke","is_transit":false},{"i_long":106.826365,"time":9,"station_id":"KPB","i_lat":-6.132549,"line":4,"station_name":"Kampung Bandan","distance":4102,"transit":true,"is_transit":true},{"station_name":"Jakarta Kota","time":3,"line":2,"is_transit":true,"i_lat":-6.137569,"i_long":106.812439,"transit":true,"distance":1364,"station_id":"JAKK"},{"line":2,"station_name":"Jayakarta","station_id":"JAY","distance":1264,"i_lat":-6.141205,"i_long":106.820901,"is_transit":false,"transit":false,"time":4},{"distance":1080,"station_name":"Manggabesar","time":2,"line":2,"station_id":"MGB","i_lat":-6.149769,"transit":false,"is_transit":false,"i_long":106.82482},{"time":2,"transit":false,"station_id":"SW","is_transit":false,"i_lat":-6.160725,"i_long":106.827103,"line":2,"station_name":"Sawah Besar","distance":906},{"i_long":106.828284,"time":2,"station_name":"Juanda","transit":false,"distance":1149,"i_lat":-6.166716,"station_id":"JUA","line":2,"is_transit":false},{"line":2,"station_name":"Gondangdia","i_lat":-6.186295,"i_long":106.832183,"time":4,"station_id":"GDD","transit":false,"is_transit":false,"distance":2015},{"i_lat":-6.198556,"station_id":"CKI","station_name":"Cikini","transit":false,"time":3,"i_long":106.840169,"line":2,"distance":1750,"is_transit":false},{"distance":1590,"is_transit":true,"transit":true,"line":2,"station_name":"Manggarai","time":4,"i_long":106.84912,"i_lat":-6.209883,"station_id":"MRI"},{"station_name":"Matraman","time":2,"i_long":106.858896,"transit":false,"is_transit":false,"i_lat":-6.212485,"station_id":"MTR","distance":1275,"line":1},{"station_name":"Jatinegara","i_long":106.86807400000001,"line":1,"i_lat":-6.215091,"station_id":"JNG","is_transit":false,"transit":false,"distance":1377,"time":8},{"transit":false,"station_id":"KLD","line":1,"time":3,"i_lat":-6.2135,"is_transit":false,"station_name":"Klender","i_long":106.899548,"distance":3395},{"line":1,"is_transit":false,"transit":false,"station_id":"BUA","time":2,"i_long":106.922662,"station_name":"Buaran","distance":3100,"i_lat":-6.215568},{"i_lat":-6.217455,"line":1,"distance":1305,"station_name":"Klenderbaru","is_transit":false,"i_long":106.939679,"time":1,"transit":false,"station_id":"KLDB"},{"station_name":"Cakung","is_transit":false,"time":8,"station_id":"CUK","transit":false,"i_long":106.951283,"distance":1385,"i_lat":-6.219053,"line":1},{"is_transit":false,"transit":false,"station_name":"Kranji","distance":3097,"i_lat":-6.224515,"time":3,"line":1,"station_id":"KRI","i_long":106.977657},{"is_transit":false,"i_lat":-6.236616,"station_name":"Bekasi","i_long":106.997013,"station_id":"BKS","distance":2520,"line":1,"time":4,"transit":false},{"line":1,"station_id":"BKST","time":2,"transit":false,"station_name":"Bekasi Timur","is_transit":false,"distance":2368,"i_lat":-6.248029,"i_long":107.016735},{"is_transit":false,"station_id":"TB","distance":4460,"time":7,"i_lat":-6.258864,"i_long":107.055722,"transit":false,"line":1,"station_name":"Tambun"}],[{"line":3,"transit":false,"is_transit":false,"time":0,"station_id":"CC","station_name":"Cicayur","distance":0,"i_long":106.617853,"i_lat":-6.329547},{"i_long":106.640411,"is_transit":false,"time":4,"station_name":"Cisauk","station_id":"CSK","i_lat":-6.32484,"distance":2519,"transit":false,"line":3},{"is_transit":false,"line":6,"transit":false,"station_id":"SRP","distance":1784,"i_lat":-6.319871,"i_long":106.66566,"station_name":"Serpong","time":4},{"i_lat":-6.314823,"station_id":"RU","is_transit":false,"time":4,"line":6,"i_long":106.675475,"station_name":"Rawa Buntu","transit":false,"distance":2413},{"i_long":106.712277,"distance":4566,"station_id":"SDM","is_transit":false,"line":6,"station_name":"Sudimara","transit":false,"time":6,"i_lat":-6.296963},{"station_id":"JMU","time":4,"i_lat":-6.288927,"is_transit":false,"distance":1994,"station_name":"Jurangmangu","i_long":106.728916,"line":6,"transit":false},{"transit":false,"is_transit":false,"station_name":"Pondokranji","i_long":106.74273,"distance":2179,"i_lat":-6.276362,"time":3,"station_id":"PDJ","line":6},{"station_name":"Kebayoran","distance":6218,"time":8,"i_long":106.780334,"i_lat":-6.237242,"station_id":"KBY","transit":false,"line":6,"is_transit":false},{"transit":false,"i_long":106.79689,"line":6,"station_name":"Palmerah","is_transit":false,"i_lat":-6.207404,"station_id":"PLM","distance":3737,"time":7},{"distance":3191,"i_lat":-6.185545,"time":6,"is_transit":true,"line":1,"transit":true,"i_long":106.811091,"station_name":"Tanah Abang","station_id":"THB"},{"i_lat":-6.20132,"transit":false,"is_transit":false,"station_name":"Karet","station_id":"KAT","line":1,"time":5,"i_long":106.816351,"distance":2029},{"station_name":"Sudirman Baru","i_lat":-6.201433,"is_transit":false,"line":1,"distance":471,"i_long":106.819881,"station_id":"SUDB","time":1,"transit":false},{"time":1,"line":1,"i_long":106.822649,"is_transit":false,"i_lat":-6.202263,"station_id":"SUD","station_name":"Sudirman","transit":false,"distance":280},{"station_id":"MRI","time":4,"is_transit":true,"i_lat":-6.209883,"distance":3186,"i_long":106.84912,"line":2,"transit":true,"station_name":"Manggarai"},{"transit":false,"station_name":"Cikini","i_lat":-6.198556,"time":4,"station_id":"CKI","distance":1590,"is_transit":false,"line":2,"i_long":106.840169},{"line":2,"transit":false,"time":3,"distance":1750,"is_transit":false,"station_name":"Gondangdia","station_id":"GDD","i_lat":-6.186295,"i_long":106.832183},{"line":2,"time":4,"i_long":106.828284,"station_name":"Juanda","distance":2015,"station_id":"JUA","i_lat":-6.166716,"transit":false,"is_transit":false},{"time":2,"station_id":"SW","is_transit":false,"transit":false,"i_lat":-6.160725,"distance":1149,"line":2,"i_long":106.827103,"station_name":"Sawah Besar"},{"i_lat":-6.149769,"line":2,"station_name":"Manggabesar","time":2,"i_long":106.82482,"distance":906,"transit":false,"station_id":"MGB","is_transit":false},{"transit":false,"station_name":"Jayakarta","time":2,"i_lat":-6.141205,"is_transit":false,"distance":1080,"i_long":106.820901,"line":2,"station_id":"JAY"},{"line":2,"transit":true,"time":4,"distance":1264,"station_id":"JAKK","is_transit":true,"i_lat":-6.137569,"station_name":"Jakarta Kota","i_long":106.812439},{"station_name":"Kampung Bandan","time":3,"is_transit":true,"station_id":"KPB","i_long":106.826365,"line":4,"transit":true,"i_lat":-6.132549,"distance":1364},{"time":3,"i_long":106.836569,"station_id":"RJW","line":11,"transit":false,"station_name":"Rajawali","distance":1444,"i_lat":-6.14505,"is_transit":false},{"transit":false,"line":11,"i_lat":-6.161728,"i_long":106.839204,"station_name":"Kemayoran","distance":1901,"time":5,"station_id":"KMO","is_transit":false},{"i_long":106.84368,"time":4,"distance":1436,"is_transit":false,"i_lat":-6.174784,"line":11,"station_id":"PSE","transit":false,"station_name":"Pasar Senen"},{"transit":false,"i_lat":-6.185975,"is_transit":false,"i_long":106.850107,"station_name":"Gang Sentiong","line":11,"time":8,"station_id":"GST","distance":1567},{"station_name":"Kramat","is_transit":false,"station_id":"KMT","i_lat":-6.193792,"transit":false,"i_long":106.855437,"line":11,"distance":973,"time":1},{"line":11,"i_lat":-6.209188,"station_name":"Pondok Jati","transit":false,"is_transit":false,"time":2,"station_id":"POK","i_long":106.861737,"distance":1829},{"station_name":"Jatinegara","transit":true,"station_id":"JNG","distance":1236,"is_transit":true,"time":9,"i_lat":-6.215091,"i_long":106.86807400000001,"line":1},{"station_id":"KLD","distance":3395,"station_name":"Klender","is_transit":false,"transit":false,"i_lat":-6.2135,"line":1,"time":3,"i_long":106.899548},{"i_lat":-6.215568,"station_name":"Buaran","transit":false,"time":2,"i_long":106.922662,"is_transit":false,"distance":3100,"line":1,"station_id":"BUA"},{"station_id":"KLDB","distance":1305,"station_name":"Klenderbaru","i_lat":-6.217455,"time":1,"i_long":106.939679,"line":1,"transit":false,"is_transit":false},{"line":1,"transit":false,"distance":1385,"time":8,"i_lat":-6.219053,"is_transit":false,"station_id":"CUK","station_name":"Cakung","i_long":106.951283},{"line":1,"transit":false,"distance":3097,"station_name":"Kranji","i_lat":-6.224515,"is_transit":false,"i_long":106.977657,"time":3,"station_id":"KRI"},{"time":4,"station_id":"BKS","i_lat":-6.236616,"station_name":"Bekasi","is_transit":false,"i_long":106.997013,"transit":false,"line":1,"distance":2520},{"i_lat":-6.248029,"transit":false,"i_long":107.016735,"station_id":"BKST","time":2,"is_transit":false,"station_name":"Bekasi Timur","distance":2368,"line":1},{"is_transit":false,"time":7,"station_name":"Tambun","station_id":"TB","i_lat":-6.258864,"i_long":107.055722,"line":1,"transit":false,"distance":4460}]]}