{"data":[[{"distance":0,"i_lat":-6.329547,"transit":false,"station_id":"CC","time":0,"i_long":106.617853,"is_transit":false,"line":3,"station_name":"Cicayur"},{"station_name":"Cisauk","transit":false,"distance":2519,"i_long":106.640411,"time":4,"i_lat":-6.32484,"line":3,"station_id":"CSK","is_transit":false},{"i_long":106.66566,"transit":false,"is_transit":false,"station_name":"Serpong","time":4,"distance":1784,"i_lat":-6.319871,"station_id":"SRP","line":6},{"station_name":"Rawa Buntu","station_id":"RU","i_lat":-6.314823,"is_transit":false,"distance":2413,"i_long":106.675475,"time":4,"line":6,"transit":false},{"distance":4566,"station_id":"SDM","time":6,"transit":false,"line":6,"i_long":106.712277,"is_transit":false,"i_lat":-6.296963,"station_name":"Sudimara"},{"line":6,"station_name":"Jurangmangu","distance":1994,"transit":false,"station_id":"JMU","is_transit":false,"i_lat":-6.288927,"i_long":106.728916,"time":4},{"station_id":"PDJ","transit":false,"i_long":106.74273,"time":3,"distance":2179,"station_name":"Pondokranji","is_transit":false,"i_lat":-6.276362,"line":6},{"is_transit":false,"distance":6218,"i_long":106.780334,"time":8,"line":6,"i_lat":-6.237242,"transit":false,"station_name":"Kebayoran","station_id":"KBY"},{"i_lat":-6.207404,"i_long":106.79689,"time":7,"station_name":"Palmerah","station_id":"PLM","line":6,"transit":false,"is_transit":false,"distance":3737},{"station_id":"THB","time":6,"i_lat":-6.185545,"is_transit":true,"i_long":106.811091,"station_name":"Tanah Abang","transit":true,"distance":3191,"line":1},{"i_lat":-6.20132,"distance":2029,"i_long":106.816351,"is_transit":false,"station_name":"Karet","station_id":"KAT","time":5,"line":1,"transit":false},{"i_lat":-6.201433,"transit":false,"time":1,"distance":471,"station_name":"Sudirman Baru","is_transit":false,"i_long":106.819881,"line":1,"station_id":"SUDB"},{"transit":false,"time":1,"i_long":106.822649,"station_name":"Sudirman","station_id":"SUD","distance":280,"is_transit":false,"i_lat":-6.202263,"line":1},{"line":2,"i_long":106.84912,"distance":3186,"is_transit":false,"i_lat":-6.209883,"time":4,"station_id":"MRI","transit":false,"station_name":"Manggarai"},{"time":2,"distance":1275,"i_lat":-6.212485,"station_id":"MTR","transit":false,"i_long":106.858896,"is_transit":false,"line":1,"station_name":"Matraman"},{"i_long":106.86807400000001,"time":8,"i_lat":-6.215091,"transit":false,"station_id":"JNG","station_name":"Jatinegara","line":1,"distance":1377,"is_transit":false},{"time":3,"station_id":"KLD","distance":3395,"i_lat":-6.2135,"i_long":106.899548,"station_name":"Klender","transit":false,"line":1,"is_transit":false},{"i_long":106.922662,"time":2,"transit":false,"station_id":"BUA","is_transit":false,"distance":3100,"i_lat":-6.215568,"station_name":"Buaran","line":1},{"time":1,"i_lat":-6.217455,"distance":1305,"station_id":"KLDB","is_transit":false,"transit":false,"line":1,"i_long":106.939679,"station_name":"Klenderbaru"},{"transit":false,"is_transit":false,"line":1,"station_name":"Cakung","time":8,"i_lat":-6.219053,"i_long":106.951283,"station_id":"CUK","distance":1385},{"i_long":106.977657,"transit":false,"station_id":"KRI","is_transit":false,"station_name":"Kranji","i_lat":-6.224515,"distance":3097,"line":1,"time":3},{"line":1,"station_id":"BKS","time":4,"is_transit":false,"i_lat":-6.236616,"distance":2520,"i_long":106.997013,"station_name":"Bekasi","transit":false},{"i_lat":-6.248029,"i_long":107.016735,"time":2,"station_name":"Bekasi Timur","line":1,"is_transit":false,"transit":false,"station_id":"BKST","distance":2368},{"station_id":"TB","station_name":"Tambun","distance":4460,"i_long":107.055722,"i_lat":-6.258864,"transit":false,"time":7,"is_transit":false,"line":1},{"i_long":107.083084,"i_lat":-6.261877,"time":3,"is_transit":false,"transit":false,"station_name":"Cibitung","line":1,"station_id":"CIT","distance":3420},{"distance":2800,"line":1,"transit":false,"station_id":"TLM","i_long":107.093313,"station_name":"Metland Telaga Murni","i_lat":-6.262938,"is_transit":false,"time":2}],[{"transit":false,"i_lat":-6.329547,"line":3,"is_transit":false,"time":0,"station_name":"Cicayur","i_long":106.617853,"distance":0,"station_id":"CC"},{"distance":2519,"i_lat":-6.32484,"line":3,"station_name":"Cisauk","transit":false,"station_id":"CSK","is_transit":false,"time":4,"i_long":106.640411},{"i_lat":-6.319871,"is_transit":false,"i_long":106.66566,"line":6,"station_id":"SRP","time":4,"transit":false,"distance":1784,"station_name":"Serpong"},{"station_name":"Rawa Buntu","is_transit":false,"line":6,"time":4,"i_long":106.675475,"transit":false,"station_id":"RU","i_lat":-6.314823,"distance":2413},{"i_long":106.712277,"distance":4566,"station_id":"SDM","line":6,"transit":false,"is_transit":false,"i_lat":-6.296963,"time":6,"station_name":"Sudimara"},{"transit":false,"line":6,"i_lat":-6.288927,"time":4,"distance":1994,"station_id":"JMU","is_transit":false,"i_long":106.728916,"station_name":"Jurangmangu"},{"station_id":"PDJ","time":3,"line":6,"i_lat":-6.276362,"i_long":106.74273,"station_name":"Pondokranji","is_transit":false,"distance":2179,"transit":false},{"station_name":"Kebayoran","station_id":"KBY","distance":6218,"i_long":106.780334,"transit":false,"i_lat":-6.237242,"is_transit":false,"line":6,"time":8},{"transit":false,"station_name":"Palmerah","i_lat":-6.207404,"is_transit":false,"line":6,"time":7,"i_long":106.79689,"station_id":"PLM","distance":3737},{"station_id":"THB","is_transit":true,"line":1,"distance":3191,"time":6,"i_long":106.811091,"transit":true,"station_name":"Tanah Abang","i_lat":-6.185545},{"i_long":106.800832,"transit":false,"station_id":"DU","i_lat":-6.155215,"time":8,"station_name":"Duri","distance":3632,"is_transit":false,"line":1},{"station_name":"Angke","i_lat":-6.144674,"distance":1230,"time":4,"station_id":"AK","i_long":106.79867,"is_transit":false,"line":1,"transit":false},{"time":9,"station_id":"KPB","i_long":106.826365,"station_name":"Kampung Bandan","line":4,"i_lat":-6.132549,"distance":4102,"transit":true,"is_transit":true},{"i_long":106.836569,"line":11,"distance":1444,"station_id":"RJW","is_transit":false,"transit":false,"station_name":"Rajawali","time":3,"i_lat":-6.14505},{"station_name":"Kemayoran","station_id":"KMO","is_transit":false,"distance":1901,"i_lat":-6.161728,"i_long":106.839204,"time":5,"transit":false,"line":11},{"station_id":"PSE","i_long":106.84368,"station_name":"Pasar Senen","time":4,"is_transit":false,"i_lat":-6.174784,"distance":1436,"transit":false,"line":11},{"station_id":"GST","i_long":106.850107,"time":8,"transit":false,"line":11,"is_transit":false,"distance":1567,"i_lat":-6.185975,"station_name":"Gang Sentiong"},{"station_id":"KMT","i_long":106.855437,"is_transit":false,"distance":973,"transit":false,"time":1,"line":11,"i_lat":-6.193792,"station_name":"Kramat"},{"i_lat":-6.209188,"station_name":"Pondok Jati","distance":1829,"i_long":106.861737,"line":11,"transit":false,"station_id":"POK","time":2,"is_transit":false},{"transit":true,"station_name":"Jatinegara","time":9,"station_id":"JNG","i_long":106.86807400000001,"is_transit":true,"i_lat":-6.215091,"line":1,"distance":1236},{"station_name":"Klender","is_transit":false,"time":3,"station_id":"KLD","distance":3395,"i_lat":-6.2135,"i_long":106.899548,"line":1,"transit":false},{"station_id":"BUA","i_long":106.922662,"line":1,"i_lat":-6.215568,"station_name":"Buaran","transit":false,"is_transit":false,"distance":3100,"time":2},{"station_id":"KLDB","time":1,"transit":false,"i_lat":-6.217455,"is_transit":false,"line":1,"distance":1305,"i_long":106.939679,"station_name":"Klenderbaru"},{"station_id":"CUK","i_lat":-6.219053,"i_long":106.951283,"station_name":"Cakung","time":8,"transit":false,"line":1,"distance":1385,"is_transit":false},{"distance":3097,"transit":false,"station_name":"Kranji","time":3,"i_long":106.977657,"line":1,"station_id":"KRI","is_transit":false,"i_lat":-6.224515},{"station_name":"Bekasi","time":4,"station_id":"BKS","i_long":106.997013,"line":1,"is_transit":false,"i_lat":-6.236616,"transit":false,"distance":2520},{"i_lat":-6.248029,"i_long":107.016735,"time":2,"transit":false,"station_name":"Bekasi Timur","distance":2368,"is_transit":false,"line":1,"station_id":"BKST"},{"distance":4460,"station_id":"TB","i_long":107.055722,"transit":false,"station_name":"Tambun","i_lat":-6.258864,"is_transit":false,"time":7,"line":1},{"i_long":107.083084,"is_transit":false,"time":3,"transit":false,"station_id":"CIT","line":1,"distance":3420,"station_name":"Cibitung","i_lat":-6.261877},{"line":1,"transit":false,"i_long":107.093313,"time":2,"station_name":"Metland Telaga Murni","distance":2800,"is_transit":false,"station_id":"TLM","i_lat":-6.262938}],[{"time":0,"distance":0,"station_name":"Cicayur","i_lat":-6.329547,"i_long":106.617853,"line":3,"station_id":"CC","transit":false,"is_transit":false},{"i_long":106.640411,"distance":2519,"i_lat":-6.32484,"is_transit":false,"line":3,"station_id":"CSK","station_name":"Cisauk","transit":false,"time":4},{"is_transit":false,"time":4,"transit":false,"station_name":"Serpong","i_lat":-6.319871,"station_id":"SRP","line":6,"distance":1784,"i_long":106.66566},{"station_id":"RU","i_lat":-6.314823,"time":4,"station_name":"Rawa Buntu","i_long":106.675475,"transit":false,"distance":2413,"line":6,"is_transit":false},{"time":6,"station_name":"Sudimara","i_long":106.712277,"is_transit":false,"transit":false,"station_id":"SDM","distance":4566,"i_lat":-6.296963,"line":6},{"i_long":106.728916,"line":6,"i_lat":-6.288927,"time":4,"transit":false,"station_name":"Jurangmangu","station_id":"JMU","distance":1994,"is_transit":false},{"is_transit":false,"time":3,"distance":2179,"line":6,"station_id":"PDJ","transit":false,"station_name":"Pondokranji","i_lat":-6.276362,"i_long":106.74273},{"i_long":106.780334,"line":6,"transit":false,"station_name":"Kebayoran","is_transit":false,"distance":6218,"time":8,"i_lat":-6.237242,"station_id":"KBY"},{"is_transit":false,"time":7,"station_id":"PLM","i_lat":-6.207404,"station_name":"Palmerah","i_long":106.79689,"line":6,"distance":3737,"transit":false},{"station_id":"THB","i_lat":-6.185545,"is_transit":true,"time":6,"distance":3191,"station_name":"Tanah Abang","i_long":106.811091,"transit":true,"line":1},{"station_id":"DU","time":8,"transit":false,"distance":3632,"station_name":"Duri","i_long":106.800832,"line":1,"i_lat":-6.155215,"is_transit":false},{"transit":false,"station_id":"AK","is_transit":false,"time":4,"distance":1230,"i_lat":-6.144674,"i_long":106.79867,"station_name":"Angke","line":1},{"time":9,"distance":4102,"i_long":106.826365,"station_id":"KPB","line":4,"station_name":"Kampung Bandan","is_transit":true,"i_lat":-6.132549,"transit":true},{"line":2,"station_id":"JAKK","time":3,"i_lat":-6.137569,"is_transit":true,"distance":1364,"transit":true,"station_name":"Jakarta Kota","i_long":106.812439},{"time":4,"transit":false,"line":2,"is_transit":false,"station_name":"Jayakarta","distance":1264,"i_lat":-6.141205,"i_long":106.820901,"station_id":"JAY"},{"distance":1080,"is_transit":false,"line":2,"station_name":"Manggabesar","i_lat":-6.149769,"transit":false,"time":2,"i_long":106.82482,"station_id":"MGB"},{"i_long":106.827103,"i_lat":-6.160725,"line":2,"station_id":"SW","transit":false,"station_name":"Sawah Besar","distance":906,"is_transit":false,"time":2},{"line":2,"station_id":"JUA","time":2,"is_transit":false,"station_name":"Juanda","i_long":106.828284,"i_lat":-6.166716,"transit":false,"distance":1149},{"distance":2015,"station_id":"GDD","line":2,"station_name":"Gondangdia","i_lat":-6.186295,"transit":false,"time":4,"i_long":106.832183,"is_transit":false},{"i_lat":-6.198556,"i_long":106.840169,"transit":false,"station_name":"Cikini","time":3,"distance":1750,"is_transit":false,"station_id":"CKI","line":2},{"time":4,"line":2,"i_lat":-6.209883,"station_name":"Manggarai","station_id":"MRI","i_long":106.84912,"distance":1590,"transit":true,"is_transit":true},{"is_transit":false,"station_id":"MTR","i_lat":-6.212485,"transit":false,"i_long":106.858896,"station_name":"Matraman","line":1,"distance":1275,"time":2},{"line":1,"i_long":106.86807400000001,"is_transit":false,"station_id":"JNG","i_lat":-6.215091,"station_name":"Jatinegara","time":8,"distance":1377,"transit":false},{"station_id":"KLD","i_lat":-6.2135,"station_name":"Klender","i_long":106.899548,"distance":3395,"is_transit":false,"line":1,"transit":false,"time":3},{"i_lat":-6.215568,"i_long":106.922662,"is_transit":false,"line":1,"station_id":"BUA","transit":false,"time":2,"distance":3100,"station_name":"Buaran"},{"is_transit":false,"transit":false,"station_name":"Klenderbaru","time":1,"station_id":"KLDB","line":1,"i_lat":-6.217455,"i_long":106.939679,"distance":1305},{"station_id":"CUK","is_transit":false,"i_lat":-6.219053,"station_name":"Cakung","distance":1385,"i_long":106.951283,"time":8,"line":1,"transit":false},{"station_name":"Kranji","time":3,"line":1,"station_id":"KRI","distance":3097,"is_transit":false,"i_lat":-6.224515,"i_long":106.977657,"transit":false},{"station_id":"BKS","station_name":"Bekasi","distance":2520,"i_lat":-6.236616,"transit":false,"is_transit":false,"line":1,"i_long":106.997013,"time":4},{"time":2,"line":1,"distance":2368,"station_id":"BKST","station_name":"Bekasi Timur","is_transit":false,"transit":false,"i_lat":-6.248029,"i_long":107.016735},{"i_long":107.055722,"transit":false,"i_lat":-6.258864,"line":1,"is_transit":false,"station_id":"TB","station_name":"Tambun","distance":4460,"time":7},{"transit":false,"station_id":"CIT","distance":3420,"i_long":107.083084,"is_transit":false,"station_name":"Cibitung","time":3,"i_lat":-6.261877,"line":1},{"station_id":"TLM","station_name":"Metland Telaga Murni","distance":2800,"line":1,"transit":false,"is_transit":false,"time":2,"i_lat":-6.262938,"i_long":107.093313}],[{"time":0,"transit":false,"distance":0,"is_transit":false,"line":3,"i_long":106.617853,"station_name":"Cicayur","station_id":"CC","i_lat":-6.329547},{"station_name":"Cisauk","i_lat":-6.32484,"station_id":"CSK","is_transit":false,"i_long":106.640411,"line":3,"transit":false,"time":4,"distance":2519},{"is_transit":false,"station_name":"Serpong","transit":false,"station_id":"SRP","line":6,"i_lat":-6.319871,"distance":1784,"time":4,"i_long":106.66566},{"is_transit":false,"distance":2413,"station_name":"Rawa Buntu","transit":false,"station_id":"RU","i_long":106.675475,"time":4,"line":6,"i_lat":-6.314823},{"distance":4566,"i_lat":-6.296963,"station_name":"Sudimara","line":6,"time":6,"station_id":"SDM","transit":false,"i_long":106.712277,"is_transit":false},{"time":4,"i_lat":-6.288927,"station_id":"JMU","i_long":106.728916,"line":6,"is_transit":false,"transit":false,"station_name":"Jurangmangu","distance":1994},{"distance":2179,"i_lat":-6.276362,"station_name":"Pondokranji","is_transit":false,"time":3,"line":6,"station_id":"PDJ","i_long":106.74273,"transit":false},{"transit":false,"is_transit":false,"station_id":"KBY","distance":6218,"station_name":"Kebayoran","time":8,"i_lat":-6.237242,"i_long":106.780334,"line":6},{"time":7,"transit":false,"station_name":"Palmerah","distance":3737,"i_lat":-6.207404,"i_long":106.79689,"station_id":"PLM","line":6,"is_transit":false},{"transit":true,"is_transit":true,"station_name":"Tanah Abang","station_id":"THB","distance":3191,"i_lat":-6.185545,"i_long":106.811091,"line":1,"time":6},{"station_id":"KAT","line":1,"is_transit":false,"station_name":"Karet","i_long":106.816351,"transit":false,"i_lat":-6.20132,"distance":2029,"time":5},{"transit":false,"is_transit":false,"line":1,"station_name":"Sudirman Baru","distance":471,"i_lat":-6.201433,"station_id":"SUDB","time":1,"i_long":106.819881},{"is_transit":false,"station_name":"Sudirman","distance":280,"station_id":"SUD","i_lat":-6.202263,"i_long":106.822649,"line":1,"transit":false,"time":1},{"is_transit":true,"i_lat":-6.209883,"station_name":"Manggarai","transit":true,"station_id":"MRI","time":4,"distance":3186,"line":2,"i_long":106.84912},{"station_name":"Cikini","transit":false,"station_id":"CKI","is_transit":false,"line":2,"i_lat":-6.198556,"i_long":106.840169,"time":4,"distance":1590},{"line":2,"station_id":"GDD","station_name":"Gondangdia","distance":1750,"time":3,"i_lat":-6.186295,"transit":false,"is_transit":false,"i_long":106.832183},{"distance":2015,"i_lat":-6.166716,"transit":false,"station_name":"Juanda","station_id":"JUA","time":4,"is_transit":false,"i_long":106.828284,"line":2},{"time":2,"i_lat":-6.160725,"station_name":"Sawah Besar","i_long":106.827103,"distance":1149,"is_transit":false,"line":2,"station_id":"SW","transit":false},{"station_name":"Manggabesar","distance":906,"time":2,"i_lat":-6.149769,"station_id":"MGB","i_long":106.82482,"line":2,"transit":false,"is_transit":false},{"i_lat":-6.141205,"transit":false,"line":2,"station_name":"Jayakarta","is_transit":false,"station_id":"JAY","time":2,"distance":1080,"i_long":106.820901},{"time":4,"i_lat":-6.137569,"i_long":106.812439,"distance":1264,"line":2,"transit":true,"station_id":"JAKK","station_name":"Jakarta Kota","is_transit":true},{"is_transit":true,"i_long":106.826365,"line":4,"station_name":"Kampung Bandan","distance":1364,"station_id":"KPB","transit":true,"i_lat":-6.132549,"time":3},{"station_name":"Rajawali","i_lat":-6.14505,"is_transit":false,"time":3,"i_long":106.836569,"line":11,"distance":1444,"station_id":"RJW","transit":false},{"station_name":"Kemayoran","time":5,"station_id":"KMO","is_transit":false,"distance":1901,"i_long":106.839204,"line":11,"i_lat":-6.161728,"transit":false},{"line":11,"i_lat":-6.174784,"is_transit":false,"station_id":"PSE","i_long":106.84368,"distance":1436,"station_name":"Pasar Senen","transit":false,"time":4},{"i_long":106.850107,"is_transit":false,"transit":false,"i_lat":-6.185975,"distance":1567,"station_id":"GST","station_name":"Gang Sentiong","line":11,"time":8},{"station_name":"Kramat","transit":false,"station_id":"KMT","time":1,"i_lat":-6.193792,"i_long":106.855437,"line":11,"is_transit":false,"distance":973},{"distance":1829,"is_transit":false,"station_id":"POK","time":2,"transit":false,"i_lat":-6.209188,"station_name":"Pondok Jati","i_long":106.861737,"line":11},{"i_lat":-6.215091,"time":9,"is_transit":true,"distance":1236,"line":1,"station_name":"Jatinegara","transit":true,"station_id":"JNG","i_long":106.86807400000001},{"transit":false,"station_name":"Klender","i_long":106.899548,"station_id":"KLD","i_lat":-6.2135,"is_transit":false,"distance":3395,"time":3,"line":1},{"transit":false,"station_name":"Buaran","i_lat":-6.215568,"is_transit":false,"station_id":"BUA","distance":3100,"line":1,"time":2,"i_long":106.922662},{"is_transit":false,"station_id":"KLDB","line":1,"transit":false,"station_name":"Klenderbaru","time":1,"distance":1305,"i_lat":-6.217455,"i_long":106.939679},{"distance":1385,"transit":false,"i_lat":-6.219053,"i_long":106.951283,"station_id":"CUK","line":1,"station_name":"Cakung","is_transit":false,"time":8},{"station_id":"KRI","distance":3097,"time":3,"i_lat":-6.224515,"is_transit":false,"station_name":"Kranji","transit":false,"line":1,"i_long":106.977657},{"is_transit":false,"i_long":106.997013,"transit":false,"station_id":"BKS","i_lat":-6.236616,"station_name":"Bekasi","distance":2520,"line":1,"time":4},{"station_id":"BKST","transit":false,"time":2,"is_transit":false,"distance":2368,"line":1,"i_lat":-6.248029,"station_name":"Bekasi Timur","i_long":107.016735},{"station_name":"Tambun","time":7,"i_lat":-6.258864,"distance":4460,"station_id":"TB","is_transit":false,"transit":false,"line":1,"i_long":107.055722},{"is_transit":false,"distance":3420,"line":1,"transit":false,"station_id":"CIT","time":3,"i_lat":-6.261877,"station_name":"Cibitung","i_long":107.083084},{"is_transit":false,"i_lat":-6.262938,"transit":false,"i_long":107.093313,"time":2,"station_name":"Metland Telaga Murni","line":1,"station_id":"TLM","distance":2800}]]}