{"data":[[{"i_long":106.617853,"i_lat":-6.329547,"is_transit":false,"line":3,"transit":false,"station_id":"CC","distance":0,"station_name":"Cicayur","time":0},{"line":3,"time":4,"distance":2519,"station_id":"CSK","is_transit":false,"i_long":106.640411,"station_name":"Cisauk","transit":false,"i_lat":-6.32484},{"i_lat":-6.319871,"line":6,"i_long":106.66566,"station_id":"SRP","station_name":"Serpong","time":4,"transit":false,"distance":1784,"is_transit":false},{"is_transit":false,"i_long":106.675475,"line":6,"distance":2413,"i_lat":-6.314823,"station_name":"Rawa Buntu","time":4,"station_id":"RU","transit":false},{"i_lat":-6.296963,"transit":false,"line":6,"time":6,"distance":4566,"station_id":"SDM","is_transit":false,"station_name":"Sudimara","i_long":106.712277},{"station_name":"Jurangmangu","is_transit":false,"time":4,"distance":1994,"transit":false,"i_long":106.728916,"station_id":"JMU","line":6,"i_lat":-6.288927},{"transit":false,"line":6,"time":3,"is_transit":false,"i_lat":-6.276362,"station_id":"PDJ","i_long":106.74273,"station_name":"Pondokranji","distance":2179},{"i_long":106.780334,"transit":false,"i_lat":-6.237242,"station_id":"KBY","is_transit":false,"line":6,"time":8,"distance":6218,"station_name":"Kebayoran"},{"station_name":"Palmerah","i_lat":-6.207404,"time":7,"station_id":"PLM","line":6,"is_transit":false,"i_long":106.79689,"transit":false,"distance":3737},{"station_id":"THB","time":6,"transit":true,"i_lat":-6.185545,"is_transit":true,"line":1,"station_name":"Tanah Abang","distance":3191,"i_long":106.811091},{"distance":2029,"i_lat":-6.20132,"station_id":"KAT","station_name":"Karet","line":1,"is_transit":false,"time":5,"transit":false,"i_long":106.816351},{"distance":471,"station_name":"Sudirman Baru","is_transit":false,"line":1,"time":1,"station_id":"SUDB","transit":false,"i_lat":-6.201433,"i_long":106.819881},{"time":1,"line":1,"station_id":"SUD","distance":280,"station_name":"Sudirman","is_transit":false,"i_lat":-6.202263,"i_long":106.822649,"transit":false},{"i_long":106.84912,"time":4,"station_name":"Manggarai","is_transit":true,"station_id":"MRI","transit":true,"i_lat":-6.209883,"distance":3186,"line":2},{"distance":2610,"time":4,"i_lat":-6.226659,"station_name":"Tebet","transit":false,"i_long":106.857948,"is_transit":false,"station_id":"TEB","line":2},{"line":2,"station_name":"Cawang","station_id":"CW","time":2,"distance":1230,"is_transit":false,"transit":false,"i_long":106.856607,"i_lat":-6.242512},{"station_name":"Duren Kalibata","line":2,"is_transit":false,"station_id":"DRN","i_lat":-6.255332,"time":3,"distance":1546,"transit":false,"i_long":106.85449},{"i_lat":-6.263214,"distance":824,"transit":false,"line":2,"time":2,"is_transit":false,"i_long":106.851577,"station_id":"PSMB","station_name":"Pasar Minggu Baru"},{"distance":2380,"station_name":"Pasar Minggu","station_id":"PSM","i_lat":-6.2842400000000005,"transit":false,"is_transit":false,"time":2,"line":2,"i_long":106.843999},{"transit":false,"station_id":"TNT","time":4,"is_transit":false,"distance":2820,"i_long":106.838896,"line":2,"station_name":"Tanjung Barat","i_lat":-6.3080680000000005},{"time":3,"line":2,"distance":2671,"i_long":106.832616,"transit":false,"station_name":"Lenteng Agung","i_lat":-6.330363,"station_id":"LNA","is_transit":false},{"i_long":106.834175,"line":2,"distance":1029,"station_name":"Univ. Pancasila","is_transit":false,"i_lat":-6.339291,"station_id":"UP","transit":false,"time":2}],[{"distance":0,"transit":false,"station_id":"CC","station_name":"Cicayur","is_transit":false,"i_lat":-6.329547,"line":3,"i_long":106.617853,"time":0},{"is_transit":false,"station_id":"CSK","i_long":106.640411,"distance":2519,"transit":false,"station_name":"Cisauk","line":3,"time":4,"i_lat":-6.32484},{"i_long":106.66566,"i_lat":-6.319871,"is_transit":false,"distance":1784,"line":6,"transit":false,"station_id":"SRP","time":4,"station_name":"Serpong"},{"station_name":"Rawa Buntu","is_transit":false,"i_long":106.675475,"i_lat":-6.314823,"transit":false,"time":4,"distance":2413,"line":6,"station_id":"RU"},{"transit":false,"i_long":106.712277,"distance":4566,"station_id":"SDM","is_transit":false,"i_lat":-6.296963,"station_name":"Sudimara","line":6,"time":6},{"station_name":"Jurangmangu","distance":1994,"time":4,"station_id":"JMU","i_long":106.728916,"is_transit":false,"line":6,"i_lat":-6.288927,"transit":false},{"transit":false,"station_id":"PDJ","is_transit":false,"i_lat":-6.276362,"line":6,"station_name":"Pondokranji","time":3,"distance":2179,"i_long":106.74273},{"i_long":106.780334,"station_id":"KBY","distance":6218,"is_transit":false,"time":8,"transit":false,"station_name":"Kebayoran","line":6,"i_lat":-6.237242},{"line":6,"distance":3737,"transit":false,"station_id":"PLM","i_long":106.79689,"station_name":"Palmerah","is_transit":false,"i_lat":-6.207404,"time":7},{"i_long":106.811091,"distance":3191,"line":1,"transit":true,"station_name":"Tanah Abang","station_id":"THB","time":6,"is_transit":true,"i_lat":-6.185545},{"time":8,"station_id":"DU","distance":3632,"transit":false,"i_lat":-6.155215,"station_name":"Duri","is_transit":false,"line":1,"i_long":106.800832},{"i_lat":-6.144674,"station_id":"AK","station_name":"Angke","time":4,"i_long":106.79867,"transit":false,"distance":1230,"line":1,"is_transit":false},{"line":4,"station_id":"KPB","time":9,"i_long":106.826365,"i_lat":-6.132549,"transit":true,"station_name":"Kampung Bandan","is_transit":true,"distance":4102},{"time":3,"is_transit":true,"station_id":"JAKK","transit":true,"distance":1364,"station_name":"Jakarta Kota","i_lat":-6.137569,"line":2,"i_long":106.812439},{"station_name":"Jayakarta","i_long":106.820901,"transit":false,"station_id":"JAY","line":2,"is_transit":false,"distance":1264,"i_lat":-6.141205,"time":4},{"transit":false,"i_lat":-6.149769,"distance":1080,"is_transit":false,"station_id":"MGB","station_name":"Manggabesar","time":2,"i_long":106.82482,"line":2},{"station_id":"SW","station_name":"Sawah Besar","distance":906,"transit":false,"time":2,"i_long":106.827103,"i_lat":-6.160725,"line":2,"is_transit":false},{"transit":false,"station_id":"JUA","i_lat":-6.166716,"time":2,"i_long":106.828284,"station_name":"Juanda","is_transit":false,"line":2,"distance":1149},{"distance":2015,"i_lat":-6.186295,"time":4,"line":2,"station_id":"GDD","is_transit":false,"i_long":106.832183,"transit":false,"station_name":"Gondangdia"},{"station_id":"CKI","is_transit":false,"time":3,"station_name":"Cikini","i_lat":-6.198556,"line":2,"distance":1750,"transit":false,"i_long":106.840169},{"i_long":106.84912,"i_lat":-6.209883,"time":4,"line":2,"is_transit":false,"transit":false,"distance":1590,"station_id":"MRI","station_name":"Manggarai"},{"is_transit":false,"time":4,"line":2,"station_name":"Tebet","i_long":106.857948,"distance":2610,"transit":false,"i_lat":-6.226659,"station_id":"TEB"},{"time":2,"is_transit":false,"i_lat":-6.242512,"line":2,"station_id":"CW","distance":1230,"transit":false,"station_name":"Cawang","i_long":106.856607},{"is_transit":false,"transit":false,"line":2,"time":3,"i_long":106.85449,"distance":1546,"i_lat":-6.255332,"station_name":"Duren Kalibata","station_id":"DRN"},{"i_lat":-6.263214,"transit":false,"distance":824,"i_long":106.851577,"time":2,"station_name":"Pasar Minggu Baru","line":2,"station_id":"PSMB","is_transit":false},{"i_long":106.843999,"line":2,"station_id":"PSM","time":2,"is_transit":false,"i_lat":-6.2842400000000005,"station_name":"Pasar Minggu","distance":2380,"transit":false},{"is_transit":false,"i_long":106.838896,"station_id":"TNT","station_name":"Tanjung Barat","line":2,"distance":2820,"i_lat":-6.3080680000000005,"transit":false,"time":4},{"transit":false,"station_id":"LNA","station_name":"Lenteng Agung","is_transit":false,"distance":2671,"time":3,"line":2,"i_long":106.832616,"i_lat":-6.330363},{"is_transit":false,"time":2,"transit":false,"i_long":106.834175,"station_name":"Univ. Pancasila","line":2,"station_id":"UP","distance":1029,"i_lat":-6.339291}],[{"line":3,"time":0,"station_name":"Cicayur","is_transit":false,"i_lat":-6.329547,"distance":0,"station_id":"CC","i_long":106.617853,"transit":false},{"i_lat":-6.32484,"i_long":106.640411,"time":4,"line":3,"transit":false,"is_transit":false,"station_id":"CSK","station_name":"Cisauk","distance":2519},{"distance":1784,"transit":false,"line":6,"time":4,"is_transit":false,"station_name":"Serpong","i_long":106.66566,"station_id":"SRP","i_lat":-6.319871},{"i_long":106.675475,"line":6,"is_transit":false,"i_lat":-6.314823,"station_name":"Rawa Buntu","station_id":"RU","distance":2413,"transit":false,"time":4},{"i_long":106.712277,"station_name":"Sudimara","station_id":"SDM","is_transit":false,"transit":false,"distance":4566,"line":6,"time":6,"i_lat":-6.296963},{"station_id":"JMU","line":6,"transit":false,"time":4,"i_lat":-6.288927,"i_long":106.728916,"station_name":"Jurangmangu","is_transit":false,"distance":1994},{"transit":false,"station_id":"PDJ","is_transit":false,"line":6,"i_long":106.74273,"time":3,"station_name":"Pondokranji","i_lat":-6.276362,"distance":2179},{"distance":6218,"station_id":"KBY","transit":false,"i_long":106.780334,"line":6,"is_transit":false,"i_lat":-6.237242,"time":8,"station_name":"Kebayoran"},{"time":7,"station_id":"PLM","line":6,"distance":3737,"transit":false,"i_long":106.79689,"i_lat":-6.207404,"is_transit":false,"station_name":"Palmerah"},{"time":6,"is_transit":true,"line":1,"i_lat":-6.185545,"transit":true,"i_long":106.811091,"station_name":"Tanah Abang","distance":3191,"station_id":"THB"},{"line":1,"is_transit":false,"transit":false,"distance":3632,"station_id":"DU","station_name":"Duri","time":8,"i_lat":-6.155215,"i_long":106.800832},{"line":1,"station_id":"AK","transit":false,"distance":1230,"time":4,"i_long":106.79867,"station_name":"Angke","is_transit":false,"i_lat":-6.144674},{"i_lat":-6.132549,"time":9,"line":4,"station_id":"KPB","transit":true,"station_name":"Kampung Bandan","distance":4102,"is_transit":true,"i_long":106.826365},{"station_id":"RJW","i_lat":-6.14505,"distance":1444,"line":11,"transit":false,"is_transit":false,"station_name":"Rajawali","i_long":106.836569,"time":3},{"station_id":"KMO","station_name":"Kemayoran","i_lat":-6.161728,"is_transit":false,"transit":false,"i_long":106.839204,"distance":1901,"line":11,"time":5},{"is_transit":false,"line":11,"time":4,"transit":false,"i_long":106.84368,"distance":1436,"station_id":"PSE","station_name":"Pasar Senen","i_lat":-6.174784},{"station_name":"Gang Sentiong","distance":1567,"transit":false,"station_id":"GST","time":8,"is_transit":false,"i_lat":-6.185975,"line":11,"i_long":106.850107},{"station_name":"Kramat","i_lat":-6.193792,"distance":973,"station_id":"KMT","transit":false,"is_transit":false,"line":11,"i_long":106.855437,"time":1},{"i_lat":-6.209188,"distance":1829,"station_id":"POK","is_transit":false,"station_name":"Pondok Jati","i_long":106.861737,"time":2,"line":11,"transit":false},{"i_lat":-6.215091,"line":1,"time":9,"distance":1236,"transit":true,"station_id":"JNG","station_name":"Jatinegara","is_transit":true,"i_long":106.86807400000001},{"station_name":"Matraman","distance":1377,"station_id":"MTR","time":2,"is_transit":false,"transit":false,"i_lat":-6.212485,"i_long":106.858896,"line":1},{"is_transit":true,"transit":true,"line":2,"time":2,"distance":1275,"i_lat":-6.209883,"i_long":106.84912,"station_id":"MRI","station_name":"Manggarai"},{"transit":false,"i_long":106.857948,"distance":2610,"i_lat":-6.226659,"station_name":"Tebet","is_transit":false,"time":4,"station_id":"TEB","line":2},{"i_lat":-6.242512,"distance":1230,"is_transit":false,"station_id":"CW","line":2,"time":2,"transit":false,"i_long":106.856607,"station_name":"Cawang"},{"station_name":"Duren Kalibata","i_long":106.85449,"line":2,"station_id":"DRN","i_lat":-6.255332,"is_transit":false,"transit":false,"time":3,"distance":1546},{"is_transit":false,"i_long":106.851577,"distance":824,"i_lat":-6.263214,"line":2,"station_name":"Pasar Minggu Baru","station_id":"PSMB","transit":false,"time":2},{"transit":false,"is_transit":false,"i_lat":-6.2842400000000005,"station_name":"Pasar Minggu","distance":2380,"station_id":"PSM","line":2,"i_long":106.843999,"time":2},{"station_id":"TNT","distance":2820,"is_transit":false,"station_name":"Tanjung Barat","i_lat":-6.3080680000000005,"transit":false,"time":4,"i_long":106.838896,"line":2},{"i_lat":-6.330363,"station_name":"Lenteng Agung","transit":false,"time":3,"i_long":106.832616,"station_id":"LNA","line":2,"is_transit":false,"distance":2671},{"transit":false,"is_transit":false,"i_lat":-6.339291,"i_long":106.834175,"time":2,"distance":1029,"station_name":"Univ. Pancasila","line":2,"station_id":"UP"}]]}