{"data":[[{"transit":false,"i_lat":-6.329547,"time":0,"is_transit":false,"i_long":106.617853,"line":3,"distance":0,"station_id":"CC","station_name":"Cicayur"},{"time":4,"station_name":"Cisauk","distance":2519,"is_transit":false,"station_id":"CSK","transit":false,"i_lat":-6.32484,"i_long":106.640411,"line":3},{"i_long":106.66566,"station_name":"Serpong","time":4,"station_id":"SRP","line":6,"is_transit":false,"transit":false,"distance":1784,"i_lat":-6.319871},{"i_lat":-6.314823,"station_id":"RU","i_long":106.675475,"line":6,"is_transit":false,"distance":2413,"time":4,"transit":false,"station_name":"Rawa Buntu"},{"is_transit":false,"transit":false,"station_id":"SDM","i_lat":-6.296963,"line":6,"i_long":106.712277,"station_name":"Sudimara","distance":4566,"time":6},{"distance":1994,"time":4,"line":6,"station_id":"JMU","i_lat":-6.288927,"transit":false,"i_long":106.728916,"station_name":"Jurangmangu","is_transit":false},{"station_name":"Pondokranji","i_lat":-6.276362,"transit":false,"time":3,"i_long":106.74273,"station_id":"PDJ","distance":2179,"is_transit":false,"line":6},{"i_lat":-6.237242,"distance":6218,"i_long":106.780334,"station_id":"KBY","time":8,"line":6,"station_name":"Kebayoran","transit":false,"is_transit":false},{"station_name":"Palmerah","is_transit":false,"station_id":"PLM","time":7,"transit":false,"distance":3737,"i_lat":-6.207404,"i_long":106.79689,"line":6},{"station_name":"Tanah Abang","station_id":"THB","transit":true,"i_long":106.811091,"is_transit":true,"line":1,"distance":3191,"time":6,"i_lat":-6.185545},{"station_id":"KAT","time":5,"transit":false,"station_name":"Karet","distance":2029,"is_transit":false,"i_lat":-6.20132,"i_long":106.816351,"line":1},{"line":1,"is_transit":false,"station_id":"SUDB","distance":471,"station_name":"Sudirman Baru","transit":false,"i_lat":-6.201433,"time":1,"i_long":106.819881},{"line":1,"station_id":"SUD","transit":false,"station_name":"Sudirman","distance":280,"time":1,"i_lat":-6.202263,"i_long":106.822649,"is_transit":false},{"time":4,"i_lat":-6.209883,"is_transit":true,"station_name":"Manggarai","i_long":106.84912,"station_id":"MRI","transit":true,"line":2,"distance":3186},{"time":4,"station_name":"Tebet","distance":2610,"station_id":"TEB","line":2,"transit":false,"i_long":106.857948,"i_lat":-6.226659,"is_transit":false},{"time":2,"is_transit":false,"line":2,"i_lat":-6.242512,"transit":false,"distance":1230,"station_name":"Cawang","station_id":"CW","i_long":106.856607},{"station_name":"Duren Kalibata","station_id":"DRN","time":3,"line":2,"i_lat":-6.255332,"transit":false,"is_transit":false,"i_long":106.85449,"distance":1546},{"line":2,"station_name":"Pasar Minggu Baru","transit":false,"i_lat":-6.263214,"station_id":"PSMB","is_transit":false,"distance":824,"time":2,"i_long":106.851577},{"distance":2380,"transit":false,"time":2,"is_transit":false,"i_lat":-6.2842400000000005,"i_long":106.843999,"station_name":"Pasar Minggu","station_id":"PSM","line":2},{"time":4,"station_name":"Tanjung Barat","line":2,"is_transit":false,"i_long":106.838896,"station_id":"TNT","distance":2820,"transit":false,"i_lat":-6.3080680000000005},{"distance":2671,"is_transit":false,"time":3,"line":2,"station_name":"Lenteng Agung","station_id":"LNA","transit":false,"i_long":106.832616,"i_lat":-6.330363},{"transit":false,"station_name":"Univ. Pancasila","i_lat":-6.339291,"i_long":106.834175,"distance":1029,"time":2,"station_id":"UP","line":2,"is_transit":false}],[{"distance":0,"is_transit":false,"time":0,"station_id":"CC","i_lat":-6.329547,"i_long":106.617853,"line":3,"transit":false,"station_name":"Cicayur"},{"i_long":106.640411,"transit":false,"station_name":"Cisauk","time":4,"i_lat":-6.32484,"station_id":"CSK","line":3,"distance":2519,"is_transit":false},{"is_transit":false,"transit":false,"distance":1784,"time":4,"i_lat":-6.319871,"i_long":106.66566,"station_id":"SRP","line":6,"station_name":"Serpong"},{"i_lat":-6.314823,"is_transit":false,"line":6,"i_long":106.675475,"time":4,"distance":2413,"station_id":"RU","station_name":"Rawa Buntu","transit":false},{"i_lat":-6.296963,"i_long":106.712277,"station_name":"Sudimara","time":6,"transit":false,"station_id":"SDM","distance":4566,"is_transit":false,"line":6},{"time":4,"station_id":"JMU","i_lat":-6.288927,"station_name":"Jurangmangu","transit":false,"i_long":106.728916,"line":6,"is_transit":false,"distance":1994},{"line":6,"distance":2179,"time":3,"is_transit":false,"station_id":"PDJ","i_lat":-6.276362,"i_long":106.74273,"station_name":"Pondokranji","transit":false},{"i_lat":-6.237242,"line":6,"station_id":"KBY","time":8,"is_transit":false,"station_name":"Kebayoran","i_long":106.780334,"distance":6218,"transit":false},{"i_long":106.79689,"line":6,"time":7,"distance":3737,"i_lat":-6.207404,"transit":false,"station_id":"PLM","station_name":"Palmerah","is_transit":false},{"i_long":106.811091,"i_lat":-6.185545,"is_transit":true,"station_id":"THB","station_name":"Tanah Abang","distance":3191,"time":6,"line":1,"transit":true},{"is_transit":false,"line":1,"distance":3632,"time":8,"station_id":"DU","transit":false,"station_name":"Duri","i_lat":-6.155215,"i_long":106.800832},{"transit":false,"time":4,"distance":1230,"is_transit":false,"i_lat":-6.144674,"i_long":106.79867,"line":1,"station_name":"Angke","station_id":"AK"},{"i_long":106.826365,"time":9,"transit":true,"line":4,"station_name":"Kampung Bandan","station_id":"KPB","is_transit":true,"i_lat":-6.132549,"distance":4102},{"station_id":"JAKK","time":3,"i_long":106.812439,"transit":true,"is_transit":true,"distance":1364,"i_lat":-6.137569,"station_name":"Jakarta Kota","line":2},{"is_transit":false,"station_name":"Jayakarta","line":2,"station_id":"JAY","i_lat":-6.141205,"transit":false,"time":4,"distance":1264,"i_long":106.820901},{"is_transit":false,"i_lat":-6.149769,"station_name":"Manggabesar","time":2,"transit":false,"station_id":"MGB","i_long":106.82482,"distance":1080,"line":2},{"time":2,"transit":false,"distance":906,"station_name":"Sawah Besar","i_long":106.827103,"is_transit":false,"line":2,"station_id":"SW","i_lat":-6.160725},{"i_long":106.828284,"line":2,"is_transit":false,"distance":1149,"time":2,"station_id":"JUA","transit":false,"station_name":"Juanda","i_lat":-6.166716},{"distance":2015,"time":4,"station_name":"Gondangdia","i_lat":-6.186295,"i_long":106.832183,"station_id":"GDD","is_transit":false,"transit":false,"line":2},{"time":3,"i_long":106.840169,"transit":false,"station_id":"CKI","i_lat":-6.198556,"distance":1750,"is_transit":false,"station_name":"Cikini","line":2},{"station_id":"MRI","line":2,"i_long":106.84912,"station_name":"Manggarai","distance":1590,"transit":false,"i_lat":-6.209883,"time":4,"is_transit":false},{"i_long":106.857948,"is_transit":false,"i_lat":-6.226659,"distance":2610,"transit":false,"station_id":"TEB","time":4,"station_name":"Tebet","line":2},{"transit":false,"station_name":"Cawang","station_id":"CW","line":2,"time":2,"i_long":106.856607,"is_transit":false,"i_lat":-6.242512,"distance":1230},{"transit":false,"station_name":"Duren Kalibata","is_transit":false,"i_lat":-6.255332,"time":3,"line":2,"distance":1546,"station_id":"DRN","i_long":106.85449},{"i_lat":-6.263214,"station_id":"PSMB","line":2,"time":2,"distance":824,"i_long":106.851577,"transit":false,"station_name":"Pasar Minggu Baru","is_transit":false},{"line":2,"time":2,"station_name":"Pasar Minggu","distance":2380,"is_transit":false,"i_long":106.843999,"i_lat":-6.2842400000000005,"station_id":"PSM","transit":false},{"time":4,"i_long":106.838896,"line":2,"station_id":"TNT","station_name":"Tanjung Barat","i_lat":-6.3080680000000005,"transit":false,"distance":2820,"is_transit":false},{"distance":2671,"time":3,"station_id":"LNA","station_name":"Lenteng Agung","transit":false,"i_lat":-6.330363,"line":2,"is_transit":false,"i_long":106.832616},{"line":2,"is_transit":false,"station_id":"UP","i_lat":-6.339291,"time":2,"distance":1029,"i_long":106.834175,"transit":false,"station_name":"Univ. Pancasila"}],[{"line":3,"distance":0,"i_lat":-6.329547,"is_transit":false,"i_long":106.617853,"time":0,"station_id":"CC","transit":false,"station_name":"Cicayur"},{"station_id":"CSK","station_name":"Cisauk","i_lat":-6.32484,"line":3,"is_transit":false,"time":4,"transit":false,"distance":2519,"i_long":106.640411},{"time":4,"i_long":106.66566,"station_id":"SRP","line":6,"distance":1784,"i_lat":-6.319871,"transit":false,"is_transit":false,"station_name":"Serpong"},{"i_long":106.675475,"station_name":"Rawa Buntu","distance":2413,"time":4,"transit":false,"station_id":"RU","i_lat":-6.314823,"is_transit":false,"line":6},{"distance":4566,"transit":false,"is_transit":false,"station_name":"Sudimara","station_id":"SDM","i_lat":-6.296963,"line":6,"i_long":106.712277,"time":6},{"station_name":"Jurangmangu","i_lat":-6.288927,"distance":1994,"i_long":106.728916,"station_id":"JMU","transit":false,"time":4,"line":6,"is_transit":false},{"transit":false,"is_transit":false,"time":3,"station_name":"Pondokranji","i_lat":-6.276362,"station_id":"PDJ","i_long":106.74273,"line":6,"distance":2179},{"station_name":"Kebayoran","i_lat":-6.237242,"time":8,"distance":6218,"is_transit":false,"i_long":106.780334,"station_id":"KBY","line":6,"transit":false},{"line":6,"transit":false,"distance":3737,"i_long":106.79689,"station_name":"Palmerah","station_id":"PLM","i_lat":-6.207404,"is_transit":false,"time":7},{"is_transit":true,"station_name":"Tanah Abang","i_long":106.811091,"time":6,"station_id":"THB","i_lat":-6.185545,"distance":3191,"line":1,"transit":true},{"distance":3632,"time":8,"is_transit":false,"station_id":"DU","i_lat":-6.155215,"station_name":"Duri","i_long":106.800832,"line":1,"transit":false},{"distance":1230,"i_lat":-6.144674,"line":1,"station_id":"AK","time":4,"i_long":106.79867,"is_transit":false,"transit":false,"station_name":"Angke"},{"station_id":"KPB","transit":true,"distance":4102,"i_lat":-6.132549,"i_long":106.826365,"time":9,"station_name":"Kampung Bandan","line":4,"is_transit":true},{"station_id":"RJW","i_long":106.836569,"time":3,"line":11,"distance":1444,"transit":false,"is_transit":false,"i_lat":-6.14505,"station_name":"Rajawali"},{"i_long":106.839204,"line":11,"distance":1901,"transit":false,"i_lat":-6.161728,"time":5,"is_transit":false,"station_name":"Kemayoran","station_id":"KMO"},{"i_long":106.84368,"station_id":"PSE","time":4,"line":11,"distance":1436,"is_transit":false,"station_name":"Pasar Senen","transit":false,"i_lat":-6.174784},{"i_lat":-6.185975,"i_long":106.850107,"time":8,"station_name":"Gang Sentiong","is_transit":false,"line":11,"distance":1567,"transit":false,"station_id":"GST"},{"transit":false,"is_transit":false,"i_lat":-6.193792,"station_name":"Kramat","line":11,"distance":973,"time":1,"station_id":"KMT","i_long":106.855437},{"time":2,"is_transit":false,"i_long":106.861737,"station_id":"POK","i_lat":-6.209188,"station_name":"Pondok Jati","transit":false,"distance":1829,"line":11},{"station_name":"Jatinegara","distance":1236,"transit":true,"i_lat":-6.215091,"is_transit":true,"line":1,"station_id":"JNG","i_long":106.86807400000001,"time":9},{"station_name":"Matraman","station_id":"MTR","time":2,"transit":false,"distance":1377,"is_transit":false,"i_long":106.858896,"line":1,"i_lat":-6.212485},{"line":2,"distance":1275,"station_name":"Manggarai","station_id":"MRI","is_transit":true,"i_lat":-6.209883,"i_long":106.84912,"transit":true,"time":2},{"line":2,"is_transit":false,"distance":2610,"station_name":"Tebet","time":4,"station_id":"TEB","transit":false,"i_lat":-6.226659,"i_long":106.857948},{"station_name":"Cawang","time":2,"i_lat":-6.242512,"is_transit":false,"line":2,"transit":false,"station_id":"CW","distance":1230,"i_long":106.856607},{"distance":1546,"line":2,"station_name":"Duren Kalibata","is_transit":false,"i_lat":-6.255332,"transit":false,"time":3,"station_id":"DRN","i_long":106.85449},{"i_lat":-6.263214,"time":2,"is_transit":false,"station_id":"PSMB","i_long":106.851577,"station_name":"Pasar Minggu Baru","distance":824,"line":2,"transit":false},{"station_name":"Pasar Minggu","transit":false,"i_lat":-6.2842400000000005,"station_id":"PSM","i_long":106.843999,"is_transit":false,"line":2,"distance":2380,"time":2},{"station_name":"Tanjung Barat","time":4,"i_lat":-6.3080680000000005,"line":2,"i_long":106.838896,"is_transit":false,"transit":false,"station_id":"TNT","distance":2820},{"line":2,"transit":false,"station_name":"Lenteng Agung","distance":2671,"time":3,"is_transit":false,"station_id":"LNA","i_lat":-6.330363,"i_long":106.832616},{"i_long":106.834175,"i_lat":-6.339291,"station_id":"UP","distance":1029,"transit":false,"line":2,"time":2,"is_transit":false,"station_name":"Univ. Pancasila"}]]}