{"data":[[{"distance":0,"is_transit":false,"transit":false,"station_id":"CC","time":0,"station_name":"Cicayur","line":3,"i_long":106.617853,"i_lat":-6.329547},{"time":4,"i_long":106.640411,"distance":2519,"i_lat":-6.32484,"station_id":"CSK","transit":false,"line":3,"station_name":"Cisauk","is_transit":false},{"station_id":"SRP","time":4,"is_transit":false,"distance":1784,"transit":false,"station_name":"Serpong","i_lat":-6.319871,"i_long":106.66566,"line":6},{"transit":false,"distance":2413,"line":6,"station_id":"RU","is_transit":false,"i_lat":-6.314823,"time":4,"station_name":"Rawa Buntu","i_long":106.675475},{"transit":false,"is_transit":false,"station_name":"Sudimara","time":6,"i_lat":-6.296963,"station_id":"SDM","distance":4566,"i_long":106.712277,"line":6},{"i_long":106.728916,"distance":1994,"transit":false,"i_lat":-6.288927,"station_id":"JMU","time":4,"station_name":"Jurangmangu","line":6,"is_transit":false},{"station_id":"PDJ","distance":2179,"time":3,"is_transit":false,"i_long":106.74273,"line":6,"i_lat":-6.276362,"station_name":"Pondokranji","transit":false},{"transit":false,"station_id":"KBY","is_transit":false,"i_lat":-6.237242,"i_long":106.780334,"time":8,"distance":6218,"station_name":"Kebayoran","line":6},{"distance":3737,"transit":false,"time":7,"i_lat":-6.207404,"station_name":"Palmerah","is_transit":false,"i_long":106.79689,"line":6,"station_id":"PLM"},{"line":1,"transit":true,"is_transit":true,"distance":3191,"station_name":"Tanah Abang","i_lat":-6.185545,"station_id":"THB","i_long":106.811091,"time":6},{"is_transit":false,"station_id":"KAT","i_lat":-6.20132,"time":5,"i_long":106.816351,"distance":2029,"station_name":"Karet","transit":false,"line":1},{"i_lat":-6.201433,"time":1,"transit":false,"distance":471,"station_id":"SUDB","line":1,"i_long":106.819881,"is_transit":false,"station_name":"Sudirman Baru"},{"station_id":"SUD","i_long":106.822649,"is_transit":false,"station_name":"Sudirman","line":1,"i_lat":-6.202263,"time":1,"distance":280,"transit":false},{"station_id":"MRI","time":4,"distance":3186,"is_transit":true,"station_name":"Manggarai","i_long":106.84912,"transit":true,"line":2,"i_lat":-6.209883},{"station_id":"TEB","time":4,"is_transit":false,"station_name":"Tebet","i_lat":-6.226659,"i_long":106.857948,"line":2,"transit":false,"distance":2610},{"i_lat":-6.242512,"is_transit":false,"station_id":"CW","line":2,"station_name":"Cawang","transit":false,"distance":1230,"time":2,"i_long":106.856607},{"transit":false,"i_lat":-6.255332,"station_name":"Duren Kalibata","line":2,"distance":1546,"is_transit":false,"station_id":"DRN","time":3,"i_long":106.85449},{"is_transit":false,"i_long":106.851577,"line":2,"time":2,"distance":824,"i_lat":-6.263214,"transit":false,"station_name":"Pasar Minggu Baru","station_id":"PSMB"},{"time":2,"station_name":"Pasar Minggu","is_transit":false,"i_long":106.843999,"i_lat":-6.2842400000000005,"line":2,"distance":2380,"station_id":"PSM","transit":false},{"distance":2820,"i_lat":-6.3080680000000005,"station_name":"Tanjung Barat","time":4,"i_long":106.838896,"is_transit":false,"station_id":"TNT","transit":false,"line":2},{"distance":2671,"station_id":"LNA","is_transit":false,"time":3,"i_lat":-6.330363,"transit":false,"station_name":"Lenteng Agung","i_long":106.832616,"line":2},{"distance":1029,"transit":false,"i_long":106.834175,"line":2,"station_id":"UP","time":2,"is_transit":false,"i_lat":-6.339291,"station_name":"Univ. Pancasila"}],[{"i_lat":-6.329547,"i_long":106.617853,"line":3,"distance":0,"station_id":"CC","transit":false,"time":0,"station_name":"Cicayur","is_transit":false},{"distance":2519,"is_transit":false,"station_name":"Cisauk","time":4,"i_long":106.640411,"station_id":"CSK","transit":false,"i_lat":-6.32484,"line":3},{"distance":1784,"time":4,"i_long":106.66566,"is_transit":false,"station_id":"SRP","i_lat":-6.319871,"station_name":"Serpong","transit":false,"line":6},{"distance":2413,"station_id":"RU","transit":false,"i_long":106.675475,"is_transit":false,"line":6,"i_lat":-6.314823,"time":4,"station_name":"Rawa Buntu"},{"i_long":106.712277,"distance":4566,"station_id":"SDM","transit":false,"time":6,"is_transit":false,"station_name":"Sudimara","i_lat":-6.296963,"line":6},{"i_lat":-6.288927,"time":4,"transit":false,"i_long":106.728916,"distance":1994,"station_name":"Jurangmangu","line":6,"is_transit":false,"station_id":"JMU"},{"is_transit":false,"i_long":106.74273,"station_id":"PDJ","time":3,"line":6,"transit":false,"distance":2179,"station_name":"Pondokranji","i_lat":-6.276362},{"line":6,"i_lat":-6.237242,"i_long":106.780334,"station_name":"Kebayoran","time":8,"transit":false,"is_transit":false,"distance":6218,"station_id":"KBY"},{"distance":3737,"line":6,"is_transit":false,"station_name":"Palmerah","i_long":106.79689,"transit":false,"i_lat":-6.207404,"time":7,"station_id":"PLM"},{"i_long":106.811091,"time":6,"is_transit":true,"i_lat":-6.185545,"distance":3191,"transit":true,"station_id":"THB","line":1,"station_name":"Tanah Abang"},{"line":1,"station_id":"DU","is_transit":false,"i_long":106.800832,"transit":false,"distance":3632,"time":8,"station_name":"Duri","i_lat":-6.155215},{"line":1,"station_name":"Angke","i_long":106.79867,"transit":false,"is_transit":false,"time":4,"distance":1230,"station_id":"AK","i_lat":-6.144674},{"i_long":106.826365,"i_lat":-6.132549,"station_id":"KPB","distance":4102,"is_transit":true,"time":9,"transit":true,"station_name":"Kampung Bandan","line":4},{"station_name":"Jakarta Kota","line":2,"is_transit":true,"distance":1364,"i_long":106.812439,"time":3,"transit":true,"i_lat":-6.137569,"station_id":"JAKK"},{"i_lat":-6.141205,"transit":false,"station_name":"Jayakarta","line":2,"distance":1264,"time":4,"is_transit":false,"i_long":106.820901,"station_id":"JAY"},{"station_name":"Manggabesar","distance":1080,"transit":false,"station_id":"MGB","is_transit":false,"i_long":106.82482,"line":2,"i_lat":-6.149769,"time":2},{"station_id":"SW","line":2,"i_long":106.827103,"distance":906,"is_transit":false,"station_name":"Sawah Besar","transit":false,"i_lat":-6.160725,"time":2},{"transit":false,"time":2,"line":2,"station_name":"Juanda","distance":1149,"is_transit":false,"i_lat":-6.166716,"i_long":106.828284,"station_id":"JUA"},{"line":2,"station_id":"GDD","is_transit":false,"time":4,"station_name":"Gondangdia","transit":false,"i_lat":-6.186295,"distance":2015,"i_long":106.832183},{"distance":1750,"station_id":"CKI","transit":false,"i_long":106.840169,"line":2,"time":3,"station_name":"Cikini","is_transit":false,"i_lat":-6.198556},{"distance":1590,"station_name":"Manggarai","is_transit":false,"time":4,"transit":false,"station_id":"MRI","i_lat":-6.209883,"i_long":106.84912,"line":2},{"station_id":"TEB","i_lat":-6.226659,"line":2,"distance":2610,"transit":false,"station_name":"Tebet","time":4,"is_transit":false,"i_long":106.857948},{"i_lat":-6.242512,"distance":1230,"station_id":"CW","transit":false,"station_name":"Cawang","is_transit":false,"i_long":106.856607,"line":2,"time":2},{"time":3,"i_lat":-6.255332,"line":2,"is_transit":false,"i_long":106.85449,"distance":1546,"station_id":"DRN","station_name":"Duren Kalibata","transit":false},{"station_name":"Pasar Minggu Baru","station_id":"PSMB","i_lat":-6.263214,"line":2,"transit":false,"is_transit":false,"time":2,"i_long":106.851577,"distance":824},{"i_lat":-6.2842400000000005,"distance":2380,"is_transit":false,"station_id":"PSM","time":2,"line":2,"i_long":106.843999,"transit":false,"station_name":"Pasar Minggu"},{"time":4,"line":2,"i_lat":-6.3080680000000005,"transit":false,"station_id":"TNT","is_transit":false,"station_name":"Tanjung Barat","i_long":106.838896,"distance":2820},{"i_long":106.832616,"transit":false,"station_name":"Lenteng Agung","i_lat":-6.330363,"time":3,"distance":2671,"station_id":"LNA","line":2,"is_transit":false},{"station_id":"UP","time":2,"i_long":106.834175,"i_lat":-6.339291,"line":2,"station_name":"Univ. Pancasila","transit":false,"is_transit":false,"distance":1029}],[{"time":0,"is_transit":false,"distance":0,"transit":false,"i_long":106.617853,"line":3,"station_name":"Cicayur","station_id":"CC","i_lat":-6.329547},{"transit":false,"i_long":106.640411,"station_name":"Cisauk","station_id":"CSK","time":4,"distance":2519,"line":3,"i_lat":-6.32484,"is_transit":false},{"transit":false,"time":4,"station_name":"Serpong","distance":1784,"i_long":106.66566,"line":6,"is_transit":false,"i_lat":-6.319871,"station_id":"SRP"},{"transit":false,"station_name":"Rawa Buntu","station_id":"RU","time":4,"i_long":106.675475,"line":6,"is_transit":false,"distance":2413,"i_lat":-6.314823},{"transit":false,"time":6,"i_lat":-6.296963,"distance":4566,"i_long":106.712277,"is_transit":false,"station_name":"Sudimara","line":6,"station_id":"SDM"},{"transit":false,"distance":1994,"station_name":"Jurangmangu","time":4,"station_id":"JMU","i_lat":-6.288927,"line":6,"is_transit":false,"i_long":106.728916},{"i_lat":-6.276362,"i_long":106.74273,"time":3,"is_transit":false,"line":6,"station_id":"PDJ","transit":false,"distance":2179,"station_name":"Pondokranji"},{"station_id":"KBY","time":8,"is_transit":false,"i_lat":-6.237242,"i_long":106.780334,"station_name":"Kebayoran","distance":6218,"line":6,"transit":false},{"station_name":"Palmerah","i_lat":-6.207404,"i_long":106.79689,"line":6,"transit":false,"distance":3737,"station_id":"PLM","is_transit":false,"time":7},{"is_transit":true,"time":6,"transit":true,"distance":3191,"station_name":"Tanah Abang","line":1,"station_id":"THB","i_lat":-6.185545,"i_long":106.811091},{"time":8,"is_transit":false,"station_name":"Duri","line":1,"transit":false,"i_lat":-6.155215,"distance":3632,"station_id":"DU","i_long":106.800832},{"line":1,"time":4,"i_lat":-6.144674,"distance":1230,"is_transit":false,"station_id":"AK","transit":false,"station_name":"Angke","i_long":106.79867},{"i_lat":-6.132549,"line":4,"distance":4102,"transit":true,"i_long":106.826365,"station_id":"KPB","is_transit":true,"station_name":"Kampung Bandan","time":9},{"i_long":106.836569,"line":11,"is_transit":false,"station_name":"Rajawali","station_id":"RJW","time":3,"transit":false,"distance":1444,"i_lat":-6.14505},{"station_id":"KMO","transit":false,"time":5,"is_transit":false,"i_lat":-6.161728,"i_long":106.839204,"line":11,"station_name":"Kemayoran","distance":1901},{"is_transit":false,"station_name":"Pasar Senen","station_id":"PSE","time":4,"line":11,"transit":false,"i_lat":-6.174784,"i_long":106.84368,"distance":1436},{"station_id":"GST","transit":false,"distance":1567,"i_lat":-6.185975,"i_long":106.850107,"is_transit":false,"station_name":"Gang Sentiong","line":11,"time":8},{"time":1,"distance":973,"station_name":"Kramat","station_id":"KMT","is_transit":false,"i_lat":-6.193792,"i_long":106.855437,"line":11,"transit":false},{"transit":false,"line":11,"i_lat":-6.209188,"station_name":"Pondok Jati","station_id":"POK","is_transit":false,"distance":1829,"i_long":106.861737,"time":2},{"i_long":106.86807400000001,"station_id":"JNG","is_transit":true,"transit":true,"distance":1236,"station_name":"Jatinegara","time":9,"i_lat":-6.215091,"line":1},{"time":2,"i_long":106.858896,"line":1,"is_transit":false,"station_name":"Matraman","station_id":"MTR","i_lat":-6.212485,"transit":false,"distance":1377},{"distance":1275,"station_id":"MRI","time":2,"station_name":"Manggarai","transit":true,"i_lat":-6.209883,"line":2,"is_transit":true,"i_long":106.84912},{"i_long":106.857948,"is_transit":false,"station_id":"TEB","line":2,"distance":2610,"station_name":"Tebet","i_lat":-6.226659,"transit":false,"time":4},{"is_transit":false,"station_name":"Cawang","distance":1230,"line":2,"i_long":106.856607,"station_id":"CW","time":2,"transit":false,"i_lat":-6.242512},{"transit":false,"station_id":"DRN","is_transit":false,"station_name":"Duren Kalibata","i_lat":-6.255332,"line":2,"i_long":106.85449,"distance":1546,"time":3},{"is_transit":false,"i_long":106.851577,"line":2,"station_id":"PSMB","time":2,"i_lat":-6.263214,"distance":824,"transit":false,"station_name":"Pasar Minggu Baru"},{"distance":2380,"time":2,"is_transit":false,"station_name":"Pasar Minggu","i_lat":-6.2842400000000005,"i_long":106.843999,"line":2,"station_id":"PSM","transit":false},{"i_lat":-6.3080680000000005,"station_name":"Tanjung Barat","i_long":106.838896,"is_transit":false,"line":2,"station_id":"TNT","transit":false,"distance":2820,"time":4},{"i_long":106.832616,"time":3,"transit":false,"distance":2671,"station_name":"Lenteng Agung","line":2,"station_id":"LNA","is_transit":false,"i_lat":-6.330363},{"station_id":"UP","i_long":106.834175,"distance":1029,"i_lat":-6.339291,"time":2,"is_transit":false,"transit":false,"station_name":"Univ. Pancasila","line":2}]]}