{"data":[[{"station_name":"Cicayur","is_transit":false,"distance":0,"transit":false,"station_id":"CC","i_lat":-6.329547,"i_long":106.617853,"time":0,"line":0},{"station_name":"Cisauk","is_transit":false,"transit":false,"time":4,"i_long":106.640411,"station_id":"CSK","distance":2519,"line":0,"i_lat":-6.32484},{"station_name":"Serpong","distance":1784,"time":4,"transit":false,"station_id":"SRP","i_lat":-6.319871,"i_long":106.66566,"is_transit":false,"line":6},{"distance":2413,"transit":false,"station_id":"RU","station_name":"Rawa Buntu","i_lat":-6.314823,"time":4,"i_long":106.675475,"line":6,"is_transit":false},{"station_name":"Sudimara","is_transit":false,"i_lat":-6.296963,"station_id":"SDM","distance":4566,"time":6,"i_long":106.712277,"transit":false,"line":6},{"station_name":"Jurangmangu","transit":false,"is_transit":false,"distance":1994,"i_lat":-6.288927,"line":6,"i_long":106.728916,"station_id":"JMU","time":4},{"distance":2179,"i_long":106.74273,"station_name":"Pondokranji","i_lat":-6.276362,"line":6,"time":3,"transit":false,"is_transit":false,"station_id":"PDJ"},{"i_long":106.780334,"i_lat":-6.237242,"distance":6218,"is_transit":false,"station_name":"Kebayoran","station_id":"KBY","time":8,"line":6,"transit":false},{"time":7,"station_name":"Palmerah","is_transit":false,"i_long":106.79689,"transit":false,"line":6,"station_id":"PLM","i_lat":-6.207404,"distance":3737},{"station_id":"THB","station_name":"Tanah Abang","time":6,"i_long":106.811091,"transit":true,"i_lat":-6.185545,"distance":3191,"is_transit":true,"line":1},{"line":1,"i_lat":-6.20132,"transit":false,"time":5,"station_id":"KAT","station_name":"Karet","i_long":106.816351,"is_transit":false,"distance":2029},{"distance":471,"time":1,"i_long":106.819881,"transit":false,"station_name":"Sudirman Baru","i_lat":-6.201433,"line":1,"is_transit":false,"station_id":"SUDB"},{"station_name":"Sudirman","is_transit":false,"i_lat":-6.202263,"distance":280,"i_long":106.822649,"line":1,"transit":false,"time":1,"station_id":"SUD"},{"i_lat":-6.209883,"transit":true,"is_transit":true,"station_id":"MRI","distance":3186,"station_name":"Manggarai","time":4,"line":0,"i_long":106.84912},{"station_id":"TEB","time":4,"i_long":106.857948,"is_transit":false,"i_lat":-6.226659,"transit":false,"distance":2610,"line":2,"station_name":"Tebet"},{"transit":false,"distance":1230,"station_id":"CW","is_transit":false,"time":2,"i_lat":-6.242512,"i_long":106.856607,"line":0,"station_name":"Cawang"},{"station_name":"Duren Kalibata","transit":false,"distance":1546,"is_transit":false,"time":3,"line":0,"i_long":106.85449,"i_lat":-6.255332,"station_id":"DRN"},{"i_long":106.851577,"transit":false,"line":2,"station_id":"PSMB","i_lat":-6.263214,"station_name":"Pasar Minggu Baru","distance":824,"is_transit":false,"time":2},{"i_long":106.843999,"transit":false,"i_lat":-6.2842400000000005,"distance":2380,"is_transit":false,"line":2,"station_name":"Pasar Minggu","station_id":"PSM","time":2},{"i_long":106.838896,"station_name":"Tanjung Barat","time":4,"is_transit":false,"station_id":"TNT","i_lat":-6.3080680000000005,"transit":false,"distance":2820,"line":2},{"i_long":106.832616,"transit":false,"station_name":"Lenteng Agung","station_id":"LNA","distance":2671,"i_lat":-6.330363,"time":3,"line":2,"is_transit":false},{"i_long":106.834175,"station_name":"Univ. Pancasila","transit":false,"distance":1029,"is_transit":false,"line":2,"time":2,"station_id":"UP","i_lat":-6.339291}],[{"station_id":"CC","line":0,"i_lat":-6.329547,"transit":false,"is_transit":false,"station_name":"Cicayur","distance":0,"time":0,"i_long":106.617853},{"distance":2519,"is_transit":false,"transit":false,"i_lat":-6.32484,"station_id":"CSK","line":0,"time":4,"station_name":"Cisauk","i_long":106.640411},{"station_name":"Serpong","station_id":"SRP","transit":false,"is_transit":false,"time":4,"line":6,"i_long":106.66566,"distance":1784,"i_lat":-6.319871},{"station_name":"Rawa Buntu","time":4,"station_id":"RU","i_lat":-6.314823,"i_long":106.675475,"is_transit":false,"transit":false,"distance":2413,"line":6},{"distance":4566,"line":6,"time":6,"station_name":"Sudimara","station_id":"SDM","i_lat":-6.296963,"is_transit":false,"transit":false,"i_long":106.712277},{"i_long":106.728916,"station_name":"Jurangmangu","station_id":"JMU","i_lat":-6.288927,"line":6,"transit":false,"distance":1994,"time":4,"is_transit":false},{"station_name":"Pondokranji","distance":2179,"i_lat":-6.276362,"transit":false,"time":3,"is_transit":false,"i_long":106.74273,"line":6,"station_id":"PDJ"},{"transit":false,"time":8,"line":6,"is_transit":false,"i_lat":-6.237242,"distance":6218,"station_id":"KBY","i_long":106.780334,"station_name":"Kebayoran"},{"time":7,"i_long":106.79689,"line":6,"station_name":"Palmerah","transit":false,"distance":3737,"station_id":"PLM","i_lat":-6.207404,"is_transit":false},{"is_transit":true,"station_name":"Tanah Abang","i_lat":-6.185545,"i_long":106.811091,"line":1,"transit":true,"station_id":"THB","distance":3191,"time":6},{"transit":true,"is_transit":true,"i_lat":-6.155215,"station_name":"Duri","distance":3632,"time":8,"i_long":106.800832,"station_id":"DU","line":1},{"i_long":106.79867,"time":4,"station_id":"AK","transit":false,"station_name":"Angke","line":0,"distance":1230,"i_lat":-6.144674,"is_transit":false},{"i_long":106.826365,"distance":4102,"time":9,"transit":false,"i_lat":-6.132549,"station_name":"Kampung Bandan","station_id":"KPB","is_transit":true,"line":0},{"is_transit":true,"transit":true,"time":3,"i_lat":-6.137569,"station_name":"Jakarta Kota","station_id":"JAKK","i_long":106.812439,"distance":1364,"line":0},{"time":4,"line":7,"station_name":"Jayakarta","i_lat":-6.141205,"station_id":"JAY","i_long":106.820901,"is_transit":false,"distance":1264,"transit":false},{"station_id":"MGB","distance":1080,"time":2,"i_lat":-6.149769,"line":2,"station_name":"Manggabesar","is_transit":false,"i_long":106.82482,"transit":false},{"time":2,"is_transit":false,"station_name":"Sawah Besar","distance":906,"line":2,"i_lat":-6.160725,"station_id":"SW","transit":false,"i_long":106.827103},{"station_name":"Juanda","is_transit":false,"i_lat":-6.166716,"i_long":106.828284,"distance":1149,"station_id":"JUA","time":2,"transit":false,"line":2},{"time":4,"is_transit":false,"station_id":"GDD","i_long":106.832183,"transit":false,"distance":2015,"i_lat":-6.186295,"line":2,"station_name":"Gondangdia"},{"transit":false,"station_id":"CKI","i_lat":-6.198556,"i_long":106.840169,"line":0,"is_transit":false,"station_name":"Cikini","distance":1750,"time":3},{"time":4,"transit":true,"station_id":"MRI","distance":1590,"i_lat":-6.209883,"i_long":106.84912,"line":0,"station_name":"Manggarai","is_transit":true},{"time":4,"is_transit":false,"station_id":"TEB","transit":false,"line":2,"i_long":106.857948,"station_name":"Tebet","i_lat":-6.226659,"distance":2610},{"transit":false,"station_id":"CW","time":2,"is_transit":false,"i_long":106.856607,"line":0,"station_name":"Cawang","distance":1230,"i_lat":-6.242512},{"line":0,"is_transit":false,"transit":false,"i_long":106.85449,"distance":1546,"station_name":"Duren Kalibata","time":3,"i_lat":-6.255332,"station_id":"DRN"},{"is_transit":false,"time":2,"station_id":"PSMB","i_long":106.851577,"distance":824,"i_lat":-6.263214,"transit":false,"station_name":"Pasar Minggu Baru","line":2},{"station_name":"Pasar Minggu","line":2,"station_id":"PSM","i_lat":-6.2842400000000005,"i_long":106.843999,"is_transit":false,"time":2,"transit":false,"distance":2380},{"is_transit":false,"i_long":106.838896,"line":2,"i_lat":-6.3080680000000005,"transit":false,"time":4,"station_id":"TNT","distance":2820,"station_name":"Tanjung Barat"},{"station_name":"Lenteng Agung","i_long":106.832616,"transit":false,"station_id":"LNA","i_lat":-6.330363,"distance":2671,"is_transit":false,"time":3,"line":2},{"line":2,"station_id":"UP","i_lat":-6.339291,"is_transit":false,"time":2,"distance":1029,"i_long":106.834175,"transit":false,"station_name":"Univ. Pancasila"}],[{"distance":0,"station_id":"CC","station_name":"Cicayur","time":0,"i_lat":-6.329547,"is_transit":false,"transit":false,"i_long":106.617853,"line":0},{"station_name":"Cisauk","time":4,"station_id":"CSK","i_lat":-6.32484,"transit":false,"is_transit":false,"distance":2519,"i_long":106.640411,"line":0},{"station_id":"SRP","station_name":"Serpong","transit":false,"i_lat":-6.319871,"is_transit":false,"time":4,"line":6,"i_long":106.66566,"distance":1784},{"is_transit":false,"time":4,"distance":2413,"i_long":106.675475,"i_lat":-6.314823,"station_name":"Rawa Buntu","station_id":"RU","transit":false,"line":6},{"station_name":"Sudimara","i_lat":-6.296963,"i_long":106.712277,"line":6,"transit":false,"station_id":"SDM","distance":4566,"is_transit":false,"time":6},{"transit":false,"distance":1994,"is_transit":false,"station_id":"JMU","i_long":106.728916,"line":6,"time":4,"i_lat":-6.288927,"station_name":"Jurangmangu"},{"i_long":106.74273,"distance":2179,"station_name":"Pondokranji","time":3,"i_lat":-6.276362,"transit":false,"is_transit":false,"station_id":"PDJ","line":6},{"time":8,"i_long":106.780334,"is_transit":false,"station_id":"KBY","i_lat":-6.237242,"transit":false,"distance":6218,"line":6,"station_name":"Kebayoran"},{"station_name":"Palmerah","station_id":"PLM","distance":3737,"time":7,"is_transit":false,"i_lat":-6.207404,"line":6,"i_long":106.79689,"transit":false},{"station_id":"THB","transit":true,"i_lat":-6.185545,"is_transit":true,"station_name":"Tanah Abang","time":6,"i_long":106.811091,"distance":3191,"line":1},{"station_id":"DU","i_lat":-6.155215,"distance":3632,"transit":true,"i_long":106.800832,"line":1,"time":8,"is_transit":true,"station_name":"Duri"},{"i_lat":-6.144674,"i_long":106.79867,"station_id":"AK","line":0,"is_transit":false,"time":4,"transit":false,"distance":1230,"station_name":"Angke"},{"transit":true,"is_transit":true,"time":9,"distance":4102,"station_name":"Kampung Bandan","i_lat":-6.132549,"station_id":"KPB","line":0,"i_long":106.826365},{"transit":false,"station_name":"Rajawali","distance":1444,"time":3,"station_id":"RJW","is_transit":false,"i_long":106.836569,"i_lat":-6.14505,"line":11},{"is_transit":false,"distance":1901,"station_id":"KMO","i_long":106.839204,"transit":false,"line":11,"i_lat":-6.161728,"station_name":"Kemayoran","time":5},{"is_transit":false,"station_id":"PSE","station_name":"Pasar Senen","distance":1436,"transit":false,"i_lat":-6.174784,"time":4,"i_long":106.84368,"line":11},{"i_lat":-6.185975,"line":11,"transit":false,"i_long":106.850107,"station_id":"GST","time":8,"is_transit":false,"distance":1567,"station_name":"Gang Sentiong"},{"i_long":106.855437,"line":11,"is_transit":false,"i_lat":-6.193792,"distance":973,"station_name":"Kramat","time":1,"transit":false,"station_id":"KMT"},{"line":11,"transit":false,"distance":1829,"time":2,"station_id":"POK","is_transit":false,"station_name":"Pondok Jati","i_long":106.861737,"i_lat":-6.209188},{"station_id":"JNG","i_long":106.86807400000001,"i_lat":-6.215091,"distance":1236,"is_transit":true,"station_name":"Jatinegara","transit":true,"line":0,"time":9},{"distance":1377,"is_transit":false,"station_id":"MTR","i_lat":-6.212485,"line":1,"transit":false,"station_name":"Matraman","time":2,"i_long":106.858896},{"i_lat":-6.209883,"distance":1275,"station_name":"Manggarai","i_long":106.84912,"time":2,"station_id":"MRI","transit":true,"line":0,"is_transit":true},{"distance":2610,"i_long":106.857948,"i_lat":-6.226659,"is_transit":false,"line":2,"station_name":"Tebet","time":4,"station_id":"TEB","transit":false},{"station_id":"CW","station_name":"Cawang","time":2,"line":0,"i_lat":-6.242512,"is_transit":false,"i_long":106.856607,"distance":1230,"transit":false},{"time":3,"i_lat":-6.255332,"i_long":106.85449,"transit":false,"distance":1546,"line":0,"station_id":"DRN","is_transit":false,"station_name":"Duren Kalibata"},{"station_id":"PSMB","i_long":106.851577,"time":2,"station_name":"Pasar Minggu Baru","i_lat":-6.263214,"line":2,"distance":824,"transit":false,"is_transit":false},{"station_id":"PSM","distance":2380,"i_long":106.843999,"transit":false,"time":2,"line":2,"is_transit":false,"station_name":"Pasar Minggu","i_lat":-6.2842400000000005},{"distance":2820,"is_transit":false,"station_name":"Tanjung Barat","station_id":"TNT","i_long":106.838896,"i_lat":-6.3080680000000005,"line":2,"time":4,"transit":false},{"transit":false,"i_long":106.832616,"line":2,"time":3,"station_name":"Lenteng Agung","station_id":"LNA","is_transit":false,"distance":2671,"i_lat":-6.330363},{"transit":false,"time":2,"distance":1029,"i_lat":-6.339291,"station_id":"UP","line":2,"is_transit":false,"station_name":"Univ. Pancasila","i_long":106.834175}]]}