{"data":[[{"line":7,"transit":false,"is_transit":false,"station_id":"CE","station_name":"Ceper","time":0,"i_lat":-7.668597,"i_long":110.674861,"distance":0},{"time":7,"distance":6271,"transit":false,"i_lat":-7.62181,"station_name":"Delanggu","line":7,"is_transit":false,"station_id":"DL","i_long":110.706679},{"distance":5543,"i_lat":-7.589036,"station_id":"GW","i_long":110.744432,"station_name":"Gawok","line":7,"transit":false,"is_transit":false,"time":6},{"transit":false,"time":7,"station_name":"Purwosari","is_transit":false,"distance":6639,"i_long":110.796655,"i_lat":-7.561362,"line":7,"station_id":"PWS"},{"time":6,"station_name":"Solo Balapan","distance":2936,"line":7,"is_transit":false,"i_lat":-7.556783,"transit":false,"station_id":"SLO","i_long":110.821471},{"transit":false,"station_name":"Solo Jebres","time":10,"line":7,"i_long":110.839459,"station_id":"SK","is_transit":false,"distance":2141,"i_lat":-7.56197}]]}