{"data":[[{"i_long":110.674861,"i_lat":-7.668597,"line":0,"is_transit":false,"station_id":"CE","transit":false,"time":0,"station_name":"Ceper","distance":0},{"i_lat":-7.62181,"i_long":110.706679,"station_name":"Delanggu","time":7,"is_transit":false,"transit":false,"distance":6271,"line":0,"station_id":"DL"},{"distance":5543,"i_lat":-7.589036,"station_name":"Gawok","time":6,"line":7,"is_transit":false,"station_id":"GW","i_long":110.744432,"transit":false},{"i_lat":-7.561362,"i_long":110.796655,"station_id":"PWS","line":7,"time":7,"transit":false,"station_name":"Purwosari","distance":6639,"is_transit":false},{"i_long":110.821471,"i_lat":-7.556783,"transit":false,"station_name":"Solo Balapan","station_id":"SLO","distance":2936,"is_transit":false,"time":6,"line":7},{"station_name":"Solo Jebres","distance":2141,"is_transit":false,"transit":false,"i_lat":-7.56197,"i_long":110.839459,"line":7,"station_id":"SK","time":10}]]}