{"data":[[{"time":0,"station_name":"Ceper","distance":0,"station_id":"CE","line":7,"i_lat":-7.668597,"is_transit":false,"transit":false,"i_long":110.674861},{"i_long":110.706679,"line":7,"is_transit":false,"i_lat":-7.62181,"transit":false,"time":7,"station_id":"DL","distance":6271,"station_name":"Delanggu"},{"transit":false,"i_long":110.744432,"i_lat":-7.589036,"is_transit":false,"station_name":"Gawok","line":7,"time":6,"distance":5543,"station_id":"GW"},{"time":7,"station_id":"PWS","i_lat":-7.561362,"station_name":"Purwosari","i_long":110.796655,"transit":false,"distance":6639,"is_transit":false,"line":7},{"time":6,"line":7,"station_id":"SLO","is_transit":false,"transit":false,"station_name":"Solo Balapan","i_long":110.821471,"i_lat":-7.556783,"distance":2936},{"station_id":"SK","distance":2141,"time":10,"i_lat":-7.56197,"i_long":110.839459,"line":7,"station_name":"Solo Jebres","transit":false,"is_transit":false}]]}