{"data":[[{"i_lat":-6.261877,"is_transit":false,"time":0,"station_name":"Cibitung","distance":0,"i_long":107.083084,"line":1,"station_id":"CIT","transit":false},{"i_long":107.055722,"i_lat":-6.258864,"station_id":"TB","line":1,"is_transit":false,"transit":false,"station_name":"Tambun","time":3,"distance":3420},{"time":7,"is_transit":false,"transit":false,"distance":4460,"station_id":"BKST","i_long":107.016735,"line":1,"station_name":"Bekasi Timur","i_lat":-6.248029},{"is_transit":false,"distance":2368,"time":2,"station_id":"BKS","station_name":"Bekasi","i_lat":-6.236616,"i_long":106.997013,"line":1,"transit":false},{"is_transit":false,"station_id":"KRI","line":1,"station_name":"Kranji","i_lat":-6.224515,"transit":false,"i_long":106.977657,"time":4,"distance":2520},{"distance":3097,"station_id":"CUK","station_name":"Cakung","i_lat":-6.219053,"is_transit":false,"i_long":106.951283,"transit":false,"time":3,"line":1},{"time":8,"transit":false,"station_id":"KLDB","is_transit":false,"i_lat":-6.217455,"station_name":"Klenderbaru","i_long":106.939679,"distance":1385,"line":1},{"station_id":"BUA","time":1,"station_name":"Buaran","is_transit":false,"i_lat":-6.215568,"i_long":106.922662,"distance":1305,"transit":false,"line":1},{"i_lat":-6.2135,"station_name":"Klender","transit":false,"i_long":106.899548,"line":1,"time":2,"distance":3100,"is_transit":false,"station_id":"KLD"},{"distance":3395,"line":1,"time":3,"is_transit":false,"i_lat":-6.215091,"station_name":"Jatinegara","station_id":"JNG","transit":false,"i_long":106.86807400000001},{"station_name":"Matraman","distance":1377,"line":1,"station_id":"MTR","i_lat":-6.212485,"transit":false,"i_long":106.858896,"time":2,"is_transit":false},{"transit":false,"i_long":106.84912,"is_transit":false,"i_lat":-6.209883,"line":2,"distance":1275,"time":2,"station_name":"Manggarai","station_id":"MRI"},{"station_name":"Sudirman","i_long":106.822649,"line":1,"time":4,"is_transit":false,"station_id":"SUD","distance":3186,"i_lat":-6.202263,"transit":false},{"time":1,"station_name":"Sudirman Baru","line":1,"is_transit":false,"transit":false,"station_id":"SUDB","distance":280,"i_long":106.819881,"i_lat":-6.201433},{"i_lat":-6.20132,"station_id":"KAT","is_transit":false,"transit":false,"time":1,"i_long":106.816351,"distance":471,"line":1,"station_name":"Karet"},{"distance":2029,"station_name":"Tanah Abang","is_transit":false,"station_id":"THB","i_long":106.811091,"line":1,"transit":false,"i_lat":-6.185545,"time":5},{"line":1,"distance":3632,"time":8,"station_name":"Duri","station_id":"DU","is_transit":true,"transit":true,"i_lat":-6.155215,"i_long":106.800832},{"i_lat":-6.162021,"is_transit":false,"line":5,"i_long":106.788277,"station_name":"Grogol","transit":false,"station_id":"GGL","time":3,"distance":1700},{"i_long":106.771379,"line":5,"station_name":"Pesing","time":2,"station_id":"PSG","is_transit":false,"distance":2036,"i_lat":-6.161433,"transit":false},{"transit":false,"station_id":"TKO","is_transit":false,"i_lat":-6.1587309999999995,"time":2,"station_name":"Taman Kota","distance":1614,"i_long":106.756522,"line":5},{"is_transit":false,"transit":false,"station_id":"BOI","station_name":"Bojongindah","distance":2334,"i_lat":-6.159876,"i_long":106.737035,"line":5,"time":2},{"i_long":106.723064,"station_name":"Rawa Buaya","time":4,"station_id":"RW","distance":1152,"i_lat":-6.162758,"transit":false,"line":5,"is_transit":false},{"i_long":106.701612,"line":5,"station_id":"KDS","is_transit":false,"transit":false,"i_lat":-6.166068,"time":3,"station_name":"Kalideres","distance":2504},{"line":5,"transit":false,"i_lat":-6.169933,"station_name":"Poris","i_long":106.679458,"distance":2548,"station_id":"PI","time":3,"is_transit":false}],[{"distance":0,"i_long":107.083084,"i_lat":-6.261877,"station_id":"CIT","transit":false,"station_name":"Cibitung","is_transit":false,"line":1,"time":0},{"line":1,"station_name":"Tambun","i_lat":-6.258864,"transit":false,"time":3,"is_transit":false,"i_long":107.055722,"station_id":"TB","distance":3420},{"i_long":107.016735,"i_lat":-6.248029,"station_id":"BKST","is_transit":false,"distance":4460,"station_name":"Bekasi Timur","transit":false,"time":7,"line":1},{"station_id":"BKS","time":2,"transit":false,"distance":2368,"line":1,"station_name":"Bekasi","i_long":106.997013,"is_transit":false,"i_lat":-6.236616},{"time":4,"is_transit":false,"i_lat":-6.224515,"i_long":106.977657,"station_id":"KRI","transit":false,"distance":2520,"station_name":"Kranji","line":1},{"distance":3097,"i_lat":-6.219053,"line":1,"is_transit":false,"station_name":"Cakung","transit":false,"time":3,"station_id":"CUK","i_long":106.951283},{"time":8,"i_long":106.939679,"line":1,"transit":false,"station_id":"KLDB","station_name":"Klenderbaru","distance":1385,"is_transit":false,"i_lat":-6.217455},{"distance":1305,"is_transit":false,"i_long":106.922662,"i_lat":-6.215568,"station_name":"Buaran","transit":false,"time":1,"station_id":"BUA","line":1},{"distance":3100,"transit":false,"is_transit":false,"station_name":"Klender","i_long":106.899548,"line":1,"i_lat":-6.2135,"time":2,"station_id":"KLD"},{"i_long":106.86807400000001,"is_transit":true,"time":3,"distance":3395,"i_lat":-6.215091,"station_name":"Jatinegara","line":1,"transit":true,"station_id":"JNG"},{"line":11,"time":2,"is_transit":false,"station_id":"POK","station_name":"Pondok Jati","transit":false,"distance":1236,"i_lat":-6.209188,"i_long":106.861737},{"distance":1829,"line":11,"i_lat":-6.193792,"i_long":106.855437,"is_transit":false,"station_id":"KMT","transit":false,"station_name":"Kramat","time":2},{"station_id":"GST","i_lat":-6.185975,"i_long":106.850107,"time":1,"is_transit":false,"distance":973,"transit":false,"station_name":"Gang Sentiong","line":11},{"transit":false,"station_id":"PSE","distance":1567,"time":8,"is_transit":false,"station_name":"Pasar Senen","line":11,"i_lat":-6.174784,"i_long":106.84368},{"station_name":"Kemayoran","line":11,"time":4,"distance":1436,"is_transit":false,"i_long":106.839204,"station_id":"KMO","transit":false,"i_lat":-6.161728},{"distance":1901,"i_lat":-6.14505,"station_id":"RJW","time":5,"transit":false,"i_long":106.836569,"station_name":"Rajawali","line":11,"is_transit":false},{"is_transit":true,"station_name":"Kampung Bandan","distance":1444,"station_id":"KPB","line":4,"time":3,"transit":true,"i_lat":-6.132549,"i_long":106.826365},{"i_lat":-6.144674,"station_id":"AK","time":9,"transit":false,"distance":4102,"i_long":106.79867,"line":1,"station_name":"Angke","is_transit":false},{"station_id":"DU","station_name":"Duri","line":1,"i_long":106.800832,"time":4,"distance":1230,"i_lat":-6.155215,"transit":true,"is_transit":true},{"i_lat":-6.162021,"i_long":106.788277,"station_id":"GGL","is_transit":false,"transit":false,"time":3,"line":5,"station_name":"Grogol","distance":1700},{"time":2,"station_name":"Pesing","transit":false,"i_lat":-6.161433,"is_transit":false,"line":5,"distance":2036,"i_long":106.771379,"station_id":"PSG"},{"line":5,"i_lat":-6.1587309999999995,"time":2,"distance":1614,"i_long":106.756522,"station_id":"TKO","station_name":"Taman Kota","transit":false,"is_transit":false},{"distance":2334,"i_long":106.737035,"line":5,"is_transit":false,"time":2,"station_name":"Bojongindah","station_id":"BOI","transit":false,"i_lat":-6.159876},{"i_lat":-6.162758,"line":5,"distance":1152,"station_name":"Rawa Buaya","station_id":"RW","time":4,"transit":false,"i_long":106.723064,"is_transit":false},{"station_name":"Kalideres","station_id":"KDS","i_lat":-6.166068,"i_long":106.701612,"distance":2504,"time":3,"line":5,"transit":false,"is_transit":false},{"is_transit":false,"time":3,"station_name":"Poris","distance":2548,"i_long":106.679458,"transit":false,"line":5,"station_id":"PI","i_lat":-6.169933}],[{"line":1,"is_transit":false,"i_lat":-6.261877,"time":0,"station_id":"CIT","station_name":"Cibitung","transit":false,"distance":0,"i_long":107.083084},{"transit":false,"line":1,"distance":3420,"station_id":"TB","i_lat":-6.258864,"time":3,"is_transit":false,"station_name":"Tambun","i_long":107.055722},{"line":1,"station_id":"BKST","time":7,"is_transit":false,"station_name":"Bekasi Timur","transit":false,"i_long":107.016735,"distance":4460,"i_lat":-6.248029},{"is_transit":false,"i_long":106.997013,"time":2,"station_name":"Bekasi","line":1,"i_lat":-6.236616,"distance":2368,"transit":false,"station_id":"BKS"},{"i_lat":-6.224515,"station_name":"Kranji","line":1,"i_long":106.977657,"station_id":"KRI","time":4,"is_transit":false,"transit":false,"distance":2520},{"time":3,"station_id":"CUK","station_name":"Cakung","i_lat":-6.219053,"i_long":106.951283,"distance":3097,"line":1,"is_transit":false,"transit":false},{"line":1,"i_lat":-6.217455,"is_transit":false,"station_name":"Klenderbaru","station_id":"KLDB","time":8,"transit":false,"distance":1385,"i_long":106.939679},{"distance":1305,"station_id":"BUA","time":1,"i_lat":-6.215568,"is_transit":false,"i_long":106.922662,"line":1,"transit":false,"station_name":"Buaran"},{"station_id":"KLD","time":2,"is_transit":false,"station_name":"Klender","distance":3100,"transit":false,"i_long":106.899548,"i_lat":-6.2135,"line":1},{"i_long":106.86807400000001,"station_name":"Jatinegara","distance":3395,"station_id":"JNG","transit":false,"line":1,"i_lat":-6.215091,"time":3,"is_transit":false},{"i_long":106.858896,"is_transit":false,"i_lat":-6.212485,"station_name":"Matraman","transit":false,"distance":1377,"station_id":"MTR","line":1,"time":2},{"is_transit":true,"line":2,"distance":1275,"station_id":"MRI","station_name":"Manggarai","i_lat":-6.209883,"time":2,"i_long":106.84912,"transit":true},{"time":4,"station_id":"CKI","is_transit":false,"distance":1590,"station_name":"Cikini","transit":false,"i_lat":-6.198556,"i_long":106.840169,"line":2},{"is_transit":false,"transit":false,"distance":1750,"i_long":106.832183,"line":2,"station_id":"GDD","time":3,"station_name":"Gondangdia","i_lat":-6.186295},{"line":2,"i_lat":-6.166716,"time":4,"is_transit":false,"station_id":"JUA","transit":false,"distance":2015,"station_name":"Juanda","i_long":106.828284},{"time":2,"distance":1149,"station_name":"Sawah Besar","transit":false,"i_lat":-6.160725,"station_id":"SW","is_transit":false,"i_long":106.827103,"line":2},{"i_lat":-6.149769,"station_id":"MGB","time":2,"transit":false,"i_long":106.82482,"is_transit":false,"distance":906,"line":2,"station_name":"Manggabesar"},{"station_name":"Jayakarta","i_long":106.820901,"time":2,"is_transit":false,"distance":1080,"i_lat":-6.141205,"transit":false,"station_id":"JAY","line":2},{"distance":1264,"station_name":"Jakarta Kota","time":4,"line":2,"i_long":106.812439,"transit":true,"is_transit":true,"i_lat":-6.137569,"station_id":"JAKK"},{"transit":true,"distance":1364,"i_lat":-6.132549,"is_transit":true,"line":4,"station_id":"KPB","time":3,"i_long":106.826365,"station_name":"Kampung Bandan"},{"station_id":"AK","i_lat":-6.144674,"line":1,"distance":4102,"transit":false,"station_name":"Angke","is_transit":false,"time":9,"i_long":106.79867},{"is_transit":true,"station_name":"Duri","i_long":106.800832,"station_id":"DU","distance":1230,"time":4,"transit":true,"i_lat":-6.155215,"line":1},{"station_name":"Grogol","time":3,"i_lat":-6.162021,"i_long":106.788277,"station_id":"GGL","transit":false,"line":5,"is_transit":false,"distance":1700},{"transit":false,"distance":2036,"station_name":"Pesing","i_lat":-6.161433,"time":2,"line":5,"station_id":"PSG","i_long":106.771379,"is_transit":false},{"i_long":106.756522,"is_transit":false,"i_lat":-6.1587309999999995,"time":2,"distance":1614,"station_id":"TKO","station_name":"Taman Kota","transit":false,"line":5},{"i_long":106.737035,"line":5,"station_name":"Bojongindah","i_lat":-6.159876,"transit":false,"station_id":"BOI","time":2,"is_transit":false,"distance":2334},{"station_id":"RW","distance":1152,"i_lat":-6.162758,"line":5,"station_name":"Rawa Buaya","transit":false,"i_long":106.723064,"time":4,"is_transit":false},{"time":3,"i_lat":-6.166068,"i_long":106.701612,"is_transit":false,"station_name":"Kalideres","transit":false,"distance":2504,"station_id":"KDS","line":5},{"time":3,"is_transit":false,"transit":false,"i_long":106.679458,"station_id":"PI","distance":2548,"i_lat":-6.169933,"station_name":"Poris","line":5}],[{"time":0,"station_name":"Cibitung","i_long":107.083084,"line":1,"i_lat":-6.261877,"is_transit":false,"transit":false,"distance":0,"station_id":"CIT"},{"distance":3420,"time":3,"line":1,"is_transit":false,"transit":false,"station_name":"Tambun","station_id":"TB","i_long":107.055722,"i_lat":-6.258864},{"i_long":107.016735,"line":1,"station_id":"BKST","time":7,"station_name":"Bekasi Timur","transit":false,"distance":4460,"is_transit":false,"i_lat":-6.248029},{"is_transit":false,"station_name":"Bekasi","time":2,"distance":2368,"i_long":106.997013,"i_lat":-6.236616,"line":1,"station_id":"BKS","transit":false},{"station_id":"KRI","transit":false,"distance":2520,"time":4,"station_name":"Kranji","i_lat":-6.224515,"i_long":106.977657,"line":1,"is_transit":false},{"time":3,"i_lat":-6.219053,"i_long":106.951283,"transit":false,"distance":3097,"line":1,"station_id":"CUK","is_transit":false,"station_name":"Cakung"},{"time":8,"distance":1385,"i_lat":-6.217455,"station_name":"Klenderbaru","is_transit":false,"i_long":106.939679,"transit":false,"station_id":"KLDB","line":1},{"station_id":"BUA","i_lat":-6.215568,"transit":false,"i_long":106.922662,"line":1,"time":1,"is_transit":false,"station_name":"Buaran","distance":1305},{"station_id":"KLD","time":2,"distance":3100,"is_transit":false,"line":1,"station_name":"Klender","transit":false,"i_lat":-6.2135,"i_long":106.899548},{"is_transit":true,"line":1,"i_long":106.86807400000001,"station_id":"JNG","distance":3395,"transit":true,"i_lat":-6.215091,"station_name":"Jatinegara","time":3},{"time":2,"station_name":"Pondok Jati","line":11,"transit":false,"i_long":106.861737,"distance":1236,"i_lat":-6.209188,"station_id":"POK","is_transit":false},{"station_id":"KMT","time":2,"i_lat":-6.193792,"i_long":106.855437,"station_name":"Kramat","line":11,"is_transit":false,"distance":1829,"transit":false},{"is_transit":false,"distance":973,"transit":false,"i_long":106.850107,"station_name":"Gang Sentiong","line":11,"time":1,"i_lat":-6.185975,"station_id":"GST"},{"is_transit":false,"station_id":"PSE","transit":false,"time":8,"i_lat":-6.174784,"i_long":106.84368,"line":11,"distance":1567,"station_name":"Pasar Senen"},{"station_name":"Kemayoran","is_transit":false,"line":11,"transit":false,"station_id":"KMO","i_long":106.839204,"time":4,"i_lat":-6.161728,"distance":1436},{"station_name":"Rajawali","station_id":"RJW","i_long":106.836569,"i_lat":-6.14505,"is_transit":false,"transit":false,"time":5,"distance":1901,"line":11},{"distance":1444,"is_transit":true,"i_lat":-6.132549,"i_long":106.826365,"time":3,"station_name":"Kampung Bandan","transit":true,"line":4,"station_id":"KPB"},{"distance":1364,"time":3,"is_transit":true,"station_name":"Jakarta Kota","i_lat":-6.137569,"line":2,"i_long":106.812439,"station_id":"JAKK","transit":true},{"line":2,"station_name":"Jayakarta","i_lat":-6.141205,"station_id":"JAY","time":4,"is_transit":false,"transit":false,"i_long":106.820901,"distance":1264},{"transit":false,"time":2,"station_id":"MGB","is_transit":false,"i_lat":-6.149769,"distance":1080,"station_name":"Manggabesar","i_long":106.82482,"line":2},{"line":2,"i_lat":-6.160725,"distance":906,"time":2,"transit":false,"station_id":"SW","is_transit":false,"i_long":106.827103,"station_name":"Sawah Besar"},{"station_name":"Juanda","distance":1149,"transit":false,"station_id":"JUA","is_transit":false,"line":2,"i_lat":-6.166716,"i_long":106.828284,"time":2},{"distance":2015,"i_lat":-6.186295,"transit":false,"is_transit":false,"station_id":"GDD","line":2,"station_name":"Gondangdia","i_long":106.832183,"time":4},{"distance":1750,"transit":false,"station_name":"Cikini","i_lat":-6.198556,"line":2,"station_id":"CKI","is_transit":false,"time":3,"i_long":106.840169},{"is_transit":true,"i_lat":-6.209883,"station_name":"Manggarai","i_long":106.84912,"distance":1590,"time":4,"transit":true,"line":2,"station_id":"MRI"},{"i_long":106.822649,"station_id":"SUD","distance":3186,"station_name":"Sudirman","transit":false,"i_lat":-6.202263,"time":4,"line":1,"is_transit":false},{"transit":false,"station_id":"SUDB","time":1,"line":1,"i_lat":-6.201433,"distance":280,"i_long":106.819881,"is_transit":false,"station_name":"Sudirman Baru"},{"station_name":"Karet","time":1,"distance":471,"i_lat":-6.20132,"transit":false,"station_id":"KAT","line":1,"i_long":106.816351,"is_transit":false},{"station_name":"Tanah Abang","transit":false,"i_long":106.811091,"distance":2029,"time":5,"line":1,"i_lat":-6.185545,"station_id":"THB","is_transit":false},{"station_name":"Duri","is_transit":true,"transit":true,"distance":3632,"line":1,"time":8,"i_lat":-6.155215,"i_long":106.800832,"station_id":"DU"},{"transit":false,"distance":1700,"is_transit":false,"time":3,"i_lat":-6.162021,"station_name":"Grogol","line":5,"station_id":"GGL","i_long":106.788277},{"is_transit":false,"i_long":106.771379,"time":2,"distance":2036,"station_name":"Pesing","line":5,"transit":false,"i_lat":-6.161433,"station_id":"PSG"},{"i_long":106.756522,"station_id":"TKO","distance":1614,"is_transit":false,"time":2,"station_name":"Taman Kota","line":5,"i_lat":-6.1587309999999995,"transit":false},{"station_name":"Bojongindah","line":5,"time":2,"distance":2334,"station_id":"BOI","is_transit":false,"i_lat":-6.159876,"i_long":106.737035,"transit":false},{"station_name":"Rawa Buaya","i_lat":-6.162758,"line":5,"time":4,"is_transit":false,"station_id":"RW","distance":1152,"i_long":106.723064,"transit":false},{"distance":2504,"i_long":106.701612,"line":5,"station_name":"Kalideres","station_id":"KDS","i_lat":-6.166068,"transit":false,"is_transit":false,"time":3},{"i_long":106.679458,"is_transit":false,"time":3,"station_name":"Poris","i_lat":-6.169933,"station_id":"PI","distance":2548,"line":5,"transit":false}]]}