{"data":[[{"transit":false,"i_lat":-6.261877,"station_name":"Cibitung","station_id":"CIT","distance":0,"time":0,"i_long":107.083084,"is_transit":false,"line":0},{"time":3,"i_long":107.055722,"line":1,"is_transit":false,"station_name":"Tambun","distance":3420,"i_lat":-6.258864,"transit":false,"station_id":"TB"},{"is_transit":false,"i_long":107.016735,"line":0,"station_id":"BKST","i_lat":-6.248029,"distance":4460,"station_name":"Bekasi Timur","transit":false,"time":7},{"is_transit":false,"i_lat":-6.236616,"transit":false,"i_long":106.997013,"distance":2368,"time":2,"station_id":"BKS","station_name":"Bekasi","line":0},{"station_name":"Kranji","i_long":106.977657,"station_id":"KRI","time":4,"line":1,"distance":2520,"is_transit":false,"i_lat":-6.224515,"transit":false},{"distance":3097,"station_id":"CUK","transit":false,"time":3,"i_long":106.951283,"station_name":"Cakung","line":0,"is_transit":false,"i_lat":-6.219053},{"time":8,"is_transit":false,"line":1,"i_long":106.939679,"distance":1385,"station_id":"KLDB","station_name":"Klenderbaru","transit":false,"i_lat":-6.217455},{"is_transit":false,"station_id":"BUA","time":1,"distance":1305,"station_name":"Buaran","transit":false,"i_lat":-6.215568,"i_long":106.922662,"line":0},{"station_name":"Klender","i_lat":-6.2135,"is_transit":false,"i_long":106.899548,"line":1,"distance":3100,"transit":false,"time":2,"station_id":"KLD"},{"line":0,"is_transit":true,"transit":true,"station_name":"Jatinegara","station_id":"JNG","time":3,"distance":3395,"i_lat":-6.215091,"i_long":106.86807400000001},{"distance":1236,"station_name":"Pondok Jati","is_transit":false,"i_lat":-6.209188,"station_id":"POK","transit":false,"i_long":106.861737,"time":2,"line":11}],[{"i_lat":-6.261877,"i_long":107.083084,"line":0,"station_id":"CIT","transit":false,"time":0,"distance":0,"is_transit":false,"station_name":"Cibitung"},{"is_transit":false,"transit":false,"time":3,"station_name":"Tambun","distance":3420,"line":1,"i_long":107.055722,"station_id":"TB","i_lat":-6.258864},{"time":7,"i_lat":-6.248029,"i_long":107.016735,"line":0,"is_transit":false,"distance":4460,"transit":false,"station_name":"Bekasi Timur","station_id":"BKST"},{"time":2,"is_transit":false,"station_id":"BKS","station_name":"Bekasi","distance":2368,"transit":false,"i_lat":-6.236616,"i_long":106.997013,"line":0},{"time":4,"i_long":106.977657,"station_id":"KRI","line":1,"distance":2520,"transit":false,"i_lat":-6.224515,"is_transit":false,"station_name":"Kranji"},{"distance":3097,"transit":false,"i_lat":-6.219053,"line":0,"station_id":"CUK","station_name":"Cakung","is_transit":false,"i_long":106.951283,"time":3},{"transit":false,"distance":1385,"time":8,"i_lat":-6.217455,"station_id":"KLDB","line":1,"is_transit":false,"i_long":106.939679,"station_name":"Klenderbaru"},{"station_name":"Buaran","transit":false,"i_long":106.922662,"line":0,"time":1,"station_id":"BUA","distance":1305,"is_transit":false,"i_lat":-6.215568},{"station_id":"KLD","station_name":"Klender","transit":false,"i_lat":-6.2135,"line":1,"i_long":106.899548,"time":2,"is_transit":false,"distance":3100},{"line":0,"time":3,"i_lat":-6.215091,"station_id":"JNG","is_transit":true,"i_long":106.86807400000001,"transit":false,"distance":3395,"station_name":"Jatinegara"},{"is_transit":false,"i_lat":-6.212485,"transit":false,"distance":1377,"station_name":"Matraman","i_long":106.858896,"line":1,"station_id":"MTR","time":2},{"station_name":"Manggarai","i_lat":-6.209883,"line":0,"station_id":"MRI","transit":false,"time":2,"is_transit":true,"distance":1275,"i_long":106.84912},{"i_lat":-6.202263,"is_transit":false,"time":4,"station_id":"SUD","i_long":106.822649,"distance":3186,"station_name":"Sudirman","line":1,"transit":false},{"distance":280,"is_transit":false,"transit":false,"i_long":106.819881,"line":1,"station_name":"Sudirman Baru","time":1,"i_lat":-6.201433,"station_id":"SUDB"},{"i_long":106.816351,"transit":false,"station_name":"Karet","is_transit":false,"distance":471,"time":1,"station_id":"KAT","i_lat":-6.20132,"line":1},{"is_transit":true,"station_name":"Tanah Abang","i_long":106.811091,"i_lat":-6.185545,"transit":false,"distance":2029,"line":1,"time":5,"station_id":"THB"},{"i_lat":-6.155215,"distance":3632,"station_id":"DU","station_name":"Duri","is_transit":true,"i_long":106.800832,"transit":true,"line":1,"time":8},{"station_id":"AK","i_long":106.79867,"line":0,"i_lat":-6.144674,"distance":1230,"transit":false,"is_transit":false,"time":4,"station_name":"Angke"},{"is_transit":true,"distance":4102,"line":0,"transit":true,"i_lat":-6.132549,"i_long":106.826365,"station_name":"Kampung Bandan","time":9,"station_id":"KPB"},{"time":3,"is_transit":false,"transit":false,"i_lat":-6.14505,"station_id":"RJW","station_name":"Rajawali","line":11,"i_long":106.836569,"distance":1444},{"station_name":"Kemayoran","i_lat":-6.161728,"time":5,"station_id":"KMO","line":11,"distance":1901,"i_long":106.839204,"transit":false,"is_transit":false},{"time":4,"station_id":"PSE","transit":false,"distance":1436,"is_transit":false,"i_lat":-6.174784,"line":11,"i_long":106.84368,"station_name":"Pasar Senen"},{"station_name":"Gang Sentiong","transit":false,"i_long":106.850107,"line":11,"station_id":"GST","i_lat":-6.185975,"distance":1567,"time":8,"is_transit":false},{"time":1,"i_long":106.855437,"line":11,"i_lat":-6.193792,"is_transit":false,"transit":false,"station_name":"Kramat","distance":973,"station_id":"KMT"},{"time":2,"station_id":"POK","transit":false,"i_lat":-6.209188,"i_long":106.861737,"distance":1829,"is_transit":false,"station_name":"Pondok Jati","line":11}],[{"is_transit":false,"transit":false,"time":0,"distance":0,"i_lat":-6.261877,"station_id":"CIT","station_name":"Cibitung","i_long":107.083084,"line":0},{"i_long":107.055722,"transit":false,"line":1,"i_lat":-6.258864,"distance":3420,"time":3,"station_id":"TB","station_name":"Tambun","is_transit":false},{"distance":4460,"time":7,"station_id":"BKST","station_name":"Bekasi Timur","line":0,"i_long":107.016735,"transit":false,"i_lat":-6.248029,"is_transit":false},{"station_name":"Bekasi","i_long":106.997013,"is_transit":false,"i_lat":-6.236616,"station_id":"BKS","transit":false,"line":0,"time":2,"distance":2368},{"i_lat":-6.224515,"time":4,"distance":2520,"is_transit":false,"station_id":"KRI","station_name":"Kranji","transit":false,"line":1,"i_long":106.977657},{"station_id":"CUK","transit":false,"time":3,"i_lat":-6.219053,"i_long":106.951283,"line":0,"station_name":"Cakung","distance":3097,"is_transit":false},{"transit":false,"i_lat":-6.217455,"is_transit":false,"station_name":"Klenderbaru","i_long":106.939679,"line":1,"distance":1385,"station_id":"KLDB","time":8},{"i_long":106.922662,"distance":1305,"transit":false,"i_lat":-6.215568,"time":1,"is_transit":false,"station_id":"BUA","station_name":"Buaran","line":0},{"line":1,"time":2,"station_id":"KLD","distance":3100,"station_name":"Klender","is_transit":false,"i_long":106.899548,"transit":false,"i_lat":-6.2135},{"is_transit":true,"i_lat":-6.215091,"time":3,"station_id":"JNG","line":0,"station_name":"Jatinegara","distance":3395,"transit":false,"i_long":106.86807400000001},{"line":1,"time":2,"is_transit":false,"station_id":"MTR","transit":false,"distance":1377,"i_long":106.858896,"station_name":"Matraman","i_lat":-6.212485},{"station_name":"Manggarai","station_id":"MRI","distance":1275,"i_lat":-6.209883,"transit":true,"i_long":106.84912,"time":2,"line":0,"is_transit":true},{"i_long":106.840169,"i_lat":-6.198556,"is_transit":false,"line":0,"station_id":"CKI","station_name":"Cikini","distance":1590,"time":4,"transit":false},{"i_long":106.832183,"is_transit":false,"i_lat":-6.186295,"distance":1750,"time":3,"station_id":"GDD","station_name":"Gondangdia","transit":false,"line":2},{"transit":false,"line":2,"station_name":"Juanda","is_transit":false,"time":4,"i_long":106.828284,"i_lat":-6.166716,"distance":2015,"station_id":"JUA"},{"line":2,"i_long":106.827103,"i_lat":-6.160725,"is_transit":false,"time":2,"station_id":"SW","transit":false,"station_name":"Sawah Besar","distance":1149},{"station_id":"MGB","station_name":"Manggabesar","i_lat":-6.149769,"time":2,"distance":906,"transit":false,"is_transit":false,"i_long":106.82482,"line":2},{"line":7,"time":2,"distance":1080,"transit":false,"i_long":106.820901,"is_transit":false,"station_name":"Jayakarta","station_id":"JAY","i_lat":-6.141205},{"transit":true,"distance":1264,"station_id":"JAKK","i_lat":-6.137569,"time":4,"line":0,"is_transit":true,"i_long":106.812439,"station_name":"Jakarta Kota"},{"line":0,"station_id":"KPB","station_name":"Kampung Bandan","i_lat":-6.132549,"i_long":106.826365,"is_transit":true,"transit":true,"distance":1364,"time":3},{"time":3,"station_id":"RJW","i_lat":-6.14505,"is_transit":false,"distance":1444,"station_name":"Rajawali","transit":false,"i_long":106.836569,"line":11},{"transit":false,"station_name":"Kemayoran","station_id":"KMO","distance":1901,"is_transit":false,"line":11,"i_lat":-6.161728,"i_long":106.839204,"time":5},{"is_transit":false,"line":11,"time":4,"i_lat":-6.174784,"station_name":"Pasar Senen","distance":1436,"station_id":"PSE","i_long":106.84368,"transit":false},{"line":11,"i_lat":-6.185975,"distance":1567,"is_transit":false,"time":8,"transit":false,"station_id":"GST","station_name":"Gang Sentiong","i_long":106.850107},{"transit":false,"i_long":106.855437,"time":1,"line":11,"station_id":"KMT","distance":973,"i_lat":-6.193792,"station_name":"Kramat","is_transit":false},{"station_id":"POK","is_transit":false,"transit":false,"i_lat":-6.209188,"line":11,"i_long":106.861737,"distance":1829,"station_name":"Pondok Jati","time":2}]]}