{"data":[[{"station_id":"CIT","station_name":"Cibitung","i_lat":-6.261877,"distance":0,"time":0,"is_transit":false,"i_long":107.083084,"line":0,"transit":false},{"transit":false,"distance":3420,"station_name":"Tambun","station_id":"TB","is_transit":false,"i_lat":-6.258864,"i_long":107.055722,"line":1,"time":3},{"i_long":107.016735,"station_name":"Bekasi Timur","distance":4460,"station_id":"BKST","i_lat":-6.248029,"line":0,"is_transit":false,"time":7,"transit":false},{"is_transit":false,"station_name":"Bekasi","station_id":"BKS","i_long":106.997013,"line":0,"time":2,"distance":2368,"transit":false,"i_lat":-6.236616},{"station_id":"KRI","time":4,"transit":false,"is_transit":false,"distance":2520,"i_lat":-6.224515,"i_long":106.977657,"station_name":"Kranji","line":1},{"transit":false,"i_long":106.951283,"time":3,"i_lat":-6.219053,"station_id":"CUK","distance":3097,"is_transit":false,"station_name":"Cakung","line":0},{"distance":1385,"station_id":"KLDB","i_long":106.939679,"station_name":"Klenderbaru","is_transit":false,"line":1,"i_lat":-6.217455,"transit":false,"time":8},{"distance":1305,"line":0,"is_transit":false,"transit":false,"i_long":106.922662,"time":1,"station_name":"Buaran","i_lat":-6.215568,"station_id":"BUA"},{"transit":false,"i_lat":-6.2135,"i_long":106.899548,"line":1,"time":2,"station_id":"KLD","is_transit":false,"distance":3100,"station_name":"Klender"},{"i_long":106.86807400000001,"distance":3395,"time":3,"station_name":"Jatinegara","is_transit":true,"line":0,"i_lat":-6.215091,"station_id":"JNG","transit":false},{"i_long":106.858896,"station_name":"Matraman","i_lat":-6.212485,"line":1,"is_transit":false,"time":2,"station_id":"MTR","transit":false,"distance":1377},{"is_transit":true,"time":2,"station_id":"MRI","distance":1275,"i_lat":-6.209883,"i_long":106.84912,"transit":true,"line":0,"station_name":"Manggarai"},{"station_id":"TEB","station_name":"Tebet","is_transit":false,"i_lat":-6.226659,"time":4,"transit":false,"distance":2610,"i_long":106.857948,"line":2},{"is_transit":false,"time":2,"distance":1230,"i_long":106.856607,"station_id":"CW","i_lat":-6.242512,"line":0,"transit":false,"station_name":"Cawang"},{"line":0,"is_transit":false,"station_name":"Duren Kalibata","time":3,"i_lat":-6.255332,"transit":false,"distance":1546,"station_id":"DRN","i_long":106.85449},{"i_long":106.851577,"station_name":"Pasar Minggu Baru","is_transit":false,"line":2,"station_id":"PSMB","i_lat":-6.263214,"time":2,"distance":824,"transit":false},{"time":2,"i_long":106.843999,"line":2,"i_lat":-6.2842400000000005,"is_transit":false,"transit":false,"station_id":"PSM","distance":2380,"station_name":"Pasar Minggu"},{"time":4,"i_lat":-6.3080680000000005,"i_long":106.838896,"line":2,"station_name":"Tanjung Barat","is_transit":false,"station_id":"TNT","transit":false,"distance":2820},{"transit":false,"line":2,"time":3,"station_id":"LNA","station_name":"Lenteng Agung","i_long":106.832616,"i_lat":-6.330363,"distance":2671,"is_transit":false},{"transit":false,"is_transit":false,"line":2,"station_id":"UP","distance":1029,"i_lat":-6.339291,"i_long":106.834175,"station_name":"Univ. Pancasila","time":2},{"transit":false,"distance":2264,"station_name":"Univ. Indonesia","is_transit":false,"i_long":106.831474,"i_lat":-6.360749,"line":2,"time":3,"station_id":"UI"},{"is_transit":false,"i_lat":-6.369073,"line":2,"distance":1109,"station_id":"POC","transit":false,"time":2,"i_long":106.831114,"station_name":"Pondok Cina"},{"is_transit":false,"i_long":106.819451,"transit":false,"distance":2727,"time":4,"line":0,"i_lat":-6.391065,"station_name":"Depokbaru","station_id":"DPB"},{"station_name":"Depok","time":3,"is_transit":false,"transit":false,"station_id":"DP","i_long":106.816926,"line":0,"distance":1584,"i_lat":-6.405256},{"time":6,"transit":false,"distance":5084,"is_transit":true,"i_lat":-6.448811,"station_id":"CTA","i_long":106.800298,"line":1,"station_name":"Citayam"},{"line":0,"transit":false,"i_lat":-6.46424,"station_name":"Cibinong","station_id":"CBN","i_long":106.851978,"distance":6740,"time":10,"is_transit":false},{"station_name":"Nambo","station_id":"NMO","distance":6527,"transit":false,"i_long":106.905196,"line":21,"i_lat":-6.466285,"is_transit":false,"time":10}],[{"transit":false,"station_id":"CIT","is_transit":false,"i_long":107.083084,"time":0,"station_name":"Cibitung","distance":0,"i_lat":-6.261877,"line":0},{"i_long":107.055722,"station_name":"Tambun","station_id":"TB","line":1,"is_transit":false,"time":3,"distance":3420,"transit":false,"i_lat":-6.258864},{"line":0,"distance":4460,"transit":false,"i_lat":-6.248029,"time":7,"station_id":"BKST","i_long":107.016735,"station_name":"Bekasi Timur","is_transit":false},{"time":2,"station_id":"BKS","transit":false,"distance":2368,"i_long":106.997013,"i_lat":-6.236616,"line":0,"station_name":"Bekasi","is_transit":false},{"i_long":106.977657,"distance":2520,"i_lat":-6.224515,"line":1,"is_transit":false,"transit":false,"station_id":"KRI","time":4,"station_name":"Kranji"},{"distance":3097,"transit":false,"station_name":"Cakung","line":0,"is_transit":false,"time":3,"station_id":"CUK","i_lat":-6.219053,"i_long":106.951283},{"station_id":"KLDB","line":1,"station_name":"Klenderbaru","distance":1385,"transit":false,"is_transit":false,"i_lat":-6.217455,"i_long":106.939679,"time":8},{"is_transit":false,"station_id":"BUA","i_lat":-6.215568,"time":1,"i_long":106.922662,"transit":false,"station_name":"Buaran","distance":1305,"line":0},{"is_transit":false,"time":2,"distance":3100,"station_id":"KLD","i_lat":-6.2135,"i_long":106.899548,"station_name":"Klender","transit":false,"line":1},{"station_id":"JNG","station_name":"Jatinegara","transit":true,"line":0,"i_long":106.86807400000001,"distance":3395,"time":3,"i_lat":-6.215091,"is_transit":true},{"transit":false,"station_id":"POK","is_transit":false,"station_name":"Pondok Jati","distance":1236,"time":2,"i_long":106.861737,"line":11,"i_lat":-6.209188},{"line":11,"station_name":"Kramat","time":2,"is_transit":false,"i_long":106.855437,"transit":false,"station_id":"KMT","distance":1829,"i_lat":-6.193792},{"time":1,"i_lat":-6.185975,"i_long":106.850107,"is_transit":false,"distance":973,"station_name":"Gang Sentiong","station_id":"GST","transit":false,"line":11},{"i_long":106.84368,"i_lat":-6.174784,"line":11,"distance":1567,"station_id":"PSE","station_name":"Pasar Senen","transit":false,"time":8,"is_transit":false},{"station_id":"KMO","station_name":"Kemayoran","transit":false,"i_long":106.839204,"line":11,"i_lat":-6.161728,"distance":1436,"time":4,"is_transit":false},{"station_id":"RJW","transit":false,"is_transit":false,"i_long":106.836569,"line":11,"time":5,"station_name":"Rajawali","i_lat":-6.14505,"distance":1901},{"distance":1444,"line":0,"is_transit":true,"station_name":"Kampung Bandan","station_id":"KPB","i_lat":-6.132549,"i_long":106.826365,"transit":true,"time":3},{"station_id":"AK","time":9,"distance":4102,"is_transit":false,"transit":false,"i_long":106.79867,"station_name":"Angke","line":0,"i_lat":-6.144674},{"line":1,"station_name":"Duri","is_transit":true,"time":4,"distance":1230,"transit":true,"station_id":"DU","i_long":106.800832,"i_lat":-6.155215},{"time":8,"transit":false,"line":1,"is_transit":true,"i_lat":-6.185545,"distance":3632,"station_id":"THB","i_long":106.811091,"station_name":"Tanah Abang"},{"station_name":"Karet","line":1,"i_lat":-6.20132,"station_id":"KAT","is_transit":false,"i_long":106.816351,"distance":2029,"transit":false,"time":5},{"i_lat":-6.201433,"is_transit":false,"i_long":106.819881,"transit":false,"station_id":"SUDB","distance":471,"time":1,"station_name":"Sudirman Baru","line":1},{"distance":280,"i_lat":-6.202263,"line":1,"transit":false,"time":1,"station_id":"SUD","i_long":106.822649,"is_transit":false,"station_name":"Sudirman"},{"line":0,"station_id":"MRI","i_lat":-6.209883,"is_transit":true,"transit":true,"time":4,"i_long":106.84912,"station_name":"Manggarai","distance":3186},{"station_id":"TEB","i_lat":-6.226659,"distance":2610,"transit":false,"is_transit":false,"i_long":106.857948,"time":4,"station_name":"Tebet","line":2},{"station_name":"Cawang","is_transit":false,"time":2,"station_id":"CW","transit":false,"i_lat":-6.242512,"line":0,"distance":1230,"i_long":106.856607},{"i_long":106.85449,"line":0,"distance":1546,"i_lat":-6.255332,"station_id":"DRN","time":3,"is_transit":false,"station_name":"Duren Kalibata","transit":false},{"station_name":"Pasar Minggu Baru","i_lat":-6.263214,"is_transit":false,"station_id":"PSMB","transit":false,"line":2,"time":2,"distance":824,"i_long":106.851577},{"i_long":106.843999,"line":2,"station_id":"PSM","is_transit":false,"time":2,"transit":false,"station_name":"Pasar Minggu","distance":2380,"i_lat":-6.2842400000000005},{"line":2,"distance":2820,"time":4,"is_transit":false,"i_lat":-6.3080680000000005,"transit":false,"station_name":"Tanjung Barat","i_long":106.838896,"station_id":"TNT"},{"time":3,"transit":false,"station_id":"LNA","i_long":106.832616,"i_lat":-6.330363,"station_name":"Lenteng Agung","is_transit":false,"distance":2671,"line":2},{"distance":1029,"time":2,"station_id":"UP","is_transit":false,"transit":false,"i_lat":-6.339291,"line":2,"i_long":106.834175,"station_name":"Univ. Pancasila"},{"distance":2264,"station_id":"UI","is_transit":false,"transit":false,"line":2,"time":3,"i_lat":-6.360749,"station_name":"Univ. Indonesia","i_long":106.831474},{"line":2,"i_long":106.831114,"i_lat":-6.369073,"distance":1109,"station_id":"POC","is_transit":false,"transit":false,"station_name":"Pondok Cina","time":2},{"transit":false,"line":0,"distance":2727,"i_lat":-6.391065,"i_long":106.819451,"station_id":"DPB","time":4,"is_transit":false,"station_name":"Depokbaru"},{"time":3,"station_id":"DP","is_transit":false,"i_lat":-6.405256,"line":0,"station_name":"Depok","i_long":106.816926,"distance":1584,"transit":false},{"station_id":"CTA","i_lat":-6.448811,"transit":false,"is_transit":true,"time":6,"station_name":"Citayam","distance":5084,"i_long":106.800298,"line":1},{"i_lat":-6.46424,"time":10,"transit":false,"i_long":106.851978,"distance":6740,"line":0,"is_transit":false,"station_id":"CBN","station_name":"Cibinong"},{"i_long":106.905196,"station_id":"NMO","time":10,"transit":false,"distance":6527,"is_transit":false,"line":21,"station_name":"Nambo","i_lat":-6.466285}],[{"line":0,"is_transit":false,"transit":false,"station_name":"Cibitung","i_lat":-6.261877,"i_long":107.083084,"station_id":"CIT","time":0,"distance":0},{"i_long":107.055722,"line":1,"time":3,"station_name":"Tambun","i_lat":-6.258864,"is_transit":false,"transit":false,"station_id":"TB","distance":3420},{"transit":false,"is_transit":false,"line":0,"distance":4460,"i_long":107.016735,"i_lat":-6.248029,"time":7,"station_id":"BKST","station_name":"Bekasi Timur"},{"station_name":"Bekasi","time":2,"i_lat":-6.236616,"transit":false,"station_id":"BKS","distance":2368,"line":0,"is_transit":false,"i_long":106.997013},{"transit":false,"station_id":"KRI","i_lat":-6.224515,"line":1,"station_name":"Kranji","i_long":106.977657,"is_transit":false,"time":4,"distance":2520},{"station_name":"Cakung","time":3,"distance":3097,"transit":false,"line":0,"is_transit":false,"station_id":"CUK","i_lat":-6.219053,"i_long":106.951283},{"is_transit":false,"time":8,"i_long":106.939679,"station_name":"Klenderbaru","transit":false,"line":1,"i_lat":-6.217455,"station_id":"KLDB","distance":1385},{"i_lat":-6.215568,"distance":1305,"time":1,"line":0,"station_name":"Buaran","station_id":"BUA","transit":false,"is_transit":false,"i_long":106.922662},{"i_long":106.899548,"station_name":"Klender","station_id":"KLD","time":2,"transit":false,"is_transit":false,"line":1,"distance":3100,"i_lat":-6.2135},{"station_id":"JNG","transit":true,"time":3,"distance":3395,"i_lat":-6.215091,"is_transit":true,"i_long":106.86807400000001,"station_name":"Jatinegara","line":0},{"distance":1236,"station_id":"POK","i_lat":-6.209188,"transit":false,"station_name":"Pondok Jati","i_long":106.861737,"time":2,"is_transit":false,"line":11},{"is_transit":false,"transit":false,"i_long":106.855437,"i_lat":-6.193792,"station_name":"Kramat","time":2,"distance":1829,"line":11,"station_id":"KMT"},{"transit":false,"station_name":"Gang Sentiong","distance":973,"is_transit":false,"time":1,"station_id":"GST","i_lat":-6.185975,"i_long":106.850107,"line":11},{"station_name":"Pasar Senen","distance":1567,"is_transit":false,"time":8,"station_id":"PSE","line":11,"i_lat":-6.174784,"transit":false,"i_long":106.84368},{"station_name":"Kemayoran","station_id":"KMO","distance":1436,"i_long":106.839204,"is_transit":false,"time":4,"i_lat":-6.161728,"line":11,"transit":false},{"distance":1901,"station_id":"RJW","transit":false,"i_lat":-6.14505,"line":11,"time":5,"station_name":"Rajawali","i_long":106.836569,"is_transit":false},{"time":3,"station_id":"KPB","is_transit":true,"i_long":106.826365,"line":0,"transit":true,"station_name":"Kampung Bandan","i_lat":-6.132549,"distance":1444},{"is_transit":true,"transit":true,"station_name":"Jakarta Kota","i_lat":-6.137569,"i_long":106.812439,"line":0,"station_id":"JAKK","time":3,"distance":1364},{"i_long":106.820901,"is_transit":false,"transit":false,"time":4,"distance":1264,"station_name":"Jayakarta","station_id":"JAY","line":7,"i_lat":-6.141205},{"distance":1080,"station_id":"MGB","line":2,"station_name":"Manggabesar","i_long":106.82482,"i_lat":-6.149769,"transit":false,"time":2,"is_transit":false},{"is_transit":false,"station_name":"Sawah Besar","line":2,"time":2,"distance":906,"transit":false,"i_lat":-6.160725,"station_id":"SW","i_long":106.827103},{"i_lat":-6.166716,"distance":1149,"i_long":106.828284,"is_transit":false,"line":2,"time":2,"station_name":"Juanda","station_id":"JUA","transit":false},{"i_long":106.832183,"distance":2015,"i_lat":-6.186295,"station_name":"Gondangdia","station_id":"GDD","transit":false,"line":2,"is_transit":false,"time":4},{"line":0,"station_name":"Cikini","i_long":106.840169,"distance":1750,"is_transit":false,"time":3,"station_id":"CKI","transit":false,"i_lat":-6.198556},{"line":0,"distance":1590,"time":4,"i_long":106.84912,"transit":true,"i_lat":-6.209883,"station_id":"MRI","station_name":"Manggarai","is_transit":true},{"is_transit":false,"station_id":"TEB","time":4,"station_name":"Tebet","i_lat":-6.226659,"distance":2610,"i_long":106.857948,"line":2,"transit":false},{"line":0,"transit":false,"distance":1230,"station_name":"Cawang","time":2,"i_long":106.856607,"i_lat":-6.242512,"is_transit":false,"station_id":"CW"},{"is_transit":false,"i_lat":-6.255332,"time":3,"transit":false,"distance":1546,"station_name":"Duren Kalibata","i_long":106.85449,"line":0,"station_id":"DRN"},{"distance":824,"is_transit":false,"i_lat":-6.263214,"station_name":"Pasar Minggu Baru","line":2,"time":2,"i_long":106.851577,"station_id":"PSMB","transit":false},{"i_lat":-6.2842400000000005,"distance":2380,"line":2,"station_id":"PSM","is_transit":false,"transit":false,"i_long":106.843999,"time":2,"station_name":"Pasar Minggu"},{"i_long":106.838896,"is_transit":false,"distance":2820,"line":2,"station_name":"Tanjung Barat","station_id":"TNT","i_lat":-6.3080680000000005,"time":4,"transit":false},{"station_id":"LNA","distance":2671,"i_long":106.832616,"is_transit":false,"line":2,"transit":false,"time":3,"i_lat":-6.330363,"station_name":"Lenteng Agung"},{"time":2,"distance":1029,"transit":false,"line":2,"station_id":"UP","is_transit":false,"i_lat":-6.339291,"i_long":106.834175,"station_name":"Univ. Pancasila"},{"transit":false,"station_name":"Univ. Indonesia","i_lat":-6.360749,"time":3,"i_long":106.831474,"distance":2264,"is_transit":false,"station_id":"UI","line":2},{"i_long":106.831114,"line":2,"time":2,"is_transit":false,"distance":1109,"transit":false,"station_name":"Pondok Cina","station_id":"POC","i_lat":-6.369073},{"transit":false,"i_lat":-6.391065,"distance":2727,"station_name":"Depokbaru","i_long":106.819451,"line":0,"station_id":"DPB","time":4,"is_transit":false},{"i_lat":-6.405256,"is_transit":false,"station_name":"Depok","distance":1584,"i_long":106.816926,"time":3,"line":0,"station_id":"DP","transit":false},{"transit":false,"station_id":"CTA","distance":5084,"station_name":"Citayam","is_transit":true,"time":6,"i_lat":-6.448811,"line":1,"i_long":106.800298},{"distance":6740,"is_transit":false,"station_name":"Cibinong","time":10,"line":0,"transit":false,"i_lat":-6.46424,"i_long":106.851978,"station_id":"CBN"},{"is_transit":false,"i_lat":-6.466285,"transit":false,"i_long":106.905196,"station_id":"NMO","time":10,"line":21,"distance":6527,"station_name":"Nambo"}]]}