{"data":[[{"i_lat":-6.261877,"transit":false,"is_transit":false,"time":0,"distance":0,"i_long":107.083084,"station_id":"CIT","line":0,"station_name":"Cibitung"},{"transit":false,"i_lat":-6.258864,"time":3,"is_transit":false,"station_id":"TB","line":1,"station_name":"Tambun","distance":3420,"i_long":107.055722},{"station_id":"BKST","distance":4460,"station_name":"Bekasi Timur","line":0,"i_lat":-6.248029,"transit":false,"is_transit":false,"time":7,"i_long":107.016735},{"time":2,"distance":2368,"is_transit":false,"transit":false,"station_name":"Bekasi","line":0,"station_id":"BKS","i_lat":-6.236616,"i_long":106.997013},{"transit":false,"line":1,"time":4,"distance":2520,"is_transit":false,"station_name":"Kranji","station_id":"KRI","i_lat":-6.224515,"i_long":106.977657},{"is_transit":false,"i_lat":-6.219053,"line":0,"distance":3097,"station_name":"Cakung","station_id":"CUK","transit":false,"time":3,"i_long":106.951283},{"distance":1385,"line":1,"time":8,"i_lat":-6.217455,"is_transit":false,"transit":false,"i_long":106.939679,"station_name":"Klenderbaru","station_id":"KLDB"},{"line":0,"is_transit":false,"transit":false,"i_lat":-6.215568,"station_name":"Buaran","station_id":"BUA","distance":1305,"i_long":106.922662,"time":1},{"line":1,"is_transit":false,"station_id":"KLD","distance":3100,"i_long":106.899548,"station_name":"Klender","transit":false,"time":2,"i_lat":-6.2135},{"distance":3395,"line":0,"station_name":"Jatinegara","is_transit":true,"time":3,"i_long":106.86807400000001,"i_lat":-6.215091,"transit":false,"station_id":"JNG"},{"station_name":"Matraman","is_transit":false,"i_lat":-6.212485,"i_long":106.858896,"distance":1377,"time":2,"station_id":"MTR","transit":false,"line":1},{"time":2,"is_transit":true,"station_id":"MRI","i_long":106.84912,"transit":false,"distance":1275,"i_lat":-6.209883,"line":0,"station_name":"Manggarai"},{"transit":false,"station_id":"SUD","i_lat":-6.202263,"i_long":106.822649,"line":1,"distance":3186,"is_transit":false,"station_name":"Sudirman","time":4}],[{"time":0,"transit":false,"station_id":"CIT","distance":0,"i_lat":-6.261877,"i_long":107.083084,"line":0,"station_name":"Cibitung","is_transit":false},{"time":3,"is_transit":false,"station_id":"TB","transit":false,"line":1,"i_long":107.055722,"station_name":"Tambun","i_lat":-6.258864,"distance":3420},{"transit":false,"station_id":"BKST","time":7,"is_transit":false,"i_long":107.016735,"line":0,"distance":4460,"station_name":"Bekasi Timur","i_lat":-6.248029},{"line":0,"is_transit":false,"transit":false,"i_long":106.997013,"distance":2368,"station_name":"Bekasi","time":2,"i_lat":-6.236616,"station_id":"BKS"},{"is_transit":false,"time":4,"station_id":"KRI","i_long":106.977657,"distance":2520,"i_lat":-6.224515,"transit":false,"station_name":"Kranji","line":1},{"station_name":"Cakung","line":0,"station_id":"CUK","i_lat":-6.219053,"i_long":106.951283,"is_transit":false,"time":3,"transit":false,"distance":3097},{"is_transit":false,"i_long":106.939679,"line":1,"i_lat":-6.217455,"transit":false,"time":8,"station_id":"KLDB","distance":1385,"station_name":"Klenderbaru"},{"station_name":"Buaran","i_long":106.922662,"transit":false,"station_id":"BUA","i_lat":-6.215568,"distance":1305,"is_transit":false,"time":1,"line":0},{"line":1,"station_id":"KLD","i_lat":-6.2135,"is_transit":false,"time":2,"distance":3100,"i_long":106.899548,"transit":false,"station_name":"Klender"},{"distance":3395,"station_id":"JNG","station_name":"Jatinegara","time":3,"i_lat":-6.215091,"is_transit":true,"transit":true,"i_long":106.86807400000001,"line":0},{"station_name":"Pondok Jati","time":2,"station_id":"POK","i_lat":-6.209188,"transit":false,"is_transit":false,"distance":1236,"i_long":106.861737,"line":11},{"station_id":"KMT","station_name":"Kramat","transit":false,"i_lat":-6.193792,"is_transit":false,"time":2,"line":11,"i_long":106.855437,"distance":1829},{"is_transit":false,"time":1,"distance":973,"i_long":106.850107,"i_lat":-6.185975,"station_name":"Gang Sentiong","station_id":"GST","transit":false,"line":11},{"station_name":"Pasar Senen","i_lat":-6.174784,"i_long":106.84368,"line":11,"transit":false,"distance":1567,"time":8,"is_transit":false,"station_id":"PSE"},{"transit":false,"distance":1436,"is_transit":false,"station_id":"KMO","i_long":106.839204,"line":11,"time":4,"i_lat":-6.161728,"station_name":"Kemayoran"},{"i_long":106.836569,"distance":1901,"station_name":"Rajawali","time":5,"i_lat":-6.14505,"transit":false,"is_transit":false,"station_id":"RJW","line":11},{"time":3,"i_long":106.826365,"is_transit":true,"station_id":"KPB","i_lat":-6.132549,"transit":true,"distance":1444,"line":0,"station_name":"Kampung Bandan"},{"station_name":"Angke","i_long":106.79867,"transit":false,"station_id":"AK","i_lat":-6.144674,"line":0,"time":9,"distance":4102,"is_transit":false},{"transit":true,"is_transit":true,"station_id":"DU","i_long":106.800832,"station_name":"Duri","time":4,"i_lat":-6.155215,"line":1,"distance":1230},{"i_long":106.811091,"distance":3632,"time":8,"station_id":"THB","transit":false,"station_name":"Tanah Abang","line":1,"i_lat":-6.185545,"is_transit":true},{"station_id":"KAT","line":1,"is_transit":false,"time":5,"i_lat":-6.20132,"distance":2029,"station_name":"Karet","transit":false,"i_long":106.816351},{"distance":471,"time":1,"i_lat":-6.201433,"i_long":106.819881,"station_id":"SUDB","transit":false,"is_transit":false,"station_name":"Sudirman Baru","line":1},{"distance":280,"is_transit":false,"time":1,"i_lat":-6.202263,"i_long":106.822649,"line":1,"station_name":"Sudirman","transit":false,"station_id":"SUD"}],[{"i_long":107.083084,"distance":0,"is_transit":false,"time":0,"station_name":"Cibitung","station_id":"CIT","line":0,"transit":false,"i_lat":-6.261877},{"is_transit":false,"time":3,"transit":false,"i_lat":-6.258864,"i_long":107.055722,"line":1,"distance":3420,"station_name":"Tambun","station_id":"TB"},{"station_id":"BKST","line":0,"is_transit":false,"transit":false,"station_name":"Bekasi Timur","distance":4460,"time":7,"i_long":107.016735,"i_lat":-6.248029},{"i_long":106.997013,"line":0,"is_transit":false,"i_lat":-6.236616,"distance":2368,"station_name":"Bekasi","time":2,"transit":false,"station_id":"BKS"},{"line":1,"transit":false,"distance":2520,"time":4,"station_id":"KRI","is_transit":false,"station_name":"Kranji","i_long":106.977657,"i_lat":-6.224515},{"station_id":"CUK","i_long":106.951283,"i_lat":-6.219053,"distance":3097,"is_transit":false,"station_name":"Cakung","transit":false,"line":0,"time":3},{"distance":1385,"is_transit":false,"station_id":"KLDB","i_lat":-6.217455,"line":1,"transit":false,"station_name":"Klenderbaru","time":8,"i_long":106.939679},{"i_lat":-6.215568,"distance":1305,"station_name":"Buaran","i_long":106.922662,"time":1,"station_id":"BUA","transit":false,"line":0,"is_transit":false},{"distance":3100,"i_long":106.899548,"i_lat":-6.2135,"is_transit":false,"line":1,"station_name":"Klender","time":2,"station_id":"KLD","transit":false},{"station_id":"JNG","station_name":"Jatinegara","time":3,"line":0,"i_lat":-6.215091,"is_transit":true,"i_long":106.86807400000001,"distance":3395,"transit":true},{"time":2,"i_lat":-6.209188,"i_long":106.861737,"transit":false,"distance":1236,"line":11,"station_id":"POK","is_transit":false,"station_name":"Pondok Jati"},{"station_id":"KMT","i_long":106.855437,"time":2,"station_name":"Kramat","i_lat":-6.193792,"line":11,"distance":1829,"transit":false,"is_transit":false},{"station_id":"GST","distance":973,"i_long":106.850107,"transit":false,"time":1,"line":11,"is_transit":false,"station_name":"Gang Sentiong","i_lat":-6.185975},{"distance":1567,"is_transit":false,"station_name":"Pasar Senen","station_id":"PSE","i_long":106.84368,"i_lat":-6.174784,"line":11,"time":8,"transit":false},{"transit":false,"i_long":106.839204,"line":11,"time":4,"station_name":"Kemayoran","station_id":"KMO","is_transit":false,"distance":1436,"i_lat":-6.161728},{"transit":false,"time":5,"distance":1901,"i_lat":-6.14505,"station_id":"RJW","line":11,"is_transit":false,"station_name":"Rajawali","i_long":106.836569},{"i_long":106.826365,"i_lat":-6.132549,"distance":1444,"transit":true,"line":0,"station_name":"Kampung Bandan","is_transit":true,"time":3,"station_id":"KPB"},{"i_long":106.812439,"time":3,"is_transit":true,"station_id":"JAKK","i_lat":-6.137569,"distance":1364,"station_name":"Jakarta Kota","line":0,"transit":true},{"station_name":"Jayakarta","time":4,"i_lat":-6.141205,"distance":1264,"is_transit":false,"line":7,"i_long":106.820901,"transit":false,"station_id":"JAY"},{"distance":1080,"time":2,"i_long":106.82482,"station_id":"MGB","station_name":"Manggabesar","i_lat":-6.149769,"line":2,"is_transit":false,"transit":false},{"is_transit":false,"i_lat":-6.160725,"time":2,"line":2,"station_name":"Sawah Besar","station_id":"SW","distance":906,"i_long":106.827103,"transit":false},{"time":2,"i_long":106.828284,"transit":false,"station_id":"JUA","line":2,"i_lat":-6.166716,"is_transit":false,"station_name":"Juanda","distance":1149},{"station_id":"GDD","transit":false,"i_lat":-6.186295,"line":2,"i_long":106.832183,"distance":2015,"station_name":"Gondangdia","time":4,"is_transit":false},{"station_id":"CKI","distance":1750,"time":3,"is_transit":false,"transit":false,"i_long":106.840169,"i_lat":-6.198556,"line":0,"station_name":"Cikini"},{"station_id":"MRI","i_lat":-6.209883,"station_name":"Manggarai","is_transit":true,"transit":true,"line":0,"time":4,"i_long":106.84912,"distance":1590},{"i_lat":-6.202263,"station_name":"Sudirman","time":4,"transit":false,"i_long":106.822649,"station_id":"SUD","line":1,"distance":3186,"is_transit":false}],[{"time":0,"line":0,"distance":0,"station_id":"CIT","is_transit":false,"station_name":"Cibitung","i_lat":-6.261877,"i_long":107.083084,"transit":false},{"distance":3420,"station_id":"TB","i_long":107.055722,"transit":false,"is_transit":false,"line":1,"time":3,"i_lat":-6.258864,"station_name":"Tambun"},{"station_name":"Bekasi Timur","i_lat":-6.248029,"station_id":"BKST","i_long":107.016735,"distance":4460,"is_transit":false,"transit":false,"time":7,"line":0},{"station_name":"Bekasi","station_id":"BKS","i_long":106.997013,"line":0,"transit":false,"distance":2368,"time":2,"is_transit":false,"i_lat":-6.236616},{"i_long":106.977657,"line":1,"transit":false,"time":4,"station_name":"Kranji","i_lat":-6.224515,"is_transit":false,"distance":2520,"station_id":"KRI"},{"line":0,"transit":false,"i_lat":-6.219053,"station_id":"CUK","distance":3097,"i_long":106.951283,"time":3,"is_transit":false,"station_name":"Cakung"},{"distance":1385,"transit":false,"station_id":"KLDB","i_long":106.939679,"is_transit":false,"time":8,"line":1,"i_lat":-6.217455,"station_name":"Klenderbaru"},{"is_transit":false,"i_lat":-6.215568,"i_long":106.922662,"line":0,"station_name":"Buaran","station_id":"BUA","time":1,"distance":1305,"transit":false},{"transit":false,"i_lat":-6.2135,"time":2,"distance":3100,"station_name":"Klender","i_long":106.899548,"is_transit":false,"line":1,"station_id":"KLD"},{"distance":3395,"station_name":"Jatinegara","transit":false,"time":3,"station_id":"JNG","i_lat":-6.215091,"i_long":106.86807400000001,"is_transit":true,"line":0},{"transit":false,"line":1,"i_lat":-6.212485,"time":2,"station_name":"Matraman","i_long":106.858896,"distance":1377,"station_id":"MTR","is_transit":false},{"distance":1275,"i_long":106.84912,"station_name":"Manggarai","is_transit":true,"time":2,"station_id":"MRI","i_lat":-6.209883,"transit":true,"line":0},{"transit":false,"time":4,"station_name":"Cikini","is_transit":false,"line":0,"i_lat":-6.198556,"station_id":"CKI","distance":1590,"i_long":106.840169},{"time":3,"transit":false,"is_transit":false,"i_lat":-6.186295,"station_name":"Gondangdia","distance":1750,"station_id":"GDD","line":2,"i_long":106.832183},{"time":4,"i_long":106.828284,"transit":false,"station_id":"JUA","is_transit":false,"line":2,"distance":2015,"i_lat":-6.166716,"station_name":"Juanda"},{"station_name":"Sawah Besar","i_lat":-6.160725,"station_id":"SW","line":2,"i_long":106.827103,"time":2,"transit":false,"is_transit":false,"distance":1149},{"distance":906,"line":2,"i_lat":-6.149769,"time":2,"i_long":106.82482,"station_name":"Manggabesar","station_id":"MGB","transit":false,"is_transit":false},{"time":2,"i_lat":-6.141205,"i_long":106.820901,"distance":1080,"transit":false,"is_transit":false,"station_id":"JAY","station_name":"Jayakarta","line":7},{"transit":true,"is_transit":true,"time":4,"i_lat":-6.137569,"line":0,"i_long":106.812439,"station_id":"JAKK","station_name":"Jakarta Kota","distance":1264},{"station_name":"Kampung Bandan","time":3,"i_lat":-6.132549,"i_long":106.826365,"station_id":"KPB","line":0,"transit":false,"distance":1364,"is_transit":true},{"i_long":106.79867,"line":0,"time":9,"i_lat":-6.144674,"station_name":"Angke","transit":false,"is_transit":false,"distance":4102,"station_id":"AK"},{"time":4,"i_lat":-6.155215,"distance":1230,"line":1,"station_name":"Duri","i_long":106.800832,"is_transit":true,"transit":true,"station_id":"DU"},{"i_lat":-6.185545,"transit":false,"station_id":"THB","is_transit":true,"time":8,"i_long":106.811091,"line":1,"distance":3632,"station_name":"Tanah Abang"},{"time":5,"is_transit":false,"station_name":"Karet","station_id":"KAT","distance":2029,"transit":false,"line":1,"i_lat":-6.20132,"i_long":106.816351},{"time":1,"transit":false,"is_transit":false,"i_lat":-6.201433,"line":1,"station_id":"SUDB","i_long":106.819881,"distance":471,"station_name":"Sudirman Baru"},{"time":1,"station_name":"Sudirman","i_long":106.822649,"transit":false,"station_id":"SUD","is_transit":false,"distance":280,"i_lat":-6.202263,"line":1}]]}