{"data":[[{"i_lat":-6.261877,"i_long":107.083084,"transit":false,"line":1,"station_name":"Cibitung","distance":0,"time":0,"is_transit":false,"station_id":"CIT"},{"transit":false,"i_long":107.055722,"time":3,"station_id":"TB","is_transit":false,"line":1,"distance":3420,"station_name":"Tambun","i_lat":-6.258864},{"transit":false,"i_long":107.016735,"distance":4460,"i_lat":-6.248029,"time":7,"is_transit":false,"station_name":"Bekasi Timur","line":1,"station_id":"BKST"},{"time":2,"i_lat":-6.236616,"i_long":106.997013,"transit":false,"distance":2368,"station_name":"Bekasi","station_id":"BKS","line":1,"is_transit":false},{"distance":2520,"i_lat":-6.224515,"station_id":"KRI","i_long":106.977657,"transit":false,"station_name":"Kranji","is_transit":false,"line":1,"time":4},{"transit":false,"station_id":"CUK","time":3,"distance":3097,"i_long":106.951283,"station_name":"Cakung","is_transit":false,"line":1,"i_lat":-6.219053},{"station_name":"Klenderbaru","i_long":106.939679,"is_transit":false,"distance":1385,"line":1,"transit":false,"i_lat":-6.217455,"time":8,"station_id":"KLDB"},{"station_name":"Buaran","time":1,"distance":1305,"transit":false,"i_lat":-6.215568,"line":1,"is_transit":false,"i_long":106.922662,"station_id":"BUA"},{"station_name":"Klender","station_id":"KLD","i_long":106.899548,"is_transit":false,"line":1,"transit":false,"distance":3100,"i_lat":-6.2135,"time":2},{"station_name":"Jatinegara","is_transit":false,"distance":3395,"i_long":106.86807400000001,"transit":false,"i_lat":-6.215091,"time":3,"station_id":"JNG","line":1},{"time":2,"i_long":106.858896,"station_id":"MTR","i_lat":-6.212485,"line":1,"transit":false,"distance":1377,"is_transit":false,"station_name":"Matraman"},{"distance":1275,"i_long":106.84912,"time":2,"transit":false,"is_transit":false,"line":2,"station_name":"Manggarai","station_id":"MRI","i_lat":-6.209883},{"time":4,"i_lat":-6.202263,"station_name":"Sudirman","transit":false,"i_long":106.822649,"is_transit":false,"line":1,"station_id":"SUD","distance":3186},{"is_transit":false,"distance":280,"station_name":"Sudirman Baru","i_lat":-6.201433,"station_id":"SUDB","line":1,"i_long":106.819881,"time":1,"transit":false},{"i_long":106.816351,"time":1,"line":1,"i_lat":-6.20132,"station_name":"Karet","transit":false,"distance":471,"is_transit":false,"station_id":"KAT"},{"i_lat":-6.185545,"distance":2029,"is_transit":true,"station_name":"Tanah Abang","line":1,"transit":true,"i_long":106.811091,"time":5,"station_id":"THB"},{"i_long":106.79689,"station_id":"PLM","is_transit":false,"transit":false,"distance":3191,"time":6,"i_lat":-6.207404,"station_name":"Palmerah","line":6},{"line":6,"transit":false,"station_name":"Kebayoran","i_lat":-6.237242,"station_id":"KBY","i_long":106.780334,"time":7,"distance":3737,"is_transit":false},{"station_id":"PDJ","distance":6218,"transit":false,"is_transit":false,"i_lat":-6.276362,"i_long":106.74273,"line":6,"station_name":"Pondokranji","time":8},{"time":3,"is_transit":false,"i_long":106.728916,"station_name":"Jurangmangu","station_id":"JMU","i_lat":-6.288927,"line":6,"transit":false,"distance":2179},{"is_transit":false,"transit":false,"i_long":106.712277,"time":4,"line":6,"station_id":"SDM","distance":1994,"i_lat":-6.296963,"station_name":"Sudimara"},{"station_name":"Rawa Buntu","i_lat":-6.314823,"transit":false,"station_id":"RU","time":6,"distance":4566,"i_long":106.675475,"line":6,"is_transit":false},{"i_long":106.66566,"station_id":"SRP","time":4,"i_lat":-6.319871,"is_transit":false,"line":6,"distance":2413,"transit":false,"station_name":"Serpong"},{"transit":false,"is_transit":false,"i_lat":-6.32484,"time":4,"distance":1784,"station_name":"Cisauk","station_id":"CSK","line":3,"i_long":106.640411}],[{"distance":0,"transit":false,"line":1,"station_id":"CIT","is_transit":false,"station_name":"Cibitung","i_lat":-6.261877,"time":0,"i_long":107.083084},{"station_id":"TB","station_name":"Tambun","distance":3420,"i_lat":-6.258864,"is_transit":false,"time":3,"transit":false,"i_long":107.055722,"line":1},{"i_lat":-6.248029,"line":1,"distance":4460,"transit":false,"time":7,"is_transit":false,"station_name":"Bekasi Timur","i_long":107.016735,"station_id":"BKST"},{"is_transit":false,"station_id":"BKS","distance":2368,"transit":false,"station_name":"Bekasi","i_long":106.997013,"time":2,"line":1,"i_lat":-6.236616},{"i_lat":-6.224515,"time":4,"station_id":"KRI","i_long":106.977657,"station_name":"Kranji","transit":false,"distance":2520,"line":1,"is_transit":false},{"line":1,"distance":3097,"i_long":106.951283,"station_id":"CUK","time":3,"station_name":"Cakung","is_transit":false,"i_lat":-6.219053,"transit":false},{"i_lat":-6.217455,"distance":1385,"is_transit":false,"i_long":106.939679,"station_name":"Klenderbaru","transit":false,"station_id":"KLDB","line":1,"time":8},{"distance":1305,"i_lat":-6.215568,"is_transit":false,"station_name":"Buaran","station_id":"BUA","time":1,"i_long":106.922662,"transit":false,"line":1},{"transit":false,"time":2,"distance":3100,"station_name":"Klender","i_lat":-6.2135,"i_long":106.899548,"station_id":"KLD","is_transit":false,"line":1},{"station_id":"JNG","i_long":106.86807400000001,"is_transit":true,"line":1,"i_lat":-6.215091,"distance":3395,"time":3,"station_name":"Jatinegara","transit":true},{"time":2,"distance":1236,"line":11,"transit":false,"is_transit":false,"station_name":"Pondok Jati","station_id":"POK","i_lat":-6.209188,"i_long":106.861737},{"i_long":106.855437,"time":2,"distance":1829,"i_lat":-6.193792,"station_name":"Kramat","station_id":"KMT","transit":false,"is_transit":false,"line":11},{"is_transit":false,"transit":false,"time":1,"station_name":"Gang Sentiong","distance":973,"station_id":"GST","i_lat":-6.185975,"i_long":106.850107,"line":11},{"i_lat":-6.174784,"line":11,"station_id":"PSE","transit":false,"is_transit":false,"station_name":"Pasar Senen","distance":1567,"i_long":106.84368,"time":8},{"transit":false,"i_lat":-6.161728,"time":4,"is_transit":false,"i_long":106.839204,"station_name":"Kemayoran","line":11,"station_id":"KMO","distance":1436},{"distance":1901,"time":5,"transit":false,"station_name":"Rajawali","i_long":106.836569,"i_lat":-6.14505,"station_id":"RJW","is_transit":false,"line":11},{"line":4,"is_transit":true,"i_lat":-6.132549,"station_id":"KPB","distance":1444,"station_name":"Kampung Bandan","time":3,"i_long":106.826365,"transit":true},{"transit":false,"i_lat":-6.144674,"line":1,"is_transit":false,"time":9,"distance":4102,"station_name":"Angke","station_id":"AK","i_long":106.79867},{"line":1,"i_long":106.800832,"i_lat":-6.155215,"transit":false,"station_id":"DU","is_transit":false,"station_name":"Duri","time":4,"distance":1230},{"transit":true,"line":1,"time":8,"distance":3632,"is_transit":true,"i_long":106.811091,"i_lat":-6.185545,"station_name":"Tanah Abang","station_id":"THB"},{"station_id":"PLM","line":6,"i_long":106.79689,"distance":3191,"is_transit":false,"i_lat":-6.207404,"station_name":"Palmerah","time":6,"transit":false},{"time":7,"i_lat":-6.237242,"station_id":"KBY","transit":false,"distance":3737,"i_long":106.780334,"station_name":"Kebayoran","is_transit":false,"line":6},{"transit":false,"is_transit":false,"time":8,"line":6,"station_id":"PDJ","station_name":"Pondokranji","i_lat":-6.276362,"i_long":106.74273,"distance":6218},{"distance":2179,"station_id":"JMU","i_long":106.728916,"transit":false,"is_transit":false,"i_lat":-6.288927,"station_name":"Jurangmangu","line":6,"time":3},{"transit":false,"distance":1994,"line":6,"i_long":106.712277,"i_lat":-6.296963,"station_id":"SDM","is_transit":false,"time":4,"station_name":"Sudimara"},{"station_name":"Rawa Buntu","line":6,"transit":false,"distance":4566,"i_lat":-6.314823,"is_transit":false,"station_id":"RU","time":6,"i_long":106.675475},{"i_lat":-6.319871,"station_id":"SRP","time":4,"distance":2413,"i_long":106.66566,"transit":false,"line":6,"is_transit":false,"station_name":"Serpong"},{"transit":false,"station_name":"Cisauk","station_id":"CSK","time":4,"distance":1784,"i_lat":-6.32484,"is_transit":false,"i_long":106.640411,"line":3}],[{"is_transit":false,"station_id":"CIT","station_name":"Cibitung","i_long":107.083084,"transit":false,"time":0,"i_lat":-6.261877,"distance":0,"line":1},{"station_name":"Tambun","time":3,"transit":false,"i_lat":-6.258864,"distance":3420,"station_id":"TB","is_transit":false,"i_long":107.055722,"line":1},{"station_name":"Bekasi Timur","line":1,"transit":false,"i_lat":-6.248029,"time":7,"station_id":"BKST","distance":4460,"is_transit":false,"i_long":107.016735},{"station_id":"BKS","station_name":"Bekasi","time":2,"distance":2368,"i_long":106.997013,"is_transit":false,"line":1,"transit":false,"i_lat":-6.236616},{"i_long":106.977657,"transit":false,"is_transit":false,"distance":2520,"station_id":"KRI","time":4,"i_lat":-6.224515,"station_name":"Kranji","line":1},{"station_name":"Cakung","station_id":"CUK","i_lat":-6.219053,"i_long":106.951283,"transit":false,"is_transit":false,"time":3,"distance":3097,"line":1},{"is_transit":false,"i_long":106.939679,"transit":false,"station_name":"Klenderbaru","i_lat":-6.217455,"station_id":"KLDB","line":1,"time":8,"distance":1385},{"i_lat":-6.215568,"station_id":"BUA","station_name":"Buaran","time":1,"transit":false,"distance":1305,"i_long":106.922662,"line":1,"is_transit":false},{"time":2,"i_long":106.899548,"station_id":"KLD","transit":false,"i_lat":-6.2135,"line":1,"is_transit":false,"station_name":"Klender","distance":3100},{"station_name":"Jatinegara","is_transit":false,"time":3,"distance":3395,"i_lat":-6.215091,"transit":false,"station_id":"JNG","i_long":106.86807400000001,"line":1},{"time":2,"transit":false,"station_name":"Matraman","is_transit":false,"station_id":"MTR","i_long":106.858896,"distance":1377,"line":1,"i_lat":-6.212485},{"i_long":106.84912,"i_lat":-6.209883,"station_id":"MRI","line":2,"station_name":"Manggarai","is_transit":true,"distance":1275,"transit":true,"time":2},{"station_name":"Cikini","i_long":106.840169,"line":2,"distance":1590,"i_lat":-6.198556,"transit":false,"station_id":"CKI","is_transit":false,"time":4},{"station_id":"GDD","time":3,"station_name":"Gondangdia","is_transit":false,"distance":1750,"transit":false,"i_lat":-6.186295,"i_long":106.832183,"line":2},{"i_long":106.828284,"distance":2015,"i_lat":-6.166716,"station_name":"Juanda","line":2,"transit":false,"time":4,"station_id":"JUA","is_transit":false},{"time":2,"station_id":"SW","station_name":"Sawah Besar","is_transit":false,"i_lat":-6.160725,"transit":false,"i_long":106.827103,"distance":1149,"line":2},{"i_lat":-6.149769,"transit":false,"distance":906,"line":2,"station_name":"Manggabesar","time":2,"i_long":106.82482,"station_id":"MGB","is_transit":false},{"station_name":"Jayakarta","station_id":"JAY","distance":1080,"i_lat":-6.141205,"transit":false,"line":2,"i_long":106.820901,"is_transit":false,"time":2},{"distance":1264,"transit":true,"i_lat":-6.137569,"line":2,"i_long":106.812439,"station_name":"Jakarta Kota","time":4,"station_id":"JAKK","is_transit":true},{"station_name":"Kampung Bandan","i_long":106.826365,"line":4,"transit":true,"is_transit":true,"station_id":"KPB","time":3,"i_lat":-6.132549,"distance":1364},{"station_name":"Angke","station_id":"AK","time":9,"i_lat":-6.144674,"transit":false,"is_transit":false,"distance":4102,"line":1,"i_long":106.79867},{"distance":1230,"line":1,"time":4,"station_id":"DU","i_lat":-6.155215,"i_long":106.800832,"station_name":"Duri","is_transit":false,"transit":false},{"transit":true,"station_id":"THB","time":8,"distance":3632,"i_long":106.811091,"line":1,"station_name":"Tanah Abang","i_lat":-6.185545,"is_transit":true},{"station_id":"PLM","distance":3191,"transit":false,"is_transit":false,"i_lat":-6.207404,"station_name":"Palmerah","time":6,"i_long":106.79689,"line":6},{"line":6,"distance":3737,"is_transit":false,"transit":false,"station_name":"Kebayoran","time":7,"i_lat":-6.237242,"i_long":106.780334,"station_id":"KBY"},{"time":8,"station_id":"PDJ","station_name":"Pondokranji","is_transit":false,"i_lat":-6.276362,"line":6,"transit":false,"distance":6218,"i_long":106.74273},{"transit":false,"distance":2179,"time":3,"station_name":"Jurangmangu","line":6,"is_transit":false,"i_long":106.728916,"i_lat":-6.288927,"station_id":"JMU"},{"station_id":"SDM","transit":false,"line":6,"station_name":"Sudimara","distance":1994,"is_transit":false,"i_lat":-6.296963,"i_long":106.712277,"time":4},{"station_name":"Rawa Buntu","station_id":"RU","time":6,"distance":4566,"i_lat":-6.314823,"line":6,"transit":false,"is_transit":false,"i_long":106.675475},{"line":6,"station_id":"SRP","time":4,"transit":false,"station_name":"Serpong","is_transit":false,"distance":2413,"i_lat":-6.319871,"i_long":106.66566},{"station_name":"Cisauk","distance":1784,"time":4,"transit":false,"i_long":106.640411,"line":3,"i_lat":-6.32484,"station_id":"CSK","is_transit":false}],[{"station_name":"Cibitung","line":1,"time":0,"i_long":107.083084,"station_id":"CIT","is_transit":false,"transit":false,"distance":0,"i_lat":-6.261877},{"time":3,"i_long":107.055722,"line":1,"transit":false,"station_id":"TB","is_transit":false,"station_name":"Tambun","distance":3420,"i_lat":-6.258864},{"station_name":"Bekasi Timur","time":7,"distance":4460,"i_long":107.016735,"line":1,"is_transit":false,"transit":false,"i_lat":-6.248029,"station_id":"BKST"},{"is_transit":false,"time":2,"i_lat":-6.236616,"i_long":106.997013,"transit":false,"station_name":"Bekasi","distance":2368,"line":1,"station_id":"BKS"},{"is_transit":false,"station_id":"KRI","distance":2520,"i_long":106.977657,"line":1,"station_name":"Kranji","i_lat":-6.224515,"transit":false,"time":4},{"station_name":"Cakung","is_transit":false,"i_long":106.951283,"transit":false,"time":3,"station_id":"CUK","distance":3097,"line":1,"i_lat":-6.219053},{"i_lat":-6.217455,"i_long":106.939679,"transit":false,"is_transit":false,"station_id":"KLDB","distance":1385,"line":1,"time":8,"station_name":"Klenderbaru"},{"station_id":"BUA","station_name":"Buaran","time":1,"distance":1305,"i_lat":-6.215568,"transit":false,"line":1,"is_transit":false,"i_long":106.922662},{"transit":false,"distance":3100,"line":1,"station_id":"KLD","station_name":"Klender","time":2,"i_lat":-6.2135,"i_long":106.899548,"is_transit":false},{"transit":true,"i_lat":-6.215091,"i_long":106.86807400000001,"time":3,"station_name":"Jatinegara","is_transit":true,"line":1,"distance":3395,"station_id":"JNG"},{"is_transit":false,"station_name":"Pondok Jati","station_id":"POK","i_long":106.861737,"line":11,"time":2,"i_lat":-6.209188,"distance":1236,"transit":false},{"station_id":"KMT","station_name":"Kramat","line":11,"is_transit":false,"transit":false,"time":2,"distance":1829,"i_lat":-6.193792,"i_long":106.855437},{"line":11,"i_lat":-6.185975,"i_long":106.850107,"transit":false,"is_transit":false,"station_id":"GST","time":1,"distance":973,"station_name":"Gang Sentiong"},{"line":11,"station_id":"PSE","time":8,"station_name":"Pasar Senen","distance":1567,"transit":false,"is_transit":false,"i_lat":-6.174784,"i_long":106.84368},{"time":4,"transit":false,"i_long":106.839204,"line":11,"is_transit":false,"i_lat":-6.161728,"station_name":"Kemayoran","station_id":"KMO","distance":1436},{"i_long":106.836569,"line":11,"time":5,"station_id":"RJW","i_lat":-6.14505,"station_name":"Rajawali","distance":1901,"transit":false,"is_transit":false},{"is_transit":true,"distance":1444,"i_long":106.826365,"transit":true,"station_name":"Kampung Bandan","line":4,"station_id":"KPB","i_lat":-6.132549,"time":3},{"transit":true,"is_transit":true,"distance":1364,"i_lat":-6.137569,"i_long":106.812439,"line":2,"station_name":"Jakarta Kota","time":3,"station_id":"JAKK"},{"station_name":"Jayakarta","time":4,"transit":false,"distance":1264,"i_long":106.820901,"line":2,"station_id":"JAY","is_transit":false,"i_lat":-6.141205},{"i_long":106.82482,"distance":1080,"time":2,"transit":false,"is_transit":false,"i_lat":-6.149769,"station_name":"Manggabesar","line":2,"station_id":"MGB"},{"i_long":106.827103,"time":2,"transit":false,"station_name":"Sawah Besar","i_lat":-6.160725,"line":2,"station_id":"SW","distance":906,"is_transit":false},{"station_id":"JUA","transit":false,"i_long":106.828284,"i_lat":-6.166716,"line":2,"time":2,"is_transit":false,"station_name":"Juanda","distance":1149},{"transit":false,"line":2,"station_name":"Gondangdia","time":4,"station_id":"GDD","i_lat":-6.186295,"is_transit":false,"distance":2015,"i_long":106.832183},{"i_lat":-6.198556,"line":2,"i_long":106.840169,"station_name":"Cikini","transit":false,"is_transit":false,"station_id":"CKI","time":3,"distance":1750},{"station_id":"MRI","transit":true,"i_long":106.84912,"station_name":"Manggarai","distance":1590,"time":4,"i_lat":-6.209883,"line":2,"is_transit":true},{"line":1,"transit":false,"time":4,"station_id":"SUD","distance":3186,"i_long":106.822649,"station_name":"Sudirman","i_lat":-6.202263,"is_transit":false},{"distance":280,"i_long":106.819881,"station_name":"Sudirman Baru","is_transit":false,"time":1,"i_lat":-6.201433,"line":1,"transit":false,"station_id":"SUDB"},{"transit":false,"station_id":"KAT","distance":471,"is_transit":false,"i_lat":-6.20132,"i_long":106.816351,"line":1,"station_name":"Karet","time":1},{"transit":true,"time":5,"line":1,"i_lat":-6.185545,"station_id":"THB","is_transit":true,"distance":2029,"i_long":106.811091,"station_name":"Tanah Abang"},{"distance":3191,"time":6,"is_transit":false,"station_name":"Palmerah","i_long":106.79689,"line":6,"transit":false,"station_id":"PLM","i_lat":-6.207404},{"station_name":"Kebayoran","distance":3737,"is_transit":false,"station_id":"KBY","i_long":106.780334,"transit":false,"i_lat":-6.237242,"time":7,"line":6},{"station_id":"PDJ","distance":6218,"line":6,"is_transit":false,"i_lat":-6.276362,"transit":false,"station_name":"Pondokranji","time":8,"i_long":106.74273},{"i_long":106.728916,"line":6,"is_transit":false,"station_name":"Jurangmangu","transit":false,"distance":2179,"i_lat":-6.288927,"time":3,"station_id":"JMU"},{"i_long":106.712277,"is_transit":false,"time":4,"i_lat":-6.296963,"distance":1994,"station_id":"SDM","line":6,"station_name":"Sudimara","transit":false},{"station_id":"RU","time":6,"line":6,"is_transit":false,"station_name":"Rawa Buntu","transit":false,"i_lat":-6.314823,"distance":4566,"i_long":106.675475},{"time":4,"distance":2413,"transit":false,"station_id":"SRP","i_long":106.66566,"station_name":"Serpong","is_transit":false,"i_lat":-6.319871,"line":6},{"station_id":"CSK","distance":1784,"time":4,"line":3,"i_long":106.640411,"transit":false,"is_transit":false,"i_lat":-6.32484,"station_name":"Cisauk"}]]}