{"data":[[{"time":0,"station_name":"Cibitung","is_transit":false,"i_lat":-6.261877,"station_id":"CIT","i_long":107.083084,"line":1,"transit":false,"distance":0},{"station_name":"Tambun","is_transit":false,"i_lat":-6.258864,"line":1,"transit":false,"time":3,"distance":3420,"station_id":"TB","i_long":107.055722},{"distance":4460,"time":7,"transit":false,"i_lat":-6.248029,"i_long":107.016735,"is_transit":false,"station_id":"BKST","line":1,"station_name":"Bekasi Timur"},{"i_long":106.997013,"time":2,"i_lat":-6.236616,"station_name":"Bekasi","line":1,"station_id":"BKS","is_transit":false,"transit":false,"distance":2368},{"is_transit":false,"i_lat":-6.224515,"line":1,"station_name":"Kranji","time":4,"station_id":"KRI","transit":false,"distance":2520,"i_long":106.977657},{"time":3,"line":1,"transit":false,"is_transit":false,"station_name":"Cakung","distance":3097,"i_long":106.951283,"i_lat":-6.219053,"station_id":"CUK"},{"time":8,"i_long":106.939679,"line":1,"transit":false,"is_transit":false,"station_name":"Klenderbaru","station_id":"KLDB","distance":1385,"i_lat":-6.217455},{"station_id":"BUA","station_name":"Buaran","time":1,"i_lat":-6.215568,"line":1,"distance":1305,"is_transit":false,"i_long":106.922662,"transit":false},{"i_lat":-6.2135,"station_id":"KLD","i_long":106.899548,"line":1,"station_name":"Klender","is_transit":false,"transit":false,"time":2,"distance":3100},{"station_id":"JNG","i_long":106.86807400000001,"distance":3395,"line":1,"transit":false,"station_name":"Jatinegara","time":3,"i_lat":-6.215091,"is_transit":false},{"time":2,"i_lat":-6.212485,"station_id":"MTR","i_long":106.858896,"station_name":"Matraman","is_transit":false,"distance":1377,"line":1,"transit":false},{"i_lat":-6.209883,"line":2,"is_transit":false,"station_id":"MRI","distance":1275,"time":2,"transit":false,"i_long":106.84912,"station_name":"Manggarai"},{"i_long":106.822649,"station_name":"Sudirman","is_transit":false,"i_lat":-6.202263,"transit":false,"station_id":"SUD","line":1,"distance":3186,"time":4},{"station_name":"Sudirman Baru","distance":280,"i_lat":-6.201433,"i_long":106.819881,"station_id":"SUDB","is_transit":false,"time":1,"line":1,"transit":false},{"station_name":"Karet","time":1,"i_long":106.816351,"transit":false,"i_lat":-6.20132,"is_transit":false,"station_id":"KAT","distance":471,"line":1},{"i_lat":-6.185545,"distance":2029,"station_name":"Tanah Abang","is_transit":false,"station_id":"THB","i_long":106.811091,"time":5,"line":1,"transit":false},{"i_lat":-6.155215,"station_id":"DU","transit":true,"time":8,"is_transit":true,"distance":3632,"i_long":106.800832,"station_name":"Duri","line":1},{"distance":1700,"is_transit":false,"i_lat":-6.162021,"transit":false,"i_long":106.788277,"line":5,"station_name":"Grogol","station_id":"GGL","time":3},{"time":2,"i_lat":-6.161433,"line":5,"distance":2036,"station_id":"PSG","is_transit":false,"transit":false,"station_name":"Pesing","i_long":106.771379},{"station_id":"TKO","time":2,"i_lat":-6.1587309999999995,"i_long":106.756522,"line":5,"station_name":"Taman Kota","is_transit":false,"distance":1614,"transit":false},{"i_long":106.737035,"is_transit":false,"station_id":"BOI","station_name":"Bojongindah","time":2,"transit":false,"distance":2334,"line":5,"i_lat":-6.159876},{"i_long":106.723064,"distance":1152,"station_id":"RW","i_lat":-6.162758,"transit":false,"station_name":"Rawa Buaya","is_transit":false,"time":4,"line":5}],[{"i_lat":-6.261877,"station_name":"Cibitung","line":1,"time":0,"i_long":107.083084,"is_transit":false,"station_id":"CIT","distance":0,"transit":false},{"is_transit":false,"i_long":107.055722,"station_id":"TB","line":1,"station_name":"Tambun","time":3,"transit":false,"distance":3420,"i_lat":-6.258864},{"station_name":"Bekasi Timur","i_lat":-6.248029,"line":1,"time":7,"transit":false,"is_transit":false,"distance":4460,"i_long":107.016735,"station_id":"BKST"},{"distance":2368,"line":1,"i_lat":-6.236616,"is_transit":false,"station_id":"BKS","transit":false,"time":2,"station_name":"Bekasi","i_long":106.997013},{"line":1,"i_long":106.977657,"station_id":"KRI","station_name":"Kranji","i_lat":-6.224515,"transit":false,"is_transit":false,"time":4,"distance":2520},{"is_transit":false,"transit":false,"station_name":"Cakung","station_id":"CUK","i_lat":-6.219053,"time":3,"i_long":106.951283,"line":1,"distance":3097},{"transit":false,"is_transit":false,"station_id":"KLDB","time":8,"line":1,"i_lat":-6.217455,"distance":1385,"station_name":"Klenderbaru","i_long":106.939679},{"time":1,"station_id":"BUA","i_lat":-6.215568,"i_long":106.922662,"transit":false,"line":1,"is_transit":false,"distance":1305,"station_name":"Buaran"},{"is_transit":false,"station_name":"Klender","distance":3100,"i_long":106.899548,"station_id":"KLD","transit":false,"line":1,"i_lat":-6.2135,"time":2},{"distance":3395,"i_lat":-6.215091,"station_name":"Jatinegara","i_long":106.86807400000001,"is_transit":true,"time":3,"transit":true,"station_id":"JNG","line":1},{"transit":false,"is_transit":false,"time":2,"station_id":"POK","distance":1236,"station_name":"Pondok Jati","i_long":106.861737,"line":11,"i_lat":-6.209188},{"station_id":"KMT","station_name":"Kramat","time":2,"distance":1829,"i_long":106.855437,"transit":false,"i_lat":-6.193792,"is_transit":false,"line":11},{"is_transit":false,"i_lat":-6.185975,"station_id":"GST","time":1,"distance":973,"i_long":106.850107,"transit":false,"line":11,"station_name":"Gang Sentiong"},{"distance":1567,"station_id":"PSE","station_name":"Pasar Senen","transit":false,"i_lat":-6.174784,"time":8,"is_transit":false,"line":11,"i_long":106.84368},{"transit":false,"line":11,"is_transit":false,"i_long":106.839204,"i_lat":-6.161728,"station_name":"Kemayoran","distance":1436,"station_id":"KMO","time":4},{"station_name":"Rajawali","distance":1901,"i_lat":-6.14505,"station_id":"RJW","transit":false,"is_transit":false,"line":11,"i_long":106.836569,"time":5},{"i_lat":-6.132549,"i_long":106.826365,"line":4,"time":3,"station_id":"KPB","transit":true,"station_name":"Kampung Bandan","distance":1444,"is_transit":true},{"transit":false,"station_name":"Angke","i_lat":-6.144674,"distance":4102,"i_long":106.79867,"line":1,"is_transit":false,"station_id":"AK","time":9},{"station_name":"Duri","time":4,"distance":1230,"i_long":106.800832,"is_transit":true,"line":1,"station_id":"DU","i_lat":-6.155215,"transit":true},{"i_lat":-6.162021,"transit":false,"i_long":106.788277,"station_id":"GGL","line":5,"is_transit":false,"distance":1700,"station_name":"Grogol","time":3},{"i_lat":-6.161433,"station_name":"Pesing","time":2,"station_id":"PSG","distance":2036,"is_transit":false,"transit":false,"i_long":106.771379,"line":5},{"distance":1614,"is_transit":false,"time":2,"station_id":"TKO","i_lat":-6.1587309999999995,"station_name":"Taman Kota","transit":false,"line":5,"i_long":106.756522},{"time":2,"station_name":"Bojongindah","transit":false,"is_transit":false,"i_long":106.737035,"i_lat":-6.159876,"station_id":"BOI","line":5,"distance":2334},{"time":4,"i_lat":-6.162758,"station_name":"Rawa Buaya","station_id":"RW","line":5,"transit":false,"is_transit":false,"distance":1152,"i_long":106.723064}],[{"time":0,"station_id":"CIT","line":1,"station_name":"Cibitung","is_transit":false,"i_long":107.083084,"i_lat":-6.261877,"transit":false,"distance":0},{"i_long":107.055722,"station_name":"Tambun","line":1,"transit":false,"time":3,"i_lat":-6.258864,"station_id":"TB","is_transit":false,"distance":3420},{"i_lat":-6.248029,"line":1,"station_name":"Bekasi Timur","station_id":"BKST","distance":4460,"transit":false,"time":7,"i_long":107.016735,"is_transit":false},{"time":2,"transit":false,"station_name":"Bekasi","is_transit":false,"station_id":"BKS","i_lat":-6.236616,"i_long":106.997013,"distance":2368,"line":1},{"station_id":"KRI","transit":false,"station_name":"Kranji","i_lat":-6.224515,"is_transit":false,"line":1,"time":4,"distance":2520,"i_long":106.977657},{"i_long":106.951283,"transit":false,"i_lat":-6.219053,"distance":3097,"station_name":"Cakung","line":1,"station_id":"CUK","is_transit":false,"time":3},{"transit":false,"station_id":"KLDB","time":8,"line":1,"i_lat":-6.217455,"is_transit":false,"station_name":"Klenderbaru","i_long":106.939679,"distance":1385},{"line":1,"distance":1305,"i_lat":-6.215568,"i_long":106.922662,"transit":false,"is_transit":false,"station_name":"Buaran","station_id":"BUA","time":1},{"time":2,"station_id":"KLD","is_transit":false,"i_long":106.899548,"transit":false,"station_name":"Klender","distance":3100,"i_lat":-6.2135,"line":1},{"i_lat":-6.215091,"line":1,"time":3,"i_long":106.86807400000001,"distance":3395,"station_id":"JNG","is_transit":false,"station_name":"Jatinegara","transit":false},{"station_id":"MTR","station_name":"Matraman","transit":false,"time":2,"line":1,"i_long":106.858896,"distance":1377,"i_lat":-6.212485,"is_transit":false},{"distance":1275,"i_lat":-6.209883,"station_name":"Manggarai","time":2,"station_id":"MRI","is_transit":true,"line":2,"i_long":106.84912,"transit":true},{"station_name":"Cikini","i_lat":-6.198556,"transit":false,"line":2,"station_id":"CKI","time":4,"is_transit":false,"distance":1590,"i_long":106.840169},{"line":2,"i_long":106.832183,"transit":false,"station_name":"Gondangdia","is_transit":false,"distance":1750,"i_lat":-6.186295,"station_id":"GDD","time":3},{"transit":false,"station_id":"JUA","i_long":106.828284,"i_lat":-6.166716,"is_transit":false,"time":4,"distance":2015,"line":2,"station_name":"Juanda"},{"distance":1149,"i_lat":-6.160725,"i_long":106.827103,"station_name":"Sawah Besar","station_id":"SW","is_transit":false,"line":2,"time":2,"transit":false},{"station_id":"MGB","is_transit":false,"time":2,"i_lat":-6.149769,"distance":906,"station_name":"Manggabesar","i_long":106.82482,"transit":false,"line":2},{"distance":1080,"line":2,"station_id":"JAY","transit":false,"i_long":106.820901,"is_transit":false,"i_lat":-6.141205,"station_name":"Jayakarta","time":2},{"time":4,"line":2,"station_name":"Jakarta Kota","distance":1264,"is_transit":true,"i_lat":-6.137569,"i_long":106.812439,"station_id":"JAKK","transit":true},{"station_id":"KPB","i_lat":-6.132549,"line":4,"time":3,"transit":true,"distance":1364,"station_name":"Kampung Bandan","is_transit":true,"i_long":106.826365},{"line":1,"station_name":"Angke","station_id":"AK","time":9,"transit":false,"is_transit":false,"distance":4102,"i_long":106.79867,"i_lat":-6.144674},{"is_transit":true,"station_name":"Duri","time":4,"i_lat":-6.155215,"station_id":"DU","line":1,"transit":true,"distance":1230,"i_long":106.800832},{"i_long":106.788277,"transit":false,"time":3,"i_lat":-6.162021,"station_name":"Grogol","is_transit":false,"station_id":"GGL","line":5,"distance":1700},{"time":2,"i_long":106.771379,"transit":false,"is_transit":false,"station_id":"PSG","distance":2036,"i_lat":-6.161433,"line":5,"station_name":"Pesing"},{"station_name":"Taman Kota","i_lat":-6.1587309999999995,"i_long":106.756522,"transit":false,"distance":1614,"is_transit":false,"line":5,"station_id":"TKO","time":2},{"line":5,"i_lat":-6.159876,"station_name":"Bojongindah","distance":2334,"i_long":106.737035,"is_transit":false,"station_id":"BOI","time":2,"transit":false},{"station_name":"Rawa Buaya","station_id":"RW","line":5,"is_transit":false,"time":4,"distance":1152,"i_long":106.723064,"i_lat":-6.162758,"transit":false}],[{"i_lat":-6.261877,"transit":false,"line":1,"i_long":107.083084,"is_transit":false,"time":0,"distance":0,"station_name":"Cibitung","station_id":"CIT"},{"i_long":107.055722,"i_lat":-6.258864,"is_transit":false,"line":1,"station_id":"TB","station_name":"Tambun","transit":false,"time":3,"distance":3420},{"distance":4460,"station_name":"Bekasi Timur","i_lat":-6.248029,"transit":false,"time":7,"line":1,"is_transit":false,"station_id":"BKST","i_long":107.016735},{"i_lat":-6.236616,"station_name":"Bekasi","station_id":"BKS","i_long":106.997013,"time":2,"is_transit":false,"line":1,"distance":2368,"transit":false},{"station_name":"Kranji","i_lat":-6.224515,"station_id":"KRI","time":4,"i_long":106.977657,"line":1,"transit":false,"distance":2520,"is_transit":false},{"i_long":106.951283,"transit":false,"time":3,"is_transit":false,"line":1,"i_lat":-6.219053,"station_id":"CUK","station_name":"Cakung","distance":3097},{"station_name":"Klenderbaru","time":8,"station_id":"KLDB","distance":1385,"line":1,"transit":false,"is_transit":false,"i_lat":-6.217455,"i_long":106.939679},{"i_long":106.922662,"line":1,"i_lat":-6.215568,"transit":false,"station_id":"BUA","distance":1305,"time":1,"station_name":"Buaran","is_transit":false},{"line":1,"is_transit":false,"distance":3100,"transit":false,"i_lat":-6.2135,"time":2,"i_long":106.899548,"station_name":"Klender","station_id":"KLD"},{"transit":true,"station_id":"JNG","distance":3395,"station_name":"Jatinegara","time":3,"i_long":106.86807400000001,"is_transit":true,"line":1,"i_lat":-6.215091},{"station_id":"POK","station_name":"Pondok Jati","distance":1236,"transit":false,"i_long":106.861737,"time":2,"i_lat":-6.209188,"is_transit":false,"line":11},{"station_name":"Kramat","station_id":"KMT","transit":false,"line":11,"is_transit":false,"i_long":106.855437,"time":2,"distance":1829,"i_lat":-6.193792},{"i_long":106.850107,"line":11,"time":1,"transit":false,"station_id":"GST","is_transit":false,"station_name":"Gang Sentiong","distance":973,"i_lat":-6.185975},{"station_name":"Pasar Senen","time":8,"i_lat":-6.174784,"i_long":106.84368,"is_transit":false,"line":11,"station_id":"PSE","distance":1567,"transit":false},{"time":4,"station_name":"Kemayoran","is_transit":false,"distance":1436,"i_lat":-6.161728,"i_long":106.839204,"transit":false,"station_id":"KMO","line":11},{"time":5,"i_long":106.836569,"is_transit":false,"line":11,"station_name":"Rajawali","i_lat":-6.14505,"distance":1901,"transit":false,"station_id":"RJW"},{"is_transit":true,"i_lat":-6.132549,"distance":1444,"station_id":"KPB","transit":true,"line":4,"time":3,"station_name":"Kampung Bandan","i_long":106.826365},{"line":2,"transit":true,"station_name":"Jakarta Kota","i_lat":-6.137569,"time":3,"i_long":106.812439,"station_id":"JAKK","is_transit":true,"distance":1364},{"line":2,"station_name":"Jayakarta","distance":1264,"i_long":106.820901,"i_lat":-6.141205,"station_id":"JAY","transit":false,"is_transit":false,"time":4},{"i_long":106.82482,"station_name":"Manggabesar","is_transit":false,"transit":false,"distance":1080,"station_id":"MGB","time":2,"line":2,"i_lat":-6.149769},{"transit":false,"time":2,"i_lat":-6.160725,"station_id":"SW","distance":906,"line":2,"is_transit":false,"station_name":"Sawah Besar","i_long":106.827103},{"line":2,"station_name":"Juanda","station_id":"JUA","distance":1149,"transit":false,"is_transit":false,"i_long":106.828284,"time":2,"i_lat":-6.166716},{"station_name":"Gondangdia","station_id":"GDD","i_lat":-6.186295,"i_long":106.832183,"is_transit":false,"distance":2015,"transit":false,"line":2,"time":4},{"time":3,"line":2,"i_lat":-6.198556,"is_transit":false,"i_long":106.840169,"transit":false,"station_id":"CKI","distance":1750,"station_name":"Cikini"},{"line":2,"station_name":"Manggarai","transit":true,"station_id":"MRI","is_transit":true,"time":4,"distance":1590,"i_lat":-6.209883,"i_long":106.84912},{"distance":3186,"i_long":106.822649,"i_lat":-6.202263,"transit":false,"time":4,"is_transit":false,"station_name":"Sudirman","station_id":"SUD","line":1},{"station_name":"Sudirman Baru","i_long":106.819881,"station_id":"SUDB","line":1,"transit":false,"time":1,"distance":280,"i_lat":-6.201433,"is_transit":false},{"time":1,"is_transit":false,"i_lat":-6.20132,"i_long":106.816351,"line":1,"distance":471,"station_id":"KAT","transit":false,"station_name":"Karet"},{"time":5,"station_name":"Tanah Abang","distance":2029,"i_lat":-6.185545,"i_long":106.811091,"line":1,"station_id":"THB","transit":false,"is_transit":false},{"line":1,"time":8,"transit":true,"station_id":"DU","station_name":"Duri","distance":3632,"i_lat":-6.155215,"i_long":106.800832,"is_transit":true},{"distance":1700,"transit":false,"is_transit":false,"station_id":"GGL","station_name":"Grogol","i_long":106.788277,"line":5,"i_lat":-6.162021,"time":3},{"i_long":106.771379,"station_name":"Pesing","time":2,"station_id":"PSG","is_transit":false,"i_lat":-6.161433,"line":5,"distance":2036,"transit":false},{"is_transit":false,"distance":1614,"i_long":106.756522,"line":5,"time":2,"i_lat":-6.1587309999999995,"transit":false,"station_name":"Taman Kota","station_id":"TKO"},{"station_name":"Bojongindah","time":2,"line":5,"station_id":"BOI","distance":2334,"i_long":106.737035,"is_transit":false,"transit":false,"i_lat":-6.159876},{"station_name":"Rawa Buaya","is_transit":false,"distance":1152,"i_long":106.723064,"line":5,"station_id":"RW","time":4,"transit":false,"i_lat":-6.162758}]]}