{"data":[[{"transit":false,"station_id":"CIT","is_transit":false,"time":0,"station_name":"Cibitung","i_lat":-6.261877,"i_long":107.083084,"line":1,"distance":0},{"time":3,"i_long":107.055722,"i_lat":-6.258864,"transit":false,"line":1,"distance":3420,"is_transit":false,"station_id":"TB","station_name":"Tambun"},{"station_name":"Bekasi Timur","is_transit":false,"station_id":"BKST","time":7,"i_lat":-6.248029,"distance":4460,"line":1,"i_long":107.016735,"transit":false},{"transit":false,"station_id":"BKS","i_lat":-6.236616,"i_long":106.997013,"time":2,"line":1,"is_transit":false,"station_name":"Bekasi","distance":2368},{"is_transit":false,"time":4,"distance":2520,"i_long":106.977657,"station_name":"Kranji","i_lat":-6.224515,"line":1,"transit":false,"station_id":"KRI"},{"transit":false,"i_long":106.951283,"time":3,"distance":3097,"line":1,"station_name":"Cakung","is_transit":false,"station_id":"CUK","i_lat":-6.219053},{"distance":1385,"transit":false,"time":8,"i_lat":-6.217455,"station_name":"Klenderbaru","station_id":"KLDB","i_long":106.939679,"is_transit":false,"line":1},{"is_transit":false,"i_lat":-6.215568,"time":1,"i_long":106.922662,"station_name":"Buaran","transit":false,"station_id":"BUA","distance":1305,"line":1},{"station_name":"Klender","station_id":"KLD","is_transit":false,"time":2,"line":1,"transit":false,"distance":3100,"i_lat":-6.2135,"i_long":106.899548},{"i_lat":-6.215091,"is_transit":false,"time":3,"transit":false,"station_id":"JNG","distance":3395,"line":1,"station_name":"Jatinegara","i_long":106.86807400000001},{"time":2,"distance":1377,"transit":false,"i_lat":-6.212485,"is_transit":false,"station_id":"MTR","i_long":106.858896,"line":1,"station_name":"Matraman"},{"distance":1275,"i_lat":-6.209883,"line":2,"i_long":106.84912,"station_id":"MRI","transit":false,"is_transit":false,"time":2,"station_name":"Manggarai"},{"distance":3186,"transit":false,"station_name":"Sudirman","i_lat":-6.202263,"station_id":"SUD","is_transit":false,"time":4,"line":1,"i_long":106.822649},{"is_transit":false,"i_lat":-6.201433,"line":1,"distance":280,"i_long":106.819881,"transit":false,"time":1,"station_name":"Sudirman Baru","station_id":"SUDB"},{"line":1,"station_name":"Karet","time":1,"distance":471,"station_id":"KAT","is_transit":false,"i_long":106.816351,"i_lat":-6.20132,"transit":false},{"time":5,"is_transit":true,"distance":2029,"i_long":106.811091,"transit":true,"station_name":"Tanah Abang","station_id":"THB","i_lat":-6.185545,"line":1},{"i_long":106.79689,"is_transit":false,"i_lat":-6.207404,"distance":3191,"station_id":"PLM","transit":false,"station_name":"Palmerah","time":6,"line":6},{"time":7,"station_name":"Kebayoran","distance":3737,"station_id":"KBY","i_lat":-6.237242,"is_transit":false,"line":6,"i_long":106.780334,"transit":false},{"distance":6218,"i_lat":-6.276362,"line":6,"is_transit":false,"i_long":106.74273,"station_name":"Pondokranji","transit":false,"station_id":"PDJ","time":8},{"transit":false,"i_lat":-6.288927,"station_name":"Jurangmangu","station_id":"JMU","i_long":106.728916,"time":3,"distance":2179,"line":6,"is_transit":false}],[{"i_lat":-6.261877,"station_name":"Cibitung","transit":false,"line":1,"distance":0,"is_transit":false,"station_id":"CIT","i_long":107.083084,"time":0},{"distance":3420,"i_long":107.055722,"is_transit":false,"i_lat":-6.258864,"transit":false,"time":3,"station_id":"TB","station_name":"Tambun","line":1},{"transit":false,"i_lat":-6.248029,"station_name":"Bekasi Timur","station_id":"BKST","time":7,"is_transit":false,"distance":4460,"i_long":107.016735,"line":1},{"station_id":"BKS","line":1,"station_name":"Bekasi","transit":false,"i_long":106.997013,"time":2,"is_transit":false,"i_lat":-6.236616,"distance":2368},{"line":1,"distance":2520,"i_lat":-6.224515,"station_id":"KRI","transit":false,"i_long":106.977657,"time":4,"is_transit":false,"station_name":"Kranji"},{"time":3,"is_transit":false,"station_id":"CUK","i_long":106.951283,"transit":false,"station_name":"Cakung","i_lat":-6.219053,"distance":3097,"line":1},{"station_id":"KLDB","i_long":106.939679,"i_lat":-6.217455,"time":8,"transit":false,"is_transit":false,"distance":1385,"station_name":"Klenderbaru","line":1},{"line":1,"distance":1305,"transit":false,"is_transit":false,"station_id":"BUA","time":1,"station_name":"Buaran","i_long":106.922662,"i_lat":-6.215568},{"distance":3100,"station_name":"Klender","is_transit":false,"i_lat":-6.2135,"line":1,"i_long":106.899548,"transit":false,"time":2,"station_id":"KLD"},{"line":1,"station_id":"JNG","i_lat":-6.215091,"distance":3395,"i_long":106.86807400000001,"time":3,"station_name":"Jatinegara","transit":true,"is_transit":true},{"station_name":"Pondok Jati","line":11,"transit":false,"is_transit":false,"distance":1236,"i_lat":-6.209188,"time":2,"station_id":"POK","i_long":106.861737},{"time":2,"distance":1829,"station_name":"Kramat","line":11,"is_transit":false,"transit":false,"station_id":"KMT","i_lat":-6.193792,"i_long":106.855437},{"transit":false,"station_name":"Gang Sentiong","station_id":"GST","i_lat":-6.185975,"is_transit":false,"i_long":106.850107,"line":11,"distance":973,"time":1},{"transit":false,"distance":1567,"i_long":106.84368,"is_transit":false,"i_lat":-6.174784,"time":8,"station_name":"Pasar Senen","station_id":"PSE","line":11},{"station_name":"Kemayoran","station_id":"KMO","is_transit":false,"i_lat":-6.161728,"i_long":106.839204,"line":11,"distance":1436,"time":4,"transit":false},{"time":5,"distance":1901,"station_name":"Rajawali","transit":false,"i_lat":-6.14505,"line":11,"i_long":106.836569,"is_transit":false,"station_id":"RJW"},{"is_transit":true,"line":4,"transit":true,"time":3,"distance":1444,"i_lat":-6.132549,"station_name":"Kampung Bandan","station_id":"KPB","i_long":106.826365},{"station_name":"Angke","time":9,"is_transit":false,"station_id":"AK","i_long":106.79867,"line":1,"distance":4102,"transit":false,"i_lat":-6.144674},{"time":4,"i_lat":-6.155215,"station_name":"Duri","i_long":106.800832,"line":1,"transit":false,"is_transit":false,"distance":1230,"station_id":"DU"},{"station_name":"Tanah Abang","distance":3632,"time":8,"i_lat":-6.185545,"transit":true,"i_long":106.811091,"is_transit":true,"station_id":"THB","line":1},{"station_id":"PLM","distance":3191,"station_name":"Palmerah","line":6,"transit":false,"i_long":106.79689,"time":6,"i_lat":-6.207404,"is_transit":false},{"time":7,"transit":false,"distance":3737,"is_transit":false,"line":6,"station_id":"KBY","i_long":106.780334,"station_name":"Kebayoran","i_lat":-6.237242},{"station_name":"Pondokranji","time":8,"is_transit":false,"i_lat":-6.276362,"transit":false,"distance":6218,"i_long":106.74273,"line":6,"station_id":"PDJ"},{"line":6,"i_lat":-6.288927,"station_name":"Jurangmangu","time":3,"station_id":"JMU","is_transit":false,"transit":false,"i_long":106.728916,"distance":2179}],[{"distance":0,"is_transit":false,"station_name":"Cibitung","time":0,"i_long":107.083084,"transit":false,"station_id":"CIT","i_lat":-6.261877,"line":1},{"transit":false,"station_id":"TB","i_lat":-6.258864,"line":1,"time":3,"distance":3420,"is_transit":false,"station_name":"Tambun","i_long":107.055722},{"i_long":107.016735,"i_lat":-6.248029,"time":7,"is_transit":false,"transit":false,"station_id":"BKST","line":1,"distance":4460,"station_name":"Bekasi Timur"},{"i_lat":-6.236616,"line":1,"time":2,"distance":2368,"station_id":"BKS","station_name":"Bekasi","transit":false,"i_long":106.997013,"is_transit":false},{"i_long":106.977657,"is_transit":false,"time":4,"distance":2520,"i_lat":-6.224515,"transit":false,"station_id":"KRI","line":1,"station_name":"Kranji"},{"transit":false,"station_name":"Cakung","time":3,"i_lat":-6.219053,"i_long":106.951283,"station_id":"CUK","line":1,"is_transit":false,"distance":3097},{"station_id":"KLDB","time":8,"i_lat":-6.217455,"i_long":106.939679,"line":1,"distance":1385,"transit":false,"is_transit":false,"station_name":"Klenderbaru"},{"station_id":"BUA","time":1,"distance":1305,"station_name":"Buaran","line":1,"is_transit":false,"transit":false,"i_long":106.922662,"i_lat":-6.215568},{"line":1,"i_lat":-6.2135,"distance":3100,"transit":false,"is_transit":false,"time":2,"station_id":"KLD","station_name":"Klender","i_long":106.899548},{"time":3,"distance":3395,"is_transit":false,"station_name":"Jatinegara","i_long":106.86807400000001,"station_id":"JNG","transit":false,"i_lat":-6.215091,"line":1},{"transit":false,"station_name":"Matraman","i_lat":-6.212485,"time":2,"i_long":106.858896,"line":1,"is_transit":false,"station_id":"MTR","distance":1377},{"distance":1275,"transit":true,"time":2,"station_id":"MRI","i_lat":-6.209883,"i_long":106.84912,"station_name":"Manggarai","line":2,"is_transit":true},{"line":2,"transit":false,"i_long":106.840169,"is_transit":false,"distance":1590,"i_lat":-6.198556,"station_name":"Cikini","time":4,"station_id":"CKI"},{"time":3,"i_long":106.832183,"i_lat":-6.186295,"station_id":"GDD","transit":false,"distance":1750,"is_transit":false,"station_name":"Gondangdia","line":2},{"station_name":"Juanda","i_long":106.828284,"is_transit":false,"line":2,"distance":2015,"i_lat":-6.166716,"station_id":"JUA","time":4,"transit":false},{"i_lat":-6.160725,"station_name":"Sawah Besar","line":2,"distance":1149,"is_transit":false,"i_long":106.827103,"time":2,"station_id":"SW","transit":false},{"transit":false,"i_long":106.82482,"station_name":"Manggabesar","line":2,"time":2,"i_lat":-6.149769,"is_transit":false,"station_id":"MGB","distance":906},{"is_transit":false,"time":2,"distance":1080,"station_id":"JAY","station_name":"Jayakarta","i_lat":-6.141205,"line":2,"transit":false,"i_long":106.820901},{"distance":1264,"station_id":"JAKK","station_name":"Jakarta Kota","i_lat":-6.137569,"is_transit":true,"line":2,"time":4,"i_long":106.812439,"transit":true},{"time":3,"transit":true,"line":4,"i_lat":-6.132549,"is_transit":true,"distance":1364,"i_long":106.826365,"station_id":"KPB","station_name":"Kampung Bandan"},{"is_transit":false,"i_long":106.79867,"time":9,"station_id":"AK","distance":4102,"station_name":"Angke","i_lat":-6.144674,"transit":false,"line":1},{"i_lat":-6.155215,"distance":1230,"transit":false,"station_name":"Duri","time":4,"i_long":106.800832,"line":1,"is_transit":false,"station_id":"DU"},{"time":8,"is_transit":true,"i_long":106.811091,"transit":true,"i_lat":-6.185545,"line":1,"station_id":"THB","station_name":"Tanah Abang","distance":3632},{"transit":false,"station_name":"Palmerah","i_long":106.79689,"is_transit":false,"time":6,"station_id":"PLM","line":6,"i_lat":-6.207404,"distance":3191},{"i_long":106.780334,"distance":3737,"i_lat":-6.237242,"station_name":"Kebayoran","station_id":"KBY","line":6,"time":7,"transit":false,"is_transit":false},{"i_lat":-6.276362,"line":6,"station_id":"PDJ","distance":6218,"time":8,"transit":false,"station_name":"Pondokranji","is_transit":false,"i_long":106.74273},{"distance":2179,"station_name":"Jurangmangu","time":3,"i_lat":-6.288927,"line":6,"station_id":"JMU","i_long":106.728916,"transit":false,"is_transit":false}],[{"i_long":107.083084,"distance":0,"is_transit":false,"i_lat":-6.261877,"station_name":"Cibitung","station_id":"CIT","line":1,"time":0,"transit":false},{"i_long":107.055722,"station_name":"Tambun","line":1,"station_id":"TB","is_transit":false,"transit":false,"time":3,"distance":3420,"i_lat":-6.258864},{"time":7,"i_long":107.016735,"is_transit":false,"i_lat":-6.248029,"station_name":"Bekasi Timur","distance":4460,"line":1,"transit":false,"station_id":"BKST"},{"i_long":106.997013,"distance":2368,"station_name":"Bekasi","line":1,"time":2,"transit":false,"is_transit":false,"i_lat":-6.236616,"station_id":"BKS"},{"is_transit":false,"i_lat":-6.224515,"station_name":"Kranji","line":1,"time":4,"transit":false,"station_id":"KRI","i_long":106.977657,"distance":2520},{"station_name":"Cakung","i_lat":-6.219053,"transit":false,"is_transit":false,"station_id":"CUK","time":3,"distance":3097,"line":1,"i_long":106.951283},{"i_lat":-6.217455,"transit":false,"line":1,"i_long":106.939679,"station_id":"KLDB","is_transit":false,"station_name":"Klenderbaru","distance":1385,"time":8},{"transit":false,"distance":1305,"i_lat":-6.215568,"station_id":"BUA","station_name":"Buaran","is_transit":false,"line":1,"time":1,"i_long":106.922662},{"is_transit":false,"station_id":"KLD","distance":3100,"i_lat":-6.2135,"i_long":106.899548,"line":1,"station_name":"Klender","time":2,"transit":false},{"i_long":106.86807400000001,"transit":true,"station_name":"Jatinegara","i_lat":-6.215091,"station_id":"JNG","line":1,"time":3,"distance":3395,"is_transit":true},{"station_id":"POK","is_transit":false,"transit":false,"station_name":"Pondok Jati","time":2,"line":11,"i_lat":-6.209188,"distance":1236,"i_long":106.861737},{"time":2,"is_transit":false,"distance":1829,"transit":false,"station_id":"KMT","station_name":"Kramat","i_lat":-6.193792,"line":11,"i_long":106.855437},{"is_transit":false,"i_long":106.850107,"station_id":"GST","line":11,"time":1,"transit":false,"i_lat":-6.185975,"distance":973,"station_name":"Gang Sentiong"},{"transit":false,"is_transit":false,"time":8,"station_id":"PSE","distance":1567,"station_name":"Pasar Senen","i_long":106.84368,"line":11,"i_lat":-6.174784},{"distance":1436,"is_transit":false,"time":4,"i_long":106.839204,"line":11,"transit":false,"station_name":"Kemayoran","station_id":"KMO","i_lat":-6.161728},{"line":11,"transit":false,"is_transit":false,"time":5,"station_id":"RJW","station_name":"Rajawali","distance":1901,"i_lat":-6.14505,"i_long":106.836569},{"station_id":"KPB","time":3,"transit":true,"distance":1444,"is_transit":true,"station_name":"Kampung Bandan","i_lat":-6.132549,"i_long":106.826365,"line":4},{"station_name":"Jakarta Kota","distance":1364,"transit":true,"i_long":106.812439,"station_id":"JAKK","time":3,"is_transit":true,"i_lat":-6.137569,"line":2},{"is_transit":false,"line":2,"station_id":"JAY","distance":1264,"station_name":"Jayakarta","i_lat":-6.141205,"i_long":106.820901,"time":4,"transit":false},{"is_transit":false,"i_lat":-6.149769,"time":2,"transit":false,"i_long":106.82482,"station_id":"MGB","line":2,"station_name":"Manggabesar","distance":1080},{"i_lat":-6.160725,"i_long":106.827103,"station_name":"Sawah Besar","distance":906,"line":2,"transit":false,"station_id":"SW","is_transit":false,"time":2},{"i_lat":-6.166716,"transit":false,"time":2,"is_transit":false,"station_name":"Juanda","i_long":106.828284,"line":2,"station_id":"JUA","distance":1149},{"is_transit":false,"station_name":"Gondangdia","transit":false,"distance":2015,"i_lat":-6.186295,"line":2,"time":4,"station_id":"GDD","i_long":106.832183},{"station_id":"CKI","transit":false,"distance":1750,"is_transit":false,"time":3,"station_name":"Cikini","i_long":106.840169,"line":2,"i_lat":-6.198556},{"station_id":"MRI","transit":true,"line":2,"i_lat":-6.209883,"time":4,"is_transit":true,"station_name":"Manggarai","distance":1590,"i_long":106.84912},{"time":4,"distance":3186,"station_name":"Sudirman","i_long":106.822649,"line":1,"is_transit":false,"station_id":"SUD","i_lat":-6.202263,"transit":false},{"time":1,"transit":false,"station_id":"SUDB","line":1,"distance":280,"station_name":"Sudirman Baru","is_transit":false,"i_lat":-6.201433,"i_long":106.819881},{"is_transit":false,"distance":471,"station_id":"KAT","i_lat":-6.20132,"i_long":106.816351,"time":1,"transit":false,"line":1,"station_name":"Karet"},{"line":1,"i_long":106.811091,"is_transit":true,"time":5,"distance":2029,"station_name":"Tanah Abang","transit":true,"i_lat":-6.185545,"station_id":"THB"},{"distance":3191,"i_lat":-6.207404,"i_long":106.79689,"transit":false,"line":6,"station_name":"Palmerah","time":6,"is_transit":false,"station_id":"PLM"},{"is_transit":false,"line":6,"i_long":106.780334,"distance":3737,"station_id":"KBY","transit":false,"i_lat":-6.237242,"station_name":"Kebayoran","time":7},{"station_id":"PDJ","line":6,"is_transit":false,"i_long":106.74273,"distance":6218,"i_lat":-6.276362,"transit":false,"time":8,"station_name":"Pondokranji"},{"distance":2179,"i_long":106.728916,"transit":false,"line":6,"station_id":"JMU","time":3,"station_name":"Jurangmangu","is_transit":false,"i_lat":-6.288927}]]}