{"data":[[{"distance":0,"is_transit":false,"time":0,"i_lat":-6.261877,"i_long":107.083084,"line":0,"station_name":"Cibitung","station_id":"CIT","transit":false},{"i_lat":-6.258864,"i_long":107.055722,"time":3,"station_name":"Tambun","is_transit":false,"transit":false,"line":1,"distance":3420,"station_id":"TB"},{"is_transit":false,"i_lat":-6.248029,"station_name":"Bekasi Timur","transit":false,"i_long":107.016735,"station_id":"BKST","distance":4460,"time":7,"line":0},{"station_id":"BKS","i_long":106.997013,"distance":2368,"transit":false,"line":0,"i_lat":-6.236616,"station_name":"Bekasi","is_transit":false,"time":2},{"station_name":"Kranji","is_transit":false,"time":4,"transit":false,"i_lat":-6.224515,"i_long":106.977657,"distance":2520,"line":1,"station_id":"KRI"},{"is_transit":false,"time":3,"distance":3097,"line":0,"i_long":106.951283,"transit":false,"i_lat":-6.219053,"station_name":"Cakung","station_id":"CUK"},{"i_lat":-6.217455,"line":1,"transit":false,"i_long":106.939679,"distance":1385,"station_id":"KLDB","time":8,"station_name":"Klenderbaru","is_transit":false},{"distance":1305,"station_name":"Buaran","time":1,"i_lat":-6.215568,"is_transit":false,"i_long":106.922662,"line":0,"transit":false,"station_id":"BUA"},{"transit":false,"is_transit":false,"station_name":"Klender","time":2,"line":1,"station_id":"KLD","i_lat":-6.2135,"i_long":106.899548,"distance":3100},{"i_long":106.86807400000001,"station_name":"Jatinegara","station_id":"JNG","time":3,"is_transit":true,"transit":false,"line":0,"i_lat":-6.215091,"distance":3395},{"distance":1377,"line":1,"station_id":"MTR","time":2,"i_lat":-6.212485,"i_long":106.858896,"station_name":"Matraman","is_transit":false,"transit":false},{"transit":true,"is_transit":true,"time":2,"distance":1275,"i_lat":-6.209883,"station_name":"Manggarai","line":0,"i_long":106.84912,"station_id":"MRI"},{"i_lat":-6.226659,"distance":2610,"transit":false,"is_transit":false,"i_long":106.857948,"time":4,"station_name":"Tebet","line":2,"station_id":"TEB"},{"is_transit":false,"station_id":"CW","time":2,"station_name":"Cawang","transit":false,"i_lat":-6.242512,"i_long":106.856607,"distance":1230,"line":0},{"time":3,"i_long":106.85449,"line":0,"distance":1546,"station_name":"Duren Kalibata","station_id":"DRN","is_transit":false,"i_lat":-6.255332,"transit":false},{"line":2,"is_transit":false,"transit":false,"i_lat":-6.263214,"time":2,"station_name":"Pasar Minggu Baru","distance":824,"station_id":"PSMB","i_long":106.851577},{"is_transit":false,"station_id":"PSM","line":2,"distance":2380,"i_long":106.843999,"time":2,"transit":false,"station_name":"Pasar Minggu","i_lat":-6.2842400000000005},{"time":4,"station_name":"Tanjung Barat","transit":false,"station_id":"TNT","is_transit":false,"i_lat":-6.3080680000000005,"i_long":106.838896,"distance":2820,"line":2},{"i_long":106.832616,"station_name":"Lenteng Agung","i_lat":-6.330363,"line":2,"time":3,"station_id":"LNA","distance":2671,"is_transit":false,"transit":false},{"station_name":"Univ. Pancasila","is_transit":false,"distance":1029,"i_lat":-6.339291,"station_id":"UP","transit":false,"line":2,"time":2,"i_long":106.834175},{"is_transit":false,"distance":2264,"line":2,"station_name":"Univ. Indonesia","i_lat":-6.360749,"station_id":"UI","transit":false,"time":3,"i_long":106.831474},{"station_id":"POC","station_name":"Pondok Cina","i_long":106.831114,"i_lat":-6.369073,"is_transit":false,"transit":false,"line":2,"time":2,"distance":1109},{"station_id":"DPB","time":4,"station_name":"Depokbaru","i_lat":-6.391065,"distance":2727,"line":0,"transit":false,"is_transit":false,"i_long":106.819451},{"station_id":"DP","station_name":"Depok","transit":false,"is_transit":false,"i_long":106.816926,"line":0,"i_lat":-6.405256,"distance":1584,"time":3},{"station_id":"CTA","i_long":106.800298,"is_transit":true,"line":1,"distance":5084,"time":6,"i_lat":-6.448811,"station_name":"Citayam","transit":false}],[{"line":0,"i_long":107.083084,"station_id":"CIT","is_transit":false,"station_name":"Cibitung","time":0,"transit":false,"distance":0,"i_lat":-6.261877},{"i_lat":-6.258864,"i_long":107.055722,"station_id":"TB","distance":3420,"line":1,"station_name":"Tambun","is_transit":false,"transit":false,"time":3},{"station_name":"Bekasi Timur","line":0,"distance":4460,"station_id":"BKST","is_transit":false,"time":7,"transit":false,"i_long":107.016735,"i_lat":-6.248029},{"transit":false,"i_lat":-6.236616,"station_name":"Bekasi","i_long":106.997013,"distance":2368,"line":0,"is_transit":false,"station_id":"BKS","time":2},{"station_name":"Kranji","i_long":106.977657,"station_id":"KRI","time":4,"distance":2520,"i_lat":-6.224515,"line":1,"transit":false,"is_transit":false},{"line":0,"i_lat":-6.219053,"is_transit":false,"distance":3097,"transit":false,"i_long":106.951283,"station_name":"Cakung","station_id":"CUK","time":3},{"station_name":"Klenderbaru","is_transit":false,"time":8,"transit":false,"line":1,"i_long":106.939679,"distance":1385,"station_id":"KLDB","i_lat":-6.217455},{"transit":false,"station_id":"BUA","station_name":"Buaran","i_lat":-6.215568,"i_long":106.922662,"time":1,"line":0,"distance":1305,"is_transit":false},{"transit":false,"i_long":106.899548,"station_name":"Klender","is_transit":false,"line":1,"time":2,"i_lat":-6.2135,"distance":3100,"station_id":"KLD"},{"i_lat":-6.215091,"station_name":"Jatinegara","i_long":106.86807400000001,"time":3,"is_transit":true,"distance":3395,"line":0,"station_id":"JNG","transit":true},{"time":2,"transit":false,"station_name":"Pondok Jati","line":11,"is_transit":false,"i_long":106.861737,"station_id":"POK","distance":1236,"i_lat":-6.209188},{"station_id":"KMT","distance":1829,"transit":false,"i_lat":-6.193792,"line":11,"station_name":"Kramat","time":2,"is_transit":false,"i_long":106.855437},{"station_id":"GST","distance":973,"line":11,"transit":false,"i_lat":-6.185975,"is_transit":false,"station_name":"Gang Sentiong","time":1,"i_long":106.850107},{"station_id":"PSE","station_name":"Pasar Senen","time":8,"distance":1567,"is_transit":false,"transit":false,"i_long":106.84368,"line":11,"i_lat":-6.174784},{"station_name":"Kemayoran","is_transit":false,"i_lat":-6.161728,"distance":1436,"time":4,"station_id":"KMO","i_long":106.839204,"line":11,"transit":false},{"is_transit":false,"i_long":106.836569,"line":11,"station_name":"Rajawali","time":5,"distance":1901,"station_id":"RJW","transit":false,"i_lat":-6.14505},{"transit":true,"i_long":106.826365,"line":0,"i_lat":-6.132549,"distance":1444,"time":3,"station_id":"KPB","station_name":"Kampung Bandan","is_transit":true},{"distance":4102,"i_long":106.79867,"i_lat":-6.144674,"time":9,"station_id":"AK","transit":false,"is_transit":false,"line":0,"station_name":"Angke"},{"station_id":"DU","transit":true,"line":1,"station_name":"Duri","is_transit":true,"time":4,"i_lat":-6.155215,"distance":1230,"i_long":106.800832},{"i_lat":-6.185545,"station_name":"Tanah Abang","i_long":106.811091,"station_id":"THB","time":8,"distance":3632,"transit":false,"line":1,"is_transit":true},{"transit":false,"distance":2029,"is_transit":false,"i_lat":-6.20132,"station_name":"Karet","i_long":106.816351,"station_id":"KAT","time":5,"line":1},{"i_long":106.819881,"distance":471,"station_name":"Sudirman Baru","station_id":"SUDB","is_transit":false,"transit":false,"time":1,"i_lat":-6.201433,"line":1},{"transit":false,"time":1,"station_name":"Sudirman","i_long":106.822649,"i_lat":-6.202263,"line":1,"distance":280,"station_id":"SUD","is_transit":false},{"station_id":"MRI","line":0,"is_transit":true,"time":4,"distance":3186,"transit":true,"station_name":"Manggarai","i_long":106.84912,"i_lat":-6.209883},{"i_long":106.857948,"station_name":"Tebet","transit":false,"line":2,"time":4,"is_transit":false,"distance":2610,"station_id":"TEB","i_lat":-6.226659},{"transit":false,"i_lat":-6.242512,"distance":1230,"station_name":"Cawang","time":2,"i_long":106.856607,"line":0,"station_id":"CW","is_transit":false},{"i_long":106.85449,"transit":false,"station_name":"Duren Kalibata","is_transit":false,"line":0,"station_id":"DRN","time":3,"i_lat":-6.255332,"distance":1546},{"time":2,"distance":824,"station_name":"Pasar Minggu Baru","transit":false,"is_transit":false,"station_id":"PSMB","line":2,"i_lat":-6.263214,"i_long":106.851577},{"transit":false,"station_id":"PSM","time":2,"distance":2380,"i_lat":-6.2842400000000005,"line":2,"i_long":106.843999,"station_name":"Pasar Minggu","is_transit":false},{"station_name":"Tanjung Barat","station_id":"TNT","distance":2820,"i_long":106.838896,"i_lat":-6.3080680000000005,"line":2,"time":4,"is_transit":false,"transit":false},{"i_long":106.832616,"line":2,"transit":false,"is_transit":false,"distance":2671,"station_id":"LNA","time":3,"i_lat":-6.330363,"station_name":"Lenteng Agung"},{"station_name":"Univ. Pancasila","station_id":"UP","is_transit":false,"distance":1029,"transit":false,"i_lat":-6.339291,"i_long":106.834175,"line":2,"time":2},{"transit":false,"is_transit":false,"line":2,"i_lat":-6.360749,"time":3,"i_long":106.831474,"station_id":"UI","station_name":"Univ. Indonesia","distance":2264},{"station_name":"Pondok Cina","station_id":"POC","i_lat":-6.369073,"is_transit":false,"distance":1109,"transit":false,"i_long":106.831114,"line":2,"time":2},{"line":0,"station_id":"DPB","is_transit":false,"i_lat":-6.391065,"transit":false,"distance":2727,"time":4,"station_name":"Depokbaru","i_long":106.819451},{"is_transit":false,"time":3,"distance":1584,"station_name":"Depok","i_long":106.816926,"station_id":"DP","transit":false,"i_lat":-6.405256,"line":0},{"line":1,"i_long":106.800298,"station_name":"Citayam","i_lat":-6.448811,"station_id":"CTA","distance":5084,"transit":false,"is_transit":true,"time":6}],[{"station_id":"CIT","station_name":"Cibitung","i_long":107.083084,"line":0,"time":0,"transit":false,"i_lat":-6.261877,"is_transit":false,"distance":0},{"station_id":"TB","time":3,"transit":false,"distance":3420,"line":1,"is_transit":false,"i_lat":-6.258864,"station_name":"Tambun","i_long":107.055722},{"is_transit":false,"station_name":"Bekasi Timur","distance":4460,"i_lat":-6.248029,"i_long":107.016735,"time":7,"station_id":"BKST","transit":false,"line":0},{"transit":false,"station_name":"Bekasi","is_transit":false,"time":2,"station_id":"BKS","line":0,"distance":2368,"i_long":106.997013,"i_lat":-6.236616},{"station_name":"Kranji","line":1,"is_transit":false,"station_id":"KRI","distance":2520,"transit":false,"i_lat":-6.224515,"i_long":106.977657,"time":4},{"station_id":"CUK","i_long":106.951283,"is_transit":false,"time":3,"i_lat":-6.219053,"distance":3097,"station_name":"Cakung","transit":false,"line":0},{"i_lat":-6.217455,"i_long":106.939679,"transit":false,"station_name":"Klenderbaru","station_id":"KLDB","is_transit":false,"distance":1385,"line":1,"time":8},{"is_transit":false,"station_id":"BUA","time":1,"station_name":"Buaran","distance":1305,"transit":false,"i_lat":-6.215568,"i_long":106.922662,"line":0},{"i_lat":-6.2135,"line":1,"station_name":"Klender","i_long":106.899548,"station_id":"KLD","is_transit":false,"time":2,"distance":3100,"transit":false},{"distance":3395,"i_long":106.86807400000001,"line":0,"time":3,"is_transit":true,"station_id":"JNG","station_name":"Jatinegara","transit":true,"i_lat":-6.215091},{"time":2,"i_long":106.861737,"station_name":"Pondok Jati","transit":false,"line":11,"distance":1236,"station_id":"POK","i_lat":-6.209188,"is_transit":false},{"station_id":"KMT","transit":false,"time":2,"line":11,"station_name":"Kramat","is_transit":false,"i_long":106.855437,"distance":1829,"i_lat":-6.193792},{"i_lat":-6.185975,"station_name":"Gang Sentiong","i_long":106.850107,"transit":false,"distance":973,"time":1,"is_transit":false,"line":11,"station_id":"GST"},{"time":8,"station_name":"Pasar Senen","distance":1567,"i_lat":-6.174784,"i_long":106.84368,"line":11,"transit":false,"station_id":"PSE","is_transit":false},{"time":4,"transit":false,"station_id":"KMO","line":11,"is_transit":false,"i_lat":-6.161728,"station_name":"Kemayoran","i_long":106.839204,"distance":1436},{"i_long":106.836569,"station_id":"RJW","transit":false,"distance":1901,"station_name":"Rajawali","is_transit":false,"time":5,"i_lat":-6.14505,"line":11},{"station_name":"Kampung Bandan","is_transit":true,"i_long":106.826365,"line":0,"transit":true,"time":3,"station_id":"KPB","i_lat":-6.132549,"distance":1444},{"station_id":"JAKK","station_name":"Jakarta Kota","i_long":106.812439,"is_transit":true,"time":3,"transit":true,"line":0,"distance":1364,"i_lat":-6.137569},{"is_transit":false,"station_name":"Jayakarta","i_lat":-6.141205,"transit":false,"station_id":"JAY","time":4,"distance":1264,"i_long":106.820901,"line":7},{"distance":1080,"i_lat":-6.149769,"transit":false,"i_long":106.82482,"station_name":"Manggabesar","station_id":"MGB","time":2,"line":2,"is_transit":false},{"i_lat":-6.160725,"station_id":"SW","station_name":"Sawah Besar","is_transit":false,"transit":false,"distance":906,"line":2,"time":2,"i_long":106.827103},{"i_long":106.828284,"line":2,"distance":1149,"i_lat":-6.166716,"is_transit":false,"time":2,"transit":false,"station_name":"Juanda","station_id":"JUA"},{"i_long":106.832183,"station_id":"GDD","station_name":"Gondangdia","distance":2015,"line":2,"transit":false,"is_transit":false,"i_lat":-6.186295,"time":4},{"is_transit":false,"i_lat":-6.198556,"i_long":106.840169,"line":0,"transit":false,"time":3,"station_id":"CKI","station_name":"Cikini","distance":1750},{"station_name":"Manggarai","station_id":"MRI","is_transit":true,"i_lat":-6.209883,"transit":true,"distance":1590,"line":0,"i_long":106.84912,"time":4},{"i_long":106.857948,"station_id":"TEB","station_name":"Tebet","time":4,"is_transit":false,"distance":2610,"line":2,"i_lat":-6.226659,"transit":false},{"time":2,"station_id":"CW","line":0,"station_name":"Cawang","transit":false,"i_long":106.856607,"i_lat":-6.242512,"is_transit":false,"distance":1230},{"transit":false,"line":0,"i_long":106.85449,"station_name":"Duren Kalibata","i_lat":-6.255332,"is_transit":false,"station_id":"DRN","time":3,"distance":1546},{"distance":824,"i_lat":-6.263214,"station_id":"PSMB","transit":false,"time":2,"is_transit":false,"i_long":106.851577,"line":2,"station_name":"Pasar Minggu Baru"},{"line":2,"i_long":106.843999,"is_transit":false,"station_id":"PSM","distance":2380,"station_name":"Pasar Minggu","i_lat":-6.2842400000000005,"transit":false,"time":2},{"transit":false,"station_id":"TNT","i_long":106.838896,"i_lat":-6.3080680000000005,"distance":2820,"line":2,"time":4,"station_name":"Tanjung Barat","is_transit":false},{"station_name":"Lenteng Agung","is_transit":false,"time":3,"transit":false,"station_id":"LNA","i_lat":-6.330363,"i_long":106.832616,"line":2,"distance":2671},{"is_transit":false,"distance":1029,"station_id":"UP","i_lat":-6.339291,"station_name":"Univ. Pancasila","line":2,"i_long":106.834175,"time":2,"transit":false},{"distance":2264,"i_long":106.831474,"i_lat":-6.360749,"station_name":"Univ. Indonesia","transit":false,"station_id":"UI","is_transit":false,"line":2,"time":3},{"distance":1109,"time":2,"transit":false,"station_id":"POC","i_lat":-6.369073,"i_long":106.831114,"station_name":"Pondok Cina","is_transit":false,"line":2},{"is_transit":false,"line":0,"time":4,"station_name":"Depokbaru","i_lat":-6.391065,"transit":false,"i_long":106.819451,"station_id":"DPB","distance":2727},{"station_name":"Depok","transit":false,"station_id":"DP","i_lat":-6.405256,"is_transit":false,"distance":1584,"i_long":106.816926,"line":0,"time":3},{"transit":false,"line":1,"time":6,"distance":5084,"i_lat":-6.448811,"i_long":106.800298,"station_id":"CTA","station_name":"Citayam","is_transit":true}]]}