{"data":[[{"station_name":"Cibitung","i_lat":-6.261877,"distance":0,"station_id":"CIT","is_transit":false,"transit":false,"line":1,"i_long":107.083084,"time":0},{"i_lat":-6.258864,"distance":3420,"station_id":"TB","is_transit":false,"station_name":"Tambun","i_long":107.055722,"time":3,"line":1,"transit":false},{"i_lat":-6.248029,"line":1,"time":7,"distance":4460,"station_id":"BKST","transit":false,"station_name":"Bekasi Timur","is_transit":false,"i_long":107.016735},{"station_name":"Bekasi","distance":2368,"time":2,"station_id":"BKS","is_transit":false,"transit":false,"i_lat":-6.236616,"i_long":106.997013,"line":1},{"is_transit":false,"transit":false,"line":1,"time":4,"distance":2520,"i_lat":-6.224515,"i_long":106.977657,"station_id":"KRI","station_name":"Kranji"},{"transit":false,"i_long":106.951283,"distance":3097,"i_lat":-6.219053,"station_name":"Cakung","is_transit":false,"time":3,"station_id":"CUK","line":1},{"i_lat":-6.217455,"distance":1385,"is_transit":false,"station_id":"KLDB","line":1,"time":8,"transit":false,"i_long":106.939679,"station_name":"Klenderbaru"},{"station_name":"Buaran","i_long":106.922662,"line":1,"station_id":"BUA","i_lat":-6.215568,"is_transit":false,"transit":false,"time":1,"distance":1305},{"is_transit":false,"i_long":106.899548,"distance":3100,"i_lat":-6.2135,"line":1,"station_name":"Klender","station_id":"KLD","transit":false,"time":2},{"is_transit":true,"transit":true,"i_lat":-6.215091,"station_name":"Jatinegara","distance":3395,"station_id":"JNG","line":1,"i_long":106.86807400000001,"time":3},{"station_id":"POK","distance":1236,"is_transit":false,"station_name":"Pondok Jati","i_lat":-6.209188,"transit":false,"time":2,"i_long":106.861737,"line":11},{"i_lat":-6.193792,"station_name":"Kramat","transit":false,"time":2,"i_long":106.855437,"station_id":"KMT","line":11,"is_transit":false,"distance":1829}],[{"transit":false,"is_transit":false,"i_lat":-6.261877,"i_long":107.083084,"time":0,"distance":0,"station_name":"Cibitung","line":1,"station_id":"CIT"},{"i_lat":-6.258864,"station_id":"TB","line":1,"station_name":"Tambun","i_long":107.055722,"time":3,"distance":3420,"transit":false,"is_transit":false},{"station_name":"Bekasi Timur","is_transit":false,"transit":false,"i_lat":-6.248029,"line":1,"station_id":"BKST","time":7,"i_long":107.016735,"distance":4460},{"station_id":"BKS","distance":2368,"transit":false,"time":2,"line":1,"i_long":106.997013,"is_transit":false,"station_name":"Bekasi","i_lat":-6.236616},{"i_lat":-6.224515,"line":1,"i_long":106.977657,"is_transit":false,"transit":false,"time":4,"distance":2520,"station_name":"Kranji","station_id":"KRI"},{"distance":3097,"i_lat":-6.219053,"station_id":"CUK","station_name":"Cakung","transit":false,"line":1,"is_transit":false,"i_long":106.951283,"time":3},{"transit":false,"station_name":"Klenderbaru","distance":1385,"line":1,"time":8,"i_lat":-6.217455,"is_transit":false,"station_id":"KLDB","i_long":106.939679},{"i_lat":-6.215568,"time":1,"station_id":"BUA","distance":1305,"station_name":"Buaran","transit":false,"line":1,"is_transit":false,"i_long":106.922662},{"time":2,"station_name":"Klender","i_long":106.899548,"line":1,"station_id":"KLD","is_transit":false,"transit":false,"i_lat":-6.2135,"distance":3100},{"i_long":106.86807400000001,"station_id":"JNG","is_transit":false,"line":1,"time":3,"distance":3395,"station_name":"Jatinegara","transit":false,"i_lat":-6.215091},{"transit":false,"line":1,"station_name":"Matraman","station_id":"MTR","is_transit":false,"i_long":106.858896,"distance":1377,"i_lat":-6.212485,"time":2},{"i_long":106.84912,"is_transit":false,"line":2,"transit":false,"distance":1275,"station_id":"MRI","station_name":"Manggarai","i_lat":-6.209883,"time":2},{"i_long":106.822649,"station_id":"SUD","time":4,"is_transit":false,"line":1,"i_lat":-6.202263,"distance":3186,"station_name":"Sudirman","transit":false},{"station_id":"SUDB","i_lat":-6.201433,"is_transit":false,"line":1,"transit":false,"distance":280,"i_long":106.819881,"station_name":"Sudirman Baru","time":1},{"distance":471,"time":1,"transit":false,"line":1,"station_name":"Karet","station_id":"KAT","i_lat":-6.20132,"i_long":106.816351,"is_transit":false},{"line":1,"time":5,"station_id":"THB","i_lat":-6.185545,"is_transit":false,"transit":false,"i_long":106.811091,"station_name":"Tanah Abang","distance":2029},{"i_long":106.800832,"station_name":"Duri","i_lat":-6.155215,"line":1,"is_transit":false,"station_id":"DU","transit":false,"time":8,"distance":3632},{"transit":false,"time":4,"i_lat":-6.144674,"i_long":106.79867,"line":1,"station_id":"AK","is_transit":false,"distance":1230,"station_name":"Angke"},{"i_lat":-6.132549,"i_long":106.826365,"is_transit":true,"transit":true,"distance":4102,"station_id":"KPB","line":4,"station_name":"Kampung Bandan","time":9},{"line":11,"time":3,"transit":false,"i_lat":-6.14505,"distance":1444,"i_long":106.836569,"is_transit":false,"station_name":"Rajawali","station_id":"RJW"},{"time":5,"distance":1901,"station_id":"KMO","station_name":"Kemayoran","transit":false,"i_long":106.839204,"line":11,"i_lat":-6.161728,"is_transit":false},{"line":11,"transit":false,"i_lat":-6.174784,"i_long":106.84368,"station_name":"Pasar Senen","distance":1436,"time":4,"is_transit":false,"station_id":"PSE"},{"time":8,"line":11,"transit":false,"is_transit":false,"distance":1567,"i_long":106.850107,"i_lat":-6.185975,"station_id":"GST","station_name":"Gang Sentiong"},{"distance":973,"line":11,"time":1,"transit":false,"station_id":"KMT","is_transit":false,"i_lat":-6.193792,"i_long":106.855437,"station_name":"Kramat"}],[{"is_transit":false,"distance":0,"station_name":"Cibitung","transit":false,"i_long":107.083084,"line":1,"time":0,"station_id":"CIT","i_lat":-6.261877},{"time":3,"i_long":107.055722,"is_transit":false,"transit":false,"station_id":"TB","i_lat":-6.258864,"line":1,"station_name":"Tambun","distance":3420},{"station_name":"Bekasi Timur","line":1,"is_transit":false,"i_long":107.016735,"transit":false,"distance":4460,"time":7,"i_lat":-6.248029,"station_id":"BKST"},{"line":1,"transit":false,"station_name":"Bekasi","time":2,"is_transit":false,"distance":2368,"station_id":"BKS","i_lat":-6.236616,"i_long":106.997013},{"station_name":"Kranji","distance":2520,"line":1,"transit":false,"time":4,"station_id":"KRI","i_lat":-6.224515,"i_long":106.977657,"is_transit":false},{"station_id":"CUK","is_transit":false,"time":3,"i_lat":-6.219053,"i_long":106.951283,"line":1,"station_name":"Cakung","transit":false,"distance":3097},{"i_long":106.939679,"transit":false,"station_name":"Klenderbaru","i_lat":-6.217455,"line":1,"distance":1385,"time":8,"station_id":"KLDB","is_transit":false},{"is_transit":false,"i_long":106.922662,"station_id":"BUA","line":1,"i_lat":-6.215568,"transit":false,"distance":1305,"station_name":"Buaran","time":1},{"distance":3100,"i_lat":-6.2135,"is_transit":false,"transit":false,"station_id":"KLD","i_long":106.899548,"time":2,"station_name":"Klender","line":1},{"station_id":"JNG","i_lat":-6.215091,"is_transit":false,"station_name":"Jatinegara","i_long":106.86807400000001,"line":1,"time":3,"transit":false,"distance":3395},{"i_long":106.858896,"time":2,"line":1,"station_id":"MTR","is_transit":false,"station_name":"Matraman","i_lat":-6.212485,"distance":1377,"transit":false},{"distance":1275,"station_id":"MRI","i_lat":-6.209883,"i_long":106.84912,"transit":true,"line":2,"time":2,"station_name":"Manggarai","is_transit":true},{"is_transit":false,"distance":1590,"i_lat":-6.198556,"time":4,"station_name":"Cikini","station_id":"CKI","i_long":106.840169,"line":2,"transit":false},{"distance":1750,"line":2,"time":3,"i_long":106.832183,"transit":false,"station_id":"GDD","is_transit":false,"station_name":"Gondangdia","i_lat":-6.186295},{"time":4,"distance":2015,"i_lat":-6.166716,"i_long":106.828284,"is_transit":false,"station_id":"JUA","line":2,"transit":false,"station_name":"Juanda"},{"station_name":"Sawah Besar","is_transit":false,"transit":false,"i_long":106.827103,"distance":1149,"station_id":"SW","time":2,"i_lat":-6.160725,"line":2},{"i_long":106.82482,"is_transit":false,"line":2,"station_name":"Manggabesar","transit":false,"station_id":"MGB","time":2,"i_lat":-6.149769,"distance":906},{"station_id":"JAY","station_name":"Jayakarta","transit":false,"line":2,"i_long":106.820901,"time":2,"i_lat":-6.141205,"distance":1080,"is_transit":false},{"i_lat":-6.137569,"distance":1264,"i_long":106.812439,"transit":true,"is_transit":true,"station_id":"JAKK","line":2,"station_name":"Jakarta Kota","time":4},{"distance":1364,"transit":true,"is_transit":true,"i_lat":-6.132549,"station_id":"KPB","time":3,"i_long":106.826365,"line":4,"station_name":"Kampung Bandan"},{"time":3,"station_name":"Rajawali","line":11,"i_lat":-6.14505,"station_id":"RJW","i_long":106.836569,"is_transit":false,"transit":false,"distance":1444},{"is_transit":false,"i_long":106.839204,"line":11,"transit":false,"time":5,"station_name":"Kemayoran","distance":1901,"station_id":"KMO","i_lat":-6.161728},{"station_name":"Pasar Senen","time":4,"is_transit":false,"station_id":"PSE","i_lat":-6.174784,"transit":false,"distance":1436,"i_long":106.84368,"line":11},{"station_name":"Gang Sentiong","transit":false,"time":8,"station_id":"GST","i_lat":-6.185975,"distance":1567,"i_long":106.850107,"is_transit":false,"line":11},{"is_transit":false,"station_name":"Kramat","station_id":"KMT","i_long":106.855437,"transit":false,"time":1,"line":11,"distance":973,"i_lat":-6.193792}]]}