{"data":[[{"i_lat":-6.261877,"station_name":"Cibitung","distance":0,"line":1,"i_long":107.083084,"is_transit":false,"time":0,"transit":false,"station_id":"CIT"},{"i_lat":-6.258864,"i_long":107.055722,"transit":false,"line":1,"distance":3420,"station_name":"Tambun","station_id":"TB","is_transit":false,"time":3},{"distance":4460,"time":7,"station_id":"BKST","transit":false,"i_lat":-6.248029,"i_long":107.016735,"line":1,"is_transit":false,"station_name":"Bekasi Timur"},{"distance":2368,"i_lat":-6.236616,"station_name":"Bekasi","i_long":106.997013,"is_transit":false,"line":1,"time":2,"station_id":"BKS","transit":false},{"distance":2520,"transit":false,"station_id":"KRI","i_long":106.977657,"line":1,"i_lat":-6.224515,"time":4,"is_transit":false,"station_name":"Kranji"},{"i_lat":-6.219053,"line":1,"station_name":"Cakung","time":3,"is_transit":false,"i_long":106.951283,"distance":3097,"transit":false,"station_id":"CUK"},{"i_long":106.939679,"line":1,"i_lat":-6.217455,"station_id":"KLDB","distance":1385,"is_transit":false,"transit":false,"time":8,"station_name":"Klenderbaru"},{"station_name":"Buaran","i_long":106.922662,"transit":false,"time":1,"station_id":"BUA","i_lat":-6.215568,"line":1,"is_transit":false,"distance":1305},{"time":2,"line":1,"station_name":"Klender","is_transit":false,"station_id":"KLD","i_long":106.899548,"distance":3100,"i_lat":-6.2135,"transit":false},{"i_lat":-6.215091,"line":1,"station_name":"Jatinegara","time":3,"station_id":"JNG","is_transit":false,"i_long":106.86807400000001,"distance":3395,"transit":false},{"station_id":"MTR","i_long":106.858896,"line":1,"i_lat":-6.212485,"transit":false,"time":2,"distance":1377,"station_name":"Matraman","is_transit":false},{"distance":1275,"station_name":"Manggarai","i_lat":-6.209883,"time":2,"line":2,"transit":true,"station_id":"MRI","is_transit":true,"i_long":106.84912},{"i_lat":-6.226659,"transit":false,"is_transit":false,"station_name":"Tebet","distance":2610,"time":4,"i_long":106.857948,"line":2,"station_id":"TEB"},{"i_lat":-6.242512,"line":2,"station_id":"CW","time":2,"distance":1230,"station_name":"Cawang","is_transit":false,"transit":false,"i_long":106.856607},{"station_id":"DRN","time":3,"distance":1546,"i_long":106.85449,"is_transit":false,"line":2,"station_name":"Duren Kalibata","transit":false,"i_lat":-6.255332},{"distance":824,"transit":false,"i_lat":-6.263214,"line":2,"time":2,"i_long":106.851577,"station_name":"Pasar Minggu Baru","is_transit":false,"station_id":"PSMB"},{"time":2,"is_transit":false,"transit":false,"station_name":"Pasar Minggu","i_lat":-6.2842400000000005,"i_long":106.843999,"station_id":"PSM","line":2,"distance":2380},{"line":2,"is_transit":false,"i_lat":-6.3080680000000005,"station_name":"Tanjung Barat","i_long":106.838896,"time":4,"distance":2820,"transit":false,"station_id":"TNT"},{"station_name":"Lenteng Agung","time":3,"station_id":"LNA","i_long":106.832616,"i_lat":-6.330363,"distance":2671,"transit":false,"line":2,"is_transit":false},{"is_transit":false,"station_name":"Univ. Pancasila","time":2,"station_id":"UP","distance":1029,"i_lat":-6.339291,"i_long":106.834175,"transit":false,"line":2},{"transit":false,"distance":2264,"time":3,"i_lat":-6.360749,"station_name":"Univ. Indonesia","i_long":106.831474,"line":2,"is_transit":false,"station_id":"UI"},{"is_transit":false,"transit":false,"station_id":"POC","i_lat":-6.369073,"line":2,"distance":1109,"station_name":"Pondok Cina","time":2,"i_long":106.831114},{"transit":false,"is_transit":false,"i_long":106.819451,"distance":2727,"time":4,"line":2,"station_id":"DPB","i_lat":-6.391065,"station_name":"Depokbaru"},{"station_id":"DP","i_lat":-6.405256,"transit":false,"time":3,"line":2,"station_name":"Depok","is_transit":false,"i_long":106.816926,"distance":1584},{"distance":5084,"station_id":"CTA","line":2,"time":6,"i_lat":-6.448811,"station_name":"Citayam","is_transit":false,"transit":false,"i_long":106.800298}],[{"time":0,"is_transit":false,"transit":false,"distance":0,"station_id":"CIT","i_long":107.083084,"i_lat":-6.261877,"line":1,"station_name":"Cibitung"},{"i_lat":-6.258864,"i_long":107.055722,"line":1,"time":3,"transit":false,"distance":3420,"is_transit":false,"station_id":"TB","station_name":"Tambun"},{"transit":false,"time":7,"station_id":"BKST","is_transit":false,"i_lat":-6.248029,"line":1,"distance":4460,"station_name":"Bekasi Timur","i_long":107.016735},{"transit":false,"station_id":"BKS","station_name":"Bekasi","i_long":106.997013,"distance":2368,"is_transit":false,"time":2,"i_lat":-6.236616,"line":1},{"station_id":"KRI","transit":false,"i_lat":-6.224515,"station_name":"Kranji","time":4,"i_long":106.977657,"is_transit":false,"distance":2520,"line":1},{"time":3,"station_id":"CUK","transit":false,"station_name":"Cakung","i_lat":-6.219053,"i_long":106.951283,"distance":3097,"is_transit":false,"line":1},{"is_transit":false,"i_lat":-6.217455,"distance":1385,"line":1,"station_name":"Klenderbaru","time":8,"station_id":"KLDB","i_long":106.939679,"transit":false},{"station_name":"Buaran","line":1,"time":1,"distance":1305,"is_transit":false,"transit":false,"i_long":106.922662,"station_id":"BUA","i_lat":-6.215568},{"station_name":"Klender","i_lat":-6.2135,"is_transit":false,"transit":false,"line":1,"distance":3100,"time":2,"station_id":"KLD","i_long":106.899548},{"time":3,"station_id":"JNG","station_name":"Jatinegara","transit":true,"distance":3395,"i_lat":-6.215091,"is_transit":true,"i_long":106.86807400000001,"line":1},{"station_id":"POK","station_name":"Pondok Jati","time":2,"is_transit":false,"transit":false,"distance":1236,"i_lat":-6.209188,"i_long":106.861737,"line":11},{"i_long":106.855437,"distance":1829,"is_transit":false,"station_id":"KMT","transit":false,"time":2,"line":11,"station_name":"Kramat","i_lat":-6.193792},{"i_lat":-6.185975,"line":11,"station_id":"GST","i_long":106.850107,"is_transit":false,"time":1,"transit":false,"distance":973,"station_name":"Gang Sentiong"},{"transit":false,"line":11,"time":8,"i_lat":-6.174784,"distance":1567,"station_name":"Pasar Senen","station_id":"PSE","i_long":106.84368,"is_transit":false},{"is_transit":false,"time":4,"station_id":"KMO","i_long":106.839204,"line":11,"transit":false,"distance":1436,"station_name":"Kemayoran","i_lat":-6.161728},{"transit":false,"time":5,"station_id":"RJW","station_name":"Rajawali","i_long":106.836569,"i_lat":-6.14505,"line":11,"is_transit":false,"distance":1901},{"transit":true,"time":3,"i_lat":-6.132549,"i_long":106.826365,"distance":1444,"line":4,"is_transit":true,"station_id":"KPB","station_name":"Kampung Bandan"},{"i_lat":-6.144674,"distance":4102,"time":9,"station_name":"Angke","transit":false,"i_long":106.79867,"line":1,"is_transit":false,"station_id":"AK"},{"time":4,"transit":false,"station_name":"Duri","i_long":106.800832,"i_lat":-6.155215,"distance":1230,"station_id":"DU","is_transit":false,"line":1},{"station_id":"THB","transit":false,"station_name":"Tanah Abang","i_lat":-6.185545,"i_long":106.811091,"time":8,"is_transit":false,"line":1,"distance":3632},{"distance":2029,"station_id":"KAT","line":1,"station_name":"Karet","i_lat":-6.20132,"is_transit":false,"i_long":106.816351,"time":5,"transit":false},{"transit":false,"time":1,"is_transit":false,"line":1,"i_long":106.819881,"i_lat":-6.201433,"station_id":"SUDB","station_name":"Sudirman Baru","distance":471},{"line":1,"station_name":"Sudirman","time":1,"is_transit":false,"i_lat":-6.202263,"transit":false,"distance":280,"station_id":"SUD","i_long":106.822649},{"station_name":"Manggarai","i_lat":-6.209883,"distance":3186,"is_transit":true,"time":4,"line":2,"station_id":"MRI","transit":true,"i_long":106.84912},{"distance":2610,"is_transit":false,"time":4,"station_id":"TEB","i_lat":-6.226659,"line":2,"i_long":106.857948,"station_name":"Tebet","transit":false},{"transit":false,"is_transit":false,"i_long":106.856607,"station_name":"Cawang","station_id":"CW","line":2,"time":2,"distance":1230,"i_lat":-6.242512},{"time":3,"transit":false,"i_lat":-6.255332,"station_name":"Duren Kalibata","is_transit":false,"i_long":106.85449,"station_id":"DRN","distance":1546,"line":2},{"distance":824,"transit":false,"time":2,"station_id":"PSMB","i_lat":-6.263214,"line":2,"is_transit":false,"station_name":"Pasar Minggu Baru","i_long":106.851577},{"transit":false,"is_transit":false,"i_lat":-6.2842400000000005,"station_id":"PSM","i_long":106.843999,"station_name":"Pasar Minggu","time":2,"line":2,"distance":2380},{"i_lat":-6.3080680000000005,"i_long":106.838896,"time":4,"line":2,"transit":false,"distance":2820,"station_id":"TNT","is_transit":false,"station_name":"Tanjung Barat"},{"i_lat":-6.330363,"is_transit":false,"transit":false,"distance":2671,"time":3,"i_long":106.832616,"station_id":"LNA","line":2,"station_name":"Lenteng Agung"},{"line":2,"i_lat":-6.339291,"transit":false,"i_long":106.834175,"distance":1029,"station_id":"UP","station_name":"Univ. Pancasila","time":2,"is_transit":false},{"i_long":106.831474,"station_id":"UI","transit":false,"distance":2264,"line":2,"is_transit":false,"i_lat":-6.360749,"station_name":"Univ. Indonesia","time":3},{"transit":false,"is_transit":false,"station_name":"Pondok Cina","i_long":106.831114,"distance":1109,"time":2,"station_id":"POC","i_lat":-6.369073,"line":2},{"i_lat":-6.391065,"distance":2727,"line":2,"is_transit":false,"transit":false,"time":4,"i_long":106.819451,"station_name":"Depokbaru","station_id":"DPB"},{"transit":false,"is_transit":false,"time":3,"i_lat":-6.405256,"line":2,"station_id":"DP","i_long":106.816926,"distance":1584,"station_name":"Depok"},{"transit":false,"station_name":"Citayam","time":6,"station_id":"CTA","i_lat":-6.448811,"i_long":106.800298,"line":2,"is_transit":false,"distance":5084}],[{"station_id":"CIT","distance":0,"is_transit":false,"time":0,"i_lat":-6.261877,"transit":false,"station_name":"Cibitung","i_long":107.083084,"line":1},{"i_lat":-6.258864,"i_long":107.055722,"line":1,"is_transit":false,"time":3,"station_name":"Tambun","station_id":"TB","transit":false,"distance":3420},{"time":7,"station_name":"Bekasi Timur","i_lat":-6.248029,"i_long":107.016735,"is_transit":false,"distance":4460,"transit":false,"station_id":"BKST","line":1},{"is_transit":false,"station_name":"Bekasi","time":2,"i_long":106.997013,"station_id":"BKS","transit":false,"distance":2368,"i_lat":-6.236616,"line":1},{"time":4,"i_long":106.977657,"distance":2520,"station_name":"Kranji","transit":false,"station_id":"KRI","i_lat":-6.224515,"line":1,"is_transit":false},{"i_lat":-6.219053,"line":1,"distance":3097,"transit":false,"station_id":"CUK","i_long":106.951283,"station_name":"Cakung","is_transit":false,"time":3},{"distance":1385,"station_name":"Klenderbaru","station_id":"KLDB","is_transit":false,"i_lat":-6.217455,"line":1,"transit":false,"time":8,"i_long":106.939679},{"is_transit":false,"i_lat":-6.215568,"time":1,"distance":1305,"transit":false,"station_id":"BUA","i_long":106.922662,"line":1,"station_name":"Buaran"},{"station_id":"KLD","time":2,"transit":false,"distance":3100,"i_long":106.899548,"is_transit":false,"i_lat":-6.2135,"station_name":"Klender","line":1},{"distance":3395,"station_id":"JNG","transit":true,"i_long":106.86807400000001,"is_transit":true,"time":3,"station_name":"Jatinegara","line":1,"i_lat":-6.215091},{"i_long":106.861737,"line":11,"distance":1236,"is_transit":false,"station_name":"Pondok Jati","time":2,"station_id":"POK","i_lat":-6.209188,"transit":false},{"line":11,"distance":1829,"transit":false,"i_lat":-6.193792,"i_long":106.855437,"time":2,"is_transit":false,"station_name":"Kramat","station_id":"KMT"},{"i_lat":-6.185975,"station_name":"Gang Sentiong","transit":false,"time":1,"distance":973,"is_transit":false,"station_id":"GST","i_long":106.850107,"line":11},{"station_name":"Pasar Senen","station_id":"PSE","distance":1567,"is_transit":false,"transit":false,"time":8,"i_lat":-6.174784,"i_long":106.84368,"line":11},{"distance":1436,"station_id":"KMO","i_long":106.839204,"time":4,"is_transit":false,"transit":false,"i_lat":-6.161728,"station_name":"Kemayoran","line":11},{"distance":1901,"transit":false,"i_long":106.836569,"is_transit":false,"station_name":"Rajawali","i_lat":-6.14505,"station_id":"RJW","line":11,"time":5},{"distance":1444,"is_transit":true,"time":3,"line":4,"transit":true,"station_id":"KPB","station_name":"Kampung Bandan","i_lat":-6.132549,"i_long":106.826365},{"station_id":"JAKK","i_lat":-6.137569,"is_transit":true,"i_long":106.812439,"transit":true,"distance":1364,"station_name":"Jakarta Kota","line":2,"time":3},{"station_id":"JAY","line":2,"is_transit":false,"station_name":"Jayakarta","distance":1264,"time":4,"transit":false,"i_lat":-6.141205,"i_long":106.820901},{"transit":false,"time":2,"i_long":106.82482,"distance":1080,"station_name":"Manggabesar","i_lat":-6.149769,"station_id":"MGB","line":2,"is_transit":false},{"distance":906,"i_lat":-6.160725,"is_transit":false,"station_name":"Sawah Besar","time":2,"i_long":106.827103,"transit":false,"station_id":"SW","line":2},{"time":2,"station_name":"Juanda","distance":1149,"transit":false,"station_id":"JUA","i_long":106.828284,"is_transit":false,"i_lat":-6.166716,"line":2},{"distance":2015,"station_name":"Gondangdia","is_transit":false,"transit":false,"line":2,"station_id":"GDD","i_lat":-6.186295,"time":4,"i_long":106.832183},{"line":2,"transit":false,"distance":1750,"i_long":106.840169,"station_id":"CKI","time":3,"i_lat":-6.198556,"station_name":"Cikini","is_transit":false},{"time":4,"station_id":"MRI","i_lat":-6.209883,"station_name":"Manggarai","i_long":106.84912,"is_transit":false,"transit":false,"line":2,"distance":1590},{"station_name":"Tebet","transit":false,"is_transit":false,"distance":2610,"line":2,"i_lat":-6.226659,"i_long":106.857948,"time":4,"station_id":"TEB"},{"line":2,"station_name":"Cawang","i_long":106.856607,"station_id":"CW","transit":false,"time":2,"distance":1230,"is_transit":false,"i_lat":-6.242512},{"time":3,"station_name":"Duren Kalibata","station_id":"DRN","distance":1546,"is_transit":false,"i_long":106.85449,"i_lat":-6.255332,"line":2,"transit":false},{"line":2,"i_lat":-6.263214,"station_name":"Pasar Minggu Baru","station_id":"PSMB","distance":824,"time":2,"i_long":106.851577,"transit":false,"is_transit":false},{"time":2,"line":2,"i_long":106.843999,"station_name":"Pasar Minggu","station_id":"PSM","i_lat":-6.2842400000000005,"is_transit":false,"distance":2380,"transit":false},{"i_lat":-6.3080680000000005,"i_long":106.838896,"time":4,"station_id":"TNT","line":2,"distance":2820,"is_transit":false,"station_name":"Tanjung Barat","transit":false},{"distance":2671,"is_transit":false,"time":3,"i_lat":-6.330363,"station_id":"LNA","station_name":"Lenteng Agung","i_long":106.832616,"line":2,"transit":false},{"i_lat":-6.339291,"line":2,"transit":false,"station_id":"UP","distance":1029,"time":2,"i_long":106.834175,"is_transit":false,"station_name":"Univ. Pancasila"},{"is_transit":false,"station_name":"Univ. Indonesia","time":3,"station_id":"UI","transit":false,"distance":2264,"i_lat":-6.360749,"line":2,"i_long":106.831474},{"i_long":106.831114,"i_lat":-6.369073,"station_id":"POC","transit":false,"line":2,"time":2,"is_transit":false,"station_name":"Pondok Cina","distance":1109},{"distance":2727,"station_name":"Depokbaru","time":4,"transit":false,"is_transit":false,"station_id":"DPB","i_long":106.819451,"line":2,"i_lat":-6.391065},{"time":3,"station_id":"DP","distance":1584,"is_transit":false,"station_name":"Depok","line":2,"i_lat":-6.405256,"transit":false,"i_long":106.816926},{"station_id":"CTA","time":6,"is_transit":false,"station_name":"Citayam","i_long":106.800298,"line":2,"distance":5084,"transit":false,"i_lat":-6.448811}]]}