{"data":[[{"station_name":"Cibitung","is_transit":false,"time":0,"distance":0,"line":1,"transit":false,"i_lat":-6.261877,"i_long":107.083084,"station_id":"CIT"},{"is_transit":false,"station_name":"Tambun","i_lat":-6.258864,"i_long":107.055722,"time":3,"station_id":"TB","transit":false,"line":1,"distance":3420},{"transit":false,"distance":4460,"station_name":"Bekasi Timur","is_transit":false,"i_long":107.016735,"station_id":"BKST","time":7,"i_lat":-6.248029,"line":1},{"i_long":106.997013,"is_transit":false,"time":2,"station_name":"Bekasi","station_id":"BKS","i_lat":-6.236616,"line":1,"distance":2368,"transit":false},{"distance":2520,"is_transit":false,"time":4,"transit":false,"station_name":"Kranji","i_long":106.977657,"line":1,"station_id":"KRI","i_lat":-6.224515},{"i_lat":-6.219053,"i_long":106.951283,"line":1,"distance":3097,"station_id":"CUK","time":3,"station_name":"Cakung","is_transit":false,"transit":false},{"i_long":106.939679,"is_transit":false,"line":1,"transit":false,"distance":1385,"station_id":"KLDB","station_name":"Klenderbaru","i_lat":-6.217455,"time":8},{"time":1,"line":1,"transit":false,"station_name":"Buaran","station_id":"BUA","i_long":106.922662,"i_lat":-6.215568,"distance":1305,"is_transit":false},{"station_id":"KLD","time":2,"i_long":106.899548,"is_transit":false,"i_lat":-6.2135,"transit":false,"line":1,"station_name":"Klender","distance":3100},{"transit":true,"station_name":"Jatinegara","station_id":"JNG","i_long":106.86807400000001,"line":1,"time":3,"distance":3395,"is_transit":true,"i_lat":-6.215091},{"station_name":"Pondok Jati","i_lat":-6.209188,"distance":1236,"time":2,"i_long":106.861737,"is_transit":false,"line":11,"transit":false,"station_id":"POK"}],[{"distance":0,"transit":false,"is_transit":false,"station_id":"CIT","station_name":"Cibitung","i_lat":-6.261877,"line":1,"i_long":107.083084,"time":0},{"is_transit":false,"station_name":"Tambun","station_id":"TB","transit":false,"time":3,"i_lat":-6.258864,"line":1,"distance":3420,"i_long":107.055722},{"is_transit":false,"transit":false,"distance":4460,"station_name":"Bekasi Timur","i_lat":-6.248029,"station_id":"BKST","line":1,"time":7,"i_long":107.016735},{"i_lat":-6.236616,"line":1,"i_long":106.997013,"distance":2368,"station_id":"BKS","transit":false,"is_transit":false,"station_name":"Bekasi","time":2},{"distance":2520,"i_lat":-6.224515,"transit":false,"i_long":106.977657,"is_transit":false,"station_id":"KRI","time":4,"station_name":"Kranji","line":1},{"i_long":106.951283,"distance":3097,"line":1,"is_transit":false,"i_lat":-6.219053,"time":3,"transit":false,"station_id":"CUK","station_name":"Cakung"},{"station_id":"KLDB","distance":1385,"transit":false,"station_name":"Klenderbaru","i_long":106.939679,"i_lat":-6.217455,"is_transit":false,"line":1,"time":8},{"distance":1305,"is_transit":false,"station_id":"BUA","time":1,"station_name":"Buaran","i_lat":-6.215568,"line":1,"i_long":106.922662,"transit":false},{"i_lat":-6.2135,"transit":false,"is_transit":false,"i_long":106.899548,"line":1,"station_id":"KLD","distance":3100,"time":2,"station_name":"Klender"},{"is_transit":false,"distance":3395,"i_lat":-6.215091,"line":1,"time":3,"i_long":106.86807400000001,"transit":false,"station_id":"JNG","station_name":"Jatinegara"},{"is_transit":false,"time":2,"transit":false,"distance":1377,"line":1,"station_id":"MTR","i_lat":-6.212485,"i_long":106.858896,"station_name":"Matraman"},{"line":2,"is_transit":false,"time":2,"i_long":106.84912,"station_name":"Manggarai","i_lat":-6.209883,"station_id":"MRI","transit":false,"distance":1275},{"transit":false,"i_long":106.822649,"i_lat":-6.202263,"station_name":"Sudirman","is_transit":false,"line":1,"distance":3186,"time":4,"station_id":"SUD"},{"line":1,"is_transit":false,"transit":false,"station_name":"Sudirman Baru","distance":280,"time":1,"i_long":106.819881,"i_lat":-6.201433,"station_id":"SUDB"},{"station_id":"KAT","i_long":106.816351,"time":1,"station_name":"Karet","line":1,"distance":471,"transit":false,"i_lat":-6.20132,"is_transit":false},{"distance":2029,"transit":false,"is_transit":false,"time":5,"station_name":"Tanah Abang","i_lat":-6.185545,"i_long":106.811091,"station_id":"THB","line":1},{"station_name":"Duri","distance":3632,"line":1,"transit":false,"is_transit":false,"station_id":"DU","time":8,"i_lat":-6.155215,"i_long":106.800832},{"distance":1230,"is_transit":false,"station_id":"AK","time":4,"i_lat":-6.144674,"line":1,"transit":false,"station_name":"Angke","i_long":106.79867},{"time":9,"i_long":106.826365,"transit":true,"station_name":"Kampung Bandan","is_transit":true,"i_lat":-6.132549,"line":4,"station_id":"KPB","distance":4102},{"i_lat":-6.14505,"time":3,"i_long":106.836569,"distance":1444,"transit":false,"is_transit":false,"station_id":"RJW","station_name":"Rajawali","line":11},{"i_long":106.839204,"time":5,"station_name":"Kemayoran","distance":1901,"is_transit":false,"station_id":"KMO","i_lat":-6.161728,"line":11,"transit":false},{"i_lat":-6.174784,"station_id":"PSE","time":4,"i_long":106.84368,"station_name":"Pasar Senen","distance":1436,"line":11,"transit":false,"is_transit":false},{"station_id":"GST","station_name":"Gang Sentiong","distance":1567,"time":8,"i_long":106.850107,"is_transit":false,"transit":false,"i_lat":-6.185975,"line":11},{"transit":false,"distance":973,"station_name":"Kramat","i_lat":-6.193792,"i_long":106.855437,"is_transit":false,"line":11,"station_id":"KMT","time":1},{"station_name":"Pondok Jati","i_long":106.861737,"is_transit":false,"transit":false,"distance":1829,"station_id":"POK","time":2,"line":11,"i_lat":-6.209188}],[{"is_transit":false,"time":0,"transit":false,"line":1,"i_lat":-6.261877,"station_name":"Cibitung","distance":0,"i_long":107.083084,"station_id":"CIT"},{"station_name":"Tambun","line":1,"distance":3420,"time":3,"station_id":"TB","i_long":107.055722,"transit":false,"is_transit":false,"i_lat":-6.258864},{"transit":false,"time":7,"station_id":"BKST","station_name":"Bekasi Timur","i_lat":-6.248029,"is_transit":false,"i_long":107.016735,"line":1,"distance":4460},{"is_transit":false,"i_lat":-6.236616,"i_long":106.997013,"time":2,"station_id":"BKS","distance":2368,"station_name":"Bekasi","transit":false,"line":1},{"i_lat":-6.224515,"station_name":"Kranji","transit":false,"time":4,"distance":2520,"line":1,"is_transit":false,"station_id":"KRI","i_long":106.977657},{"i_lat":-6.219053,"i_long":106.951283,"station_name":"Cakung","is_transit":false,"time":3,"line":1,"transit":false,"distance":3097,"station_id":"CUK"},{"is_transit":false,"time":8,"station_name":"Klenderbaru","i_long":106.939679,"line":1,"i_lat":-6.217455,"distance":1385,"station_id":"KLDB","transit":false},{"distance":1305,"station_id":"BUA","station_name":"Buaran","is_transit":false,"i_lat":-6.215568,"time":1,"i_long":106.922662,"transit":false,"line":1},{"transit":false,"distance":3100,"is_transit":false,"station_name":"Klender","i_lat":-6.2135,"time":2,"i_long":106.899548,"line":1,"station_id":"KLD"},{"i_lat":-6.215091,"station_name":"Jatinegara","station_id":"JNG","line":1,"is_transit":false,"i_long":106.86807400000001,"time":3,"transit":false,"distance":3395},{"i_lat":-6.212485,"distance":1377,"transit":false,"i_long":106.858896,"time":2,"station_id":"MTR","is_transit":false,"station_name":"Matraman","line":1},{"i_long":106.84912,"distance":1275,"is_transit":true,"i_lat":-6.209883,"station_name":"Manggarai","station_id":"MRI","transit":true,"time":2,"line":2},{"station_name":"Cikini","line":2,"i_long":106.840169,"time":4,"i_lat":-6.198556,"distance":1590,"is_transit":false,"transit":false,"station_id":"CKI"},{"i_long":106.832183,"transit":false,"station_name":"Gondangdia","distance":1750,"i_lat":-6.186295,"line":2,"station_id":"GDD","is_transit":false,"time":3},{"transit":false,"i_lat":-6.166716,"is_transit":false,"distance":2015,"i_long":106.828284,"line":2,"station_id":"JUA","station_name":"Juanda","time":4},{"line":2,"i_long":106.827103,"distance":1149,"i_lat":-6.160725,"is_transit":false,"time":2,"station_id":"SW","station_name":"Sawah Besar","transit":false},{"time":2,"station_id":"MGB","i_long":106.82482,"distance":906,"transit":false,"station_name":"Manggabesar","i_lat":-6.149769,"is_transit":false,"line":2},{"i_lat":-6.141205,"transit":false,"is_transit":false,"station_id":"JAY","time":2,"i_long":106.820901,"station_name":"Jayakarta","line":2,"distance":1080},{"station_name":"Jakarta Kota","line":2,"i_long":106.812439,"station_id":"JAKK","is_transit":true,"i_lat":-6.137569,"transit":true,"distance":1264,"time":4},{"i_lat":-6.132549,"transit":true,"is_transit":true,"station_id":"KPB","i_long":106.826365,"time":3,"line":4,"distance":1364,"station_name":"Kampung Bandan"},{"is_transit":false,"distance":1444,"station_name":"Rajawali","line":11,"time":3,"i_long":106.836569,"station_id":"RJW","i_lat":-6.14505,"transit":false},{"i_long":106.839204,"line":11,"station_name":"Kemayoran","i_lat":-6.161728,"distance":1901,"transit":false,"is_transit":false,"station_id":"KMO","time":5},{"i_lat":-6.174784,"time":4,"station_name":"Pasar Senen","is_transit":false,"distance":1436,"i_long":106.84368,"transit":false,"station_id":"PSE","line":11},{"distance":1567,"is_transit":false,"transit":false,"station_name":"Gang Sentiong","i_long":106.850107,"station_id":"GST","time":8,"line":11,"i_lat":-6.185975},{"distance":973,"line":11,"transit":false,"station_id":"KMT","station_name":"Kramat","is_transit":false,"time":1,"i_lat":-6.193792,"i_long":106.855437},{"transit":false,"i_lat":-6.209188,"i_long":106.861737,"station_name":"Pondok Jati","is_transit":false,"station_id":"POK","time":2,"distance":1829,"line":11}]]}