{"data":[[{"distance":0,"station_id":"CIT","is_transit":false,"station_name":"Cibitung","i_lat":-6.261877,"i_long":107.083084,"time":0,"transit":false,"line":1},{"distance":3420,"i_lat":-6.258864,"station_name":"Tambun","line":1,"time":3,"station_id":"TB","is_transit":false,"i_long":107.055722,"transit":false},{"distance":4460,"i_lat":-6.248029,"station_id":"BKST","is_transit":false,"time":7,"station_name":"Bekasi Timur","transit":false,"i_long":107.016735,"line":1},{"station_name":"Bekasi","transit":false,"is_transit":false,"i_lat":-6.236616,"i_long":106.997013,"time":2,"distance":2368,"station_id":"BKS","line":1},{"transit":false,"station_id":"KRI","line":1,"time":4,"is_transit":false,"i_long":106.977657,"distance":2520,"i_lat":-6.224515,"station_name":"Kranji"},{"time":3,"is_transit":false,"i_long":106.951283,"i_lat":-6.219053,"transit":false,"distance":3097,"station_id":"CUK","station_name":"Cakung","line":1},{"station_id":"KLDB","line":1,"station_name":"Klenderbaru","distance":1385,"transit":false,"is_transit":false,"i_lat":-6.217455,"time":8,"i_long":106.939679},{"time":1,"line":1,"station_id":"BUA","is_transit":false,"transit":false,"station_name":"Buaran","i_lat":-6.215568,"distance":1305,"i_long":106.922662},{"distance":3100,"time":2,"transit":false,"is_transit":false,"station_id":"KLD","station_name":"Klender","i_lat":-6.2135,"i_long":106.899548,"line":1},{"i_long":106.86807400000001,"line":1,"i_lat":-6.215091,"distance":3395,"station_id":"JNG","time":3,"station_name":"Jatinegara","is_transit":false,"transit":false},{"distance":1377,"station_name":"Matraman","is_transit":false,"line":1,"station_id":"MTR","time":2,"i_lat":-6.212485,"transit":false,"i_long":106.858896},{"station_id":"MRI","line":2,"distance":1275,"is_transit":true,"station_name":"Manggarai","i_lat":-6.209883,"time":2,"i_long":106.84912,"transit":true},{"line":2,"i_long":106.857948,"station_id":"TEB","transit":false,"station_name":"Tebet","time":4,"distance":2610,"is_transit":false,"i_lat":-6.226659},{"transit":false,"i_lat":-6.242512,"station_name":"Cawang","time":2,"is_transit":false,"i_long":106.856607,"line":2,"distance":1230,"station_id":"CW"},{"time":3,"transit":false,"i_long":106.85449,"distance":1546,"station_id":"DRN","is_transit":false,"station_name":"Duren Kalibata","i_lat":-6.255332,"line":2},{"i_lat":-6.263214,"i_long":106.851577,"line":2,"time":2,"station_name":"Pasar Minggu Baru","distance":824,"station_id":"PSMB","is_transit":false,"transit":false},{"station_id":"PSM","time":2,"station_name":"Pasar Minggu","distance":2380,"transit":false,"i_lat":-6.2842400000000005,"is_transit":false,"i_long":106.843999,"line":2},{"is_transit":false,"time":4,"station_id":"TNT","line":2,"i_lat":-6.3080680000000005,"station_name":"Tanjung Barat","distance":2820,"transit":false,"i_long":106.838896},{"i_long":106.832616,"transit":false,"station_name":"Lenteng Agung","line":2,"station_id":"LNA","distance":2671,"time":3,"i_lat":-6.330363,"is_transit":false},{"station_name":"Univ. Pancasila","line":2,"i_lat":-6.339291,"time":2,"i_long":106.834175,"transit":false,"is_transit":false,"distance":1029,"station_id":"UP"},{"i_lat":-6.360749,"station_id":"UI","is_transit":false,"transit":false,"i_long":106.831474,"time":3,"distance":2264,"station_name":"Univ. Indonesia","line":2},{"time":2,"transit":false,"distance":1109,"station_id":"POC","i_long":106.831114,"line":2,"station_name":"Pondok Cina","is_transit":false,"i_lat":-6.369073},{"time":4,"station_id":"DPB","station_name":"Depokbaru","line":2,"transit":false,"i_lat":-6.391065,"distance":2727,"i_long":106.819451,"is_transit":false},{"is_transit":false,"time":3,"transit":false,"station_id":"DP","i_lat":-6.405256,"line":2,"i_long":106.816926,"distance":1584,"station_name":"Depok"},{"transit":true,"is_transit":true,"station_id":"CTA","station_name":"Citayam","i_long":106.800298,"line":2,"distance":5084,"time":6,"i_lat":-6.448811},{"transit":false,"distance":0,"is_transit":false,"station_id":"PDRG","i_lat":-6.460735,"time":0,"i_long":106.824374,"line":21,"station_name":"Pondok Rajeg"}],[{"distance":0,"station_name":"Cibitung","time":0,"transit":false,"i_lat":-6.261877,"i_long":107.083084,"is_transit":false,"line":1,"station_id":"CIT"},{"station_id":"TB","line":1,"distance":3420,"transit":false,"i_long":107.055722,"station_name":"Tambun","time":3,"is_transit":false,"i_lat":-6.258864},{"i_long":107.016735,"station_id":"BKST","transit":false,"station_name":"Bekasi Timur","i_lat":-6.248029,"is_transit":false,"time":7,"line":1,"distance":4460},{"station_id":"BKS","is_transit":false,"line":1,"i_lat":-6.236616,"distance":2368,"time":2,"station_name":"Bekasi","transit":false,"i_long":106.997013},{"transit":false,"distance":2520,"station_name":"Kranji","i_long":106.977657,"line":1,"is_transit":false,"station_id":"KRI","i_lat":-6.224515,"time":4},{"is_transit":false,"i_long":106.951283,"distance":3097,"station_name":"Cakung","time":3,"transit":false,"station_id":"CUK","i_lat":-6.219053,"line":1},{"time":8,"distance":1385,"station_name":"Klenderbaru","i_lat":-6.217455,"station_id":"KLDB","i_long":106.939679,"is_transit":false,"line":1,"transit":false},{"i_long":106.922662,"transit":false,"i_lat":-6.215568,"station_name":"Buaran","time":1,"station_id":"BUA","line":1,"is_transit":false,"distance":1305},{"distance":3100,"station_id":"KLD","line":1,"time":2,"i_lat":-6.2135,"transit":false,"is_transit":false,"station_name":"Klender","i_long":106.899548},{"station_name":"Jatinegara","time":3,"distance":3395,"station_id":"JNG","i_lat":-6.215091,"i_long":106.86807400000001,"transit":true,"line":1,"is_transit":true},{"i_long":106.861737,"station_id":"POK","station_name":"Pondok Jati","is_transit":false,"time":2,"transit":false,"i_lat":-6.209188,"line":11,"distance":1236},{"is_transit":false,"time":2,"transit":false,"distance":1829,"station_id":"KMT","i_lat":-6.193792,"station_name":"Kramat","i_long":106.855437,"line":11},{"i_long":106.850107,"line":11,"station_name":"Gang Sentiong","time":1,"transit":false,"station_id":"GST","is_transit":false,"distance":973,"i_lat":-6.185975},{"station_name":"Pasar Senen","i_lat":-6.174784,"line":11,"is_transit":false,"station_id":"PSE","i_long":106.84368,"time":8,"transit":false,"distance":1567},{"is_transit":false,"distance":1436,"station_id":"KMO","station_name":"Kemayoran","time":4,"i_lat":-6.161728,"transit":false,"i_long":106.839204,"line":11},{"time":5,"station_name":"Rajawali","transit":false,"i_long":106.836569,"i_lat":-6.14505,"distance":1901,"is_transit":false,"station_id":"RJW","line":11},{"line":4,"station_id":"KPB","is_transit":true,"time":3,"transit":true,"distance":1444,"i_lat":-6.132549,"station_name":"Kampung Bandan","i_long":106.826365},{"time":9,"transit":false,"is_transit":false,"station_id":"AK","i_lat":-6.144674,"distance":4102,"i_long":106.79867,"line":1,"station_name":"Angke"},{"distance":1230,"time":4,"station_id":"DU","i_long":106.800832,"is_transit":false,"line":1,"i_lat":-6.155215,"station_name":"Duri","transit":false},{"is_transit":false,"time":8,"station_name":"Tanah Abang","station_id":"THB","distance":3632,"i_lat":-6.185545,"line":1,"i_long":106.811091,"transit":false},{"i_lat":-6.20132,"line":1,"i_long":106.816351,"transit":false,"station_name":"Karet","distance":2029,"is_transit":false,"time":5,"station_id":"KAT"},{"time":1,"transit":false,"i_lat":-6.201433,"station_name":"Sudirman Baru","i_long":106.819881,"station_id":"SUDB","line":1,"is_transit":false,"distance":471},{"line":1,"distance":280,"transit":false,"station_name":"Sudirman","station_id":"SUD","i_lat":-6.202263,"i_long":106.822649,"is_transit":false,"time":1},{"is_transit":true,"i_lat":-6.209883,"station_name":"Manggarai","time":4,"transit":true,"station_id":"MRI","i_long":106.84912,"line":2,"distance":3186},{"is_transit":false,"station_id":"TEB","station_name":"Tebet","i_long":106.857948,"line":2,"time":4,"distance":2610,"transit":false,"i_lat":-6.226659},{"transit":false,"is_transit":false,"line":2,"distance":1230,"time":2,"station_name":"Cawang","station_id":"CW","i_lat":-6.242512,"i_long":106.856607},{"transit":false,"i_lat":-6.255332,"time":3,"line":2,"station_id":"DRN","distance":1546,"is_transit":false,"station_name":"Duren Kalibata","i_long":106.85449},{"i_lat":-6.263214,"line":2,"i_long":106.851577,"time":2,"transit":false,"station_id":"PSMB","is_transit":false,"distance":824,"station_name":"Pasar Minggu Baru"},{"i_lat":-6.2842400000000005,"distance":2380,"time":2,"station_name":"Pasar Minggu","transit":false,"is_transit":false,"station_id":"PSM","i_long":106.843999,"line":2},{"time":4,"distance":2820,"i_long":106.838896,"i_lat":-6.3080680000000005,"line":2,"transit":false,"station_id":"TNT","station_name":"Tanjung Barat","is_transit":false},{"is_transit":false,"time":3,"transit":false,"station_id":"LNA","line":2,"i_long":106.832616,"i_lat":-6.330363,"station_name":"Lenteng Agung","distance":2671},{"is_transit":false,"transit":false,"i_long":106.834175,"i_lat":-6.339291,"time":2,"line":2,"station_id":"UP","station_name":"Univ. Pancasila","distance":1029},{"time":3,"is_transit":false,"station_name":"Univ. Indonesia","distance":2264,"transit":false,"station_id":"UI","i_lat":-6.360749,"i_long":106.831474,"line":2},{"line":2,"i_long":106.831114,"distance":1109,"station_name":"Pondok Cina","transit":false,"time":2,"station_id":"POC","is_transit":false,"i_lat":-6.369073},{"time":4,"station_id":"DPB","is_transit":false,"i_lat":-6.391065,"station_name":"Depokbaru","transit":false,"line":2,"i_long":106.819451,"distance":2727},{"time":3,"is_transit":false,"station_id":"DP","station_name":"Depok","transit":false,"i_lat":-6.405256,"i_long":106.816926,"line":2,"distance":1584},{"time":6,"station_id":"CTA","distance":5084,"station_name":"Citayam","transit":true,"i_lat":-6.448811,"line":2,"is_transit":true,"i_long":106.800298},{"i_long":106.824374,"distance":0,"i_lat":-6.460735,"is_transit":false,"transit":false,"station_name":"Pondok Rajeg","line":21,"station_id":"PDRG","time":0}],[{"station_name":"Cibitung","i_lat":-6.261877,"is_transit":false,"time":0,"transit":false,"distance":0,"station_id":"CIT","i_long":107.083084,"line":1},{"time":3,"i_long":107.055722,"station_name":"Tambun","distance":3420,"station_id":"TB","i_lat":-6.258864,"transit":false,"is_transit":false,"line":1},{"transit":false,"station_name":"Bekasi Timur","station_id":"BKST","i_lat":-6.248029,"i_long":107.016735,"line":1,"time":7,"is_transit":false,"distance":4460},{"transit":false,"time":2,"station_name":"Bekasi","station_id":"BKS","i_lat":-6.236616,"i_long":106.997013,"line":1,"distance":2368,"is_transit":false},{"line":1,"i_long":106.977657,"distance":2520,"i_lat":-6.224515,"is_transit":false,"time":4,"station_name":"Kranji","transit":false,"station_id":"KRI"},{"station_id":"CUK","line":1,"i_lat":-6.219053,"station_name":"Cakung","distance":3097,"time":3,"is_transit":false,"transit":false,"i_long":106.951283},{"line":1,"transit":false,"i_long":106.939679,"station_name":"Klenderbaru","distance":1385,"is_transit":false,"time":8,"i_lat":-6.217455,"station_id":"KLDB"},{"station_name":"Buaran","station_id":"BUA","distance":1305,"i_long":106.922662,"time":1,"i_lat":-6.215568,"line":1,"transit":false,"is_transit":false},{"station_name":"Klender","line":1,"time":2,"station_id":"KLD","i_lat":-6.2135,"distance":3100,"i_long":106.899548,"is_transit":false,"transit":false},{"distance":3395,"transit":true,"is_transit":true,"station_id":"JNG","i_lat":-6.215091,"i_long":106.86807400000001,"station_name":"Jatinegara","line":1,"time":3},{"time":2,"distance":1236,"line":11,"is_transit":false,"i_lat":-6.209188,"i_long":106.861737,"transit":false,"station_id":"POK","station_name":"Pondok Jati"},{"distance":1829,"time":2,"station_name":"Kramat","i_long":106.855437,"transit":false,"is_transit":false,"station_id":"KMT","i_lat":-6.193792,"line":11},{"is_transit":false,"transit":false,"i_lat":-6.185975,"station_id":"GST","i_long":106.850107,"distance":973,"line":11,"time":1,"station_name":"Gang Sentiong"},{"distance":1567,"station_name":"Pasar Senen","is_transit":false,"time":8,"transit":false,"i_lat":-6.174784,"i_long":106.84368,"line":11,"station_id":"PSE"},{"is_transit":false,"i_lat":-6.161728,"i_long":106.839204,"distance":1436,"station_name":"Kemayoran","transit":false,"line":11,"station_id":"KMO","time":4},{"station_name":"Rajawali","is_transit":false,"i_long":106.836569,"station_id":"RJW","time":5,"distance":1901,"i_lat":-6.14505,"line":11,"transit":false},{"is_transit":true,"station_id":"KPB","transit":true,"i_lat":-6.132549,"distance":1444,"station_name":"Kampung Bandan","time":3,"i_long":106.826365,"line":4},{"is_transit":true,"line":2,"station_name":"Jakarta Kota","distance":1364,"i_lat":-6.137569,"station_id":"JAKK","time":3,"i_long":106.812439,"transit":true},{"is_transit":false,"i_lat":-6.141205,"line":2,"transit":false,"time":4,"distance":1264,"station_id":"JAY","i_long":106.820901,"station_name":"Jayakarta"},{"station_id":"MGB","is_transit":false,"transit":false,"line":2,"station_name":"Manggabesar","time":2,"distance":1080,"i_long":106.82482,"i_lat":-6.149769},{"time":2,"is_transit":false,"distance":906,"transit":false,"i_lat":-6.160725,"i_long":106.827103,"station_id":"SW","station_name":"Sawah Besar","line":2},{"station_id":"JUA","distance":1149,"is_transit":false,"transit":false,"station_name":"Juanda","i_long":106.828284,"line":2,"time":2,"i_lat":-6.166716},{"transit":false,"station_name":"Gondangdia","i_lat":-6.186295,"is_transit":false,"distance":2015,"time":4,"station_id":"GDD","i_long":106.832183,"line":2},{"i_lat":-6.198556,"station_id":"CKI","i_long":106.840169,"is_transit":false,"line":2,"distance":1750,"time":3,"station_name":"Cikini","transit":false},{"transit":false,"station_id":"MRI","line":2,"station_name":"Manggarai","time":4,"i_lat":-6.209883,"distance":1590,"is_transit":false,"i_long":106.84912},{"station_name":"Tebet","i_long":106.857948,"i_lat":-6.226659,"line":2,"station_id":"TEB","time":4,"transit":false,"distance":2610,"is_transit":false},{"distance":1230,"transit":false,"i_long":106.856607,"time":2,"is_transit":false,"i_lat":-6.242512,"station_id":"CW","station_name":"Cawang","line":2},{"station_name":"Duren Kalibata","is_transit":false,"distance":1546,"transit":false,"time":3,"station_id":"DRN","i_lat":-6.255332,"line":2,"i_long":106.85449},{"distance":824,"station_id":"PSMB","time":2,"is_transit":false,"station_name":"Pasar Minggu Baru","transit":false,"i_lat":-6.263214,"i_long":106.851577,"line":2},{"station_name":"Pasar Minggu","i_long":106.843999,"transit":false,"time":2,"i_lat":-6.2842400000000005,"station_id":"PSM","distance":2380,"line":2,"is_transit":false},{"i_lat":-6.3080680000000005,"transit":false,"distance":2820,"station_id":"TNT","line":2,"station_name":"Tanjung Barat","time":4,"i_long":106.838896,"is_transit":false},{"line":2,"distance":2671,"station_id":"LNA","is_transit":false,"time":3,"station_name":"Lenteng Agung","transit":false,"i_lat":-6.330363,"i_long":106.832616},{"line":2,"transit":false,"i_long":106.834175,"time":2,"is_transit":false,"station_name":"Univ. Pancasila","distance":1029,"i_lat":-6.339291,"station_id":"UP"},{"distance":2264,"station_name":"Univ. Indonesia","i_lat":-6.360749,"i_long":106.831474,"line":2,"station_id":"UI","transit":false,"time":3,"is_transit":false},{"station_id":"POC","station_name":"Pondok Cina","i_long":106.831114,"is_transit":false,"distance":1109,"transit":false,"line":2,"time":2,"i_lat":-6.369073},{"station_id":"DPB","i_long":106.819451,"time":4,"station_name":"Depokbaru","transit":false,"i_lat":-6.391065,"line":2,"distance":2727,"is_transit":false},{"station_name":"Depok","line":2,"distance":1584,"station_id":"DP","i_long":106.816926,"transit":false,"i_lat":-6.405256,"is_transit":false,"time":3},{"i_long":106.800298,"line":2,"station_name":"Citayam","transit":true,"is_transit":true,"station_id":"CTA","i_lat":-6.448811,"time":6,"distance":5084},{"station_id":"PDRG","transit":false,"station_name":"Pondok Rajeg","is_transit":false,"distance":0,"i_long":106.824374,"line":21,"i_lat":-6.460735,"time":0}]]}