{"data":[[{"line":0,"i_lat":-6.261877,"station_id":"CIT","is_transit":false,"distance":0,"transit":false,"time":0,"station_name":"Cibitung","i_long":107.083084},{"is_transit":false,"i_long":107.055722,"i_lat":-6.258864,"line":1,"station_name":"Tambun","distance":3420,"station_id":"TB","time":3,"transit":false},{"is_transit":false,"station_name":"Bekasi Timur","i_lat":-6.248029,"i_long":107.016735,"transit":false,"line":0,"station_id":"BKST","time":7,"distance":4460},{"station_name":"Bekasi","station_id":"BKS","is_transit":false,"i_lat":-6.236616,"transit":false,"i_long":106.997013,"distance":2368,"time":2,"line":0},{"time":4,"station_id":"KRI","i_lat":-6.224515,"line":1,"is_transit":false,"distance":2520,"transit":false,"i_long":106.977657,"station_name":"Kranji"},{"i_lat":-6.219053,"time":3,"line":0,"is_transit":false,"station_name":"Cakung","i_long":106.951283,"station_id":"CUK","transit":false,"distance":3097},{"i_lat":-6.217455,"time":8,"i_long":106.939679,"line":1,"is_transit":false,"distance":1385,"transit":false,"station_id":"KLDB","station_name":"Klenderbaru"},{"i_long":106.922662,"station_id":"BUA","station_name":"Buaran","is_transit":false,"time":1,"transit":false,"distance":1305,"i_lat":-6.215568,"line":0},{"line":1,"station_id":"KLD","transit":false,"distance":3100,"i_long":106.899548,"i_lat":-6.2135,"station_name":"Klender","time":2,"is_transit":false},{"station_name":"Jatinegara","station_id":"JNG","i_long":106.86807400000001,"line":0,"transit":false,"is_transit":true,"distance":3395,"time":3,"i_lat":-6.215091},{"distance":1377,"transit":false,"station_id":"MTR","time":2,"line":1,"is_transit":false,"i_lat":-6.212485,"i_long":106.858896,"station_name":"Matraman"},{"distance":1275,"transit":false,"i_long":106.84912,"line":0,"station_id":"MRI","is_transit":true,"time":2,"station_name":"Manggarai","i_lat":-6.209883},{"i_long":106.822649,"station_id":"SUD","is_transit":false,"i_lat":-6.202263,"line":1,"station_name":"Sudirman","time":4,"transit":false,"distance":3186},{"station_name":"Sudirman Baru","station_id":"SUDB","time":1,"transit":false,"i_long":106.819881,"is_transit":false,"distance":280,"line":1,"i_lat":-6.201433},{"distance":471,"i_long":106.816351,"line":1,"is_transit":false,"station_id":"KAT","time":1,"station_name":"Karet","transit":false,"i_lat":-6.20132},{"transit":true,"distance":2029,"station_id":"THB","i_long":106.811091,"line":1,"is_transit":true,"i_lat":-6.185545,"time":5,"station_name":"Tanah Abang"},{"line":6,"i_lat":-6.207404,"station_id":"PLM","i_long":106.79689,"transit":false,"is_transit":false,"time":6,"distance":3191,"station_name":"Palmerah"},{"station_id":"KBY","i_lat":-6.237242,"line":6,"time":7,"distance":3737,"station_name":"Kebayoran","is_transit":false,"transit":false,"i_long":106.780334},{"transit":false,"line":6,"time":8,"station_name":"Pondokranji","i_lat":-6.276362,"is_transit":false,"station_id":"PDJ","i_long":106.74273,"distance":6218},{"distance":2179,"i_long":106.728916,"line":6,"station_id":"JMU","transit":false,"time":3,"is_transit":false,"station_name":"Jurangmangu","i_lat":-6.288927},{"i_long":106.712277,"is_transit":false,"transit":false,"time":4,"station_name":"Sudimara","i_lat":-6.296963,"distance":1994,"station_id":"SDM","line":6},{"station_name":"Rawa Buntu","is_transit":false,"transit":false,"distance":4566,"time":6,"line":6,"station_id":"RU","i_lat":-6.314823,"i_long":106.675475},{"distance":2413,"station_name":"Serpong","line":6,"station_id":"SRP","is_transit":false,"time":4,"i_long":106.66566,"i_lat":-6.319871,"transit":false},{"i_long":106.640411,"station_name":"Cisauk","distance":1784,"is_transit":false,"transit":false,"time":4,"line":0,"station_id":"CSK","i_lat":-6.32484}],[{"station_id":"CIT","transit":false,"i_lat":-6.261877,"i_long":107.083084,"time":0,"line":0,"distance":0,"station_name":"Cibitung","is_transit":false},{"line":1,"station_id":"TB","transit":false,"time":3,"is_transit":false,"distance":3420,"station_name":"Tambun","i_long":107.055722,"i_lat":-6.258864},{"i_long":107.016735,"transit":false,"line":0,"i_lat":-6.248029,"station_name":"Bekasi Timur","is_transit":false,"station_id":"BKST","distance":4460,"time":7},{"distance":2368,"time":2,"station_id":"BKS","i_long":106.997013,"transit":false,"is_transit":false,"i_lat":-6.236616,"station_name":"Bekasi","line":0},{"station_name":"Kranji","line":1,"transit":false,"i_long":106.977657,"i_lat":-6.224515,"is_transit":false,"time":4,"distance":2520,"station_id":"KRI"},{"station_name":"Cakung","i_lat":-6.219053,"line":0,"transit":false,"time":3,"is_transit":false,"station_id":"CUK","distance":3097,"i_long":106.951283},{"distance":1385,"i_lat":-6.217455,"i_long":106.939679,"transit":false,"is_transit":false,"station_name":"Klenderbaru","line":1,"station_id":"KLDB","time":8},{"transit":false,"time":1,"distance":1305,"line":0,"is_transit":false,"station_id":"BUA","station_name":"Buaran","i_lat":-6.215568,"i_long":106.922662},{"station_id":"KLD","distance":3100,"station_name":"Klender","time":2,"i_lat":-6.2135,"line":1,"transit":false,"is_transit":false,"i_long":106.899548},{"i_long":106.86807400000001,"station_id":"JNG","distance":3395,"i_lat":-6.215091,"is_transit":true,"transit":true,"time":3,"line":0,"station_name":"Jatinegara"},{"time":2,"i_long":106.861737,"i_lat":-6.209188,"line":11,"distance":1236,"station_name":"Pondok Jati","transit":false,"station_id":"POK","is_transit":false},{"station_name":"Kramat","transit":false,"station_id":"KMT","is_transit":false,"time":2,"i_lat":-6.193792,"distance":1829,"i_long":106.855437,"line":11},{"transit":false,"distance":973,"is_transit":false,"station_name":"Gang Sentiong","i_long":106.850107,"i_lat":-6.185975,"line":11,"time":1,"station_id":"GST"},{"transit":false,"time":8,"distance":1567,"line":11,"is_transit":false,"station_name":"Pasar Senen","station_id":"PSE","i_long":106.84368,"i_lat":-6.174784},{"is_transit":false,"i_long":106.839204,"transit":false,"i_lat":-6.161728,"station_id":"KMO","station_name":"Kemayoran","time":4,"line":11,"distance":1436},{"is_transit":false,"transit":false,"distance":1901,"time":5,"station_name":"Rajawali","i_lat":-6.14505,"i_long":106.836569,"station_id":"RJW","line":11},{"i_lat":-6.132549,"is_transit":true,"line":0,"station_name":"Kampung Bandan","i_long":106.826365,"station_id":"KPB","distance":1444,"transit":true,"time":3},{"i_long":106.79867,"is_transit":false,"station_id":"AK","transit":false,"distance":4102,"station_name":"Angke","line":0,"i_lat":-6.144674,"time":9},{"i_lat":-6.155215,"transit":true,"distance":1230,"station_name":"Duri","i_long":106.800832,"time":4,"line":1,"station_id":"DU","is_transit":true},{"i_long":106.811091,"line":1,"station_id":"THB","transit":true,"i_lat":-6.185545,"time":8,"distance":3632,"is_transit":true,"station_name":"Tanah Abang"},{"is_transit":false,"time":6,"i_lat":-6.207404,"line":6,"transit":false,"station_id":"PLM","distance":3191,"i_long":106.79689,"station_name":"Palmerah"},{"is_transit":false,"distance":3737,"time":7,"transit":false,"station_name":"Kebayoran","i_lat":-6.237242,"station_id":"KBY","i_long":106.780334,"line":6},{"transit":false,"i_long":106.74273,"line":6,"station_id":"PDJ","time":8,"station_name":"Pondokranji","is_transit":false,"distance":6218,"i_lat":-6.276362},{"transit":false,"time":3,"line":6,"i_long":106.728916,"is_transit":false,"station_id":"JMU","distance":2179,"station_name":"Jurangmangu","i_lat":-6.288927},{"distance":1994,"i_lat":-6.296963,"time":4,"station_name":"Sudimara","transit":false,"i_long":106.712277,"line":6,"station_id":"SDM","is_transit":false},{"station_id":"RU","i_lat":-6.314823,"station_name":"Rawa Buntu","transit":false,"distance":4566,"line":6,"i_long":106.675475,"is_transit":false,"time":6},{"station_id":"SRP","i_lat":-6.319871,"transit":false,"distance":2413,"station_name":"Serpong","line":6,"i_long":106.66566,"time":4,"is_transit":false},{"time":4,"station_id":"CSK","is_transit":false,"station_name":"Cisauk","transit":false,"i_long":106.640411,"distance":1784,"i_lat":-6.32484,"line":0}],[{"distance":0,"station_id":"CIT","i_lat":-6.261877,"is_transit":false,"time":0,"station_name":"Cibitung","transit":false,"line":0,"i_long":107.083084},{"line":1,"is_transit":false,"station_id":"TB","distance":3420,"station_name":"Tambun","i_lat":-6.258864,"i_long":107.055722,"transit":false,"time":3},{"time":7,"transit":false,"station_name":"Bekasi Timur","is_transit":false,"i_lat":-6.248029,"station_id":"BKST","line":0,"distance":4460,"i_long":107.016735},{"line":0,"station_name":"Bekasi","i_long":106.997013,"transit":false,"is_transit":false,"distance":2368,"i_lat":-6.236616,"time":2,"station_id":"BKS"},{"time":4,"is_transit":false,"station_id":"KRI","distance":2520,"transit":false,"line":1,"station_name":"Kranji","i_long":106.977657,"i_lat":-6.224515},{"station_id":"CUK","is_transit":false,"distance":3097,"station_name":"Cakung","time":3,"i_long":106.951283,"line":0,"transit":false,"i_lat":-6.219053},{"station_id":"KLDB","is_transit":false,"i_lat":-6.217455,"station_name":"Klenderbaru","transit":false,"distance":1385,"time":8,"i_long":106.939679,"line":1},{"is_transit":false,"station_id":"BUA","time":1,"line":0,"transit":false,"distance":1305,"i_lat":-6.215568,"station_name":"Buaran","i_long":106.922662},{"i_long":106.899548,"station_name":"Klender","is_transit":false,"station_id":"KLD","distance":3100,"transit":false,"time":2,"line":1,"i_lat":-6.2135},{"transit":false,"time":3,"station_id":"JNG","station_name":"Jatinegara","line":0,"i_lat":-6.215091,"distance":3395,"i_long":106.86807400000001,"is_transit":true},{"is_transit":false,"transit":false,"station_id":"MTR","time":2,"station_name":"Matraman","i_lat":-6.212485,"i_long":106.858896,"line":1,"distance":1377},{"i_lat":-6.209883,"line":0,"distance":1275,"i_long":106.84912,"transit":true,"time":2,"station_id":"MRI","is_transit":true,"station_name":"Manggarai"},{"time":4,"i_lat":-6.198556,"station_id":"CKI","distance":1590,"line":0,"i_long":106.840169,"is_transit":false,"station_name":"Cikini","transit":false},{"is_transit":false,"i_long":106.832183,"transit":false,"station_id":"GDD","time":3,"station_name":"Gondangdia","line":2,"distance":1750,"i_lat":-6.186295},{"time":4,"line":2,"i_long":106.828284,"i_lat":-6.166716,"station_id":"JUA","distance":2015,"is_transit":false,"transit":false,"station_name":"Juanda"},{"distance":1149,"time":2,"station_name":"Sawah Besar","line":2,"i_long":106.827103,"i_lat":-6.160725,"station_id":"SW","transit":false,"is_transit":false},{"is_transit":false,"distance":906,"i_lat":-6.149769,"i_long":106.82482,"line":2,"transit":false,"station_name":"Manggabesar","station_id":"MGB","time":2},{"is_transit":false,"station_name":"Jayakarta","distance":1080,"i_lat":-6.141205,"i_long":106.820901,"line":7,"station_id":"JAY","transit":false,"time":2},{"distance":1264,"i_lat":-6.137569,"is_transit":true,"station_id":"JAKK","transit":true,"time":4,"station_name":"Jakarta Kota","i_long":106.812439,"line":0},{"i_lat":-6.132549,"transit":false,"is_transit":true,"i_long":106.826365,"distance":1364,"station_name":"Kampung Bandan","time":3,"station_id":"KPB","line":0},{"station_name":"Angke","line":0,"is_transit":false,"distance":4102,"i_lat":-6.144674,"transit":false,"i_long":106.79867,"time":9,"station_id":"AK"},{"time":4,"transit":true,"is_transit":true,"station_id":"DU","station_name":"Duri","i_lat":-6.155215,"i_long":106.800832,"line":1,"distance":1230},{"i_lat":-6.185545,"distance":3632,"is_transit":true,"i_long":106.811091,"transit":true,"station_id":"THB","line":1,"time":8,"station_name":"Tanah Abang"},{"transit":false,"distance":3191,"station_id":"PLM","i_lat":-6.207404,"is_transit":false,"station_name":"Palmerah","i_long":106.79689,"line":6,"time":6},{"line":6,"is_transit":false,"station_name":"Kebayoran","transit":false,"i_lat":-6.237242,"time":7,"i_long":106.780334,"station_id":"KBY","distance":3737},{"transit":false,"i_long":106.74273,"is_transit":false,"time":8,"station_name":"Pondokranji","distance":6218,"i_lat":-6.276362,"station_id":"PDJ","line":6},{"distance":2179,"time":3,"station_name":"Jurangmangu","i_long":106.728916,"station_id":"JMU","transit":false,"is_transit":false,"line":6,"i_lat":-6.288927},{"i_lat":-6.296963,"station_id":"SDM","station_name":"Sudimara","transit":false,"i_long":106.712277,"is_transit":false,"line":6,"time":4,"distance":1994},{"is_transit":false,"station_name":"Rawa Buntu","transit":false,"distance":4566,"station_id":"RU","line":6,"time":6,"i_lat":-6.314823,"i_long":106.675475},{"line":6,"is_transit":false,"transit":false,"station_name":"Serpong","station_id":"SRP","time":4,"i_lat":-6.319871,"i_long":106.66566,"distance":2413},{"i_lat":-6.32484,"station_id":"CSK","distance":1784,"i_long":106.640411,"transit":false,"line":0,"is_transit":false,"time":4,"station_name":"Cisauk"}],[{"transit":false,"station_name":"Cibitung","line":0,"station_id":"CIT","time":0,"i_long":107.083084,"distance":0,"is_transit":false,"i_lat":-6.261877},{"is_transit":false,"distance":3420,"i_lat":-6.258864,"time":3,"i_long":107.055722,"station_id":"TB","line":1,"transit":false,"station_name":"Tambun"},{"i_long":107.016735,"line":0,"is_transit":false,"i_lat":-6.248029,"station_name":"Bekasi Timur","distance":4460,"station_id":"BKST","time":7,"transit":false},{"is_transit":false,"i_lat":-6.236616,"line":0,"time":2,"distance":2368,"transit":false,"station_name":"Bekasi","i_long":106.997013,"station_id":"BKS"},{"line":1,"is_transit":false,"distance":2520,"time":4,"station_id":"KRI","transit":false,"station_name":"Kranji","i_long":106.977657,"i_lat":-6.224515},{"transit":false,"time":3,"i_lat":-6.219053,"line":0,"i_long":106.951283,"distance":3097,"station_id":"CUK","is_transit":false,"station_name":"Cakung"},{"distance":1385,"i_long":106.939679,"station_id":"KLDB","is_transit":false,"transit":false,"station_name":"Klenderbaru","i_lat":-6.217455,"line":1,"time":8},{"line":0,"transit":false,"is_transit":false,"station_name":"Buaran","station_id":"BUA","i_lat":-6.215568,"time":1,"i_long":106.922662,"distance":1305},{"distance":3100,"i_long":106.899548,"line":1,"i_lat":-6.2135,"station_id":"KLD","transit":false,"time":2,"station_name":"Klender","is_transit":false},{"time":3,"distance":3395,"station_id":"JNG","station_name":"Jatinegara","i_lat":-6.215091,"is_transit":true,"transit":true,"i_long":106.86807400000001,"line":0},{"transit":false,"is_transit":false,"i_long":106.861737,"distance":1236,"station_id":"POK","time":2,"station_name":"Pondok Jati","i_lat":-6.209188,"line":11},{"transit":false,"station_id":"KMT","is_transit":false,"station_name":"Kramat","distance":1829,"i_lat":-6.193792,"line":11,"i_long":106.855437,"time":2},{"station_name":"Gang Sentiong","is_transit":false,"transit":false,"i_lat":-6.185975,"line":11,"time":1,"i_long":106.850107,"station_id":"GST","distance":973},{"line":11,"station_id":"PSE","is_transit":false,"time":8,"distance":1567,"i_lat":-6.174784,"transit":false,"station_name":"Pasar Senen","i_long":106.84368},{"is_transit":false,"line":11,"i_lat":-6.161728,"station_id":"KMO","transit":false,"distance":1436,"time":4,"station_name":"Kemayoran","i_long":106.839204},{"time":5,"i_long":106.836569,"station_id":"RJW","i_lat":-6.14505,"station_name":"Rajawali","line":11,"distance":1901,"transit":false,"is_transit":false},{"transit":true,"station_name":"Kampung Bandan","station_id":"KPB","is_transit":true,"i_lat":-6.132549,"i_long":106.826365,"line":0,"distance":1444,"time":3},{"station_name":"Jakarta Kota","distance":1364,"i_lat":-6.137569,"station_id":"JAKK","transit":true,"i_long":106.812439,"line":0,"time":3,"is_transit":true},{"line":7,"distance":1264,"is_transit":false,"time":4,"i_lat":-6.141205,"station_id":"JAY","station_name":"Jayakarta","i_long":106.820901,"transit":false},{"station_id":"MGB","is_transit":false,"i_long":106.82482,"time":2,"station_name":"Manggabesar","transit":false,"i_lat":-6.149769,"distance":1080,"line":2},{"line":2,"i_lat":-6.160725,"station_id":"SW","transit":false,"station_name":"Sawah Besar","is_transit":false,"time":2,"i_long":106.827103,"distance":906},{"transit":false,"i_long":106.828284,"time":2,"station_id":"JUA","distance":1149,"i_lat":-6.166716,"line":2,"is_transit":false,"station_name":"Juanda"},{"i_long":106.832183,"transit":false,"station_name":"Gondangdia","station_id":"GDD","i_lat":-6.186295,"is_transit":false,"time":4,"line":2,"distance":2015},{"i_long":106.840169,"is_transit":false,"line":0,"station_id":"CKI","transit":false,"time":3,"distance":1750,"station_name":"Cikini","i_lat":-6.198556},{"station_name":"Manggarai","line":0,"distance":1590,"time":4,"i_lat":-6.209883,"i_long":106.84912,"is_transit":true,"station_id":"MRI","transit":true},{"station_name":"Sudirman","station_id":"SUD","line":1,"time":4,"transit":false,"i_lat":-6.202263,"i_long":106.822649,"is_transit":false,"distance":3186},{"station_id":"SUDB","station_name":"Sudirman Baru","transit":false,"i_long":106.819881,"time":1,"is_transit":false,"distance":280,"i_lat":-6.201433,"line":1},{"line":1,"i_lat":-6.20132,"transit":false,"station_id":"KAT","station_name":"Karet","distance":471,"is_transit":false,"time":1,"i_long":106.816351},{"i_long":106.811091,"i_lat":-6.185545,"transit":true,"is_transit":true,"time":5,"distance":2029,"station_id":"THB","station_name":"Tanah Abang","line":1},{"i_lat":-6.207404,"line":6,"distance":3191,"station_name":"Palmerah","station_id":"PLM","is_transit":false,"i_long":106.79689,"transit":false,"time":6},{"i_lat":-6.237242,"i_long":106.780334,"time":7,"transit":false,"is_transit":false,"distance":3737,"station_name":"Kebayoran","station_id":"KBY","line":6},{"distance":6218,"i_lat":-6.276362,"transit":false,"i_long":106.74273,"time":8,"is_transit":false,"line":6,"station_id":"PDJ","station_name":"Pondokranji"},{"time":3,"is_transit":false,"station_id":"JMU","i_lat":-6.288927,"station_name":"Jurangmangu","transit":false,"distance":2179,"i_long":106.728916,"line":6},{"station_id":"SDM","line":6,"distance":1994,"time":4,"station_name":"Sudimara","transit":false,"i_lat":-6.296963,"is_transit":false,"i_long":106.712277},{"line":6,"station_name":"Rawa Buntu","i_lat":-6.314823,"station_id":"RU","distance":4566,"time":6,"is_transit":false,"i_long":106.675475,"transit":false},{"i_long":106.66566,"transit":false,"station_name":"Serpong","station_id":"SRP","time":4,"line":6,"is_transit":false,"distance":2413,"i_lat":-6.319871},{"transit":false,"is_transit":false,"station_name":"Cisauk","i_long":106.640411,"distance":1784,"line":0,"i_lat":-6.32484,"station_id":"CSK","time":4}]]}