{"data":[[{"i_lat":-6.261877,"is_transit":false,"i_long":107.083084,"station_name":"Cibitung","time":0,"line":1,"distance":0,"transit":false,"station_id":"CIT"},{"i_lat":-6.258864,"line":1,"transit":false,"is_transit":false,"distance":3420,"station_name":"Tambun","time":3,"station_id":"TB","i_long":107.055722},{"station_id":"BKST","i_long":107.016735,"station_name":"Bekasi Timur","time":7,"i_lat":-6.248029,"is_transit":false,"transit":false,"distance":4460,"line":1},{"i_long":106.997013,"distance":2368,"station_name":"Bekasi","is_transit":false,"transit":false,"time":2,"line":1,"station_id":"BKS","i_lat":-6.236616},{"i_long":106.977657,"i_lat":-6.224515,"station_id":"KRI","is_transit":false,"station_name":"Kranji","time":4,"line":1,"transit":false,"distance":2520},{"time":3,"is_transit":false,"line":1,"i_lat":-6.219053,"transit":false,"station_name":"Cakung","station_id":"CUK","distance":3097,"i_long":106.951283},{"line":1,"station_name":"Klenderbaru","transit":false,"distance":1385,"i_lat":-6.217455,"i_long":106.939679,"station_id":"KLDB","is_transit":false,"time":8},{"station_name":"Buaran","distance":1305,"line":1,"i_long":106.922662,"is_transit":false,"transit":false,"time":1,"i_lat":-6.215568,"station_id":"BUA"},{"station_name":"Klender","is_transit":false,"station_id":"KLD","i_long":106.899548,"time":2,"distance":3100,"i_lat":-6.2135,"transit":false,"line":1},{"line":1,"station_name":"Jatinegara","station_id":"JNG","is_transit":false,"i_lat":-6.215091,"distance":3395,"transit":false,"time":3,"i_long":106.86807400000001},{"i_long":106.858896,"time":2,"is_transit":false,"i_lat":-6.212485,"transit":false,"station_id":"MTR","station_name":"Matraman","distance":1377,"line":1},{"transit":false,"is_transit":false,"station_id":"MRI","station_name":"Manggarai","i_lat":-6.209883,"distance":1275,"line":2,"time":2,"i_long":106.84912},{"transit":false,"is_transit":false,"time":4,"station_id":"SUD","i_lat":-6.202263,"distance":3186,"i_long":106.822649,"line":1,"station_name":"Sudirman"},{"station_id":"SUDB","time":1,"i_long":106.819881,"station_name":"Sudirman Baru","line":1,"transit":false,"distance":280,"i_lat":-6.201433,"is_transit":false},{"transit":false,"station_id":"KAT","i_long":106.816351,"station_name":"Karet","time":1,"is_transit":false,"distance":471,"line":1,"i_lat":-6.20132},{"station_name":"Tanah Abang","line":1,"distance":2029,"transit":true,"station_id":"THB","is_transit":true,"time":5,"i_long":106.811091,"i_lat":-6.185545},{"is_transit":false,"station_name":"Palmerah","station_id":"PLM","i_long":106.79689,"time":6,"distance":3191,"line":6,"transit":false,"i_lat":-6.207404},{"distance":3737,"line":6,"time":7,"transit":false,"i_long":106.780334,"station_id":"KBY","i_lat":-6.237242,"station_name":"Kebayoran","is_transit":false},{"time":8,"i_lat":-6.276362,"i_long":106.74273,"line":6,"station_id":"PDJ","distance":6218,"station_name":"Pondokranji","transit":false,"is_transit":false},{"station_id":"JMU","i_long":106.728916,"station_name":"Jurangmangu","transit":false,"is_transit":false,"distance":2179,"line":6,"time":3,"i_lat":-6.288927},{"distance":1994,"station_name":"Sudimara","i_long":106.712277,"i_lat":-6.296963,"station_id":"SDM","time":4,"line":6,"transit":false,"is_transit":false},{"time":6,"line":6,"is_transit":false,"i_long":106.675475,"transit":false,"i_lat":-6.314823,"distance":4566,"station_name":"Rawa Buntu","station_id":"RU"},{"i_long":106.66566,"transit":false,"line":6,"station_id":"SRP","time":4,"station_name":"Serpong","distance":2413,"is_transit":false,"i_lat":-6.319871},{"i_lat":-6.32484,"i_long":106.640411,"line":3,"is_transit":false,"station_name":"Cisauk","transit":false,"station_id":"CSK","time":4,"distance":1784},{"i_long":106.617853,"transit":false,"time":4,"station_name":"Cicayur","i_lat":-6.329547,"line":3,"station_id":"CC","is_transit":false,"distance":2519},{"distance":5968,"transit":false,"is_transit":false,"line":6,"i_lat":-6.3441410000000005,"station_id":"PRP","i_long":106.568863,"time":8,"station_name":"Parung Panjang"},{"line":3,"i_lat":-6.354349,"station_name":"Cilejit","is_transit":false,"transit":false,"time":9,"distance":7025,"i_long":106.508482,"station_id":"CJT"}],[{"time":0,"station_name":"Cibitung","transit":false,"is_transit":false,"i_lat":-6.261877,"i_long":107.083084,"line":1,"station_id":"CIT","distance":0},{"transit":false,"distance":3420,"i_long":107.055722,"i_lat":-6.258864,"station_name":"Tambun","station_id":"TB","is_transit":false,"line":1,"time":3},{"station_id":"BKST","is_transit":false,"i_long":107.016735,"transit":false,"line":1,"station_name":"Bekasi Timur","time":7,"i_lat":-6.248029,"distance":4460},{"station_name":"Bekasi","is_transit":false,"station_id":"BKS","i_lat":-6.236616,"line":1,"i_long":106.997013,"transit":false,"distance":2368,"time":2},{"line":1,"i_lat":-6.224515,"station_name":"Kranji","distance":2520,"station_id":"KRI","transit":false,"is_transit":false,"i_long":106.977657,"time":4},{"line":1,"i_lat":-6.219053,"station_id":"CUK","distance":3097,"i_long":106.951283,"time":3,"station_name":"Cakung","transit":false,"is_transit":false},{"transit":false,"is_transit":false,"station_id":"KLDB","time":8,"distance":1385,"i_lat":-6.217455,"i_long":106.939679,"station_name":"Klenderbaru","line":1},{"is_transit":false,"station_name":"Buaran","distance":1305,"i_long":106.922662,"line":1,"time":1,"transit":false,"station_id":"BUA","i_lat":-6.215568},{"distance":3100,"i_long":106.899548,"line":1,"i_lat":-6.2135,"station_name":"Klender","station_id":"KLD","transit":false,"is_transit":false,"time":2},{"line":1,"i_lat":-6.215091,"time":3,"station_id":"JNG","is_transit":true,"station_name":"Jatinegara","distance":3395,"transit":true,"i_long":106.86807400000001},{"i_long":106.861737,"station_id":"POK","is_transit":false,"i_lat":-6.209188,"line":11,"time":2,"distance":1236,"transit":false,"station_name":"Pondok Jati"},{"i_long":106.855437,"line":11,"i_lat":-6.193792,"time":2,"transit":false,"is_transit":false,"distance":1829,"station_name":"Kramat","station_id":"KMT"},{"i_long":106.850107,"station_name":"Gang Sentiong","is_transit":false,"time":1,"line":11,"distance":973,"transit":false,"station_id":"GST","i_lat":-6.185975},{"line":11,"i_lat":-6.174784,"is_transit":false,"transit":false,"time":8,"station_name":"Pasar Senen","distance":1567,"station_id":"PSE","i_long":106.84368},{"is_transit":false,"station_name":"Kemayoran","line":11,"transit":false,"station_id":"KMO","i_lat":-6.161728,"distance":1436,"i_long":106.839204,"time":4},{"station_id":"RJW","is_transit":false,"time":5,"line":11,"distance":1901,"transit":false,"station_name":"Rajawali","i_lat":-6.14505,"i_long":106.836569},{"time":3,"station_name":"Kampung Bandan","distance":1444,"station_id":"KPB","is_transit":true,"transit":true,"i_long":106.826365,"i_lat":-6.132549,"line":4},{"i_lat":-6.144674,"line":1,"station_id":"AK","i_long":106.79867,"is_transit":false,"time":9,"station_name":"Angke","transit":false,"distance":4102},{"station_id":"DU","is_transit":false,"i_lat":-6.155215,"transit":false,"station_name":"Duri","time":4,"distance":1230,"line":1,"i_long":106.800832},{"line":1,"i_lat":-6.185545,"transit":true,"i_long":106.811091,"station_name":"Tanah Abang","station_id":"THB","time":8,"is_transit":true,"distance":3632},{"is_transit":false,"i_lat":-6.207404,"transit":false,"station_id":"PLM","time":6,"distance":3191,"station_name":"Palmerah","line":6,"i_long":106.79689},{"distance":3737,"line":6,"time":7,"station_name":"Kebayoran","is_transit":false,"i_lat":-6.237242,"station_id":"KBY","i_long":106.780334,"transit":false},{"station_name":"Pondokranji","is_transit":false,"i_lat":-6.276362,"distance":6218,"i_long":106.74273,"time":8,"line":6,"station_id":"PDJ","transit":false},{"time":3,"transit":false,"is_transit":false,"station_name":"Jurangmangu","distance":2179,"line":6,"i_long":106.728916,"i_lat":-6.288927,"station_id":"JMU"},{"time":4,"i_long":106.712277,"transit":false,"station_id":"SDM","line":6,"station_name":"Sudimara","is_transit":false,"i_lat":-6.296963,"distance":1994},{"is_transit":false,"i_lat":-6.314823,"line":6,"i_long":106.675475,"time":6,"station_id":"RU","transit":false,"station_name":"Rawa Buntu","distance":4566},{"i_lat":-6.319871,"station_name":"Serpong","line":6,"is_transit":false,"transit":false,"station_id":"SRP","distance":2413,"i_long":106.66566,"time":4},{"station_name":"Cisauk","distance":1784,"is_transit":false,"time":4,"station_id":"CSK","i_long":106.640411,"i_lat":-6.32484,"transit":false,"line":3},{"is_transit":false,"i_long":106.617853,"i_lat":-6.329547,"station_name":"Cicayur","station_id":"CC","time":4,"distance":2519,"transit":false,"line":3},{"line":6,"distance":5968,"station_name":"Parung Panjang","is_transit":false,"station_id":"PRP","time":8,"i_lat":-6.3441410000000005,"i_long":106.568863,"transit":false},{"i_lat":-6.354349,"transit":false,"i_long":106.508482,"station_name":"Cilejit","distance":7025,"line":3,"is_transit":false,"station_id":"CJT","time":9}],[{"i_lat":-6.261877,"time":0,"station_name":"Cibitung","distance":0,"i_long":107.083084,"line":1,"is_transit":false,"station_id":"CIT","transit":false},{"is_transit":false,"distance":3420,"transit":false,"line":1,"i_lat":-6.258864,"i_long":107.055722,"station_name":"Tambun","time":3,"station_id":"TB"},{"time":7,"transit":false,"station_name":"Bekasi Timur","is_transit":false,"i_long":107.016735,"line":1,"distance":4460,"station_id":"BKST","i_lat":-6.248029},{"station_id":"BKS","station_name":"Bekasi","is_transit":false,"time":2,"i_long":106.997013,"distance":2368,"line":1,"transit":false,"i_lat":-6.236616},{"distance":2520,"station_name":"Kranji","i_lat":-6.224515,"station_id":"KRI","is_transit":false,"transit":false,"time":4,"i_long":106.977657,"line":1},{"i_long":106.951283,"station_id":"CUK","line":1,"distance":3097,"i_lat":-6.219053,"time":3,"station_name":"Cakung","is_transit":false,"transit":false},{"i_lat":-6.217455,"line":1,"time":8,"station_name":"Klenderbaru","distance":1385,"i_long":106.939679,"station_id":"KLDB","transit":false,"is_transit":false},{"time":1,"i_lat":-6.215568,"distance":1305,"station_id":"BUA","station_name":"Buaran","line":1,"transit":false,"i_long":106.922662,"is_transit":false},{"station_id":"KLD","i_long":106.899548,"station_name":"Klender","transit":false,"is_transit":false,"i_lat":-6.2135,"line":1,"time":2,"distance":3100},{"time":3,"station_name":"Jatinegara","station_id":"JNG","is_transit":false,"distance":3395,"i_long":106.86807400000001,"i_lat":-6.215091,"line":1,"transit":false},{"line":1,"station_name":"Matraman","transit":false,"station_id":"MTR","is_transit":false,"time":2,"i_lat":-6.212485,"i_long":106.858896,"distance":1377},{"line":2,"i_long":106.84912,"time":2,"distance":1275,"i_lat":-6.209883,"station_name":"Manggarai","station_id":"MRI","transit":true,"is_transit":true},{"station_id":"CKI","is_transit":false,"transit":false,"i_lat":-6.198556,"line":2,"distance":1590,"time":4,"i_long":106.840169,"station_name":"Cikini"},{"transit":false,"station_name":"Gondangdia","is_transit":false,"time":3,"line":2,"station_id":"GDD","distance":1750,"i_lat":-6.186295,"i_long":106.832183},{"time":4,"distance":2015,"station_name":"Juanda","i_lat":-6.166716,"i_long":106.828284,"line":2,"transit":false,"is_transit":false,"station_id":"JUA"},{"i_lat":-6.160725,"station_id":"SW","is_transit":false,"time":2,"i_long":106.827103,"line":2,"transit":false,"station_name":"Sawah Besar","distance":1149},{"station_id":"MGB","i_long":106.82482,"is_transit":false,"station_name":"Manggabesar","time":2,"line":2,"transit":false,"distance":906,"i_lat":-6.149769},{"distance":1080,"time":2,"station_name":"Jayakarta","i_lat":-6.141205,"i_long":106.820901,"transit":false,"is_transit":false,"line":2,"station_id":"JAY"},{"is_transit":true,"line":2,"time":4,"distance":1264,"i_long":106.812439,"station_name":"Jakarta Kota","station_id":"JAKK","i_lat":-6.137569,"transit":true},{"station_id":"KPB","station_name":"Kampung Bandan","i_long":106.826365,"i_lat":-6.132549,"time":3,"distance":1364,"transit":true,"line":4,"is_transit":true},{"station_id":"AK","is_transit":false,"transit":false,"i_lat":-6.144674,"line":1,"distance":4102,"time":9,"i_long":106.79867,"station_name":"Angke"},{"station_name":"Duri","distance":1230,"i_long":106.800832,"transit":false,"station_id":"DU","time":4,"line":1,"is_transit":false,"i_lat":-6.155215},{"distance":3632,"station_name":"Tanah Abang","i_lat":-6.185545,"i_long":106.811091,"transit":true,"line":1,"station_id":"THB","is_transit":true,"time":8},{"transit":false,"station_id":"PLM","time":6,"i_lat":-6.207404,"station_name":"Palmerah","is_transit":false,"distance":3191,"i_long":106.79689,"line":6},{"line":6,"station_name":"Kebayoran","time":7,"distance":3737,"i_lat":-6.237242,"i_long":106.780334,"is_transit":false,"transit":false,"station_id":"KBY"},{"i_long":106.74273,"is_transit":false,"line":6,"station_id":"PDJ","transit":false,"time":8,"station_name":"Pondokranji","distance":6218,"i_lat":-6.276362},{"distance":2179,"is_transit":false,"i_long":106.728916,"time":3,"station_name":"Jurangmangu","line":6,"transit":false,"station_id":"JMU","i_lat":-6.288927},{"station_id":"SDM","line":6,"station_name":"Sudimara","is_transit":false,"time":4,"i_lat":-6.296963,"transit":false,"i_long":106.712277,"distance":1994},{"is_transit":false,"line":6,"i_lat":-6.314823,"station_id":"RU","time":6,"distance":4566,"station_name":"Rawa Buntu","transit":false,"i_long":106.675475},{"station_name":"Serpong","is_transit":false,"transit":false,"i_long":106.66566,"distance":2413,"station_id":"SRP","i_lat":-6.319871,"time":4,"line":6},{"i_lat":-6.32484,"i_long":106.640411,"station_name":"Cisauk","transit":false,"time":4,"distance":1784,"line":3,"station_id":"CSK","is_transit":false},{"is_transit":false,"i_lat":-6.329547,"transit":false,"station_name":"Cicayur","station_id":"CC","time":4,"i_long":106.617853,"line":3,"distance":2519},{"i_lat":-6.3441410000000005,"line":6,"station_name":"Parung Panjang","transit":false,"is_transit":false,"distance":5968,"time":8,"i_long":106.568863,"station_id":"PRP"},{"time":9,"transit":false,"is_transit":false,"i_long":106.508482,"station_id":"CJT","i_lat":-6.354349,"line":3,"distance":7025,"station_name":"Cilejit"}],[{"transit":false,"is_transit":false,"i_long":107.083084,"station_name":"Cibitung","time":0,"line":1,"station_id":"CIT","i_lat":-6.261877,"distance":0},{"is_transit":false,"distance":3420,"transit":false,"station_name":"Tambun","station_id":"TB","time":3,"i_lat":-6.258864,"line":1,"i_long":107.055722},{"is_transit":false,"station_name":"Bekasi Timur","station_id":"BKST","i_lat":-6.248029,"line":1,"i_long":107.016735,"time":7,"transit":false,"distance":4460},{"is_transit":false,"distance":2368,"line":1,"time":2,"i_long":106.997013,"transit":false,"station_name":"Bekasi","i_lat":-6.236616,"station_id":"BKS"},{"distance":2520,"station_name":"Kranji","i_lat":-6.224515,"transit":false,"i_long":106.977657,"line":1,"is_transit":false,"station_id":"KRI","time":4},{"station_name":"Cakung","is_transit":false,"i_lat":-6.219053,"distance":3097,"i_long":106.951283,"transit":false,"time":3,"line":1,"station_id":"CUK"},{"time":8,"distance":1385,"transit":false,"station_id":"KLDB","line":1,"i_lat":-6.217455,"station_name":"Klenderbaru","i_long":106.939679,"is_transit":false},{"i_lat":-6.215568,"distance":1305,"time":1,"station_id":"BUA","line":1,"is_transit":false,"i_long":106.922662,"station_name":"Buaran","transit":false},{"i_lat":-6.2135,"station_name":"Klender","line":1,"time":2,"is_transit":false,"station_id":"KLD","i_long":106.899548,"distance":3100,"transit":false},{"time":3,"i_long":106.86807400000001,"i_lat":-6.215091,"line":1,"is_transit":true,"transit":true,"distance":3395,"station_name":"Jatinegara","station_id":"JNG"},{"distance":1236,"station_name":"Pondok Jati","i_long":106.861737,"line":11,"station_id":"POK","transit":false,"is_transit":false,"time":2,"i_lat":-6.209188},{"i_long":106.855437,"time":2,"transit":false,"station_id":"KMT","station_name":"Kramat","line":11,"is_transit":false,"distance":1829,"i_lat":-6.193792},{"station_id":"GST","station_name":"Gang Sentiong","transit":false,"is_transit":false,"time":1,"distance":973,"i_long":106.850107,"line":11,"i_lat":-6.185975},{"is_transit":false,"time":8,"line":11,"transit":false,"station_id":"PSE","distance":1567,"station_name":"Pasar Senen","i_lat":-6.174784,"i_long":106.84368},{"time":4,"line":11,"station_id":"KMO","transit":false,"station_name":"Kemayoran","i_lat":-6.161728,"i_long":106.839204,"is_transit":false,"distance":1436},{"station_id":"RJW","is_transit":false,"time":5,"i_lat":-6.14505,"i_long":106.836569,"station_name":"Rajawali","distance":1901,"transit":false,"line":11},{"distance":1444,"line":4,"transit":true,"time":3,"i_lat":-6.132549,"station_id":"KPB","station_name":"Kampung Bandan","i_long":106.826365,"is_transit":true},{"station_id":"JAKK","line":2,"is_transit":true,"i_long":106.812439,"transit":true,"station_name":"Jakarta Kota","time":3,"i_lat":-6.137569,"distance":1364},{"station_id":"JAY","is_transit":false,"transit":false,"station_name":"Jayakarta","line":2,"time":4,"distance":1264,"i_lat":-6.141205,"i_long":106.820901},{"is_transit":false,"station_name":"Manggabesar","station_id":"MGB","i_lat":-6.149769,"time":2,"transit":false,"i_long":106.82482,"line":2,"distance":1080},{"station_name":"Sawah Besar","station_id":"SW","i_lat":-6.160725,"i_long":106.827103,"distance":906,"is_transit":false,"line":2,"transit":false,"time":2},{"i_long":106.828284,"line":2,"time":2,"distance":1149,"transit":false,"station_id":"JUA","station_name":"Juanda","is_transit":false,"i_lat":-6.166716},{"time":4,"station_name":"Gondangdia","is_transit":false,"distance":2015,"i_lat":-6.186295,"transit":false,"station_id":"GDD","i_long":106.832183,"line":2},{"line":2,"i_lat":-6.198556,"station_name":"Cikini","distance":1750,"i_long":106.840169,"is_transit":false,"transit":false,"station_id":"CKI","time":3},{"i_lat":-6.209883,"station_id":"MRI","station_name":"Manggarai","transit":true,"is_transit":true,"distance":1590,"time":4,"i_long":106.84912,"line":2},{"distance":3186,"transit":false,"i_lat":-6.202263,"i_long":106.822649,"station_id":"SUD","line":1,"time":4,"is_transit":false,"station_name":"Sudirman"},{"i_long":106.819881,"distance":280,"transit":false,"line":1,"is_transit":false,"station_id":"SUDB","station_name":"Sudirman Baru","time":1,"i_lat":-6.201433},{"line":1,"time":1,"station_id":"KAT","is_transit":false,"i_lat":-6.20132,"i_long":106.816351,"station_name":"Karet","transit":false,"distance":471},{"station_id":"THB","distance":2029,"transit":true,"i_lat":-6.185545,"i_long":106.811091,"station_name":"Tanah Abang","line":1,"is_transit":true,"time":5},{"station_id":"PLM","time":6,"distance":3191,"i_lat":-6.207404,"is_transit":false,"line":6,"station_name":"Palmerah","i_long":106.79689,"transit":false},{"is_transit":false,"time":7,"station_id":"KBY","i_long":106.780334,"i_lat":-6.237242,"line":6,"station_name":"Kebayoran","distance":3737,"transit":false},{"time":8,"is_transit":false,"transit":false,"station_name":"Pondokranji","distance":6218,"i_long":106.74273,"line":6,"station_id":"PDJ","i_lat":-6.276362},{"distance":2179,"is_transit":false,"station_name":"Jurangmangu","i_long":106.728916,"line":6,"transit":false,"time":3,"station_id":"JMU","i_lat":-6.288927},{"i_lat":-6.296963,"station_name":"Sudimara","i_long":106.712277,"distance":1994,"time":4,"station_id":"SDM","transit":false,"is_transit":false,"line":6},{"station_id":"RU","distance":4566,"transit":false,"i_lat":-6.314823,"line":6,"is_transit":false,"i_long":106.675475,"time":6,"station_name":"Rawa Buntu"},{"line":6,"station_name":"Serpong","distance":2413,"i_lat":-6.319871,"station_id":"SRP","transit":false,"time":4,"is_transit":false,"i_long":106.66566},{"station_name":"Cisauk","is_transit":false,"time":4,"i_lat":-6.32484,"transit":false,"line":3,"distance":1784,"i_long":106.640411,"station_id":"CSK"},{"is_transit":false,"i_lat":-6.329547,"distance":2519,"station_id":"CC","transit":false,"time":4,"i_long":106.617853,"line":3,"station_name":"Cicayur"},{"station_name":"Parung Panjang","station_id":"PRP","time":8,"is_transit":false,"i_lat":-6.3441410000000005,"i_long":106.568863,"distance":5968,"transit":false,"line":6},{"time":9,"station_name":"Cilejit","transit":false,"is_transit":false,"i_long":106.508482,"distance":7025,"line":3,"i_lat":-6.354349,"station_id":"CJT"}]]}