{"data":[[{"line":1,"i_lat":-6.261877,"transit":false,"is_transit":false,"station_name":"Cibitung","time":0,"distance":0,"i_long":107.083084,"station_id":"CIT"},{"distance":3420,"i_lat":-6.258864,"i_long":107.055722,"station_id":"TB","line":1,"station_name":"Tambun","time":3,"transit":false,"is_transit":false},{"transit":false,"time":7,"is_transit":false,"station_name":"Bekasi Timur","distance":4460,"line":1,"station_id":"BKST","i_lat":-6.248029,"i_long":107.016735},{"i_long":106.997013,"distance":2368,"i_lat":-6.236616,"time":2,"is_transit":false,"transit":false,"line":1,"station_name":"Bekasi","station_id":"BKS"},{"transit":false,"i_long":106.977657,"station_id":"KRI","distance":2520,"line":1,"time":4,"is_transit":false,"station_name":"Kranji","i_lat":-6.224515},{"station_name":"Cakung","i_lat":-6.219053,"station_id":"CUK","transit":false,"i_long":106.951283,"line":1,"time":3,"distance":3097,"is_transit":false},{"station_name":"Klenderbaru","i_long":106.939679,"line":1,"i_lat":-6.217455,"station_id":"KLDB","transit":false,"is_transit":false,"distance":1385,"time":8},{"station_name":"Buaran","distance":1305,"i_lat":-6.215568,"i_long":106.922662,"station_id":"BUA","time":1,"transit":false,"is_transit":false,"line":1},{"i_lat":-6.2135,"transit":false,"line":1,"station_name":"Klender","i_long":106.899548,"time":2,"distance":3100,"is_transit":false,"station_id":"KLD"},{"time":3,"station_id":"JNG","station_name":"Jatinegara","distance":3395,"is_transit":false,"line":1,"transit":false,"i_long":106.86807400000001,"i_lat":-6.215091},{"station_id":"MTR","transit":false,"i_lat":-6.212485,"time":2,"station_name":"Matraman","line":1,"i_long":106.858896,"is_transit":false,"distance":1377},{"i_lat":-6.209883,"line":2,"station_id":"MRI","transit":false,"station_name":"Manggarai","i_long":106.84912,"is_transit":false,"distance":1275,"time":2},{"distance":3186,"station_id":"SUD","i_lat":-6.202263,"is_transit":false,"i_long":106.822649,"transit":false,"station_name":"Sudirman","time":4,"line":1}],[{"station_name":"Cibitung","transit":false,"is_transit":false,"station_id":"CIT","i_long":107.083084,"distance":0,"line":1,"time":0,"i_lat":-6.261877},{"transit":false,"distance":3420,"i_long":107.055722,"station_name":"Tambun","time":3,"i_lat":-6.258864,"station_id":"TB","is_transit":false,"line":1},{"i_long":107.016735,"distance":4460,"is_transit":false,"line":1,"time":7,"station_id":"BKST","station_name":"Bekasi Timur","transit":false,"i_lat":-6.248029},{"time":2,"i_lat":-6.236616,"i_long":106.997013,"transit":false,"line":1,"distance":2368,"station_id":"BKS","is_transit":false,"station_name":"Bekasi"},{"line":1,"i_long":106.977657,"station_name":"Kranji","station_id":"KRI","is_transit":false,"transit":false,"time":4,"i_lat":-6.224515,"distance":2520},{"station_id":"CUK","is_transit":false,"distance":3097,"i_long":106.951283,"line":1,"station_name":"Cakung","transit":false,"time":3,"i_lat":-6.219053},{"time":8,"i_long":106.939679,"station_name":"Klenderbaru","line":1,"i_lat":-6.217455,"transit":false,"is_transit":false,"station_id":"KLDB","distance":1385},{"station_id":"BUA","time":1,"distance":1305,"station_name":"Buaran","is_transit":false,"line":1,"transit":false,"i_long":106.922662,"i_lat":-6.215568},{"time":2,"distance":3100,"station_id":"KLD","transit":false,"i_long":106.899548,"i_lat":-6.2135,"is_transit":false,"station_name":"Klender","line":1},{"line":1,"distance":3395,"station_id":"JNG","station_name":"Jatinegara","transit":true,"i_lat":-6.215091,"i_long":106.86807400000001,"time":3,"is_transit":true},{"time":2,"line":11,"station_name":"Pondok Jati","i_lat":-6.209188,"distance":1236,"station_id":"POK","transit":false,"i_long":106.861737,"is_transit":false},{"time":2,"station_name":"Kramat","i_lat":-6.193792,"i_long":106.855437,"transit":false,"line":11,"is_transit":false,"distance":1829,"station_id":"KMT"},{"distance":973,"time":1,"transit":false,"station_id":"GST","i_long":106.850107,"line":11,"station_name":"Gang Sentiong","is_transit":false,"i_lat":-6.185975},{"station_name":"Pasar Senen","station_id":"PSE","line":11,"i_lat":-6.174784,"transit":false,"is_transit":false,"i_long":106.84368,"time":8,"distance":1567},{"station_id":"KMO","i_lat":-6.161728,"i_long":106.839204,"distance":1436,"station_name":"Kemayoran","time":4,"transit":false,"line":11,"is_transit":false},{"distance":1901,"i_lat":-6.14505,"time":5,"transit":false,"station_id":"RJW","line":11,"is_transit":false,"station_name":"Rajawali","i_long":106.836569},{"i_lat":-6.132549,"time":3,"station_id":"KPB","line":4,"i_long":106.826365,"is_transit":true,"transit":true,"station_name":"Kampung Bandan","distance":1444},{"station_name":"Angke","is_transit":false,"station_id":"AK","i_long":106.79867,"transit":false,"line":1,"distance":4102,"time":9,"i_lat":-6.144674},{"i_long":106.800832,"i_lat":-6.155215,"station_name":"Duri","station_id":"DU","line":1,"is_transit":false,"transit":false,"distance":1230,"time":4},{"line":1,"distance":3632,"station_id":"THB","i_lat":-6.185545,"i_long":106.811091,"station_name":"Tanah Abang","transit":false,"is_transit":false,"time":8},{"is_transit":false,"station_id":"KAT","time":5,"i_long":106.816351,"line":1,"transit":false,"i_lat":-6.20132,"station_name":"Karet","distance":2029},{"time":1,"station_id":"SUDB","station_name":"Sudirman Baru","transit":false,"is_transit":false,"distance":471,"i_lat":-6.201433,"line":1,"i_long":106.819881},{"station_id":"SUD","station_name":"Sudirman","distance":280,"i_long":106.822649,"time":1,"line":1,"i_lat":-6.202263,"is_transit":false,"transit":false}],[{"station_name":"Cibitung","line":1,"i_lat":-6.261877,"station_id":"CIT","distance":0,"time":0,"transit":false,"i_long":107.083084,"is_transit":false},{"distance":3420,"is_transit":false,"time":3,"i_lat":-6.258864,"station_id":"TB","station_name":"Tambun","i_long":107.055722,"line":1,"transit":false},{"transit":false,"time":7,"distance":4460,"station_name":"Bekasi Timur","i_lat":-6.248029,"i_long":107.016735,"station_id":"BKST","line":1,"is_transit":false},{"distance":2368,"time":2,"i_lat":-6.236616,"is_transit":false,"i_long":106.997013,"transit":false,"line":1,"station_id":"BKS","station_name":"Bekasi"},{"is_transit":false,"distance":2520,"i_lat":-6.224515,"time":4,"transit":false,"line":1,"station_id":"KRI","station_name":"Kranji","i_long":106.977657},{"station_id":"CUK","time":3,"station_name":"Cakung","transit":false,"is_transit":false,"i_long":106.951283,"distance":3097,"i_lat":-6.219053,"line":1},{"i_long":106.939679,"line":1,"station_id":"KLDB","transit":false,"i_lat":-6.217455,"station_name":"Klenderbaru","distance":1385,"is_transit":false,"time":8},{"i_long":106.922662,"transit":false,"line":1,"station_name":"Buaran","distance":1305,"station_id":"BUA","is_transit":false,"i_lat":-6.215568,"time":1},{"is_transit":false,"transit":false,"distance":3100,"i_long":106.899548,"station_name":"Klender","i_lat":-6.2135,"line":1,"station_id":"KLD","time":2},{"station_id":"JNG","i_long":106.86807400000001,"line":1,"station_name":"Jatinegara","distance":3395,"time":3,"transit":false,"is_transit":false,"i_lat":-6.215091},{"distance":1377,"station_id":"MTR","i_long":106.858896,"transit":false,"time":2,"i_lat":-6.212485,"is_transit":false,"station_name":"Matraman","line":1},{"i_lat":-6.209883,"is_transit":true,"transit":true,"time":2,"line":2,"station_name":"Manggarai","i_long":106.84912,"station_id":"MRI","distance":1275},{"transit":false,"time":4,"distance":1590,"station_id":"CKI","is_transit":false,"i_lat":-6.198556,"station_name":"Cikini","i_long":106.840169,"line":2},{"distance":1750,"station_name":"Gondangdia","i_lat":-6.186295,"i_long":106.832183,"is_transit":false,"station_id":"GDD","line":2,"time":3,"transit":false},{"distance":2015,"i_lat":-6.166716,"transit":false,"i_long":106.828284,"line":2,"station_id":"JUA","is_transit":false,"station_name":"Juanda","time":4},{"distance":1149,"station_name":"Sawah Besar","line":2,"station_id":"SW","time":2,"i_lat":-6.160725,"i_long":106.827103,"is_transit":false,"transit":false},{"i_long":106.82482,"time":2,"station_id":"MGB","distance":906,"transit":false,"line":2,"is_transit":false,"station_name":"Manggabesar","i_lat":-6.149769},{"station_id":"JAY","distance":1080,"station_name":"Jayakarta","time":2,"is_transit":false,"line":2,"i_lat":-6.141205,"transit":false,"i_long":106.820901},{"transit":true,"i_long":106.812439,"station_name":"Jakarta Kota","distance":1264,"station_id":"JAKK","time":4,"line":2,"i_lat":-6.137569,"is_transit":true},{"is_transit":true,"station_name":"Kampung Bandan","transit":true,"station_id":"KPB","time":3,"i_long":106.826365,"distance":1364,"i_lat":-6.132549,"line":4},{"i_lat":-6.144674,"distance":4102,"station_id":"AK","transit":false,"time":9,"i_long":106.79867,"is_transit":false,"line":1,"station_name":"Angke"},{"station_name":"Duri","is_transit":false,"station_id":"DU","i_lat":-6.155215,"transit":false,"time":4,"line":1,"i_long":106.800832,"distance":1230},{"time":8,"station_id":"THB","is_transit":false,"line":1,"i_long":106.811091,"station_name":"Tanah Abang","i_lat":-6.185545,"transit":false,"distance":3632},{"time":5,"i_long":106.816351,"transit":false,"distance":2029,"is_transit":false,"station_id":"KAT","station_name":"Karet","i_lat":-6.20132,"line":1},{"time":1,"line":1,"transit":false,"is_transit":false,"station_id":"SUDB","distance":471,"station_name":"Sudirman Baru","i_lat":-6.201433,"i_long":106.819881},{"distance":280,"i_long":106.822649,"line":1,"transit":false,"station_name":"Sudirman","time":1,"is_transit":false,"station_id":"SUD","i_lat":-6.202263}],[{"time":0,"station_name":"Cibitung","distance":0,"is_transit":false,"i_long":107.083084,"i_lat":-6.261877,"transit":false,"station_id":"CIT","line":1},{"is_transit":false,"station_id":"TB","station_name":"Tambun","transit":false,"time":3,"distance":3420,"line":1,"i_lat":-6.258864,"i_long":107.055722},{"transit":false,"is_transit":false,"time":7,"i_lat":-6.248029,"line":1,"i_long":107.016735,"station_name":"Bekasi Timur","distance":4460,"station_id":"BKST"},{"time":2,"is_transit":false,"transit":false,"station_name":"Bekasi","station_id":"BKS","distance":2368,"i_long":106.997013,"line":1,"i_lat":-6.236616},{"time":4,"i_long":106.977657,"i_lat":-6.224515,"line":1,"is_transit":false,"distance":2520,"station_name":"Kranji","station_id":"KRI","transit":false},{"station_name":"Cakung","line":1,"distance":3097,"i_lat":-6.219053,"is_transit":false,"time":3,"station_id":"CUK","transit":false,"i_long":106.951283},{"line":1,"distance":1385,"station_id":"KLDB","station_name":"Klenderbaru","is_transit":false,"transit":false,"i_lat":-6.217455,"i_long":106.939679,"time":8},{"transit":false,"station_id":"BUA","station_name":"Buaran","is_transit":false,"line":1,"time":1,"distance":1305,"i_lat":-6.215568,"i_long":106.922662},{"is_transit":false,"i_lat":-6.2135,"time":2,"transit":false,"station_name":"Klender","station_id":"KLD","line":1,"distance":3100,"i_long":106.899548},{"station_id":"JNG","line":1,"i_lat":-6.215091,"is_transit":true,"distance":3395,"station_name":"Jatinegara","i_long":106.86807400000001,"transit":true,"time":3},{"i_lat":-6.209188,"transit":false,"is_transit":false,"line":11,"i_long":106.861737,"distance":1236,"station_name":"Pondok Jati","station_id":"POK","time":2},{"time":2,"is_transit":false,"i_long":106.855437,"transit":false,"i_lat":-6.193792,"station_id":"KMT","line":11,"distance":1829,"station_name":"Kramat"},{"station_id":"GST","is_transit":false,"distance":973,"station_name":"Gang Sentiong","i_lat":-6.185975,"i_long":106.850107,"time":1,"line":11,"transit":false},{"distance":1567,"station_id":"PSE","station_name":"Pasar Senen","time":8,"is_transit":false,"i_lat":-6.174784,"line":11,"i_long":106.84368,"transit":false},{"transit":false,"station_id":"KMO","station_name":"Kemayoran","time":4,"i_long":106.839204,"is_transit":false,"line":11,"i_lat":-6.161728,"distance":1436},{"i_lat":-6.14505,"distance":1901,"line":11,"i_long":106.836569,"station_id":"RJW","station_name":"Rajawali","is_transit":false,"time":5,"transit":false},{"transit":true,"i_long":106.826365,"is_transit":true,"station_id":"KPB","station_name":"Kampung Bandan","distance":1444,"i_lat":-6.132549,"line":4,"time":3},{"time":3,"i_long":106.812439,"station_id":"JAKK","distance":1364,"line":2,"i_lat":-6.137569,"transit":true,"station_name":"Jakarta Kota","is_transit":true},{"time":4,"station_id":"JAY","station_name":"Jayakarta","i_lat":-6.141205,"i_long":106.820901,"distance":1264,"line":2,"is_transit":false,"transit":false},{"i_lat":-6.149769,"transit":false,"is_transit":false,"station_name":"Manggabesar","line":2,"station_id":"MGB","distance":1080,"i_long":106.82482,"time":2},{"is_transit":false,"station_id":"SW","distance":906,"i_long":106.827103,"line":2,"i_lat":-6.160725,"transit":false,"time":2,"station_name":"Sawah Besar"},{"station_id":"JUA","is_transit":false,"i_long":106.828284,"i_lat":-6.166716,"station_name":"Juanda","line":2,"distance":1149,"time":2,"transit":false},{"i_lat":-6.186295,"transit":false,"line":2,"time":4,"station_id":"GDD","is_transit":false,"station_name":"Gondangdia","distance":2015,"i_long":106.832183},{"is_transit":false,"i_long":106.840169,"i_lat":-6.198556,"distance":1750,"time":3,"station_name":"Cikini","line":2,"transit":false,"station_id":"CKI"},{"station_name":"Manggarai","i_lat":-6.209883,"transit":true,"distance":1590,"is_transit":true,"time":4,"i_long":106.84912,"station_id":"MRI","line":2},{"station_id":"SUD","time":4,"is_transit":false,"i_lat":-6.202263,"i_long":106.822649,"transit":false,"distance":3186,"line":1,"station_name":"Sudirman"}]]}