{"data":[[{"distance":0,"i_lat":-6.261877,"line":1,"is_transit":false,"i_long":107.083084,"station_name":"Cibitung","transit":false,"station_id":"CIT","time":0},{"transit":false,"i_lat":-6.258864,"station_name":"Tambun","station_id":"TB","i_long":107.055722,"time":3,"distance":3420,"line":1,"is_transit":false},{"i_long":107.016735,"line":1,"station_id":"BKST","distance":4460,"transit":false,"is_transit":false,"station_name":"Bekasi Timur","i_lat":-6.248029,"time":7},{"station_id":"BKS","i_lat":-6.236616,"line":1,"is_transit":false,"distance":2368,"station_name":"Bekasi","i_long":106.997013,"time":2,"transit":false},{"transit":false,"time":4,"i_lat":-6.224515,"i_long":106.977657,"station_name":"Kranji","station_id":"KRI","is_transit":false,"distance":2520,"line":1},{"i_long":106.951283,"station_id":"CUK","time":3,"transit":false,"i_lat":-6.219053,"distance":3097,"line":1,"station_name":"Cakung","is_transit":false},{"i_lat":-6.217455,"i_long":106.939679,"line":1,"distance":1385,"station_name":"Klenderbaru","time":8,"station_id":"KLDB","transit":false,"is_transit":false},{"line":1,"station_name":"Buaran","is_transit":false,"i_long":106.922662,"transit":false,"distance":1305,"i_lat":-6.215568,"station_id":"BUA","time":1},{"station_id":"KLD","i_long":106.899548,"line":1,"transit":false,"distance":3100,"time":2,"i_lat":-6.2135,"station_name":"Klender","is_transit":false},{"station_name":"Jatinegara","distance":3395,"i_lat":-6.215091,"i_long":106.86807400000001,"transit":false,"station_id":"JNG","is_transit":false,"line":1,"time":3},{"i_lat":-6.212485,"transit":false,"line":1,"time":2,"station_name":"Matraman","distance":1377,"is_transit":false,"station_id":"MTR","i_long":106.858896},{"time":2,"station_id":"MRI","distance":1275,"transit":false,"station_name":"Manggarai","is_transit":false,"i_lat":-6.209883,"i_long":106.84912,"line":2},{"transit":false,"time":4,"distance":3186,"station_id":"SUD","station_name":"Sudirman","i_lat":-6.202263,"i_long":106.822649,"line":1,"is_transit":false}],[{"i_lat":-6.261877,"i_long":107.083084,"station_id":"CIT","line":1,"station_name":"Cibitung","time":0,"transit":false,"is_transit":false,"distance":0},{"is_transit":false,"i_lat":-6.258864,"i_long":107.055722,"line":1,"time":3,"transit":false,"station_name":"Tambun","station_id":"TB","distance":3420},{"distance":4460,"is_transit":false,"time":7,"transit":false,"i_lat":-6.248029,"station_id":"BKST","i_long":107.016735,"line":1,"station_name":"Bekasi Timur"},{"station_id":"BKS","line":1,"distance":2368,"i_lat":-6.236616,"time":2,"station_name":"Bekasi","i_long":106.997013,"transit":false,"is_transit":false},{"distance":2520,"station_name":"Kranji","station_id":"KRI","transit":false,"i_lat":-6.224515,"i_long":106.977657,"line":1,"is_transit":false,"time":4},{"is_transit":false,"distance":3097,"transit":false,"time":3,"i_lat":-6.219053,"i_long":106.951283,"line":1,"station_id":"CUK","station_name":"Cakung"},{"i_long":106.939679,"is_transit":false,"station_name":"Klenderbaru","station_id":"KLDB","i_lat":-6.217455,"line":1,"distance":1385,"transit":false,"time":8},{"station_name":"Buaran","transit":false,"station_id":"BUA","is_transit":false,"time":1,"i_lat":-6.215568,"line":1,"distance":1305,"i_long":106.922662},{"i_long":106.899548,"station_name":"Klender","is_transit":false,"transit":false,"station_id":"KLD","i_lat":-6.2135,"time":2,"distance":3100,"line":1},{"station_name":"Jatinegara","line":1,"distance":3395,"i_long":106.86807400000001,"station_id":"JNG","transit":true,"is_transit":true,"time":3,"i_lat":-6.215091},{"distance":1236,"station_name":"Pondok Jati","i_long":106.861737,"is_transit":false,"station_id":"POK","i_lat":-6.209188,"line":11,"time":2,"transit":false},{"i_lat":-6.193792,"i_long":106.855437,"distance":1829,"transit":false,"station_id":"KMT","line":11,"station_name":"Kramat","time":2,"is_transit":false},{"time":1,"station_id":"GST","distance":973,"transit":false,"station_name":"Gang Sentiong","is_transit":false,"i_lat":-6.185975,"i_long":106.850107,"line":11},{"i_long":106.84368,"line":11,"station_id":"PSE","distance":1567,"i_lat":-6.174784,"transit":false,"is_transit":false,"station_name":"Pasar Senen","time":8},{"station_name":"Kemayoran","i_lat":-6.161728,"is_transit":false,"transit":false,"time":4,"i_long":106.839204,"line":11,"distance":1436,"station_id":"KMO"},{"time":5,"is_transit":false,"transit":false,"line":11,"i_lat":-6.14505,"station_name":"Rajawali","station_id":"RJW","i_long":106.836569,"distance":1901},{"i_lat":-6.132549,"i_long":106.826365,"time":3,"station_id":"KPB","line":4,"is_transit":true,"station_name":"Kampung Bandan","distance":1444,"transit":true},{"line":1,"i_long":106.79867,"time":9,"is_transit":false,"station_name":"Angke","station_id":"AK","transit":false,"distance":4102,"i_lat":-6.144674},{"distance":1230,"line":1,"transit":false,"i_lat":-6.155215,"i_long":106.800832,"is_transit":false,"time":4,"station_name":"Duri","station_id":"DU"},{"time":8,"station_id":"THB","line":1,"distance":3632,"station_name":"Tanah Abang","transit":false,"is_transit":false,"i_lat":-6.185545,"i_long":106.811091},{"time":5,"transit":false,"is_transit":false,"station_id":"KAT","i_long":106.816351,"i_lat":-6.20132,"distance":2029,"station_name":"Karet","line":1},{"i_lat":-6.201433,"time":1,"line":1,"distance":471,"transit":false,"station_name":"Sudirman Baru","i_long":106.819881,"is_transit":false,"station_id":"SUDB"},{"is_transit":false,"i_long":106.822649,"station_id":"SUD","time":1,"distance":280,"i_lat":-6.202263,"transit":false,"station_name":"Sudirman","line":1}],[{"station_id":"CIT","line":1,"time":0,"distance":0,"i_long":107.083084,"station_name":"Cibitung","i_lat":-6.261877,"is_transit":false,"transit":false},{"station_id":"TB","line":1,"transit":false,"i_long":107.055722,"station_name":"Tambun","distance":3420,"i_lat":-6.258864,"time":3,"is_transit":false},{"transit":false,"line":1,"is_transit":false,"i_long":107.016735,"station_id":"BKST","distance":4460,"station_name":"Bekasi Timur","time":7,"i_lat":-6.248029},{"transit":false,"distance":2368,"i_long":106.997013,"is_transit":false,"time":2,"line":1,"station_name":"Bekasi","station_id":"BKS","i_lat":-6.236616},{"station_name":"Kranji","is_transit":false,"distance":2520,"i_long":106.977657,"line":1,"i_lat":-6.224515,"transit":false,"station_id":"KRI","time":4},{"time":3,"i_long":106.951283,"i_lat":-6.219053,"line":1,"distance":3097,"is_transit":false,"transit":false,"station_name":"Cakung","station_id":"CUK"},{"station_name":"Klenderbaru","distance":1385,"i_lat":-6.217455,"time":8,"is_transit":false,"i_long":106.939679,"transit":false,"station_id":"KLDB","line":1},{"is_transit":false,"time":1,"transit":false,"distance":1305,"i_long":106.922662,"line":1,"station_id":"BUA","i_lat":-6.215568,"station_name":"Buaran"},{"i_long":106.899548,"line":1,"i_lat":-6.2135,"distance":3100,"station_id":"KLD","is_transit":false,"time":2,"transit":false,"station_name":"Klender"},{"station_name":"Jatinegara","time":3,"is_transit":false,"distance":3395,"line":1,"station_id":"JNG","i_lat":-6.215091,"i_long":106.86807400000001,"transit":false},{"i_long":106.858896,"is_transit":false,"line":1,"station_id":"MTR","distance":1377,"i_lat":-6.212485,"transit":false,"station_name":"Matraman","time":2},{"transit":true,"station_name":"Manggarai","station_id":"MRI","distance":1275,"line":2,"i_lat":-6.209883,"is_transit":true,"time":2,"i_long":106.84912},{"line":2,"i_lat":-6.198556,"station_id":"CKI","is_transit":false,"station_name":"Cikini","distance":1590,"transit":false,"i_long":106.840169,"time":4},{"i_lat":-6.186295,"transit":false,"station_name":"Gondangdia","time":3,"distance":1750,"is_transit":false,"i_long":106.832183,"line":2,"station_id":"GDD"},{"station_name":"Juanda","is_transit":false,"station_id":"JUA","transit":false,"line":2,"distance":2015,"time":4,"i_lat":-6.166716,"i_long":106.828284},{"distance":1149,"line":2,"time":2,"station_id":"SW","station_name":"Sawah Besar","i_lat":-6.160725,"is_transit":false,"i_long":106.827103,"transit":false},{"distance":906,"transit":false,"station_id":"MGB","is_transit":false,"time":2,"i_long":106.82482,"i_lat":-6.149769,"line":2,"station_name":"Manggabesar"},{"time":2,"i_lat":-6.141205,"i_long":106.820901,"station_name":"Jayakarta","line":2,"transit":false,"station_id":"JAY","distance":1080,"is_transit":false},{"time":4,"distance":1264,"is_transit":true,"transit":true,"station_id":"JAKK","i_long":106.812439,"line":2,"station_name":"Jakarta Kota","i_lat":-6.137569},{"i_lat":-6.132549,"station_name":"Kampung Bandan","distance":1364,"station_id":"KPB","is_transit":true,"time":3,"transit":true,"line":4,"i_long":106.826365},{"transit":false,"distance":4102,"station_id":"AK","time":9,"line":1,"station_name":"Angke","i_lat":-6.144674,"is_transit":false,"i_long":106.79867},{"is_transit":false,"i_long":106.800832,"transit":false,"station_name":"Duri","distance":1230,"time":4,"i_lat":-6.155215,"station_id":"DU","line":1},{"transit":false,"time":8,"distance":3632,"station_name":"Tanah Abang","station_id":"THB","line":1,"is_transit":false,"i_lat":-6.185545,"i_long":106.811091},{"station_id":"KAT","is_transit":false,"time":5,"i_lat":-6.20132,"i_long":106.816351,"line":1,"distance":2029,"station_name":"Karet","transit":false},{"station_name":"Sudirman Baru","i_lat":-6.201433,"distance":471,"i_long":106.819881,"station_id":"SUDB","line":1,"time":1,"transit":false,"is_transit":false},{"i_lat":-6.202263,"line":1,"station_name":"Sudirman","transit":false,"station_id":"SUD","i_long":106.822649,"distance":280,"time":1,"is_transit":false}],[{"line":1,"station_id":"CIT","is_transit":false,"distance":0,"time":0,"transit":false,"station_name":"Cibitung","i_long":107.083084,"i_lat":-6.261877},{"transit":false,"distance":3420,"station_name":"Tambun","station_id":"TB","is_transit":false,"time":3,"i_lat":-6.258864,"line":1,"i_long":107.055722},{"transit":false,"station_name":"Bekasi Timur","is_transit":false,"i_lat":-6.248029,"i_long":107.016735,"distance":4460,"station_id":"BKST","line":1,"time":7},{"transit":false,"distance":2368,"i_long":106.997013,"i_lat":-6.236616,"time":2,"line":1,"station_name":"Bekasi","station_id":"BKS","is_transit":false},{"distance":2520,"is_transit":false,"i_long":106.977657,"line":1,"transit":false,"station_id":"KRI","station_name":"Kranji","i_lat":-6.224515,"time":4},{"station_name":"Cakung","station_id":"CUK","line":1,"distance":3097,"is_transit":false,"i_long":106.951283,"i_lat":-6.219053,"time":3,"transit":false},{"time":8,"station_id":"KLDB","transit":false,"line":1,"station_name":"Klenderbaru","distance":1385,"is_transit":false,"i_lat":-6.217455,"i_long":106.939679},{"line":1,"station_id":"BUA","time":1,"distance":1305,"i_lat":-6.215568,"transit":false,"station_name":"Buaran","i_long":106.922662,"is_transit":false},{"transit":false,"time":2,"distance":3100,"i_lat":-6.2135,"is_transit":false,"station_id":"KLD","line":1,"station_name":"Klender","i_long":106.899548},{"i_lat":-6.215091,"time":3,"i_long":106.86807400000001,"transit":true,"station_name":"Jatinegara","line":1,"distance":3395,"station_id":"JNG","is_transit":true},{"transit":false,"station_id":"POK","time":2,"distance":1236,"i_long":106.861737,"is_transit":false,"line":11,"station_name":"Pondok Jati","i_lat":-6.209188},{"is_transit":false,"distance":1829,"i_long":106.855437,"i_lat":-6.193792,"line":11,"transit":false,"time":2,"station_name":"Kramat","station_id":"KMT"},{"station_id":"GST","time":1,"i_long":106.850107,"line":11,"station_name":"Gang Sentiong","distance":973,"is_transit":false,"transit":false,"i_lat":-6.185975},{"distance":1567,"i_long":106.84368,"is_transit":false,"line":11,"time":8,"i_lat":-6.174784,"station_id":"PSE","transit":false,"station_name":"Pasar Senen"},{"is_transit":false,"i_long":106.839204,"i_lat":-6.161728,"time":4,"station_id":"KMO","station_name":"Kemayoran","distance":1436,"line":11,"transit":false},{"distance":1901,"transit":false,"i_long":106.836569,"time":5,"station_name":"Rajawali","station_id":"RJW","is_transit":false,"i_lat":-6.14505,"line":11},{"station_name":"Kampung Bandan","station_id":"KPB","distance":1444,"i_lat":-6.132549,"line":4,"is_transit":true,"transit":true,"i_long":106.826365,"time":3},{"station_id":"JAKK","time":3,"line":2,"i_long":106.812439,"distance":1364,"is_transit":true,"i_lat":-6.137569,"transit":true,"station_name":"Jakarta Kota"},{"station_name":"Jayakarta","time":4,"line":2,"station_id":"JAY","transit":false,"i_long":106.820901,"distance":1264,"is_transit":false,"i_lat":-6.141205},{"i_lat":-6.149769,"distance":1080,"station_name":"Manggabesar","time":2,"is_transit":false,"i_long":106.82482,"line":2,"transit":false,"station_id":"MGB"},{"distance":906,"i_long":106.827103,"line":2,"i_lat":-6.160725,"station_id":"SW","station_name":"Sawah Besar","time":2,"is_transit":false,"transit":false},{"station_id":"JUA","i_lat":-6.166716,"transit":false,"time":2,"is_transit":false,"distance":1149,"station_name":"Juanda","line":2,"i_long":106.828284},{"station_name":"Gondangdia","i_lat":-6.186295,"is_transit":false,"i_long":106.832183,"time":4,"line":2,"transit":false,"station_id":"GDD","distance":2015},{"i_long":106.840169,"distance":1750,"time":3,"transit":false,"line":2,"is_transit":false,"station_name":"Cikini","station_id":"CKI","i_lat":-6.198556},{"i_long":106.84912,"is_transit":true,"distance":1590,"transit":true,"station_name":"Manggarai","i_lat":-6.209883,"line":2,"time":4,"station_id":"MRI"},{"is_transit":false,"transit":false,"station_name":"Sudirman","distance":3186,"i_lat":-6.202263,"station_id":"SUD","time":4,"line":1,"i_long":106.822649}]]}