{"data":[[{"station_id":"CIT","transit":false,"distance":0,"i_long":107.083084,"station_name":"Cibitung","is_transit":false,"time":0,"i_lat":-6.261877,"line":1},{"line":1,"is_transit":false,"distance":3420,"time":3,"i_long":107.055722,"station_name":"Tambun","station_id":"TB","transit":false,"i_lat":-6.258864},{"line":1,"time":7,"distance":4460,"station_id":"BKST","i_lat":-6.248029,"station_name":"Bekasi Timur","i_long":107.016735,"is_transit":false,"transit":false},{"i_long":106.997013,"i_lat":-6.236616,"station_name":"Bekasi","line":1,"distance":2368,"time":2,"is_transit":false,"station_id":"BKS","transit":false},{"station_name":"Kranji","line":1,"is_transit":false,"distance":2520,"transit":false,"station_id":"KRI","i_long":106.977657,"i_lat":-6.224515,"time":4},{"station_name":"Cakung","station_id":"CUK","transit":false,"time":3,"distance":3097,"is_transit":false,"i_lat":-6.219053,"i_long":106.951283,"line":1},{"time":8,"line":1,"station_id":"KLDB","is_transit":false,"transit":false,"station_name":"Klenderbaru","distance":1385,"i_lat":-6.217455,"i_long":106.939679},{"line":1,"i_long":106.922662,"i_lat":-6.215568,"transit":false,"station_id":"BUA","time":1,"station_name":"Buaran","distance":1305,"is_transit":false},{"line":1,"station_name":"Klender","station_id":"KLD","time":2,"transit":false,"is_transit":false,"i_long":106.899548,"distance":3100,"i_lat":-6.2135},{"transit":true,"line":1,"is_transit":true,"station_id":"JNG","i_long":106.86807400000001,"time":3,"distance":3395,"i_lat":-6.215091,"station_name":"Jatinegara"},{"time":2,"i_long":106.861737,"line":11,"i_lat":-6.209188,"is_transit":false,"station_id":"POK","transit":false,"station_name":"Pondok Jati","distance":1236},{"transit":false,"distance":1829,"line":11,"station_id":"KMT","i_lat":-6.193792,"station_name":"Kramat","time":2,"i_long":106.855437,"is_transit":false}],[{"i_lat":-6.261877,"station_id":"CIT","i_long":107.083084,"distance":0,"time":0,"line":1,"transit":false,"station_name":"Cibitung","is_transit":false},{"i_lat":-6.258864,"station_id":"TB","station_name":"Tambun","distance":3420,"time":3,"i_long":107.055722,"transit":false,"line":1,"is_transit":false},{"station_name":"Bekasi Timur","station_id":"BKST","is_transit":false,"distance":4460,"i_long":107.016735,"time":7,"i_lat":-6.248029,"line":1,"transit":false},{"i_lat":-6.236616,"i_long":106.997013,"line":1,"distance":2368,"station_name":"Bekasi","transit":false,"station_id":"BKS","is_transit":false,"time":2},{"distance":2520,"station_name":"Kranji","transit":false,"i_long":106.977657,"line":1,"i_lat":-6.224515,"station_id":"KRI","time":4,"is_transit":false},{"i_lat":-6.219053,"time":3,"i_long":106.951283,"distance":3097,"station_id":"CUK","station_name":"Cakung","line":1,"is_transit":false,"transit":false},{"transit":false,"distance":1385,"station_name":"Klenderbaru","is_transit":false,"station_id":"KLDB","time":8,"i_lat":-6.217455,"line":1,"i_long":106.939679},{"station_id":"BUA","i_lat":-6.215568,"is_transit":false,"line":1,"transit":false,"station_name":"Buaran","distance":1305,"time":1,"i_long":106.922662},{"distance":3100,"transit":false,"station_id":"KLD","time":2,"station_name":"Klender","i_long":106.899548,"i_lat":-6.2135,"line":1,"is_transit":false},{"time":3,"i_lat":-6.215091,"transit":false,"i_long":106.86807400000001,"station_name":"Jatinegara","station_id":"JNG","line":1,"distance":3395,"is_transit":false},{"is_transit":false,"distance":1377,"time":2,"i_long":106.858896,"transit":false,"line":1,"i_lat":-6.212485,"station_id":"MTR","station_name":"Matraman"},{"time":2,"distance":1275,"line":2,"i_lat":-6.209883,"is_transit":false,"station_id":"MRI","transit":false,"i_long":106.84912,"station_name":"Manggarai"},{"is_transit":false,"time":4,"station_name":"Sudirman","line":1,"station_id":"SUD","transit":false,"distance":3186,"i_long":106.822649,"i_lat":-6.202263},{"is_transit":false,"station_name":"Sudirman Baru","line":1,"transit":false,"i_long":106.819881,"time":1,"distance":280,"station_id":"SUDB","i_lat":-6.201433},{"is_transit":false,"station_name":"Karet","i_long":106.816351,"line":1,"i_lat":-6.20132,"station_id":"KAT","distance":471,"transit":false,"time":1},{"line":1,"time":5,"distance":2029,"is_transit":false,"transit":false,"station_name":"Tanah Abang","i_long":106.811091,"station_id":"THB","i_lat":-6.185545},{"is_transit":false,"distance":3632,"station_id":"DU","line":1,"station_name":"Duri","time":8,"i_lat":-6.155215,"i_long":106.800832,"transit":false},{"i_long":106.79867,"line":1,"station_id":"AK","time":4,"station_name":"Angke","is_transit":false,"distance":1230,"transit":false,"i_lat":-6.144674},{"transit":true,"station_name":"Kampung Bandan","is_transit":true,"time":9,"station_id":"KPB","line":4,"i_lat":-6.132549,"distance":4102,"i_long":106.826365},{"i_long":106.836569,"distance":1444,"line":11,"i_lat":-6.14505,"transit":false,"station_name":"Rajawali","station_id":"RJW","is_transit":false,"time":3},{"station_id":"KMO","line":11,"is_transit":false,"i_long":106.839204,"i_lat":-6.161728,"distance":1901,"transit":false,"time":5,"station_name":"Kemayoran"},{"transit":false,"is_transit":false,"i_long":106.84368,"line":11,"station_name":"Pasar Senen","distance":1436,"station_id":"PSE","i_lat":-6.174784,"time":4},{"time":8,"is_transit":false,"i_lat":-6.185975,"i_long":106.850107,"station_id":"GST","distance":1567,"transit":false,"station_name":"Gang Sentiong","line":11},{"distance":973,"station_name":"Kramat","line":11,"i_long":106.855437,"i_lat":-6.193792,"station_id":"KMT","transit":false,"is_transit":false,"time":1}],[{"line":1,"distance":0,"is_transit":false,"station_name":"Cibitung","station_id":"CIT","transit":false,"time":0,"i_lat":-6.261877,"i_long":107.083084},{"i_lat":-6.258864,"time":3,"transit":false,"station_id":"TB","station_name":"Tambun","distance":3420,"i_long":107.055722,"line":1,"is_transit":false},{"station_id":"BKST","distance":4460,"time":7,"i_lat":-6.248029,"is_transit":false,"station_name":"Bekasi Timur","transit":false,"line":1,"i_long":107.016735},{"is_transit":false,"i_long":106.997013,"transit":false,"station_id":"BKS","i_lat":-6.236616,"station_name":"Bekasi","distance":2368,"line":1,"time":2},{"station_id":"KRI","transit":false,"time":4,"is_transit":false,"distance":2520,"line":1,"i_lat":-6.224515,"station_name":"Kranji","i_long":106.977657},{"station_name":"Cakung","time":3,"i_lat":-6.219053,"distance":3097,"station_id":"CUK","is_transit":false,"transit":false,"line":1,"i_long":106.951283},{"is_transit":false,"distance":1385,"line":1,"transit":false,"station_id":"KLDB","time":8,"i_lat":-6.217455,"station_name":"Klenderbaru","i_long":106.939679},{"is_transit":false,"i_lat":-6.215568,"transit":false,"i_long":106.922662,"time":1,"station_name":"Buaran","line":1,"station_id":"BUA","distance":1305},{"i_lat":-6.2135,"time":2,"transit":false,"station_name":"Klender","is_transit":false,"distance":3100,"line":1,"i_long":106.899548,"station_id":"KLD"},{"station_id":"JNG","transit":false,"station_name":"Jatinegara","is_transit":false,"time":3,"i_lat":-6.215091,"distance":3395,"i_long":106.86807400000001,"line":1},{"i_lat":-6.212485,"station_name":"Matraman","is_transit":false,"station_id":"MTR","transit":false,"line":1,"distance":1377,"time":2,"i_long":106.858896},{"distance":1275,"line":2,"transit":true,"station_id":"MRI","is_transit":true,"time":2,"i_lat":-6.209883,"i_long":106.84912,"station_name":"Manggarai"},{"transit":false,"time":4,"distance":1590,"i_lat":-6.198556,"i_long":106.840169,"station_name":"Cikini","line":2,"station_id":"CKI","is_transit":false},{"i_lat":-6.186295,"transit":false,"is_transit":false,"i_long":106.832183,"station_id":"GDD","station_name":"Gondangdia","time":3,"distance":1750,"line":2},{"line":2,"i_lat":-6.166716,"transit":false,"time":4,"distance":2015,"station_name":"Juanda","station_id":"JUA","is_transit":false,"i_long":106.828284},{"transit":false,"i_long":106.827103,"is_transit":false,"i_lat":-6.160725,"station_id":"SW","line":2,"time":2,"distance":1149,"station_name":"Sawah Besar"},{"distance":906,"station_name":"Manggabesar","is_transit":false,"time":2,"transit":false,"i_lat":-6.149769,"i_long":106.82482,"line":2,"station_id":"MGB"},{"station_name":"Jayakarta","station_id":"JAY","i_lat":-6.141205,"is_transit":false,"time":2,"transit":false,"distance":1080,"i_long":106.820901,"line":2},{"i_long":106.812439,"station_name":"Jakarta Kota","station_id":"JAKK","is_transit":true,"i_lat":-6.137569,"transit":true,"time":4,"distance":1264,"line":2},{"distance":1364,"time":3,"i_lat":-6.132549,"line":4,"station_name":"Kampung Bandan","is_transit":true,"station_id":"KPB","transit":true,"i_long":106.826365},{"i_lat":-6.14505,"time":3,"i_long":106.836569,"station_name":"Rajawali","transit":false,"is_transit":false,"distance":1444,"line":11,"station_id":"RJW"},{"line":11,"is_transit":false,"time":5,"i_long":106.839204,"i_lat":-6.161728,"station_name":"Kemayoran","transit":false,"station_id":"KMO","distance":1901},{"station_id":"PSE","transit":false,"i_lat":-6.174784,"time":4,"i_long":106.84368,"distance":1436,"line":11,"station_name":"Pasar Senen","is_transit":false},{"line":11,"is_transit":false,"station_name":"Gang Sentiong","time":8,"distance":1567,"i_lat":-6.185975,"station_id":"GST","transit":false,"i_long":106.850107},{"line":11,"station_id":"KMT","transit":false,"i_long":106.855437,"distance":973,"station_name":"Kramat","is_transit":false,"i_lat":-6.193792,"time":1}]]}