{"data":[[{"time":0,"station_id":"CIT","distance":0,"transit":false,"i_lat":-6.261877,"station_name":"Cibitung","is_transit":false,"line":1,"i_long":107.083084},{"i_lat":-6.258864,"station_id":"TB","station_name":"Tambun","time":3,"i_long":107.055722,"transit":false,"distance":3420,"line":1,"is_transit":false},{"line":1,"station_id":"BKST","time":7,"i_long":107.016735,"i_lat":-6.248029,"transit":false,"station_name":"Bekasi Timur","is_transit":false,"distance":4460},{"time":2,"is_transit":false,"station_id":"BKS","transit":false,"distance":2368,"station_name":"Bekasi","i_lat":-6.236616,"line":1,"i_long":106.997013},{"station_name":"Kranji","i_long":106.977657,"station_id":"KRI","transit":false,"line":1,"is_transit":false,"distance":2520,"i_lat":-6.224515,"time":4},{"transit":false,"i_lat":-6.219053,"distance":3097,"is_transit":false,"time":3,"station_id":"CUK","station_name":"Cakung","i_long":106.951283,"line":1},{"station_id":"KLDB","station_name":"Klenderbaru","time":8,"distance":1385,"transit":false,"i_long":106.939679,"i_lat":-6.217455,"line":1,"is_transit":false},{"i_long":106.922662,"line":1,"i_lat":-6.215568,"station_name":"Buaran","time":1,"is_transit":false,"transit":false,"station_id":"BUA","distance":1305},{"distance":3100,"is_transit":false,"time":2,"station_id":"KLD","transit":false,"station_name":"Klender","i_long":106.899548,"i_lat":-6.2135,"line":1},{"line":1,"is_transit":false,"station_id":"JNG","i_long":106.86807400000001,"distance":3395,"time":3,"i_lat":-6.215091,"station_name":"Jatinegara","transit":false},{"i_long":106.858896,"station_id":"MTR","distance":1377,"transit":false,"time":2,"i_lat":-6.212485,"line":1,"is_transit":false,"station_name":"Matraman"},{"distance":1275,"transit":false,"i_lat":-6.209883,"i_long":106.84912,"line":2,"station_id":"MRI","is_transit":false,"station_name":"Manggarai","time":2},{"line":1,"station_id":"SUD","station_name":"Sudirman","time":4,"distance":3186,"is_transit":false,"i_lat":-6.202263,"i_long":106.822649,"transit":false},{"station_id":"SUDB","i_lat":-6.201433,"transit":false,"time":1,"line":1,"is_transit":false,"station_name":"Sudirman Baru","distance":280,"i_long":106.819881},{"i_long":106.816351,"line":1,"time":1,"station_name":"Karet","is_transit":false,"i_lat":-6.20132,"distance":471,"station_id":"KAT","transit":false},{"i_long":106.811091,"distance":2029,"is_transit":true,"line":1,"station_name":"Tanah Abang","i_lat":-6.185545,"station_id":"THB","time":5,"transit":true},{"transit":false,"time":6,"station_name":"Palmerah","is_transit":false,"line":6,"distance":3191,"i_lat":-6.207404,"i_long":106.79689,"station_id":"PLM"},{"i_lat":-6.237242,"station_id":"KBY","line":6,"station_name":"Kebayoran","i_long":106.780334,"time":7,"transit":false,"is_transit":false,"distance":3737},{"station_id":"PDJ","i_lat":-6.276362,"i_long":106.74273,"is_transit":false,"time":8,"transit":false,"station_name":"Pondokranji","distance":6218,"line":6},{"station_id":"JMU","distance":2179,"i_long":106.728916,"line":6,"station_name":"Jurangmangu","time":3,"i_lat":-6.288927,"is_transit":false,"transit":false},{"transit":false,"station_name":"Sudimara","station_id":"SDM","is_transit":false,"distance":1994,"i_lat":-6.296963,"time":4,"i_long":106.712277,"line":6},{"station_id":"RU","station_name":"Rawa Buntu","is_transit":false,"time":6,"distance":4566,"i_lat":-6.314823,"i_long":106.675475,"transit":false,"line":6},{"station_name":"Serpong","is_transit":false,"line":6,"i_long":106.66566,"distance":2413,"time":4,"station_id":"SRP","i_lat":-6.319871,"transit":false},{"station_name":"Cisauk","transit":false,"i_long":106.640411,"time":4,"is_transit":false,"i_lat":-6.32484,"station_id":"CSK","line":3,"distance":1784}],[{"time":0,"is_transit":false,"transit":false,"station_id":"CIT","distance":0,"i_lat":-6.261877,"line":1,"station_name":"Cibitung","i_long":107.083084},{"distance":3420,"line":1,"station_id":"TB","time":3,"station_name":"Tambun","is_transit":false,"i_lat":-6.258864,"i_long":107.055722,"transit":false},{"distance":4460,"time":7,"i_lat":-6.248029,"is_transit":false,"station_name":"Bekasi Timur","line":1,"station_id":"BKST","transit":false,"i_long":107.016735},{"is_transit":false,"distance":2368,"transit":false,"station_name":"Bekasi","line":1,"station_id":"BKS","time":2,"i_lat":-6.236616,"i_long":106.997013},{"distance":2520,"station_id":"KRI","i_long":106.977657,"is_transit":false,"station_name":"Kranji","time":4,"line":1,"i_lat":-6.224515,"transit":false},{"is_transit":false,"time":3,"distance":3097,"i_long":106.951283,"line":1,"transit":false,"i_lat":-6.219053,"station_name":"Cakung","station_id":"CUK"},{"i_long":106.939679,"station_id":"KLDB","station_name":"Klenderbaru","is_transit":false,"transit":false,"time":8,"line":1,"i_lat":-6.217455,"distance":1385},{"distance":1305,"i_long":106.922662,"time":1,"line":1,"station_name":"Buaran","station_id":"BUA","is_transit":false,"transit":false,"i_lat":-6.215568},{"station_id":"KLD","station_name":"Klender","i_long":106.899548,"distance":3100,"transit":false,"is_transit":false,"time":2,"line":1,"i_lat":-6.2135},{"station_id":"JNG","distance":3395,"line":1,"i_lat":-6.215091,"i_long":106.86807400000001,"station_name":"Jatinegara","is_transit":true,"time":3,"transit":true},{"station_id":"POK","i_lat":-6.209188,"station_name":"Pondok Jati","i_long":106.861737,"is_transit":false,"transit":false,"line":11,"time":2,"distance":1236},{"station_name":"Kramat","i_lat":-6.193792,"time":2,"transit":false,"i_long":106.855437,"is_transit":false,"line":11,"station_id":"KMT","distance":1829},{"station_name":"Gang Sentiong","is_transit":false,"time":1,"station_id":"GST","distance":973,"i_lat":-6.185975,"i_long":106.850107,"line":11,"transit":false},{"i_lat":-6.174784,"line":11,"transit":false,"i_long":106.84368,"station_name":"Pasar Senen","is_transit":false,"station_id":"PSE","distance":1567,"time":8},{"is_transit":false,"i_lat":-6.161728,"i_long":106.839204,"station_name":"Kemayoran","transit":false,"station_id":"KMO","time":4,"distance":1436,"line":11},{"is_transit":false,"distance":1901,"transit":false,"line":11,"station_name":"Rajawali","station_id":"RJW","i_lat":-6.14505,"time":5,"i_long":106.836569},{"line":4,"station_id":"KPB","is_transit":true,"time":3,"transit":true,"i_long":106.826365,"i_lat":-6.132549,"station_name":"Kampung Bandan","distance":1444},{"time":9,"station_name":"Angke","distance":4102,"transit":false,"i_long":106.79867,"i_lat":-6.144674,"line":1,"is_transit":false,"station_id":"AK"},{"is_transit":false,"i_lat":-6.155215,"time":4,"transit":false,"station_name":"Duri","distance":1230,"i_long":106.800832,"line":1,"station_id":"DU"},{"is_transit":true,"station_name":"Tanah Abang","line":1,"time":8,"i_long":106.811091,"distance":3632,"transit":true,"i_lat":-6.185545,"station_id":"THB"},{"is_transit":false,"transit":false,"station_id":"PLM","line":6,"station_name":"Palmerah","i_lat":-6.207404,"distance":3191,"time":6,"i_long":106.79689},{"transit":false,"i_lat":-6.237242,"station_name":"Kebayoran","i_long":106.780334,"time":7,"station_id":"KBY","line":6,"is_transit":false,"distance":3737},{"distance":6218,"i_long":106.74273,"station_id":"PDJ","station_name":"Pondokranji","is_transit":false,"transit":false,"time":8,"i_lat":-6.276362,"line":6},{"is_transit":false,"station_name":"Jurangmangu","station_id":"JMU","line":6,"time":3,"transit":false,"i_lat":-6.288927,"i_long":106.728916,"distance":2179},{"i_lat":-6.296963,"time":4,"station_name":"Sudimara","station_id":"SDM","transit":false,"is_transit":false,"i_long":106.712277,"distance":1994,"line":6},{"time":6,"station_id":"RU","station_name":"Rawa Buntu","is_transit":false,"distance":4566,"i_long":106.675475,"line":6,"transit":false,"i_lat":-6.314823},{"station_id":"SRP","station_name":"Serpong","distance":2413,"i_lat":-6.319871,"transit":false,"line":6,"is_transit":false,"i_long":106.66566,"time":4},{"transit":false,"station_id":"CSK","time":4,"line":3,"station_name":"Cisauk","i_long":106.640411,"is_transit":false,"i_lat":-6.32484,"distance":1784}],[{"station_id":"CIT","station_name":"Cibitung","time":0,"distance":0,"line":1,"transit":false,"i_lat":-6.261877,"i_long":107.083084,"is_transit":false},{"transit":false,"time":3,"line":1,"station_name":"Tambun","is_transit":false,"station_id":"TB","i_long":107.055722,"i_lat":-6.258864,"distance":3420},{"distance":4460,"i_long":107.016735,"line":1,"station_id":"BKST","time":7,"transit":false,"is_transit":false,"station_name":"Bekasi Timur","i_lat":-6.248029},{"line":1,"distance":2368,"i_lat":-6.236616,"station_name":"Bekasi","time":2,"transit":false,"station_id":"BKS","is_transit":false,"i_long":106.997013},{"line":1,"is_transit":false,"distance":2520,"i_long":106.977657,"station_id":"KRI","i_lat":-6.224515,"station_name":"Kranji","transit":false,"time":4},{"line":1,"time":3,"transit":false,"i_lat":-6.219053,"is_transit":false,"station_id":"CUK","i_long":106.951283,"station_name":"Cakung","distance":3097},{"station_name":"Klenderbaru","distance":1385,"i_lat":-6.217455,"i_long":106.939679,"line":1,"time":8,"station_id":"KLDB","is_transit":false,"transit":false},{"distance":1305,"i_long":106.922662,"transit":false,"station_id":"BUA","station_name":"Buaran","is_transit":false,"time":1,"i_lat":-6.215568,"line":1},{"line":1,"station_name":"Klender","i_lat":-6.2135,"transit":false,"is_transit":false,"time":2,"distance":3100,"station_id":"KLD","i_long":106.899548},{"transit":false,"is_transit":false,"i_lat":-6.215091,"station_name":"Jatinegara","time":3,"i_long":106.86807400000001,"distance":3395,"station_id":"JNG","line":1},{"transit":false,"station_name":"Matraman","time":2,"i_long":106.858896,"distance":1377,"i_lat":-6.212485,"station_id":"MTR","line":1,"is_transit":false},{"transit":true,"i_long":106.84912,"line":2,"station_id":"MRI","is_transit":true,"time":2,"station_name":"Manggarai","distance":1275,"i_lat":-6.209883},{"line":2,"time":4,"is_transit":false,"station_id":"CKI","distance":1590,"transit":false,"station_name":"Cikini","i_lat":-6.198556,"i_long":106.840169},{"i_long":106.832183,"line":2,"transit":false,"station_name":"Gondangdia","is_transit":false,"time":3,"distance":1750,"station_id":"GDD","i_lat":-6.186295},{"station_id":"JUA","i_lat":-6.166716,"transit":false,"station_name":"Juanda","i_long":106.828284,"is_transit":false,"line":2,"distance":2015,"time":4},{"distance":1149,"i_lat":-6.160725,"station_id":"SW","is_transit":false,"station_name":"Sawah Besar","transit":false,"i_long":106.827103,"time":2,"line":2},{"station_id":"MGB","is_transit":false,"time":2,"station_name":"Manggabesar","distance":906,"i_long":106.82482,"transit":false,"i_lat":-6.149769,"line":2},{"line":2,"transit":false,"i_lat":-6.141205,"i_long":106.820901,"station_name":"Jayakarta","distance":1080,"time":2,"station_id":"JAY","is_transit":false},{"time":4,"line":2,"transit":true,"is_transit":true,"distance":1264,"i_long":106.812439,"i_lat":-6.137569,"station_id":"JAKK","station_name":"Jakarta Kota"},{"distance":1364,"line":4,"station_id":"KPB","transit":true,"time":3,"is_transit":true,"i_lat":-6.132549,"i_long":106.826365,"station_name":"Kampung Bandan"},{"is_transit":false,"distance":4102,"transit":false,"station_name":"Angke","i_long":106.79867,"line":1,"time":9,"station_id":"AK","i_lat":-6.144674},{"time":4,"i_long":106.800832,"is_transit":false,"transit":false,"station_id":"DU","i_lat":-6.155215,"line":1,"station_name":"Duri","distance":1230},{"station_name":"Tanah Abang","line":1,"is_transit":true,"i_long":106.811091,"transit":true,"distance":3632,"time":8,"i_lat":-6.185545,"station_id":"THB"},{"line":6,"transit":false,"station_id":"PLM","station_name":"Palmerah","is_transit":false,"time":6,"distance":3191,"i_lat":-6.207404,"i_long":106.79689},{"is_transit":false,"distance":3737,"line":6,"transit":false,"station_id":"KBY","time":7,"i_lat":-6.237242,"i_long":106.780334,"station_name":"Kebayoran"},{"distance":6218,"is_transit":false,"time":8,"i_lat":-6.276362,"i_long":106.74273,"line":6,"station_name":"Pondokranji","transit":false,"station_id":"PDJ"},{"i_long":106.728916,"transit":false,"station_name":"Jurangmangu","i_lat":-6.288927,"line":6,"station_id":"JMU","time":3,"distance":2179,"is_transit":false},{"is_transit":false,"i_long":106.712277,"station_id":"SDM","line":6,"i_lat":-6.296963,"transit":false,"distance":1994,"station_name":"Sudimara","time":4},{"distance":4566,"i_lat":-6.314823,"transit":false,"station_id":"RU","is_transit":false,"i_long":106.675475,"time":6,"station_name":"Rawa Buntu","line":6},{"station_id":"SRP","i_lat":-6.319871,"is_transit":false,"station_name":"Serpong","i_long":106.66566,"line":6,"time":4,"transit":false,"distance":2413},{"i_long":106.640411,"time":4,"line":3,"station_id":"CSK","station_name":"Cisauk","is_transit":false,"i_lat":-6.32484,"distance":1784,"transit":false}],[{"is_transit":false,"distance":0,"i_lat":-6.261877,"i_long":107.083084,"transit":false,"line":1,"time":0,"station_id":"CIT","station_name":"Cibitung"},{"is_transit":false,"distance":3420,"i_lat":-6.258864,"station_id":"TB","station_name":"Tambun","time":3,"i_long":107.055722,"line":1,"transit":false},{"distance":4460,"line":1,"time":7,"i_long":107.016735,"transit":false,"station_id":"BKST","station_name":"Bekasi Timur","is_transit":false,"i_lat":-6.248029},{"time":2,"distance":2368,"i_lat":-6.236616,"i_long":106.997013,"is_transit":false,"station_id":"BKS","line":1,"transit":false,"station_name":"Bekasi"},{"station_name":"Kranji","is_transit":false,"transit":false,"i_long":106.977657,"station_id":"KRI","distance":2520,"time":4,"i_lat":-6.224515,"line":1},{"i_long":106.951283,"is_transit":false,"line":1,"station_id":"CUK","transit":false,"station_name":"Cakung","time":3,"i_lat":-6.219053,"distance":3097},{"is_transit":false,"time":8,"i_long":106.939679,"transit":false,"i_lat":-6.217455,"station_id":"KLDB","distance":1385,"line":1,"station_name":"Klenderbaru"},{"i_lat":-6.215568,"line":1,"i_long":106.922662,"distance":1305,"transit":false,"is_transit":false,"station_id":"BUA","station_name":"Buaran","time":1},{"transit":false,"i_lat":-6.2135,"is_transit":false,"station_id":"KLD","line":1,"station_name":"Klender","i_long":106.899548,"distance":3100,"time":2},{"line":1,"transit":true,"station_name":"Jatinegara","distance":3395,"i_long":106.86807400000001,"station_id":"JNG","i_lat":-6.215091,"time":3,"is_transit":true},{"line":11,"i_long":106.861737,"station_name":"Pondok Jati","is_transit":false,"distance":1236,"transit":false,"station_id":"POK","i_lat":-6.209188,"time":2},{"station_id":"KMT","time":2,"distance":1829,"transit":false,"i_long":106.855437,"line":11,"is_transit":false,"station_name":"Kramat","i_lat":-6.193792},{"station_name":"Gang Sentiong","i_lat":-6.185975,"station_id":"GST","time":1,"i_long":106.850107,"line":11,"distance":973,"transit":false,"is_transit":false},{"line":11,"i_long":106.84368,"station_name":"Pasar Senen","i_lat":-6.174784,"station_id":"PSE","transit":false,"is_transit":false,"time":8,"distance":1567},{"i_lat":-6.161728,"transit":false,"station_name":"Kemayoran","station_id":"KMO","distance":1436,"i_long":106.839204,"line":11,"is_transit":false,"time":4},{"station_name":"Rajawali","distance":1901,"i_long":106.836569,"transit":false,"station_id":"RJW","is_transit":false,"i_lat":-6.14505,"time":5,"line":11},{"transit":true,"station_id":"KPB","is_transit":true,"time":3,"distance":1444,"line":4,"station_name":"Kampung Bandan","i_lat":-6.132549,"i_long":106.826365},{"station_name":"Jakarta Kota","transit":true,"time":3,"distance":1364,"line":2,"station_id":"JAKK","is_transit":true,"i_lat":-6.137569,"i_long":106.812439},{"i_long":106.820901,"station_id":"JAY","line":2,"is_transit":false,"i_lat":-6.141205,"time":4,"transit":false,"station_name":"Jayakarta","distance":1264},{"transit":false,"station_id":"MGB","distance":1080,"i_lat":-6.149769,"i_long":106.82482,"line":2,"station_name":"Manggabesar","is_transit":false,"time":2},{"is_transit":false,"line":2,"station_name":"Sawah Besar","station_id":"SW","time":2,"distance":906,"i_lat":-6.160725,"i_long":106.827103,"transit":false},{"i_long":106.828284,"i_lat":-6.166716,"is_transit":false,"distance":1149,"station_name":"Juanda","line":2,"time":2,"transit":false,"station_id":"JUA"},{"station_id":"GDD","station_name":"Gondangdia","line":2,"time":4,"transit":false,"i_long":106.832183,"distance":2015,"is_transit":false,"i_lat":-6.186295},{"station_name":"Cikini","distance":1750,"transit":false,"is_transit":false,"time":3,"i_lat":-6.198556,"i_long":106.840169,"line":2,"station_id":"CKI"},{"i_lat":-6.209883,"distance":1590,"time":4,"transit":true,"is_transit":true,"i_long":106.84912,"line":2,"station_name":"Manggarai","station_id":"MRI"},{"time":4,"distance":3186,"line":1,"station_id":"SUD","station_name":"Sudirman","transit":false,"i_lat":-6.202263,"i_long":106.822649,"is_transit":false},{"transit":false,"station_name":"Sudirman Baru","time":1,"is_transit":false,"i_lat":-6.201433,"station_id":"SUDB","i_long":106.819881,"distance":280,"line":1},{"time":1,"station_name":"Karet","line":1,"is_transit":false,"station_id":"KAT","transit":false,"distance":471,"i_lat":-6.20132,"i_long":106.816351},{"i_lat":-6.185545,"time":5,"distance":2029,"transit":true,"station_id":"THB","station_name":"Tanah Abang","line":1,"i_long":106.811091,"is_transit":true},{"is_transit":false,"line":6,"station_id":"PLM","transit":false,"station_name":"Palmerah","time":6,"distance":3191,"i_long":106.79689,"i_lat":-6.207404},{"time":7,"line":6,"station_id":"KBY","i_lat":-6.237242,"is_transit":false,"station_name":"Kebayoran","distance":3737,"transit":false,"i_long":106.780334},{"station_id":"PDJ","station_name":"Pondokranji","is_transit":false,"distance":6218,"i_long":106.74273,"transit":false,"time":8,"i_lat":-6.276362,"line":6},{"line":6,"i_long":106.728916,"i_lat":-6.288927,"transit":false,"time":3,"is_transit":false,"station_name":"Jurangmangu","distance":2179,"station_id":"JMU"},{"transit":false,"distance":1994,"i_long":106.712277,"time":4,"is_transit":false,"station_id":"SDM","station_name":"Sudimara","i_lat":-6.296963,"line":6},{"i_lat":-6.314823,"time":6,"station_id":"RU","station_name":"Rawa Buntu","distance":4566,"transit":false,"i_long":106.675475,"is_transit":false,"line":6},{"transit":false,"station_name":"Serpong","i_long":106.66566,"line":6,"is_transit":false,"station_id":"SRP","time":4,"distance":2413,"i_lat":-6.319871},{"i_lat":-6.32484,"line":3,"time":4,"is_transit":false,"transit":false,"station_id":"CSK","station_name":"Cisauk","distance":1784,"i_long":106.640411}]]}