{"data":[[{"station_id":"CIT","i_long":107.083084,"station_name":"Cibitung","distance":0,"is_transit":false,"time":0,"transit":false,"i_lat":-6.261877,"line":1},{"transit":false,"station_name":"Tambun","is_transit":false,"i_long":107.055722,"distance":3420,"i_lat":-6.258864,"line":1,"station_id":"TB","time":3},{"is_transit":false,"time":7,"distance":4460,"line":1,"i_long":107.016735,"station_name":"Bekasi Timur","station_id":"BKST","transit":false,"i_lat":-6.248029},{"i_lat":-6.236616,"distance":2368,"time":2,"station_name":"Bekasi","transit":false,"is_transit":false,"station_id":"BKS","i_long":106.997013,"line":1},{"time":4,"i_lat":-6.224515,"is_transit":false,"transit":false,"line":1,"station_name":"Kranji","i_long":106.977657,"distance":2520,"station_id":"KRI"},{"i_long":106.951283,"line":1,"station_id":"CUK","time":3,"distance":3097,"transit":false,"i_lat":-6.219053,"is_transit":false,"station_name":"Cakung"},{"i_long":106.939679,"is_transit":false,"station_name":"Klenderbaru","i_lat":-6.217455,"distance":1385,"time":8,"transit":false,"station_id":"KLDB","line":1},{"station_name":"Buaran","i_lat":-6.215568,"station_id":"BUA","i_long":106.922662,"line":1,"transit":false,"distance":1305,"time":1,"is_transit":false},{"distance":3100,"i_lat":-6.2135,"is_transit":false,"station_name":"Klender","station_id":"KLD","i_long":106.899548,"line":1,"transit":false,"time":2},{"station_id":"JNG","i_lat":-6.215091,"line":1,"station_name":"Jatinegara","is_transit":true,"i_long":106.86807400000001,"distance":3395,"time":3,"transit":true},{"time":2,"station_id":"POK","i_lat":-6.209188,"distance":1236,"station_name":"Pondok Jati","i_long":106.861737,"line":11,"transit":false,"is_transit":false}],[{"station_name":"Cibitung","transit":false,"line":1,"distance":0,"station_id":"CIT","is_transit":false,"i_lat":-6.261877,"i_long":107.083084,"time":0},{"time":3,"distance":3420,"station_id":"TB","i_lat":-6.258864,"transit":false,"station_name":"Tambun","is_transit":false,"i_long":107.055722,"line":1},{"time":7,"i_long":107.016735,"distance":4460,"transit":false,"station_id":"BKST","station_name":"Bekasi Timur","is_transit":false,"i_lat":-6.248029,"line":1},{"time":2,"transit":false,"station_name":"Bekasi","i_long":106.997013,"station_id":"BKS","distance":2368,"line":1,"is_transit":false,"i_lat":-6.236616},{"transit":false,"i_long":106.977657,"station_id":"KRI","time":4,"distance":2520,"is_transit":false,"station_name":"Kranji","line":1,"i_lat":-6.224515},{"is_transit":false,"transit":false,"station_id":"CUK","i_lat":-6.219053,"station_name":"Cakung","time":3,"distance":3097,"i_long":106.951283,"line":1},{"transit":false,"station_id":"KLDB","distance":1385,"is_transit":false,"i_lat":-6.217455,"line":1,"time":8,"i_long":106.939679,"station_name":"Klenderbaru"},{"station_id":"BUA","transit":false,"i_long":106.922662,"distance":1305,"station_name":"Buaran","line":1,"time":1,"is_transit":false,"i_lat":-6.215568},{"is_transit":false,"i_lat":-6.2135,"i_long":106.899548,"line":1,"distance":3100,"time":2,"transit":false,"station_id":"KLD","station_name":"Klender"},{"distance":3395,"is_transit":false,"line":1,"station_id":"JNG","time":3,"i_lat":-6.215091,"i_long":106.86807400000001,"station_name":"Jatinegara","transit":false},{"distance":1377,"station_name":"Matraman","i_long":106.858896,"station_id":"MTR","line":1,"is_transit":false,"i_lat":-6.212485,"transit":false,"time":2},{"i_long":106.84912,"distance":1275,"time":2,"i_lat":-6.209883,"line":2,"is_transit":false,"station_name":"Manggarai","transit":false,"station_id":"MRI"},{"distance":3186,"station_id":"SUD","i_lat":-6.202263,"is_transit":false,"transit":false,"i_long":106.822649,"station_name":"Sudirman","line":1,"time":4},{"i_lat":-6.201433,"station_name":"Sudirman Baru","line":1,"transit":false,"time":1,"station_id":"SUDB","i_long":106.819881,"distance":280,"is_transit":false},{"transit":false,"station_name":"Karet","is_transit":false,"i_long":106.816351,"distance":471,"i_lat":-6.20132,"time":1,"line":1,"station_id":"KAT"},{"time":5,"station_id":"THB","transit":false,"i_lat":-6.185545,"is_transit":false,"i_long":106.811091,"distance":2029,"line":1,"station_name":"Tanah Abang"},{"i_lat":-6.155215,"line":1,"i_long":106.800832,"is_transit":false,"station_id":"DU","distance":3632,"transit":false,"time":8,"station_name":"Duri"},{"station_name":"Angke","transit":false,"line":1,"time":4,"distance":1230,"is_transit":false,"i_lat":-6.144674,"i_long":106.79867,"station_id":"AK"},{"transit":true,"i_lat":-6.132549,"distance":4102,"is_transit":true,"time":9,"station_id":"KPB","i_long":106.826365,"station_name":"Kampung Bandan","line":4},{"is_transit":false,"transit":false,"line":11,"station_name":"Rajawali","distance":1444,"time":3,"i_lat":-6.14505,"station_id":"RJW","i_long":106.836569},{"distance":1901,"station_id":"KMO","i_lat":-6.161728,"line":11,"station_name":"Kemayoran","is_transit":false,"time":5,"transit":false,"i_long":106.839204},{"i_long":106.84368,"time":4,"station_name":"Pasar Senen","station_id":"PSE","i_lat":-6.174784,"transit":false,"line":11,"distance":1436,"is_transit":false},{"transit":false,"station_name":"Gang Sentiong","line":11,"station_id":"GST","i_long":106.850107,"time":8,"i_lat":-6.185975,"distance":1567,"is_transit":false},{"station_name":"Kramat","is_transit":false,"transit":false,"time":1,"i_lat":-6.193792,"i_long":106.855437,"line":11,"station_id":"KMT","distance":973},{"is_transit":false,"time":2,"i_long":106.861737,"station_name":"Pondok Jati","station_id":"POK","i_lat":-6.209188,"distance":1829,"line":11,"transit":false}],[{"i_long":107.083084,"station_id":"CIT","transit":false,"time":0,"is_transit":false,"i_lat":-6.261877,"distance":0,"line":1,"station_name":"Cibitung"},{"transit":false,"i_lat":-6.258864,"is_transit":false,"station_id":"TB","station_name":"Tambun","i_long":107.055722,"time":3,"distance":3420,"line":1},{"i_lat":-6.248029,"i_long":107.016735,"distance":4460,"time":7,"is_transit":false,"line":1,"transit":false,"station_name":"Bekasi Timur","station_id":"BKST"},{"transit":false,"station_id":"BKS","distance":2368,"is_transit":false,"i_long":106.997013,"time":2,"i_lat":-6.236616,"line":1,"station_name":"Bekasi"},{"is_transit":false,"line":1,"time":4,"i_long":106.977657,"station_id":"KRI","i_lat":-6.224515,"transit":false,"distance":2520,"station_name":"Kranji"},{"time":3,"distance":3097,"station_id":"CUK","transit":false,"station_name":"Cakung","line":1,"is_transit":false,"i_long":106.951283,"i_lat":-6.219053},{"station_name":"Klenderbaru","time":8,"i_long":106.939679,"i_lat":-6.217455,"distance":1385,"station_id":"KLDB","line":1,"transit":false,"is_transit":false},{"distance":1305,"i_lat":-6.215568,"is_transit":false,"station_name":"Buaran","transit":false,"station_id":"BUA","i_long":106.922662,"line":1,"time":1},{"i_long":106.899548,"distance":3100,"transit":false,"is_transit":false,"station_name":"Klender","station_id":"KLD","i_lat":-6.2135,"time":2,"line":1},{"station_name":"Jatinegara","transit":false,"i_long":106.86807400000001,"line":1,"station_id":"JNG","i_lat":-6.215091,"is_transit":false,"time":3,"distance":3395},{"i_long":106.858896,"is_transit":false,"distance":1377,"station_name":"Matraman","station_id":"MTR","i_lat":-6.212485,"line":1,"time":2,"transit":false},{"station_id":"MRI","line":2,"time":2,"i_long":106.84912,"distance":1275,"i_lat":-6.209883,"is_transit":true,"transit":true,"station_name":"Manggarai"},{"i_lat":-6.198556,"time":4,"line":2,"station_name":"Cikini","distance":1590,"is_transit":false,"station_id":"CKI","i_long":106.840169,"transit":false},{"time":3,"station_id":"GDD","transit":false,"station_name":"Gondangdia","i_long":106.832183,"line":2,"i_lat":-6.186295,"distance":1750,"is_transit":false},{"transit":false,"line":2,"time":4,"station_id":"JUA","distance":2015,"i_lat":-6.166716,"i_long":106.828284,"station_name":"Juanda","is_transit":false},{"line":2,"station_id":"SW","i_long":106.827103,"transit":false,"distance":1149,"station_name":"Sawah Besar","i_lat":-6.160725,"is_transit":false,"time":2},{"station_name":"Manggabesar","station_id":"MGB","time":2,"i_long":106.82482,"line":2,"is_transit":false,"i_lat":-6.149769,"transit":false,"distance":906},{"distance":1080,"station_id":"JAY","line":2,"is_transit":false,"time":2,"station_name":"Jayakarta","transit":false,"i_lat":-6.141205,"i_long":106.820901},{"distance":1264,"i_long":106.812439,"is_transit":true,"transit":true,"station_id":"JAKK","i_lat":-6.137569,"line":2,"station_name":"Jakarta Kota","time":4},{"time":3,"is_transit":true,"station_id":"KPB","line":4,"distance":1364,"i_lat":-6.132549,"station_name":"Kampung Bandan","i_long":106.826365,"transit":true},{"distance":1444,"line":11,"transit":false,"time":3,"station_name":"Rajawali","station_id":"RJW","i_lat":-6.14505,"i_long":106.836569,"is_transit":false},{"station_id":"KMO","i_long":106.839204,"time":5,"transit":false,"i_lat":-6.161728,"distance":1901,"is_transit":false,"line":11,"station_name":"Kemayoran"},{"is_transit":false,"station_name":"Pasar Senen","i_long":106.84368,"distance":1436,"transit":false,"i_lat":-6.174784,"line":11,"station_id":"PSE","time":4},{"distance":1567,"is_transit":false,"line":11,"time":8,"transit":false,"station_name":"Gang Sentiong","i_long":106.850107,"station_id":"GST","i_lat":-6.185975},{"time":1,"station_id":"KMT","i_lat":-6.193792,"i_long":106.855437,"station_name":"Kramat","line":11,"transit":false,"is_transit":false,"distance":973},{"distance":1829,"line":11,"is_transit":false,"station_id":"POK","time":2,"i_lat":-6.209188,"i_long":106.861737,"transit":false,"station_name":"Pondok Jati"}]]}