{"data":[[{"station_id":"CIT","station_name":"Cibitung","i_long":107.083084,"distance":0,"transit":false,"is_transit":false,"time":0,"line":1,"i_lat":-6.261877},{"station_id":"TB","transit":false,"line":1,"i_lat":-6.258864,"i_long":107.055722,"station_name":"Tambun","time":3,"distance":3420,"is_transit":false},{"station_id":"BKST","i_lat":-6.248029,"station_name":"Bekasi Timur","i_long":107.016735,"is_transit":false,"transit":false,"line":1,"time":7,"distance":4460},{"station_name":"Bekasi","i_lat":-6.236616,"time":2,"transit":false,"i_long":106.997013,"is_transit":false,"line":1,"station_id":"BKS","distance":2368},{"distance":2520,"station_name":"Kranji","time":4,"station_id":"KRI","is_transit":false,"i_lat":-6.224515,"i_long":106.977657,"line":1,"transit":false},{"i_lat":-6.219053,"line":1,"transit":false,"i_long":106.951283,"station_name":"Cakung","is_transit":false,"station_id":"CUK","distance":3097,"time":3},{"is_transit":false,"i_lat":-6.217455,"i_long":106.939679,"station_name":"Klenderbaru","station_id":"KLDB","transit":false,"time":8,"distance":1385,"line":1},{"is_transit":false,"distance":1305,"transit":false,"line":1,"station_name":"Buaran","station_id":"BUA","i_lat":-6.215568,"time":1,"i_long":106.922662},{"line":1,"time":2,"station_id":"KLD","is_transit":false,"transit":false,"i_long":106.899548,"i_lat":-6.2135,"distance":3100,"station_name":"Klender"}]]}