{"data":[[{"is_transit":false,"time":0,"line":1,"station_id":"CIT","i_lat":-6.261877,"i_long":107.083084,"station_name":"Cibitung","distance":0,"transit":false},{"time":3,"distance":3420,"station_name":"Tambun","station_id":"TB","is_transit":false,"transit":false,"i_lat":-6.258864,"i_long":107.055722,"line":1},{"is_transit":false,"i_long":107.016735,"distance":4460,"i_lat":-6.248029,"line":1,"station_name":"Bekasi Timur","station_id":"BKST","time":7,"transit":false},{"distance":2368,"station_name":"Bekasi","is_transit":false,"time":2,"station_id":"BKS","transit":false,"i_long":106.997013,"line":1,"i_lat":-6.236616},{"station_id":"KRI","line":1,"is_transit":false,"transit":false,"station_name":"Kranji","distance":2520,"i_lat":-6.224515,"time":4,"i_long":106.977657},{"distance":3097,"i_long":106.951283,"i_lat":-6.219053,"station_id":"CUK","time":3,"transit":false,"station_name":"Cakung","is_transit":false,"line":1},{"i_long":106.939679,"station_name":"Klenderbaru","is_transit":false,"transit":false,"station_id":"KLDB","distance":1385,"i_lat":-6.217455,"line":1,"time":8},{"transit":false,"distance":1305,"station_id":"BUA","i_lat":-6.215568,"i_long":106.922662,"line":1,"is_transit":false,"station_name":"Buaran","time":1},{"i_long":106.899548,"line":1,"station_id":"KLD","i_lat":-6.2135,"transit":false,"is_transit":false,"time":2,"station_name":"Klender","distance":3100},{"is_transit":false,"station_name":"Jatinegara","distance":3395,"station_id":"JNG","transit":false,"i_long":106.86807400000001,"i_lat":-6.215091,"line":1,"time":3},{"line":1,"distance":1377,"is_transit":false,"i_lat":-6.212485,"transit":false,"station_name":"Matraman","station_id":"MTR","i_long":106.858896,"time":2},{"station_id":"MRI","is_transit":true,"i_long":106.84912,"station_name":"Manggarai","transit":true,"time":2,"distance":1275,"i_lat":-6.209883,"line":2},{"i_long":106.840169,"line":2,"distance":1590,"station_id":"CKI","station_name":"Cikini","time":4,"i_lat":-6.198556,"transit":false,"is_transit":false},{"station_id":"GDD","is_transit":false,"transit":false,"time":3,"station_name":"Gondangdia","line":2,"distance":1750,"i_long":106.832183,"i_lat":-6.186295}],[{"is_transit":false,"time":0,"i_lat":-6.261877,"i_long":107.083084,"station_name":"Cibitung","transit":false,"distance":0,"line":1,"station_id":"CIT"},{"transit":false,"station_name":"Tambun","station_id":"TB","is_transit":false,"distance":3420,"i_lat":-6.258864,"i_long":107.055722,"line":1,"time":3},{"i_lat":-6.248029,"line":1,"distance":4460,"transit":false,"is_transit":false,"station_id":"BKST","station_name":"Bekasi Timur","time":7,"i_long":107.016735},{"transit":false,"is_transit":false,"distance":2368,"station_name":"Bekasi","time":2,"station_id":"BKS","i_long":106.997013,"i_lat":-6.236616,"line":1},{"distance":2520,"station_id":"KRI","is_transit":false,"i_lat":-6.224515,"i_long":106.977657,"line":1,"time":4,"station_name":"Kranji","transit":false},{"distance":3097,"transit":false,"i_lat":-6.219053,"i_long":106.951283,"is_transit":false,"time":3,"station_name":"Cakung","station_id":"CUK","line":1},{"i_lat":-6.217455,"transit":false,"time":8,"i_long":106.939679,"distance":1385,"line":1,"station_name":"Klenderbaru","station_id":"KLDB","is_transit":false},{"transit":false,"station_name":"Buaran","time":1,"i_lat":-6.215568,"station_id":"BUA","line":1,"is_transit":false,"i_long":106.922662,"distance":1305},{"line":1,"i_long":106.899548,"station_name":"Klender","transit":false,"time":2,"distance":3100,"is_transit":false,"i_lat":-6.2135,"station_id":"KLD"},{"i_long":106.86807400000001,"transit":true,"distance":3395,"is_transit":true,"time":3,"station_id":"JNG","station_name":"Jatinegara","i_lat":-6.215091,"line":1},{"i_lat":-6.209188,"is_transit":false,"line":11,"i_long":106.861737,"transit":false,"time":2,"station_id":"POK","station_name":"Pondok Jati","distance":1236},{"i_lat":-6.193792,"station_id":"KMT","time":2,"i_long":106.855437,"line":11,"is_transit":false,"station_name":"Kramat","transit":false,"distance":1829},{"is_transit":false,"distance":973,"station_id":"GST","i_long":106.850107,"transit":false,"i_lat":-6.185975,"line":11,"station_name":"Gang Sentiong","time":1},{"i_lat":-6.174784,"i_long":106.84368,"transit":false,"time":8,"station_name":"Pasar Senen","is_transit":false,"line":11,"station_id":"PSE","distance":1567},{"i_long":106.839204,"is_transit":false,"station_name":"Kemayoran","line":11,"distance":1436,"transit":false,"station_id":"KMO","time":4,"i_lat":-6.161728},{"station_id":"RJW","distance":1901,"i_long":106.836569,"time":5,"transit":false,"i_lat":-6.14505,"is_transit":false,"line":11,"station_name":"Rajawali"},{"time":3,"station_name":"Kampung Bandan","i_long":106.826365,"station_id":"KPB","transit":true,"line":4,"distance":1444,"is_transit":true,"i_lat":-6.132549},{"i_long":106.812439,"time":3,"distance":1364,"is_transit":true,"station_name":"Jakarta Kota","station_id":"JAKK","line":2,"transit":true,"i_lat":-6.137569},{"time":4,"distance":1264,"i_lat":-6.141205,"transit":false,"line":2,"station_id":"JAY","station_name":"Jayakarta","is_transit":false,"i_long":106.820901},{"i_lat":-6.149769,"line":2,"transit":false,"is_transit":false,"time":2,"station_name":"Manggabesar","distance":1080,"station_id":"MGB","i_long":106.82482},{"i_lat":-6.160725,"line":2,"is_transit":false,"station_name":"Sawah Besar","station_id":"SW","i_long":106.827103,"distance":906,"transit":false,"time":2},{"is_transit":false,"distance":1149,"i_lat":-6.166716,"transit":false,"i_long":106.828284,"time":2,"line":2,"station_id":"JUA","station_name":"Juanda"},{"distance":2015,"i_long":106.832183,"station_name":"Gondangdia","line":2,"time":4,"i_lat":-6.186295,"transit":false,"is_transit":false,"station_id":"GDD"}],[{"distance":0,"station_name":"Cibitung","is_transit":false,"i_long":107.083084,"line":1,"i_lat":-6.261877,"time":0,"station_id":"CIT","transit":false},{"station_name":"Tambun","is_transit":false,"station_id":"TB","time":3,"line":1,"i_lat":-6.258864,"transit":false,"i_long":107.055722,"distance":3420},{"station_id":"BKST","is_transit":false,"distance":4460,"i_lat":-6.248029,"i_long":107.016735,"station_name":"Bekasi Timur","line":1,"time":7,"transit":false},{"station_id":"BKS","is_transit":false,"transit":false,"line":1,"time":2,"distance":2368,"i_long":106.997013,"i_lat":-6.236616,"station_name":"Bekasi"},{"time":4,"i_long":106.977657,"line":1,"distance":2520,"i_lat":-6.224515,"is_transit":false,"station_name":"Kranji","station_id":"KRI","transit":false},{"time":3,"i_lat":-6.219053,"i_long":106.951283,"station_name":"Cakung","distance":3097,"line":1,"transit":false,"is_transit":false,"station_id":"CUK"},{"distance":1385,"station_name":"Klenderbaru","i_long":106.939679,"station_id":"KLDB","line":1,"transit":false,"time":8,"is_transit":false,"i_lat":-6.217455},{"is_transit":false,"station_id":"BUA","distance":1305,"transit":false,"i_lat":-6.215568,"station_name":"Buaran","line":1,"time":1,"i_long":106.922662},{"i_long":106.899548,"is_transit":false,"time":2,"distance":3100,"station_id":"KLD","line":1,"transit":false,"i_lat":-6.2135,"station_name":"Klender"},{"station_name":"Jatinegara","station_id":"JNG","transit":false,"distance":3395,"line":1,"i_long":106.86807400000001,"time":3,"is_transit":false,"i_lat":-6.215091},{"i_lat":-6.212485,"station_name":"Matraman","distance":1377,"i_long":106.858896,"station_id":"MTR","time":2,"is_transit":false,"line":1,"transit":false},{"distance":1275,"transit":false,"i_lat":-6.209883,"i_long":106.84912,"line":2,"station_name":"Manggarai","is_transit":false,"time":2,"station_id":"MRI"},{"station_id":"SUD","is_transit":false,"station_name":"Sudirman","i_lat":-6.202263,"time":4,"distance":3186,"transit":false,"i_long":106.822649,"line":1},{"transit":false,"station_id":"SUDB","distance":280,"line":1,"is_transit":false,"i_long":106.819881,"time":1,"i_lat":-6.201433,"station_name":"Sudirman Baru"},{"station_id":"KAT","is_transit":false,"transit":false,"station_name":"Karet","time":1,"distance":471,"i_lat":-6.20132,"i_long":106.816351,"line":1},{"i_lat":-6.185545,"transit":false,"station_id":"THB","line":1,"i_long":106.811091,"is_transit":false,"time":5,"station_name":"Tanah Abang","distance":2029},{"time":8,"i_long":106.800832,"station_name":"Duri","line":1,"station_id":"DU","transit":false,"is_transit":false,"i_lat":-6.155215,"distance":3632},{"i_long":106.79867,"is_transit":false,"station_name":"Angke","transit":false,"distance":1230,"time":4,"i_lat":-6.144674,"station_id":"AK","line":1},{"transit":true,"is_transit":true,"line":4,"i_lat":-6.132549,"station_id":"KPB","time":9,"distance":4102,"station_name":"Kampung Bandan","i_long":106.826365},{"time":3,"station_name":"Jakarta Kota","station_id":"JAKK","i_long":106.812439,"distance":1364,"i_lat":-6.137569,"transit":true,"is_transit":true,"line":2},{"time":4,"station_id":"JAY","is_transit":false,"distance":1264,"i_long":106.820901,"station_name":"Jayakarta","transit":false,"line":2,"i_lat":-6.141205},{"i_lat":-6.149769,"station_name":"Manggabesar","is_transit":false,"transit":false,"i_long":106.82482,"line":2,"distance":1080,"station_id":"MGB","time":2},{"line":2,"station_name":"Sawah Besar","distance":906,"is_transit":false,"station_id":"SW","i_lat":-6.160725,"time":2,"i_long":106.827103,"transit":false},{"time":2,"i_lat":-6.166716,"i_long":106.828284,"line":2,"transit":false,"station_id":"JUA","is_transit":false,"distance":1149,"station_name":"Juanda"},{"station_id":"GDD","i_lat":-6.186295,"time":4,"station_name":"Gondangdia","is_transit":false,"i_long":106.832183,"transit":false,"distance":2015,"line":2}],[{"i_long":107.083084,"station_id":"CIT","time":0,"distance":0,"is_transit":false,"station_name":"Cibitung","i_lat":-6.261877,"transit":false,"line":1},{"station_name":"Tambun","i_lat":-6.258864,"i_long":107.055722,"line":1,"time":3,"transit":false,"is_transit":false,"distance":3420,"station_id":"TB"},{"is_transit":false,"distance":4460,"station_name":"Bekasi Timur","transit":false,"time":7,"i_long":107.016735,"i_lat":-6.248029,"station_id":"BKST","line":1},{"station_id":"BKS","i_lat":-6.236616,"is_transit":false,"i_long":106.997013,"distance":2368,"station_name":"Bekasi","line":1,"time":2,"transit":false},{"distance":2520,"i_lat":-6.224515,"time":4,"line":1,"station_id":"KRI","i_long":106.977657,"transit":false,"station_name":"Kranji","is_transit":false},{"i_lat":-6.219053,"is_transit":false,"i_long":106.951283,"distance":3097,"time":3,"transit":false,"line":1,"station_id":"CUK","station_name":"Cakung"},{"transit":false,"time":8,"station_id":"KLDB","station_name":"Klenderbaru","distance":1385,"i_lat":-6.217455,"is_transit":false,"i_long":106.939679,"line":1},{"transit":false,"station_id":"BUA","station_name":"Buaran","i_lat":-6.215568,"i_long":106.922662,"is_transit":false,"distance":1305,"line":1,"time":1},{"distance":3100,"station_name":"Klender","station_id":"KLD","is_transit":false,"i_long":106.899548,"line":1,"transit":false,"time":2,"i_lat":-6.2135},{"is_transit":true,"station_id":"JNG","i_lat":-6.215091,"line":1,"distance":3395,"station_name":"Jatinegara","transit":true,"time":3,"i_long":106.86807400000001},{"time":2,"i_lat":-6.209188,"station_id":"POK","station_name":"Pondok Jati","line":11,"i_long":106.861737,"transit":false,"is_transit":false,"distance":1236},{"i_lat":-6.193792,"station_id":"KMT","i_long":106.855437,"line":11,"station_name":"Kramat","time":2,"transit":false,"distance":1829,"is_transit":false},{"is_transit":false,"transit":false,"line":11,"i_long":106.850107,"time":1,"station_id":"GST","station_name":"Gang Sentiong","distance":973,"i_lat":-6.185975},{"is_transit":false,"transit":false,"station_name":"Pasar Senen","station_id":"PSE","time":8,"i_lat":-6.174784,"distance":1567,"line":11,"i_long":106.84368},{"station_id":"KMO","i_long":106.839204,"is_transit":false,"line":11,"time":4,"i_lat":-6.161728,"station_name":"Kemayoran","distance":1436,"transit":false},{"station_name":"Rajawali","line":11,"is_transit":false,"distance":1901,"time":5,"station_id":"RJW","i_lat":-6.14505,"i_long":106.836569,"transit":false},{"is_transit":true,"time":3,"station_name":"Kampung Bandan","distance":1444,"transit":true,"station_id":"KPB","i_lat":-6.132549,"i_long":106.826365,"line":4},{"i_lat":-6.144674,"line":1,"station_name":"Angke","time":9,"transit":false,"i_long":106.79867,"distance":4102,"is_transit":false,"station_id":"AK"},{"is_transit":false,"transit":false,"i_lat":-6.155215,"i_long":106.800832,"station_name":"Duri","line":1,"time":4,"station_id":"DU","distance":1230},{"i_lat":-6.185545,"station_name":"Tanah Abang","station_id":"THB","i_long":106.811091,"is_transit":false,"line":1,"time":8,"transit":false,"distance":3632},{"i_long":106.816351,"station_name":"Karet","is_transit":false,"line":1,"time":5,"station_id":"KAT","transit":false,"distance":2029,"i_lat":-6.20132},{"is_transit":false,"transit":false,"station_id":"SUDB","distance":471,"line":1,"time":1,"i_lat":-6.201433,"station_name":"Sudirman Baru","i_long":106.819881},{"time":1,"station_name":"Sudirman","i_lat":-6.202263,"transit":false,"i_long":106.822649,"is_transit":false,"distance":280,"line":1,"station_id":"SUD"},{"i_long":106.84912,"i_lat":-6.209883,"is_transit":true,"line":2,"distance":3186,"time":4,"station_id":"MRI","transit":true,"station_name":"Manggarai"},{"distance":1590,"is_transit":false,"station_name":"Cikini","station_id":"CKI","i_lat":-6.198556,"i_long":106.840169,"line":2,"transit":false,"time":4},{"line":2,"is_transit":false,"transit":false,"station_name":"Gondangdia","station_id":"GDD","time":3,"distance":1750,"i_long":106.832183,"i_lat":-6.186295}]]}