{"data":[[{"i_lat":-6.261877,"i_long":107.083084,"line":1,"transit":false,"station_id":"CIT","station_name":"Cibitung","time":0,"distance":0,"is_transit":false},{"line":1,"is_transit":false,"station_name":"Tambun","station_id":"TB","time":3,"i_lat":-6.258864,"transit":false,"distance":3420,"i_long":107.055722},{"is_transit":false,"time":7,"i_long":107.016735,"station_id":"BKST","station_name":"Bekasi Timur","i_lat":-6.248029,"line":1,"transit":false,"distance":4460},{"distance":2368,"time":2,"line":1,"i_lat":-6.236616,"station_id":"BKS","station_name":"Bekasi","i_long":106.997013,"transit":false,"is_transit":false},{"transit":false,"station_name":"Kranji","distance":2520,"line":1,"i_lat":-6.224515,"station_id":"KRI","i_long":106.977657,"is_transit":false,"time":4},{"line":1,"i_long":106.951283,"station_name":"Cakung","station_id":"CUK","distance":3097,"is_transit":false,"transit":false,"i_lat":-6.219053,"time":3},{"station_id":"KLDB","i_long":106.939679,"distance":1385,"station_name":"Klenderbaru","time":8,"is_transit":false,"transit":false,"line":1,"i_lat":-6.217455},{"line":1,"station_id":"BUA","i_long":106.922662,"transit":false,"i_lat":-6.215568,"time":1,"distance":1305,"station_name":"Buaran","is_transit":false},{"transit":false,"time":2,"is_transit":false,"station_name":"Klender","i_long":106.899548,"station_id":"KLD","distance":3100,"line":1,"i_lat":-6.2135}]]}