{"data":[[{"station_name":"Cibitung","line":1,"is_transit":false,"time":0,"station_id":"CIT","distance":0,"transit":false,"i_long":107.083084,"i_lat":-6.261877},{"i_long":107.055722,"i_lat":-6.258864,"is_transit":false,"station_name":"Tambun","line":1,"time":3,"transit":false,"distance":3420,"station_id":"TB"},{"distance":4460,"i_lat":-6.248029,"i_long":107.016735,"station_id":"BKST","line":1,"transit":false,"is_transit":false,"station_name":"Bekasi Timur","time":7},{"line":1,"time":2,"transit":false,"station_name":"Bekasi","station_id":"BKS","is_transit":false,"i_lat":-6.236616,"i_long":106.997013,"distance":2368},{"station_name":"Kranji","i_long":106.977657,"i_lat":-6.224515,"line":1,"distance":2520,"time":4,"is_transit":false,"station_id":"KRI","transit":false},{"i_lat":-6.219053,"i_long":106.951283,"line":1,"station_id":"CUK","transit":false,"is_transit":false,"station_name":"Cakung","time":3,"distance":3097},{"time":8,"transit":false,"line":1,"i_lat":-6.217455,"is_transit":false,"station_id":"KLDB","station_name":"Klenderbaru","distance":1385,"i_long":106.939679},{"line":1,"time":1,"station_id":"BUA","is_transit":false,"station_name":"Buaran","distance":1305,"transit":false,"i_lat":-6.215568,"i_long":106.922662},{"line":1,"distance":3100,"station_name":"Klender","time":2,"i_lat":-6.2135,"is_transit":false,"transit":false,"i_long":106.899548,"station_id":"KLD"},{"line":1,"distance":3395,"station_id":"JNG","is_transit":false,"i_long":106.86807400000001,"station_name":"Jatinegara","transit":false,"time":3,"i_lat":-6.215091},{"i_lat":-6.212485,"station_id":"MTR","transit":false,"i_long":106.858896,"line":1,"is_transit":false,"station_name":"Matraman","distance":1377,"time":2},{"i_lat":-6.209883,"transit":false,"station_name":"Manggarai","time":2,"is_transit":false,"station_id":"MRI","distance":1275,"line":2,"i_long":106.84912},{"station_id":"SUD","line":1,"station_name":"Sudirman","distance":3186,"i_lat":-6.202263,"transit":false,"time":4,"is_transit":false,"i_long":106.822649},{"transit":false,"station_name":"Sudirman Baru","line":1,"time":1,"station_id":"SUDB","i_lat":-6.201433,"distance":280,"is_transit":false,"i_long":106.819881},{"transit":false,"station_id":"KAT","is_transit":false,"distance":471,"time":1,"line":1,"i_lat":-6.20132,"i_long":106.816351,"station_name":"Karet"},{"time":5,"station_id":"THB","i_lat":-6.185545,"line":1,"station_name":"Tanah Abang","transit":true,"i_long":106.811091,"is_transit":true,"distance":2029},{"time":6,"is_transit":false,"distance":3191,"i_lat":-6.207404,"i_long":106.79689,"station_name":"Palmerah","line":6,"transit":false,"station_id":"PLM"},{"line":6,"station_name":"Kebayoran","i_lat":-6.237242,"time":7,"station_id":"KBY","i_long":106.780334,"is_transit":false,"transit":false,"distance":3737},{"transit":false,"station_id":"PDJ","is_transit":false,"time":8,"station_name":"Pondokranji","i_lat":-6.276362,"i_long":106.74273,"line":6,"distance":6218},{"time":3,"i_long":106.728916,"i_lat":-6.288927,"transit":false,"line":6,"distance":2179,"is_transit":false,"station_id":"JMU","station_name":"Jurangmangu"},{"station_name":"Sudimara","is_transit":false,"station_id":"SDM","time":4,"i_lat":-6.296963,"distance":1994,"line":6,"i_long":106.712277,"transit":false},{"transit":false,"station_id":"RU","i_lat":-6.314823,"i_long":106.675475,"time":6,"line":6,"is_transit":false,"station_name":"Rawa Buntu","distance":4566},{"is_transit":false,"time":4,"distance":2413,"i_long":106.66566,"station_name":"Serpong","i_lat":-6.319871,"line":6,"transit":false,"station_id":"SRP"},{"transit":false,"i_long":106.640411,"time":4,"distance":1784,"line":3,"station_name":"Cisauk","is_transit":false,"station_id":"CSK","i_lat":-6.32484}],[{"distance":0,"transit":false,"time":0,"i_lat":-6.261877,"station_name":"Cibitung","station_id":"CIT","i_long":107.083084,"is_transit":false,"line":1},{"is_transit":false,"i_lat":-6.258864,"time":3,"i_long":107.055722,"station_name":"Tambun","transit":false,"station_id":"TB","distance":3420,"line":1},{"station_name":"Bekasi Timur","station_id":"BKST","is_transit":false,"time":7,"line":1,"transit":false,"distance":4460,"i_lat":-6.248029,"i_long":107.016735},{"i_lat":-6.236616,"is_transit":false,"time":2,"transit":false,"station_id":"BKS","distance":2368,"line":1,"station_name":"Bekasi","i_long":106.997013},{"time":4,"distance":2520,"transit":false,"i_lat":-6.224515,"is_transit":false,"station_id":"KRI","i_long":106.977657,"line":1,"station_name":"Kranji"},{"distance":3097,"i_lat":-6.219053,"line":1,"i_long":106.951283,"station_id":"CUK","transit":false,"is_transit":false,"time":3,"station_name":"Cakung"},{"distance":1385,"transit":false,"station_name":"Klenderbaru","i_lat":-6.217455,"station_id":"KLDB","is_transit":false,"time":8,"line":1,"i_long":106.939679},{"is_transit":false,"i_lat":-6.215568,"line":1,"distance":1305,"i_long":106.922662,"transit":false,"time":1,"station_name":"Buaran","station_id":"BUA"},{"line":1,"station_name":"Klender","time":2,"distance":3100,"station_id":"KLD","is_transit":false,"i_long":106.899548,"i_lat":-6.2135,"transit":false},{"time":3,"is_transit":true,"distance":3395,"i_long":106.86807400000001,"transit":true,"station_name":"Jatinegara","station_id":"JNG","i_lat":-6.215091,"line":1},{"i_long":106.861737,"is_transit":false,"i_lat":-6.209188,"distance":1236,"station_id":"POK","transit":false,"station_name":"Pondok Jati","time":2,"line":11},{"distance":1829,"station_id":"KMT","i_long":106.855437,"is_transit":false,"i_lat":-6.193792,"time":2,"station_name":"Kramat","transit":false,"line":11},{"station_name":"Gang Sentiong","i_long":106.850107,"line":11,"station_id":"GST","is_transit":false,"distance":973,"time":1,"transit":false,"i_lat":-6.185975},{"line":11,"is_transit":false,"i_long":106.84368,"time":8,"transit":false,"station_name":"Pasar Senen","distance":1567,"i_lat":-6.174784,"station_id":"PSE"},{"i_long":106.839204,"line":11,"time":4,"station_name":"Kemayoran","is_transit":false,"transit":false,"station_id":"KMO","distance":1436,"i_lat":-6.161728},{"distance":1901,"station_name":"Rajawali","i_long":106.836569,"time":5,"transit":false,"i_lat":-6.14505,"station_id":"RJW","is_transit":false,"line":11},{"time":3,"is_transit":true,"line":4,"station_id":"KPB","i_long":106.826365,"station_name":"Kampung Bandan","i_lat":-6.132549,"transit":true,"distance":1444},{"i_long":106.79867,"station_id":"AK","time":9,"transit":false,"i_lat":-6.144674,"distance":4102,"line":1,"station_name":"Angke","is_transit":false},{"i_lat":-6.155215,"i_long":106.800832,"line":1,"distance":1230,"station_name":"Duri","time":4,"station_id":"DU","transit":false,"is_transit":false},{"line":1,"station_name":"Tanah Abang","is_transit":true,"i_long":106.811091,"transit":true,"distance":3632,"i_lat":-6.185545,"station_id":"THB","time":8},{"station_id":"PLM","i_long":106.79689,"line":6,"transit":false,"distance":3191,"time":6,"i_lat":-6.207404,"station_name":"Palmerah","is_transit":false},{"station_name":"Kebayoran","distance":3737,"i_lat":-6.237242,"i_long":106.780334,"transit":false,"station_id":"KBY","is_transit":false,"line":6,"time":7},{"i_lat":-6.276362,"transit":false,"line":6,"time":8,"station_name":"Pondokranji","distance":6218,"is_transit":false,"station_id":"PDJ","i_long":106.74273},{"time":3,"station_id":"JMU","distance":2179,"transit":false,"station_name":"Jurangmangu","is_transit":false,"i_lat":-6.288927,"i_long":106.728916,"line":6},{"transit":false,"time":4,"distance":1994,"station_id":"SDM","station_name":"Sudimara","i_lat":-6.296963,"i_long":106.712277,"line":6,"is_transit":false},{"i_lat":-6.314823,"i_long":106.675475,"station_id":"RU","line":6,"station_name":"Rawa Buntu","time":6,"transit":false,"is_transit":false,"distance":4566},{"is_transit":false,"i_lat":-6.319871,"i_long":106.66566,"line":6,"time":4,"transit":false,"station_name":"Serpong","station_id":"SRP","distance":2413},{"distance":1784,"is_transit":false,"time":4,"transit":false,"i_lat":-6.32484,"station_id":"CSK","i_long":106.640411,"line":3,"station_name":"Cisauk"}],[{"station_id":"CIT","line":1,"distance":0,"i_lat":-6.261877,"time":0,"station_name":"Cibitung","i_long":107.083084,"transit":false,"is_transit":false},{"distance":3420,"station_name":"Tambun","station_id":"TB","transit":false,"i_lat":-6.258864,"i_long":107.055722,"line":1,"is_transit":false,"time":3},{"is_transit":false,"distance":4460,"transit":false,"time":7,"i_lat":-6.248029,"i_long":107.016735,"line":1,"station_id":"BKST","station_name":"Bekasi Timur"},{"i_long":106.997013,"is_transit":false,"station_name":"Bekasi","station_id":"BKS","i_lat":-6.236616,"line":1,"distance":2368,"transit":false,"time":2},{"station_name":"Kranji","transit":false,"station_id":"KRI","is_transit":false,"time":4,"i_lat":-6.224515,"line":1,"distance":2520,"i_long":106.977657},{"i_long":106.951283,"station_name":"Cakung","is_transit":false,"transit":false,"station_id":"CUK","i_lat":-6.219053,"time":3,"distance":3097,"line":1},{"station_name":"Klenderbaru","line":1,"distance":1385,"i_long":106.939679,"station_id":"KLDB","transit":false,"is_transit":false,"time":8,"i_lat":-6.217455},{"distance":1305,"station_name":"Buaran","i_long":106.922662,"is_transit":false,"station_id":"BUA","i_lat":-6.215568,"line":1,"time":1,"transit":false},{"i_lat":-6.2135,"i_long":106.899548,"distance":3100,"transit":false,"station_id":"KLD","line":1,"station_name":"Klender","time":2,"is_transit":false},{"time":3,"station_id":"JNG","distance":3395,"transit":false,"station_name":"Jatinegara","is_transit":false,"i_lat":-6.215091,"i_long":106.86807400000001,"line":1},{"i_long":106.858896,"line":1,"station_id":"MTR","distance":1377,"i_lat":-6.212485,"transit":false,"is_transit":false,"station_name":"Matraman","time":2},{"station_name":"Manggarai","i_lat":-6.209883,"is_transit":true,"transit":true,"time":2,"i_long":106.84912,"line":2,"distance":1275,"station_id":"MRI"},{"time":4,"is_transit":false,"transit":false,"line":2,"i_lat":-6.198556,"station_name":"Cikini","station_id":"CKI","i_long":106.840169,"distance":1590},{"i_lat":-6.186295,"i_long":106.832183,"time":3,"station_id":"GDD","line":2,"is_transit":false,"station_name":"Gondangdia","distance":1750,"transit":false},{"distance":2015,"i_lat":-6.166716,"line":2,"transit":false,"is_transit":false,"time":4,"station_id":"JUA","i_long":106.828284,"station_name":"Juanda"},{"station_name":"Sawah Besar","station_id":"SW","distance":1149,"i_long":106.827103,"transit":false,"i_lat":-6.160725,"line":2,"time":2,"is_transit":false},{"station_id":"MGB","station_name":"Manggabesar","transit":false,"time":2,"is_transit":false,"i_long":106.82482,"distance":906,"line":2,"i_lat":-6.149769},{"time":2,"transit":false,"is_transit":false,"station_id":"JAY","i_long":106.820901,"i_lat":-6.141205,"distance":1080,"station_name":"Jayakarta","line":2},{"i_lat":-6.137569,"time":4,"line":2,"distance":1264,"transit":true,"station_name":"Jakarta Kota","i_long":106.812439,"is_transit":true,"station_id":"JAKK"},{"is_transit":true,"i_long":106.826365,"station_id":"KPB","time":3,"distance":1364,"i_lat":-6.132549,"transit":true,"station_name":"Kampung Bandan","line":4},{"station_id":"AK","line":1,"time":9,"distance":4102,"i_long":106.79867,"station_name":"Angke","i_lat":-6.144674,"is_transit":false,"transit":false},{"station_id":"DU","line":1,"transit":false,"i_long":106.800832,"station_name":"Duri","distance":1230,"i_lat":-6.155215,"time":4,"is_transit":false},{"transit":true,"line":1,"is_transit":true,"i_long":106.811091,"station_id":"THB","distance":3632,"station_name":"Tanah Abang","time":8,"i_lat":-6.185545},{"transit":false,"distance":3191,"i_long":106.79689,"is_transit":false,"time":6,"line":6,"station_name":"Palmerah","station_id":"PLM","i_lat":-6.207404},{"station_name":"Kebayoran","is_transit":false,"distance":3737,"i_long":106.780334,"line":6,"i_lat":-6.237242,"transit":false,"station_id":"KBY","time":7},{"time":8,"i_long":106.74273,"i_lat":-6.276362,"line":6,"distance":6218,"is_transit":false,"transit":false,"station_name":"Pondokranji","station_id":"PDJ"},{"station_name":"Jurangmangu","distance":2179,"i_lat":-6.288927,"time":3,"is_transit":false,"i_long":106.728916,"transit":false,"station_id":"JMU","line":6},{"is_transit":false,"time":4,"transit":false,"distance":1994,"i_long":106.712277,"line":6,"station_id":"SDM","i_lat":-6.296963,"station_name":"Sudimara"},{"i_long":106.675475,"line":6,"i_lat":-6.314823,"distance":4566,"station_id":"RU","is_transit":false,"time":6,"transit":false,"station_name":"Rawa Buntu"},{"station_name":"Serpong","time":4,"is_transit":false,"distance":2413,"line":6,"station_id":"SRP","i_lat":-6.319871,"i_long":106.66566,"transit":false},{"i_long":106.640411,"is_transit":false,"line":3,"station_id":"CSK","distance":1784,"i_lat":-6.32484,"transit":false,"station_name":"Cisauk","time":4}],[{"transit":false,"station_name":"Cibitung","station_id":"CIT","distance":0,"line":1,"i_lat":-6.261877,"is_transit":false,"time":0,"i_long":107.083084},{"line":1,"i_lat":-6.258864,"station_id":"TB","is_transit":false,"station_name":"Tambun","distance":3420,"transit":false,"i_long":107.055722,"time":3},{"i_lat":-6.248029,"transit":false,"station_name":"Bekasi Timur","time":7,"distance":4460,"is_transit":false,"i_long":107.016735,"line":1,"station_id":"BKST"},{"station_name":"Bekasi","is_transit":false,"station_id":"BKS","transit":false,"line":1,"distance":2368,"time":2,"i_lat":-6.236616,"i_long":106.997013},{"distance":2520,"line":1,"time":4,"station_id":"KRI","station_name":"Kranji","i_lat":-6.224515,"is_transit":false,"i_long":106.977657,"transit":false},{"distance":3097,"transit":false,"station_id":"CUK","is_transit":false,"time":3,"i_long":106.951283,"i_lat":-6.219053,"line":1,"station_name":"Cakung"},{"station_name":"Klenderbaru","station_id":"KLDB","i_lat":-6.217455,"is_transit":false,"i_long":106.939679,"distance":1385,"transit":false,"time":8,"line":1},{"time":1,"station_id":"BUA","i_long":106.922662,"i_lat":-6.215568,"line":1,"station_name":"Buaran","transit":false,"is_transit":false,"distance":1305},{"station_name":"Klender","line":1,"station_id":"KLD","i_lat":-6.2135,"is_transit":false,"time":2,"transit":false,"i_long":106.899548,"distance":3100},{"i_long":106.86807400000001,"is_transit":true,"station_name":"Jatinegara","station_id":"JNG","time":3,"distance":3395,"i_lat":-6.215091,"line":1,"transit":true},{"i_long":106.861737,"is_transit":false,"transit":false,"station_id":"POK","time":2,"i_lat":-6.209188,"line":11,"distance":1236,"station_name":"Pondok Jati"},{"i_lat":-6.193792,"transit":false,"station_id":"KMT","is_transit":false,"distance":1829,"time":2,"i_long":106.855437,"station_name":"Kramat","line":11},{"transit":false,"distance":973,"station_name":"Gang Sentiong","i_lat":-6.185975,"station_id":"GST","is_transit":false,"i_long":106.850107,"time":1,"line":11},{"i_long":106.84368,"transit":false,"distance":1567,"station_id":"PSE","is_transit":false,"time":8,"i_lat":-6.174784,"station_name":"Pasar Senen","line":11},{"station_id":"KMO","transit":false,"i_long":106.839204,"time":4,"is_transit":false,"i_lat":-6.161728,"station_name":"Kemayoran","distance":1436,"line":11},{"station_id":"RJW","time":5,"i_lat":-6.14505,"line":11,"is_transit":false,"station_name":"Rajawali","distance":1901,"i_long":106.836569,"transit":false},{"line":4,"i_lat":-6.132549,"station_id":"KPB","transit":true,"station_name":"Kampung Bandan","is_transit":true,"time":3,"distance":1444,"i_long":106.826365},{"transit":true,"station_name":"Jakarta Kota","is_transit":true,"i_lat":-6.137569,"i_long":106.812439,"distance":1364,"station_id":"JAKK","line":2,"time":3},{"transit":false,"distance":1264,"i_long":106.820901,"i_lat":-6.141205,"time":4,"line":2,"station_name":"Jayakarta","station_id":"JAY","is_transit":false},{"distance":1080,"is_transit":false,"i_long":106.82482,"line":2,"transit":false,"station_id":"MGB","station_name":"Manggabesar","i_lat":-6.149769,"time":2},{"station_name":"Sawah Besar","station_id":"SW","line":2,"distance":906,"is_transit":false,"i_long":106.827103,"i_lat":-6.160725,"time":2,"transit":false},{"time":2,"station_id":"JUA","transit":false,"line":2,"station_name":"Juanda","distance":1149,"is_transit":false,"i_lat":-6.166716,"i_long":106.828284},{"line":2,"station_id":"GDD","time":4,"distance":2015,"i_lat":-6.186295,"transit":false,"station_name":"Gondangdia","i_long":106.832183,"is_transit":false},{"transit":false,"time":3,"distance":1750,"i_lat":-6.198556,"is_transit":false,"station_id":"CKI","line":2,"station_name":"Cikini","i_long":106.840169},{"i_lat":-6.209883,"time":4,"i_long":106.84912,"transit":true,"station_name":"Manggarai","line":2,"distance":1590,"station_id":"MRI","is_transit":true},{"transit":false,"station_id":"SUD","time":4,"distance":3186,"i_long":106.822649,"is_transit":false,"line":1,"station_name":"Sudirman","i_lat":-6.202263},{"is_transit":false,"distance":280,"i_long":106.819881,"i_lat":-6.201433,"line":1,"transit":false,"time":1,"station_name":"Sudirman Baru","station_id":"SUDB"},{"station_id":"KAT","time":1,"i_long":106.816351,"line":1,"station_name":"Karet","distance":471,"is_transit":false,"transit":false,"i_lat":-6.20132},{"distance":2029,"i_long":106.811091,"is_transit":true,"line":1,"time":5,"i_lat":-6.185545,"station_id":"THB","transit":true,"station_name":"Tanah Abang"},{"is_transit":false,"i_long":106.79689,"i_lat":-6.207404,"time":6,"station_id":"PLM","station_name":"Palmerah","distance":3191,"line":6,"transit":false},{"distance":3737,"transit":false,"i_long":106.780334,"time":7,"station_name":"Kebayoran","station_id":"KBY","is_transit":false,"i_lat":-6.237242,"line":6},{"station_name":"Pondokranji","station_id":"PDJ","distance":6218,"i_lat":-6.276362,"line":6,"is_transit":false,"transit":false,"i_long":106.74273,"time":8},{"i_long":106.728916,"line":6,"is_transit":false,"station_id":"JMU","time":3,"transit":false,"station_name":"Jurangmangu","i_lat":-6.288927,"distance":2179},{"is_transit":false,"time":4,"i_lat":-6.296963,"i_long":106.712277,"transit":false,"line":6,"distance":1994,"station_id":"SDM","station_name":"Sudimara"},{"i_long":106.675475,"i_lat":-6.314823,"station_name":"Rawa Buntu","distance":4566,"time":6,"station_id":"RU","is_transit":false,"line":6,"transit":false},{"station_id":"SRP","distance":2413,"station_name":"Serpong","is_transit":false,"i_lat":-6.319871,"transit":false,"time":4,"i_long":106.66566,"line":6},{"distance":1784,"station_name":"Cisauk","is_transit":false,"transit":false,"station_id":"CSK","time":4,"line":3,"i_long":106.640411,"i_lat":-6.32484}]]}