{"data":[[{"i_lat":-6.261877,"time":0,"station_id":"CIT","is_transit":false,"transit":false,"i_long":107.083084,"distance":0,"line":1,"station_name":"Cibitung"},{"i_lat":-6.258864,"station_name":"Tambun","is_transit":false,"time":3,"distance":3420,"transit":false,"i_long":107.055722,"line":1,"station_id":"TB"},{"is_transit":false,"station_name":"Bekasi Timur","station_id":"BKST","distance":4460,"time":7,"transit":false,"i_long":107.016735,"line":1,"i_lat":-6.248029},{"line":1,"time":2,"transit":false,"station_name":"Bekasi","distance":2368,"i_long":106.997013,"is_transit":false,"i_lat":-6.236616,"station_id":"BKS"},{"transit":false,"station_id":"KRI","distance":2520,"i_lat":-6.224515,"i_long":106.977657,"station_name":"Kranji","is_transit":false,"time":4,"line":1},{"transit":false,"station_name":"Cakung","i_lat":-6.219053,"i_long":106.951283,"time":3,"line":1,"is_transit":false,"station_id":"CUK","distance":3097},{"time":8,"distance":1385,"i_long":106.939679,"station_name":"Klenderbaru","i_lat":-6.217455,"is_transit":false,"line":1,"station_id":"KLDB","transit":false},{"is_transit":false,"line":1,"station_id":"BUA","i_lat":-6.215568,"i_long":106.922662,"time":1,"transit":false,"station_name":"Buaran","distance":1305},{"time":2,"transit":false,"i_lat":-6.2135,"station_name":"Klender","distance":3100,"i_long":106.899548,"line":1,"is_transit":false,"station_id":"KLD"},{"i_lat":-6.215091,"distance":3395,"is_transit":false,"station_name":"Jatinegara","i_long":106.86807400000001,"line":1,"station_id":"JNG","time":3,"transit":false},{"transit":false,"station_name":"Matraman","distance":1377,"i_lat":-6.212485,"station_id":"MTR","i_long":106.858896,"time":2,"line":1,"is_transit":false},{"i_lat":-6.209883,"i_long":106.84912,"time":2,"station_id":"MRI","distance":1275,"is_transit":true,"transit":true,"station_name":"Manggarai","line":2},{"distance":2610,"i_long":106.857948,"line":2,"is_transit":false,"station_id":"TEB","transit":false,"station_name":"Tebet","time":4,"i_lat":-6.226659},{"station_name":"Cawang","distance":1230,"time":2,"i_lat":-6.242512,"is_transit":false,"transit":false,"line":2,"station_id":"CW","i_long":106.856607},{"is_transit":false,"line":2,"time":3,"distance":1546,"transit":false,"i_lat":-6.255332,"station_name":"Duren Kalibata","i_long":106.85449,"station_id":"DRN"},{"station_name":"Pasar Minggu Baru","distance":824,"i_long":106.851577,"is_transit":false,"transit":false,"line":2,"station_id":"PSMB","time":2,"i_lat":-6.263214},{"station_name":"Pasar Minggu","station_id":"PSM","transit":false,"distance":2380,"i_lat":-6.2842400000000005,"i_long":106.843999,"line":2,"is_transit":false,"time":2},{"time":4,"station_id":"TNT","is_transit":false,"station_name":"Tanjung Barat","line":2,"distance":2820,"transit":false,"i_lat":-6.3080680000000005,"i_long":106.838896},{"station_id":"LNA","line":2,"is_transit":false,"station_name":"Lenteng Agung","distance":2671,"time":3,"transit":false,"i_lat":-6.330363,"i_long":106.832616},{"transit":false,"i_long":106.834175,"line":2,"distance":1029,"station_name":"Univ. Pancasila","station_id":"UP","time":2,"i_lat":-6.339291,"is_transit":false},{"i_long":106.831474,"i_lat":-6.360749,"time":3,"station_name":"Univ. Indonesia","line":2,"is_transit":false,"distance":2264,"transit":false,"station_id":"UI"},{"station_name":"Pondok Cina","station_id":"POC","is_transit":false,"time":2,"distance":1109,"transit":false,"line":2,"i_long":106.831114,"i_lat":-6.369073},{"is_transit":false,"station_name":"Depokbaru","transit":false,"i_lat":-6.391065,"line":2,"time":4,"station_id":"DPB","distance":2727,"i_long":106.819451},{"is_transit":false,"distance":1584,"transit":false,"station_id":"DP","station_name":"Depok","i_lat":-6.405256,"i_long":106.816926,"time":3,"line":2},{"station_name":"Citayam","line":2,"transit":false,"time":6,"distance":5084,"i_lat":-6.448811,"station_id":"CTA","i_long":106.800298,"is_transit":false}],[{"station_id":"CIT","station_name":"Cibitung","transit":false,"time":0,"distance":0,"i_long":107.083084,"i_lat":-6.261877,"line":1,"is_transit":false},{"time":3,"line":1,"transit":false,"i_lat":-6.258864,"distance":3420,"station_id":"TB","is_transit":false,"i_long":107.055722,"station_name":"Tambun"},{"time":7,"i_long":107.016735,"station_id":"BKST","station_name":"Bekasi Timur","i_lat":-6.248029,"distance":4460,"is_transit":false,"line":1,"transit":false},{"line":1,"station_id":"BKS","distance":2368,"i_lat":-6.236616,"time":2,"i_long":106.997013,"is_transit":false,"transit":false,"station_name":"Bekasi"},{"is_transit":false,"i_lat":-6.224515,"distance":2520,"i_long":106.977657,"line":1,"time":4,"transit":false,"station_id":"KRI","station_name":"Kranji"},{"transit":false,"i_lat":-6.219053,"time":3,"is_transit":false,"distance":3097,"station_name":"Cakung","i_long":106.951283,"line":1,"station_id":"CUK"},{"is_transit":false,"station_name":"Klenderbaru","time":8,"i_lat":-6.217455,"i_long":106.939679,"line":1,"distance":1385,"transit":false,"station_id":"KLDB"},{"i_lat":-6.215568,"time":1,"line":1,"station_id":"BUA","distance":1305,"i_long":106.922662,"is_transit":false,"transit":false,"station_name":"Buaran"},{"i_lat":-6.2135,"distance":3100,"i_long":106.899548,"station_id":"KLD","time":2,"transit":false,"station_name":"Klender","line":1,"is_transit":false},{"station_name":"Jatinegara","distance":3395,"i_long":106.86807400000001,"transit":true,"line":1,"station_id":"JNG","is_transit":true,"i_lat":-6.215091,"time":3},{"transit":false,"is_transit":false,"i_long":106.861737,"time":2,"station_id":"POK","distance":1236,"line":11,"i_lat":-6.209188,"station_name":"Pondok Jati"},{"is_transit":false,"i_lat":-6.193792,"station_id":"KMT","station_name":"Kramat","line":11,"time":2,"i_long":106.855437,"distance":1829,"transit":false},{"is_transit":false,"station_id":"GST","time":1,"distance":973,"station_name":"Gang Sentiong","i_lat":-6.185975,"i_long":106.850107,"transit":false,"line":11},{"distance":1567,"time":8,"line":11,"i_lat":-6.174784,"transit":false,"i_long":106.84368,"is_transit":false,"station_name":"Pasar Senen","station_id":"PSE"},{"station_name":"Kemayoran","is_transit":false,"transit":false,"i_long":106.839204,"i_lat":-6.161728,"line":11,"distance":1436,"station_id":"KMO","time":4},{"distance":1901,"time":5,"i_long":106.836569,"line":11,"i_lat":-6.14505,"station_name":"Rajawali","transit":false,"is_transit":false,"station_id":"RJW"},{"station_name":"Kampung Bandan","station_id":"KPB","time":3,"i_lat":-6.132549,"distance":1444,"line":4,"is_transit":true,"transit":true,"i_long":106.826365},{"i_lat":-6.144674,"line":1,"time":9,"transit":false,"i_long":106.79867,"station_name":"Angke","station_id":"AK","distance":4102,"is_transit":false},{"station_name":"Duri","line":1,"time":4,"i_lat":-6.155215,"distance":1230,"transit":false,"station_id":"DU","is_transit":false,"i_long":106.800832},{"station_id":"THB","transit":false,"i_lat":-6.185545,"i_long":106.811091,"station_name":"Tanah Abang","time":8,"is_transit":false,"distance":3632,"line":1},{"station_id":"KAT","is_transit":false,"i_long":106.816351,"line":1,"transit":false,"i_lat":-6.20132,"time":5,"distance":2029,"station_name":"Karet"},{"is_transit":false,"i_long":106.819881,"station_name":"Sudirman Baru","transit":false,"station_id":"SUDB","time":1,"distance":471,"line":1,"i_lat":-6.201433},{"time":1,"i_long":106.822649,"is_transit":false,"station_id":"SUD","station_name":"Sudirman","distance":280,"transit":false,"i_lat":-6.202263,"line":1},{"transit":true,"time":4,"i_lat":-6.209883,"distance":3186,"is_transit":true,"station_id":"MRI","i_long":106.84912,"line":2,"station_name":"Manggarai"},{"is_transit":false,"station_id":"TEB","i_long":106.857948,"transit":false,"station_name":"Tebet","time":4,"distance":2610,"i_lat":-6.226659,"line":2},{"is_transit":false,"i_lat":-6.242512,"line":2,"distance":1230,"station_id":"CW","time":2,"station_name":"Cawang","transit":false,"i_long":106.856607},{"i_lat":-6.255332,"line":2,"time":3,"i_long":106.85449,"distance":1546,"station_id":"DRN","is_transit":false,"transit":false,"station_name":"Duren Kalibata"},{"station_name":"Pasar Minggu Baru","line":2,"i_long":106.851577,"is_transit":false,"time":2,"distance":824,"station_id":"PSMB","transit":false,"i_lat":-6.263214},{"distance":2380,"i_lat":-6.2842400000000005,"station_id":"PSM","i_long":106.843999,"line":2,"time":2,"is_transit":false,"transit":false,"station_name":"Pasar Minggu"},{"i_lat":-6.3080680000000005,"line":2,"is_transit":false,"station_id":"TNT","station_name":"Tanjung Barat","i_long":106.838896,"distance":2820,"transit":false,"time":4},{"time":3,"station_id":"LNA","distance":2671,"station_name":"Lenteng Agung","is_transit":false,"i_lat":-6.330363,"line":2,"transit":false,"i_long":106.832616},{"i_lat":-6.339291,"is_transit":false,"i_long":106.834175,"station_id":"UP","time":2,"station_name":"Univ. Pancasila","line":2,"distance":1029,"transit":false},{"distance":2264,"i_long":106.831474,"station_name":"Univ. Indonesia","station_id":"UI","i_lat":-6.360749,"transit":false,"line":2,"is_transit":false,"time":3},{"distance":1109,"time":2,"station_id":"POC","is_transit":false,"line":2,"i_long":106.831114,"transit":false,"i_lat":-6.369073,"station_name":"Pondok Cina"},{"station_name":"Depokbaru","i_long":106.819451,"i_lat":-6.391065,"station_id":"DPB","transit":false,"distance":2727,"line":2,"time":4,"is_transit":false},{"transit":false,"station_name":"Depok","is_transit":false,"distance":1584,"i_lat":-6.405256,"i_long":106.816926,"line":2,"time":3,"station_id":"DP"},{"station_id":"CTA","line":2,"time":6,"i_long":106.800298,"station_name":"Citayam","transit":false,"distance":5084,"i_lat":-6.448811,"is_transit":false}],[{"station_name":"Cibitung","i_lat":-6.261877,"is_transit":false,"transit":false,"line":1,"station_id":"CIT","time":0,"distance":0,"i_long":107.083084},{"i_long":107.055722,"is_transit":false,"station_id":"TB","line":1,"time":3,"station_name":"Tambun","transit":false,"distance":3420,"i_lat":-6.258864},{"distance":4460,"is_transit":false,"station_id":"BKST","i_long":107.016735,"station_name":"Bekasi Timur","i_lat":-6.248029,"line":1,"time":7,"transit":false},{"is_transit":false,"time":2,"station_name":"Bekasi","i_long":106.997013,"station_id":"BKS","line":1,"distance":2368,"i_lat":-6.236616,"transit":false},{"station_name":"Kranji","distance":2520,"is_transit":false,"transit":false,"i_lat":-6.224515,"i_long":106.977657,"line":1,"station_id":"KRI","time":4},{"is_transit":false,"time":3,"line":1,"i_long":106.951283,"station_id":"CUK","transit":false,"distance":3097,"station_name":"Cakung","i_lat":-6.219053},{"i_long":106.939679,"line":1,"station_name":"Klenderbaru","time":8,"station_id":"KLDB","distance":1385,"is_transit":false,"transit":false,"i_lat":-6.217455},{"is_transit":false,"transit":false,"station_name":"Buaran","time":1,"distance":1305,"i_lat":-6.215568,"station_id":"BUA","line":1,"i_long":106.922662},{"time":2,"i_long":106.899548,"transit":false,"station_name":"Klender","is_transit":false,"i_lat":-6.2135,"line":1,"station_id":"KLD","distance":3100},{"station_name":"Jatinegara","distance":3395,"transit":true,"i_lat":-6.215091,"i_long":106.86807400000001,"line":1,"is_transit":true,"station_id":"JNG","time":3},{"line":11,"i_long":106.861737,"station_name":"Pondok Jati","i_lat":-6.209188,"is_transit":false,"time":2,"station_id":"POK","distance":1236,"transit":false},{"station_name":"Kramat","time":2,"is_transit":false,"station_id":"KMT","transit":false,"i_lat":-6.193792,"distance":1829,"i_long":106.855437,"line":11},{"transit":false,"i_lat":-6.185975,"i_long":106.850107,"station_id":"GST","time":1,"station_name":"Gang Sentiong","distance":973,"is_transit":false,"line":11},{"station_name":"Pasar Senen","station_id":"PSE","time":8,"transit":false,"i_long":106.84368,"distance":1567,"i_lat":-6.174784,"line":11,"is_transit":false},{"line":11,"distance":1436,"station_name":"Kemayoran","transit":false,"i_lat":-6.161728,"station_id":"KMO","is_transit":false,"i_long":106.839204,"time":4},{"transit":false,"i_lat":-6.14505,"is_transit":false,"line":11,"station_id":"RJW","distance":1901,"station_name":"Rajawali","time":5,"i_long":106.836569},{"line":4,"station_id":"KPB","station_name":"Kampung Bandan","time":3,"transit":true,"i_long":106.826365,"is_transit":true,"distance":1444,"i_lat":-6.132549},{"distance":1364,"station_id":"JAKK","station_name":"Jakarta Kota","transit":true,"is_transit":true,"line":2,"time":3,"i_long":106.812439,"i_lat":-6.137569},{"station_id":"JAY","i_long":106.820901,"line":2,"time":4,"station_name":"Jayakarta","i_lat":-6.141205,"is_transit":false,"distance":1264,"transit":false},{"transit":false,"distance":1080,"is_transit":false,"station_id":"MGB","time":2,"i_long":106.82482,"station_name":"Manggabesar","i_lat":-6.149769,"line":2},{"is_transit":false,"time":2,"station_name":"Sawah Besar","station_id":"SW","line":2,"i_lat":-6.160725,"distance":906,"transit":false,"i_long":106.827103},{"line":2,"i_long":106.828284,"transit":false,"station_id":"JUA","distance":1149,"is_transit":false,"time":2,"station_name":"Juanda","i_lat":-6.166716},{"i_lat":-6.186295,"station_name":"Gondangdia","distance":2015,"station_id":"GDD","time":4,"transit":false,"is_transit":false,"i_long":106.832183,"line":2},{"station_id":"CKI","station_name":"Cikini","i_lat":-6.198556,"transit":false,"line":2,"time":3,"i_long":106.840169,"distance":1750,"is_transit":false},{"transit":false,"line":2,"is_transit":false,"distance":1590,"i_long":106.84912,"station_id":"MRI","time":4,"station_name":"Manggarai","i_lat":-6.209883},{"line":2,"time":4,"station_id":"TEB","distance":2610,"station_name":"Tebet","i_long":106.857948,"transit":false,"i_lat":-6.226659,"is_transit":false},{"is_transit":false,"i_long":106.856607,"line":2,"transit":false,"station_name":"Cawang","station_id":"CW","time":2,"i_lat":-6.242512,"distance":1230},{"station_id":"DRN","distance":1546,"i_lat":-6.255332,"time":3,"is_transit":false,"station_name":"Duren Kalibata","transit":false,"line":2,"i_long":106.85449},{"station_id":"PSMB","is_transit":false,"time":2,"line":2,"station_name":"Pasar Minggu Baru","i_lat":-6.263214,"distance":824,"transit":false,"i_long":106.851577},{"i_lat":-6.2842400000000005,"is_transit":false,"station_id":"PSM","distance":2380,"i_long":106.843999,"line":2,"transit":false,"time":2,"station_name":"Pasar Minggu"},{"line":2,"is_transit":false,"station_name":"Tanjung Barat","distance":2820,"transit":false,"station_id":"TNT","i_lat":-6.3080680000000005,"i_long":106.838896,"time":4},{"transit":false,"time":3,"is_transit":false,"station_name":"Lenteng Agung","i_long":106.832616,"distance":2671,"line":2,"i_lat":-6.330363,"station_id":"LNA"},{"station_id":"UP","time":2,"station_name":"Univ. Pancasila","distance":1029,"transit":false,"line":2,"i_lat":-6.339291,"i_long":106.834175,"is_transit":false},{"transit":false,"i_lat":-6.360749,"i_long":106.831474,"distance":2264,"time":3,"station_name":"Univ. Indonesia","is_transit":false,"station_id":"UI","line":2},{"time":2,"station_name":"Pondok Cina","distance":1109,"transit":false,"line":2,"station_id":"POC","i_long":106.831114,"i_lat":-6.369073,"is_transit":false},{"line":2,"transit":false,"is_transit":false,"distance":2727,"i_lat":-6.391065,"time":4,"station_id":"DPB","station_name":"Depokbaru","i_long":106.819451},{"i_lat":-6.405256,"station_name":"Depok","line":2,"i_long":106.816926,"station_id":"DP","time":3,"distance":1584,"is_transit":false,"transit":false},{"transit":false,"i_long":106.800298,"station_id":"CTA","distance":5084,"line":2,"i_lat":-6.448811,"station_name":"Citayam","is_transit":false,"time":6}]]}