{"data":[[{"transit":false,"i_lat":-6.261877,"station_name":"Cibitung","time":0,"distance":0,"station_id":"CIT","line":0,"is_transit":false,"i_long":107.083084},{"station_id":"TB","is_transit":false,"distance":3420,"i_long":107.055722,"line":1,"i_lat":-6.258864,"time":3,"transit":false,"station_name":"Tambun"},{"transit":false,"time":7,"station_name":"Bekasi Timur","i_long":107.016735,"i_lat":-6.248029,"distance":4460,"line":0,"is_transit":false,"station_id":"BKST"},{"time":2,"is_transit":false,"i_lat":-6.236616,"transit":false,"distance":2368,"station_name":"Bekasi","station_id":"BKS","line":0,"i_long":106.997013},{"i_lat":-6.224515,"i_long":106.977657,"station_name":"Kranji","line":1,"is_transit":false,"distance":2520,"time":4,"transit":false,"station_id":"KRI"},{"i_lat":-6.219053,"is_transit":false,"transit":false,"station_name":"Cakung","station_id":"CUK","i_long":106.951283,"line":0,"distance":3097,"time":3},{"i_lat":-6.217455,"is_transit":false,"time":8,"i_long":106.939679,"distance":1385,"line":1,"station_id":"KLDB","station_name":"Klenderbaru","transit":false},{"line":0,"is_transit":false,"i_long":106.922662,"station_name":"Buaran","i_lat":-6.215568,"distance":1305,"station_id":"BUA","transit":false,"time":1},{"i_long":106.899548,"line":1,"transit":false,"i_lat":-6.2135,"time":2,"distance":3100,"is_transit":false,"station_name":"Klender","station_id":"KLD"},{"station_name":"Jatinegara","i_long":106.86807400000001,"time":3,"transit":false,"station_id":"JNG","line":0,"is_transit":true,"i_lat":-6.215091,"distance":3395},{"is_transit":false,"distance":1377,"station_name":"Matraman","transit":false,"i_lat":-6.212485,"i_long":106.858896,"time":2,"station_id":"MTR","line":1},{"station_id":"MRI","line":0,"time":2,"is_transit":true,"transit":false,"i_long":106.84912,"station_name":"Manggarai","i_lat":-6.209883,"distance":1275},{"station_id":"SUD","distance":3186,"station_name":"Sudirman","is_transit":false,"line":1,"i_lat":-6.202263,"time":4,"i_long":106.822649,"transit":false},{"transit":false,"i_lat":-6.201433,"time":1,"station_name":"Sudirman Baru","station_id":"SUDB","i_long":106.819881,"line":1,"distance":280,"is_transit":false},{"station_name":"Karet","time":1,"i_lat":-6.20132,"station_id":"KAT","i_long":106.816351,"transit":false,"line":1,"distance":471,"is_transit":false},{"time":5,"station_name":"Tanah Abang","i_long":106.811091,"distance":2029,"transit":false,"i_lat":-6.185545,"is_transit":true,"station_id":"THB","line":1},{"time":8,"i_lat":-6.155215,"station_name":"Duri","station_id":"DU","i_long":106.800832,"transit":true,"distance":3632,"is_transit":true,"line":1},{"line":5,"is_transit":false,"i_lat":-6.162021,"transit":false,"distance":1700,"time":3,"i_long":106.788277,"station_id":"GGL","station_name":"Grogol"},{"station_name":"Pesing","line":5,"is_transit":false,"station_id":"PSG","transit":false,"i_long":106.771379,"i_lat":-6.161433,"distance":2036,"time":2},{"i_long":106.756522,"station_id":"TKO","station_name":"Taman Kota","i_lat":-6.1587309999999995,"transit":false,"line":5,"time":2,"is_transit":false,"distance":1614},{"station_id":"BOI","is_transit":false,"transit":false,"distance":2334,"i_lat":-6.159876,"station_name":"Bojongindah","i_long":106.737035,"line":0,"time":2},{"is_transit":false,"i_long":106.723064,"distance":1152,"i_lat":-6.162758,"line":5,"station_id":"RW","station_name":"Rawa Buaya","time":4,"transit":false},{"i_lat":-6.166068,"station_name":"Kalideres","distance":2504,"station_id":"KDS","time":3,"is_transit":false,"i_long":106.701612,"transit":false,"line":5},{"transit":false,"is_transit":false,"station_name":"Poris","distance":2548,"station_id":"PI","i_long":106.679458,"line":5,"time":3,"i_lat":-6.169933}],[{"station_name":"Cibitung","distance":0,"is_transit":false,"line":0,"transit":false,"station_id":"CIT","i_lat":-6.261877,"i_long":107.083084,"time":0},{"i_long":107.055722,"time":3,"station_id":"TB","station_name":"Tambun","line":1,"distance":3420,"i_lat":-6.258864,"is_transit":false,"transit":false},{"distance":4460,"transit":false,"station_id":"BKST","station_name":"Bekasi Timur","i_lat":-6.248029,"i_long":107.016735,"time":7,"line":0,"is_transit":false},{"line":0,"is_transit":false,"station_name":"Bekasi","station_id":"BKS","i_long":106.997013,"time":2,"i_lat":-6.236616,"distance":2368,"transit":false},{"i_lat":-6.224515,"station_name":"Kranji","is_transit":false,"distance":2520,"station_id":"KRI","transit":false,"time":4,"i_long":106.977657,"line":1},{"line":0,"distance":3097,"time":3,"i_lat":-6.219053,"i_long":106.951283,"is_transit":false,"transit":false,"station_name":"Cakung","station_id":"CUK"},{"is_transit":false,"transit":false,"station_name":"Klenderbaru","line":1,"time":8,"distance":1385,"i_lat":-6.217455,"station_id":"KLDB","i_long":106.939679},{"transit":false,"i_lat":-6.215568,"distance":1305,"time":1,"station_id":"BUA","i_long":106.922662,"station_name":"Buaran","is_transit":false,"line":0},{"i_long":106.899548,"transit":false,"time":2,"is_transit":false,"station_id":"KLD","i_lat":-6.2135,"line":1,"station_name":"Klender","distance":3100},{"transit":true,"station_name":"Jatinegara","i_long":106.86807400000001,"distance":3395,"i_lat":-6.215091,"is_transit":true,"station_id":"JNG","time":3,"line":0},{"station_id":"POK","station_name":"Pondok Jati","is_transit":false,"i_lat":-6.209188,"distance":1236,"time":2,"transit":false,"i_long":106.861737,"line":11},{"time":2,"distance":1829,"transit":false,"station_name":"Kramat","station_id":"KMT","is_transit":false,"i_long":106.855437,"line":11,"i_lat":-6.193792},{"station_id":"GST","station_name":"Gang Sentiong","time":1,"is_transit":false,"distance":973,"transit":false,"i_lat":-6.185975,"i_long":106.850107,"line":11},{"is_transit":false,"line":11,"station_name":"Pasar Senen","distance":1567,"time":8,"transit":false,"station_id":"PSE","i_long":106.84368,"i_lat":-6.174784},{"line":11,"i_long":106.839204,"station_id":"KMO","time":4,"transit":false,"distance":1436,"is_transit":false,"station_name":"Kemayoran","i_lat":-6.161728},{"line":11,"transit":false,"is_transit":false,"i_lat":-6.14505,"station_name":"Rajawali","distance":1901,"station_id":"RJW","i_long":106.836569,"time":5},{"station_name":"Kampung Bandan","i_long":106.826365,"station_id":"KPB","transit":true,"distance":1444,"i_lat":-6.132549,"time":3,"is_transit":true,"line":0},{"i_lat":-6.144674,"line":0,"time":9,"distance":4102,"i_long":106.79867,"is_transit":false,"station_id":"AK","station_name":"Angke","transit":false},{"time":4,"line":1,"is_transit":true,"i_long":106.800832,"station_name":"Duri","transit":true,"distance":1230,"i_lat":-6.155215,"station_id":"DU"},{"station_name":"Grogol","time":3,"transit":false,"line":5,"i_lat":-6.162021,"station_id":"GGL","i_long":106.788277,"distance":1700,"is_transit":false},{"i_long":106.771379,"station_name":"Pesing","is_transit":false,"time":2,"distance":2036,"transit":false,"line":5,"i_lat":-6.161433,"station_id":"PSG"},{"i_lat":-6.1587309999999995,"time":2,"i_long":106.756522,"transit":false,"station_name":"Taman Kota","is_transit":false,"distance":1614,"station_id":"TKO","line":5},{"time":2,"transit":false,"station_id":"BOI","is_transit":false,"station_name":"Bojongindah","i_long":106.737035,"i_lat":-6.159876,"line":0,"distance":2334},{"distance":1152,"transit":false,"station_name":"Rawa Buaya","time":4,"station_id":"RW","i_lat":-6.162758,"line":5,"is_transit":false,"i_long":106.723064},{"i_lat":-6.166068,"station_name":"Kalideres","i_long":106.701612,"station_id":"KDS","distance":2504,"is_transit":false,"line":5,"time":3,"transit":false},{"line":5,"transit":false,"time":3,"i_long":106.679458,"is_transit":false,"station_name":"Poris","distance":2548,"station_id":"PI","i_lat":-6.169933}],[{"station_id":"CIT","i_lat":-6.261877,"transit":false,"line":0,"i_long":107.083084,"time":0,"is_transit":false,"station_name":"Cibitung","distance":0},{"transit":false,"station_id":"TB","station_name":"Tambun","distance":3420,"i_lat":-6.258864,"i_long":107.055722,"line":1,"is_transit":false,"time":3},{"station_name":"Bekasi Timur","i_lat":-6.248029,"i_long":107.016735,"station_id":"BKST","transit":false,"line":0,"distance":4460,"is_transit":false,"time":7},{"line":0,"distance":2368,"transit":false,"station_name":"Bekasi","i_long":106.997013,"is_transit":false,"time":2,"i_lat":-6.236616,"station_id":"BKS"},{"transit":false,"time":4,"is_transit":false,"station_name":"Kranji","station_id":"KRI","i_lat":-6.224515,"distance":2520,"i_long":106.977657,"line":1},{"station_id":"CUK","i_long":106.951283,"station_name":"Cakung","time":3,"line":0,"transit":false,"is_transit":false,"distance":3097,"i_lat":-6.219053},{"distance":1385,"time":8,"station_id":"KLDB","station_name":"Klenderbaru","line":1,"transit":false,"is_transit":false,"i_lat":-6.217455,"i_long":106.939679},{"is_transit":false,"i_lat":-6.215568,"distance":1305,"i_long":106.922662,"transit":false,"station_name":"Buaran","station_id":"BUA","line":0,"time":1},{"line":1,"time":2,"distance":3100,"transit":false,"station_name":"Klender","station_id":"KLD","i_lat":-6.2135,"i_long":106.899548,"is_transit":false},{"station_name":"Jatinegara","i_lat":-6.215091,"i_long":106.86807400000001,"transit":false,"distance":3395,"time":3,"line":0,"station_id":"JNG","is_transit":true},{"station_id":"MTR","distance":1377,"transit":false,"i_long":106.858896,"is_transit":false,"line":1,"i_lat":-6.212485,"station_name":"Matraman","time":2},{"i_lat":-6.209883,"station_id":"MRI","i_long":106.84912,"distance":1275,"line":0,"station_name":"Manggarai","transit":true,"is_transit":true,"time":2},{"i_long":106.840169,"station_id":"CKI","i_lat":-6.198556,"station_name":"Cikini","transit":false,"line":0,"is_transit":false,"time":4,"distance":1590},{"i_lat":-6.186295,"station_name":"Gondangdia","station_id":"GDD","line":2,"i_long":106.832183,"distance":1750,"is_transit":false,"transit":false,"time":3},{"transit":false,"is_transit":false,"station_id":"JUA","i_long":106.828284,"line":2,"station_name":"Juanda","i_lat":-6.166716,"time":4,"distance":2015},{"line":2,"station_name":"Sawah Besar","time":2,"distance":1149,"station_id":"SW","transit":false,"i_long":106.827103,"is_transit":false,"i_lat":-6.160725},{"time":2,"station_name":"Manggabesar","transit":false,"line":2,"station_id":"MGB","is_transit":false,"i_lat":-6.149769,"i_long":106.82482,"distance":906},{"i_long":106.820901,"time":2,"transit":false,"is_transit":false,"distance":1080,"station_name":"Jayakarta","station_id":"JAY","i_lat":-6.141205,"line":7},{"station_name":"Jakarta Kota","distance":1264,"line":0,"is_transit":true,"i_lat":-6.137569,"time":4,"transit":true,"i_long":106.812439,"station_id":"JAKK"},{"is_transit":true,"i_long":106.826365,"line":0,"station_name":"Kampung Bandan","distance":1364,"i_lat":-6.132549,"time":3,"transit":false,"station_id":"KPB"},{"line":0,"distance":4102,"transit":false,"is_transit":false,"i_lat":-6.144674,"i_long":106.79867,"time":9,"station_name":"Angke","station_id":"AK"},{"i_lat":-6.155215,"station_id":"DU","is_transit":true,"line":1,"time":4,"distance":1230,"i_long":106.800832,"transit":true,"station_name":"Duri"},{"line":5,"station_id":"GGL","time":3,"station_name":"Grogol","i_long":106.788277,"is_transit":false,"transit":false,"i_lat":-6.162021,"distance":1700},{"station_name":"Pesing","line":5,"distance":2036,"station_id":"PSG","i_lat":-6.161433,"transit":false,"is_transit":false,"i_long":106.771379,"time":2},{"station_id":"TKO","station_name":"Taman Kota","time":2,"distance":1614,"i_lat":-6.1587309999999995,"i_long":106.756522,"line":5,"is_transit":false,"transit":false},{"is_transit":false,"transit":false,"distance":2334,"i_long":106.737035,"line":0,"station_id":"BOI","station_name":"Bojongindah","i_lat":-6.159876,"time":2},{"is_transit":false,"transit":false,"i_long":106.723064,"i_lat":-6.162758,"distance":1152,"station_id":"RW","station_name":"Rawa Buaya","line":5,"time":4},{"i_long":106.701612,"line":5,"distance":2504,"is_transit":false,"time":3,"station_id":"KDS","i_lat":-6.166068,"transit":false,"station_name":"Kalideres"},{"transit":false,"distance":2548,"i_lat":-6.169933,"line":5,"station_id":"PI","is_transit":false,"time":3,"station_name":"Poris","i_long":106.679458}],[{"transit":false,"i_lat":-6.261877,"i_long":107.083084,"is_transit":false,"station_name":"Cibitung","distance":0,"line":0,"time":0,"station_id":"CIT"},{"line":1,"station_name":"Tambun","distance":3420,"i_long":107.055722,"transit":false,"is_transit":false,"time":3,"i_lat":-6.258864,"station_id":"TB"},{"station_id":"BKST","is_transit":false,"transit":false,"i_lat":-6.248029,"distance":4460,"line":0,"station_name":"Bekasi Timur","i_long":107.016735,"time":7},{"station_name":"Bekasi","distance":2368,"is_transit":false,"line":0,"station_id":"BKS","i_long":106.997013,"i_lat":-6.236616,"transit":false,"time":2},{"line":1,"is_transit":false,"transit":false,"station_id":"KRI","i_long":106.977657,"station_name":"Kranji","i_lat":-6.224515,"time":4,"distance":2520},{"is_transit":false,"i_long":106.951283,"time":3,"transit":false,"station_id":"CUK","i_lat":-6.219053,"line":0,"distance":3097,"station_name":"Cakung"},{"line":1,"station_name":"Klenderbaru","is_transit":false,"transit":false,"distance":1385,"station_id":"KLDB","time":8,"i_long":106.939679,"i_lat":-6.217455},{"transit":false,"station_name":"Buaran","distance":1305,"i_long":106.922662,"time":1,"station_id":"BUA","i_lat":-6.215568,"is_transit":false,"line":0},{"transit":false,"station_id":"KLD","line":1,"time":2,"station_name":"Klender","i_lat":-6.2135,"distance":3100,"is_transit":false,"i_long":106.899548},{"time":3,"distance":3395,"i_long":106.86807400000001,"station_id":"JNG","i_lat":-6.215091,"is_transit":true,"line":0,"transit":true,"station_name":"Jatinegara"},{"transit":false,"i_long":106.861737,"distance":1236,"i_lat":-6.209188,"time":2,"line":11,"station_id":"POK","is_transit":false,"station_name":"Pondok Jati"},{"distance":1829,"i_long":106.855437,"is_transit":false,"transit":false,"station_id":"KMT","i_lat":-6.193792,"station_name":"Kramat","line":11,"time":2},{"transit":false,"time":1,"i_lat":-6.185975,"i_long":106.850107,"line":11,"is_transit":false,"station_id":"GST","station_name":"Gang Sentiong","distance":973},{"i_long":106.84368,"i_lat":-6.174784,"transit":false,"station_name":"Pasar Senen","distance":1567,"station_id":"PSE","line":11,"is_transit":false,"time":8},{"distance":1436,"i_long":106.839204,"station_name":"Kemayoran","is_transit":false,"time":4,"line":11,"station_id":"KMO","i_lat":-6.161728,"transit":false},{"transit":false,"i_lat":-6.14505,"is_transit":false,"station_name":"Rajawali","distance":1901,"station_id":"RJW","time":5,"i_long":106.836569,"line":11},{"i_lat":-6.132549,"station_name":"Kampung Bandan","distance":1444,"station_id":"KPB","i_long":106.826365,"transit":true,"line":0,"time":3,"is_transit":true},{"time":3,"station_name":"Jakarta Kota","distance":1364,"is_transit":true,"station_id":"JAKK","line":0,"i_long":106.812439,"i_lat":-6.137569,"transit":true},{"station_name":"Jayakarta","station_id":"JAY","i_lat":-6.141205,"is_transit":false,"distance":1264,"time":4,"transit":false,"line":7,"i_long":106.820901},{"is_transit":false,"distance":1080,"transit":false,"station_id":"MGB","time":2,"i_lat":-6.149769,"i_long":106.82482,"line":2,"station_name":"Manggabesar"},{"transit":false,"station_id":"SW","station_name":"Sawah Besar","i_lat":-6.160725,"i_long":106.827103,"line":2,"distance":906,"time":2,"is_transit":false},{"i_lat":-6.166716,"i_long":106.828284,"station_name":"Juanda","station_id":"JUA","distance":1149,"time":2,"line":2,"transit":false,"is_transit":false},{"transit":false,"distance":2015,"i_lat":-6.186295,"is_transit":false,"station_name":"Gondangdia","station_id":"GDD","time":4,"i_long":106.832183,"line":2},{"transit":false,"station_id":"CKI","time":3,"is_transit":false,"i_long":106.840169,"station_name":"Cikini","distance":1750,"line":0,"i_lat":-6.198556},{"is_transit":true,"i_long":106.84912,"line":0,"station_name":"Manggarai","transit":true,"distance":1590,"station_id":"MRI","time":4,"i_lat":-6.209883},{"is_transit":false,"station_id":"SUD","transit":false,"distance":3186,"line":1,"time":4,"i_lat":-6.202263,"station_name":"Sudirman","i_long":106.822649},{"is_transit":false,"distance":280,"station_id":"SUDB","i_long":106.819881,"line":1,"time":1,"transit":false,"station_name":"Sudirman Baru","i_lat":-6.201433},{"i_long":106.816351,"i_lat":-6.20132,"time":1,"distance":471,"transit":false,"is_transit":false,"station_name":"Karet","station_id":"KAT","line":1},{"time":5,"station_name":"Tanah Abang","distance":2029,"i_long":106.811091,"station_id":"THB","line":1,"is_transit":true,"transit":false,"i_lat":-6.185545},{"station_id":"DU","time":8,"transit":true,"is_transit":true,"i_long":106.800832,"line":1,"distance":3632,"station_name":"Duri","i_lat":-6.155215},{"transit":false,"station_name":"Grogol","station_id":"GGL","i_lat":-6.162021,"distance":1700,"line":5,"is_transit":false,"time":3,"i_long":106.788277},{"transit":false,"i_long":106.771379,"time":2,"station_id":"PSG","i_lat":-6.161433,"is_transit":false,"distance":2036,"station_name":"Pesing","line":5},{"line":5,"station_id":"TKO","transit":false,"time":2,"station_name":"Taman Kota","distance":1614,"is_transit":false,"i_long":106.756522,"i_lat":-6.1587309999999995},{"distance":2334,"station_id":"BOI","i_lat":-6.159876,"transit":false,"station_name":"Bojongindah","line":0,"time":2,"i_long":106.737035,"is_transit":false},{"station_id":"RW","time":4,"line":5,"distance":1152,"i_long":106.723064,"is_transit":false,"transit":false,"i_lat":-6.162758,"station_name":"Rawa Buaya"},{"line":5,"transit":false,"distance":2504,"i_long":106.701612,"station_name":"Kalideres","is_transit":false,"time":3,"i_lat":-6.166068,"station_id":"KDS"},{"transit":false,"i_long":106.679458,"station_name":"Poris","line":5,"is_transit":false,"time":3,"i_lat":-6.169933,"station_id":"PI","distance":2548}]]}