{"data":[[{"transit":false,"is_transit":false,"station_id":"CIT","i_long":107.083084,"line":1,"station_name":"Cibitung","distance":0,"i_lat":-6.261877,"time":0},{"station_name":"Tambun","transit":false,"i_lat":-6.258864,"i_long":107.055722,"station_id":"TB","line":1,"time":3,"is_transit":false,"distance":3420},{"distance":4460,"station_name":"Bekasi Timur","station_id":"BKST","i_long":107.016735,"line":1,"transit":false,"time":7,"is_transit":false,"i_lat":-6.248029},{"distance":2368,"time":2,"station_id":"BKS","is_transit":false,"line":1,"transit":false,"station_name":"Bekasi","i_lat":-6.236616,"i_long":106.997013},{"time":4,"distance":2520,"station_id":"KRI","i_lat":-6.224515,"i_long":106.977657,"station_name":"Kranji","line":1,"is_transit":false,"transit":false},{"i_long":106.951283,"is_transit":false,"distance":3097,"line":1,"transit":false,"time":3,"station_id":"CUK","station_name":"Cakung","i_lat":-6.219053},{"time":8,"transit":false,"station_name":"Klenderbaru","is_transit":false,"i_long":106.939679,"station_id":"KLDB","line":1,"distance":1385,"i_lat":-6.217455},{"transit":false,"station_id":"BUA","i_lat":-6.215568,"line":1,"i_long":106.922662,"time":1,"station_name":"Buaran","is_transit":false,"distance":1305},{"station_id":"KLD","is_transit":false,"transit":false,"i_long":106.899548,"distance":3100,"i_lat":-6.2135,"time":2,"station_name":"Klender","line":1},{"station_id":"JNG","station_name":"Jatinegara","is_transit":false,"transit":false,"i_lat":-6.215091,"time":3,"i_long":106.86807400000001,"line":1,"distance":3395},{"station_id":"MTR","transit":false,"i_lat":-6.212485,"i_long":106.858896,"is_transit":false,"line":1,"distance":1377,"station_name":"Matraman","time":2},{"line":2,"station_id":"MRI","transit":false,"i_lat":-6.209883,"station_name":"Manggarai","time":2,"is_transit":false,"distance":1275,"i_long":106.84912},{"transit":false,"station_id":"SUD","station_name":"Sudirman","i_long":106.822649,"is_transit":false,"line":1,"i_lat":-6.202263,"time":4,"distance":3186},{"distance":280,"i_long":106.819881,"line":1,"is_transit":false,"station_name":"Sudirman Baru","station_id":"SUDB","time":1,"i_lat":-6.201433,"transit":false},{"line":1,"transit":false,"station_id":"KAT","station_name":"Karet","is_transit":false,"time":1,"distance":471,"i_lat":-6.20132,"i_long":106.816351},{"station_id":"THB","station_name":"Tanah Abang","distance":2029,"is_transit":true,"time":5,"transit":true,"i_lat":-6.185545,"line":1,"i_long":106.811091},{"station_name":"Palmerah","time":6,"is_transit":false,"distance":3191,"station_id":"PLM","line":6,"transit":false,"i_lat":-6.207404,"i_long":106.79689},{"line":6,"transit":false,"distance":3737,"is_transit":false,"station_name":"Kebayoran","i_long":106.780334,"time":7,"station_id":"KBY","i_lat":-6.237242},{"station_name":"Pondokranji","is_transit":false,"distance":6218,"i_lat":-6.276362,"i_long":106.74273,"line":6,"transit":false,"station_id":"PDJ","time":8},{"time":3,"distance":2179,"transit":false,"i_lat":-6.288927,"station_name":"Jurangmangu","station_id":"JMU","is_transit":false,"i_long":106.728916,"line":6}],[{"i_lat":-6.261877,"station_id":"CIT","transit":false,"station_name":"Cibitung","time":0,"distance":0,"line":1,"is_transit":false,"i_long":107.083084},{"station_id":"TB","transit":false,"is_transit":false,"i_lat":-6.258864,"line":1,"station_name":"Tambun","time":3,"distance":3420,"i_long":107.055722},{"line":1,"i_lat":-6.248029,"station_name":"Bekasi Timur","time":7,"distance":4460,"transit":false,"station_id":"BKST","i_long":107.016735,"is_transit":false},{"transit":false,"i_lat":-6.236616,"station_name":"Bekasi","distance":2368,"i_long":106.997013,"is_transit":false,"station_id":"BKS","time":2,"line":1},{"is_transit":false,"station_name":"Kranji","transit":false,"station_id":"KRI","i_long":106.977657,"line":1,"time":4,"i_lat":-6.224515,"distance":2520},{"is_transit":false,"time":3,"distance":3097,"station_name":"Cakung","transit":false,"station_id":"CUK","i_lat":-6.219053,"i_long":106.951283,"line":1},{"i_long":106.939679,"station_id":"KLDB","transit":false,"time":8,"distance":1385,"is_transit":false,"i_lat":-6.217455,"line":1,"station_name":"Klenderbaru"},{"i_long":106.922662,"time":1,"line":1,"station_name":"Buaran","distance":1305,"transit":false,"is_transit":false,"station_id":"BUA","i_lat":-6.215568},{"transit":false,"line":1,"is_transit":false,"station_name":"Klender","distance":3100,"time":2,"station_id":"KLD","i_lat":-6.2135,"i_long":106.899548},{"station_id":"JNG","is_transit":true,"i_lat":-6.215091,"i_long":106.86807400000001,"station_name":"Jatinegara","time":3,"distance":3395,"transit":true,"line":1},{"is_transit":false,"station_name":"Pondok Jati","transit":false,"station_id":"POK","i_long":106.861737,"time":2,"i_lat":-6.209188,"line":11,"distance":1236},{"time":2,"transit":false,"distance":1829,"station_id":"KMT","is_transit":false,"station_name":"Kramat","i_long":106.855437,"i_lat":-6.193792,"line":11},{"time":1,"distance":973,"station_id":"GST","i_long":106.850107,"i_lat":-6.185975,"transit":false,"station_name":"Gang Sentiong","line":11,"is_transit":false},{"i_long":106.84368,"i_lat":-6.174784,"time":8,"distance":1567,"line":11,"station_name":"Pasar Senen","transit":false,"station_id":"PSE","is_transit":false},{"station_name":"Kemayoran","is_transit":false,"distance":1436,"station_id":"KMO","line":11,"i_lat":-6.161728,"i_long":106.839204,"transit":false,"time":4},{"station_id":"RJW","i_lat":-6.14505,"distance":1901,"line":11,"station_name":"Rajawali","is_transit":false,"i_long":106.836569,"time":5,"transit":false},{"transit":true,"i_long":106.826365,"station_id":"KPB","station_name":"Kampung Bandan","distance":1444,"line":4,"time":3,"is_transit":true,"i_lat":-6.132549},{"line":1,"time":9,"station_id":"AK","i_lat":-6.144674,"i_long":106.79867,"is_transit":false,"station_name":"Angke","transit":false,"distance":4102},{"i_long":106.800832,"distance":1230,"i_lat":-6.155215,"station_name":"Duri","transit":false,"line":1,"is_transit":false,"time":4,"station_id":"DU"},{"station_id":"THB","station_name":"Tanah Abang","is_transit":true,"i_long":106.811091,"time":8,"distance":3632,"i_lat":-6.185545,"line":1,"transit":true},{"i_lat":-6.207404,"station_id":"PLM","transit":false,"line":6,"distance":3191,"station_name":"Palmerah","is_transit":false,"time":6,"i_long":106.79689},{"i_long":106.780334,"station_name":"Kebayoran","time":7,"station_id":"KBY","distance":3737,"transit":false,"line":6,"i_lat":-6.237242,"is_transit":false},{"line":6,"i_lat":-6.276362,"station_name":"Pondokranji","is_transit":false,"transit":false,"time":8,"station_id":"PDJ","distance":6218,"i_long":106.74273},{"is_transit":false,"station_name":"Jurangmangu","i_lat":-6.288927,"station_id":"JMU","transit":false,"time":3,"i_long":106.728916,"line":6,"distance":2179}],[{"is_transit":false,"station_name":"Cibitung","time":0,"distance":0,"i_lat":-6.261877,"i_long":107.083084,"transit":false,"line":1,"station_id":"CIT"},{"station_name":"Tambun","i_long":107.055722,"station_id":"TB","i_lat":-6.258864,"line":1,"distance":3420,"transit":false,"time":3,"is_transit":false},{"i_lat":-6.248029,"is_transit":false,"station_name":"Bekasi Timur","distance":4460,"line":1,"i_long":107.016735,"time":7,"station_id":"BKST","transit":false},{"i_lat":-6.236616,"i_long":106.997013,"time":2,"station_name":"Bekasi","transit":false,"line":1,"station_id":"BKS","distance":2368,"is_transit":false},{"distance":2520,"station_id":"KRI","station_name":"Kranji","transit":false,"i_lat":-6.224515,"time":4,"i_long":106.977657,"is_transit":false,"line":1},{"i_long":106.951283,"is_transit":false,"station_name":"Cakung","distance":3097,"line":1,"station_id":"CUK","time":3,"i_lat":-6.219053,"transit":false},{"station_id":"KLDB","i_long":106.939679,"line":1,"distance":1385,"transit":false,"station_name":"Klenderbaru","time":8,"is_transit":false,"i_lat":-6.217455},{"is_transit":false,"line":1,"station_name":"Buaran","i_lat":-6.215568,"distance":1305,"i_long":106.922662,"station_id":"BUA","time":1,"transit":false},{"station_id":"KLD","time":2,"station_name":"Klender","distance":3100,"i_long":106.899548,"line":1,"is_transit":false,"i_lat":-6.2135,"transit":false},{"i_long":106.86807400000001,"is_transit":false,"line":1,"transit":false,"i_lat":-6.215091,"station_name":"Jatinegara","distance":3395,"time":3,"station_id":"JNG"},{"station_id":"MTR","i_long":106.858896,"distance":1377,"station_name":"Matraman","time":2,"i_lat":-6.212485,"is_transit":false,"transit":false,"line":1},{"line":2,"distance":1275,"transit":true,"i_long":106.84912,"i_lat":-6.209883,"time":2,"station_id":"MRI","station_name":"Manggarai","is_transit":true},{"distance":1590,"transit":false,"line":2,"i_long":106.840169,"i_lat":-6.198556,"station_id":"CKI","time":4,"station_name":"Cikini","is_transit":false},{"i_long":106.832183,"is_transit":false,"i_lat":-6.186295,"distance":1750,"line":2,"transit":false,"time":3,"station_id":"GDD","station_name":"Gondangdia"},{"i_long":106.828284,"transit":false,"is_transit":false,"i_lat":-6.166716,"station_name":"Juanda","station_id":"JUA","time":4,"distance":2015,"line":2},{"time":2,"transit":false,"distance":1149,"i_lat":-6.160725,"line":2,"is_transit":false,"i_long":106.827103,"station_id":"SW","station_name":"Sawah Besar"},{"time":2,"i_lat":-6.149769,"transit":false,"distance":906,"station_name":"Manggabesar","is_transit":false,"i_long":106.82482,"line":2,"station_id":"MGB"},{"line":2,"i_long":106.820901,"distance":1080,"transit":false,"station_id":"JAY","station_name":"Jayakarta","i_lat":-6.141205,"time":2,"is_transit":false},{"distance":1264,"i_lat":-6.137569,"line":2,"time":4,"transit":true,"station_id":"JAKK","i_long":106.812439,"station_name":"Jakarta Kota","is_transit":true},{"transit":true,"line":4,"station_name":"Kampung Bandan","station_id":"KPB","distance":1364,"is_transit":true,"i_lat":-6.132549,"i_long":106.826365,"time":3},{"transit":false,"station_id":"AK","station_name":"Angke","is_transit":false,"i_lat":-6.144674,"i_long":106.79867,"line":1,"time":9,"distance":4102},{"line":1,"i_lat":-6.155215,"i_long":106.800832,"distance":1230,"station_id":"DU","station_name":"Duri","transit":false,"time":4,"is_transit":false},{"i_lat":-6.185545,"transit":true,"i_long":106.811091,"line":1,"station_name":"Tanah Abang","is_transit":true,"distance":3632,"station_id":"THB","time":8},{"time":6,"station_id":"PLM","station_name":"Palmerah","line":6,"distance":3191,"is_transit":false,"i_lat":-6.207404,"i_long":106.79689,"transit":false},{"station_name":"Kebayoran","is_transit":false,"line":6,"transit":false,"station_id":"KBY","time":7,"distance":3737,"i_lat":-6.237242,"i_long":106.780334},{"i_long":106.74273,"is_transit":false,"distance":6218,"line":6,"i_lat":-6.276362,"time":8,"station_id":"PDJ","station_name":"Pondokranji","transit":false},{"station_id":"JMU","is_transit":false,"transit":false,"station_name":"Jurangmangu","i_lat":-6.288927,"line":6,"time":3,"i_long":106.728916,"distance":2179}],[{"transit":false,"i_long":107.083084,"station_id":"CIT","time":0,"i_lat":-6.261877,"is_transit":false,"distance":0,"line":1,"station_name":"Cibitung"},{"transit":false,"station_name":"Tambun","i_lat":-6.258864,"is_transit":false,"time":3,"station_id":"TB","line":1,"distance":3420,"i_long":107.055722},{"station_name":"Bekasi Timur","distance":4460,"i_long":107.016735,"is_transit":false,"line":1,"i_lat":-6.248029,"station_id":"BKST","time":7,"transit":false},{"i_long":106.997013,"transit":false,"line":1,"time":2,"i_lat":-6.236616,"station_id":"BKS","station_name":"Bekasi","is_transit":false,"distance":2368},{"station_name":"Kranji","line":1,"i_lat":-6.224515,"is_transit":false,"station_id":"KRI","time":4,"i_long":106.977657,"transit":false,"distance":2520},{"transit":false,"station_id":"CUK","i_long":106.951283,"station_name":"Cakung","line":1,"time":3,"distance":3097,"i_lat":-6.219053,"is_transit":false},{"is_transit":false,"i_lat":-6.217455,"i_long":106.939679,"distance":1385,"time":8,"station_name":"Klenderbaru","line":1,"station_id":"KLDB","transit":false},{"station_name":"Buaran","time":1,"i_long":106.922662,"transit":false,"distance":1305,"i_lat":-6.215568,"station_id":"BUA","line":1,"is_transit":false},{"station_name":"Klender","is_transit":false,"i_long":106.899548,"line":1,"station_id":"KLD","i_lat":-6.2135,"transit":false,"distance":3100,"time":2},{"distance":3395,"i_long":106.86807400000001,"i_lat":-6.215091,"is_transit":true,"station_name":"Jatinegara","station_id":"JNG","line":1,"transit":true,"time":3},{"station_id":"POK","station_name":"Pondok Jati","distance":1236,"is_transit":false,"i_long":106.861737,"i_lat":-6.209188,"time":2,"transit":false,"line":11},{"station_name":"Kramat","station_id":"KMT","transit":false,"i_long":106.855437,"time":2,"i_lat":-6.193792,"line":11,"is_transit":false,"distance":1829},{"line":11,"distance":973,"time":1,"transit":false,"i_long":106.850107,"station_id":"GST","station_name":"Gang Sentiong","is_transit":false,"i_lat":-6.185975},{"is_transit":false,"distance":1567,"station_name":"Pasar Senen","station_id":"PSE","i_lat":-6.174784,"transit":false,"i_long":106.84368,"line":11,"time":8},{"station_id":"KMO","time":4,"line":11,"distance":1436,"transit":false,"station_name":"Kemayoran","is_transit":false,"i_long":106.839204,"i_lat":-6.161728},{"distance":1901,"station_id":"RJW","is_transit":false,"i_lat":-6.14505,"time":5,"i_long":106.836569,"station_name":"Rajawali","line":11,"transit":false},{"station_id":"KPB","is_transit":true,"i_long":106.826365,"station_name":"Kampung Bandan","line":4,"time":3,"transit":true,"distance":1444,"i_lat":-6.132549},{"transit":true,"station_name":"Jakarta Kota","station_id":"JAKK","line":2,"i_lat":-6.137569,"distance":1364,"i_long":106.812439,"time":3,"is_transit":true},{"is_transit":false,"station_id":"JAY","station_name":"Jayakarta","time":4,"i_lat":-6.141205,"distance":1264,"transit":false,"i_long":106.820901,"line":2},{"line":2,"time":2,"station_name":"Manggabesar","transit":false,"station_id":"MGB","i_lat":-6.149769,"is_transit":false,"i_long":106.82482,"distance":1080},{"i_long":106.827103,"is_transit":false,"distance":906,"station_id":"SW","station_name":"Sawah Besar","line":2,"time":2,"transit":false,"i_lat":-6.160725},{"station_name":"Juanda","transit":false,"time":2,"i_long":106.828284,"station_id":"JUA","is_transit":false,"distance":1149,"line":2,"i_lat":-6.166716},{"line":2,"transit":false,"station_name":"Gondangdia","distance":2015,"i_lat":-6.186295,"station_id":"GDD","time":4,"i_long":106.832183,"is_transit":false},{"station_name":"Cikini","i_lat":-6.198556,"distance":1750,"station_id":"CKI","time":3,"i_long":106.840169,"line":2,"is_transit":false,"transit":false},{"distance":1590,"station_name":"Manggarai","is_transit":true,"i_long":106.84912,"time":4,"station_id":"MRI","transit":true,"i_lat":-6.209883,"line":2},{"transit":false,"distance":3186,"is_transit":false,"line":1,"station_id":"SUD","time":4,"i_lat":-6.202263,"station_name":"Sudirman","i_long":106.822649},{"station_id":"SUDB","i_long":106.819881,"time":1,"transit":false,"distance":280,"is_transit":false,"station_name":"Sudirman Baru","i_lat":-6.201433,"line":1},{"transit":false,"station_id":"KAT","station_name":"Karet","is_transit":false,"distance":471,"i_long":106.816351,"time":1,"line":1,"i_lat":-6.20132},{"station_name":"Tanah Abang","time":5,"line":1,"is_transit":true,"i_lat":-6.185545,"distance":2029,"station_id":"THB","i_long":106.811091,"transit":true},{"is_transit":false,"i_lat":-6.207404,"line":6,"time":6,"station_name":"Palmerah","station_id":"PLM","distance":3191,"i_long":106.79689,"transit":false},{"time":7,"is_transit":false,"station_name":"Kebayoran","distance":3737,"i_lat":-6.237242,"i_long":106.780334,"station_id":"KBY","transit":false,"line":6},{"i_lat":-6.276362,"station_id":"PDJ","i_long":106.74273,"time":8,"distance":6218,"transit":false,"line":6,"station_name":"Pondokranji","is_transit":false},{"i_lat":-6.288927,"i_long":106.728916,"station_id":"JMU","distance":2179,"line":6,"transit":false,"station_name":"Jurangmangu","time":3,"is_transit":false}]]}