{"data":[[{"time":0,"line":1,"i_long":107.083084,"is_transit":false,"i_lat":-6.261877,"station_id":"CIT","station_name":"Cibitung","transit":false,"distance":0},{"distance":3420,"is_transit":false,"line":1,"station_name":"Tambun","station_id":"TB","i_long":107.055722,"transit":false,"i_lat":-6.258864,"time":3},{"transit":false,"time":7,"station_id":"BKST","line":1,"distance":4460,"is_transit":false,"i_lat":-6.248029,"i_long":107.016735,"station_name":"Bekasi Timur"},{"transit":false,"time":2,"distance":2368,"line":1,"station_name":"Bekasi","i_long":106.997013,"is_transit":false,"station_id":"BKS","i_lat":-6.236616},{"time":4,"station_id":"KRI","distance":2520,"i_long":106.977657,"station_name":"Kranji","is_transit":false,"i_lat":-6.224515,"line":1,"transit":false},{"distance":3097,"line":1,"time":3,"station_name":"Cakung","transit":false,"i_lat":-6.219053,"is_transit":false,"station_id":"CUK","i_long":106.951283},{"i_lat":-6.217455,"distance":1385,"station_name":"Klenderbaru","is_transit":false,"station_id":"KLDB","i_long":106.939679,"transit":false,"time":8,"line":1},{"i_long":106.922662,"distance":1305,"transit":false,"i_lat":-6.215568,"station_name":"Buaran","is_transit":false,"time":1,"line":1,"station_id":"BUA"},{"time":2,"distance":3100,"station_id":"KLD","line":1,"i_lat":-6.2135,"is_transit":false,"i_long":106.899548,"station_name":"Klender","transit":false},{"line":1,"time":3,"transit":false,"distance":3395,"i_long":106.86807400000001,"station_id":"JNG","station_name":"Jatinegara","i_lat":-6.215091,"is_transit":false},{"time":2,"station_name":"Matraman","i_long":106.858896,"line":1,"distance":1377,"is_transit":false,"station_id":"MTR","i_lat":-6.212485,"transit":false},{"transit":false,"distance":1275,"station_id":"MRI","i_lat":-6.209883,"time":2,"is_transit":false,"i_long":106.84912,"line":2,"station_name":"Manggarai"},{"distance":3186,"station_id":"SUD","i_lat":-6.202263,"i_long":106.822649,"station_name":"Sudirman","time":4,"is_transit":false,"transit":false,"line":1},{"distance":280,"station_id":"SUDB","transit":false,"line":1,"station_name":"Sudirman Baru","is_transit":false,"time":1,"i_lat":-6.201433,"i_long":106.819881},{"is_transit":false,"distance":471,"station_id":"KAT","time":1,"station_name":"Karet","i_lat":-6.20132,"i_long":106.816351,"transit":false,"line":1},{"distance":2029,"station_id":"THB","time":5,"station_name":"Tanah Abang","is_transit":true,"transit":true,"i_lat":-6.185545,"line":1,"i_long":106.811091},{"transit":false,"i_lat":-6.207404,"station_name":"Palmerah","line":6,"distance":3191,"station_id":"PLM","time":6,"is_transit":false,"i_long":106.79689},{"distance":3737,"i_long":106.780334,"station_name":"Kebayoran","station_id":"KBY","i_lat":-6.237242,"transit":false,"line":6,"is_transit":false,"time":7},{"is_transit":false,"time":8,"station_id":"PDJ","transit":false,"i_long":106.74273,"line":6,"distance":6218,"station_name":"Pondokranji","i_lat":-6.276362},{"distance":2179,"station_id":"JMU","station_name":"Jurangmangu","i_lat":-6.288927,"line":6,"time":3,"transit":false,"is_transit":false,"i_long":106.728916},{"distance":1994,"station_name":"Sudimara","i_lat":-6.296963,"is_transit":false,"time":4,"transit":false,"station_id":"SDM","i_long":106.712277,"line":6},{"transit":false,"station_name":"Rawa Buntu","is_transit":false,"station_id":"RU","i_lat":-6.314823,"line":6,"distance":4566,"time":6,"i_long":106.675475},{"i_lat":-6.319871,"distance":2413,"time":4,"station_name":"Serpong","transit":false,"line":6,"i_long":106.66566,"is_transit":false,"station_id":"SRP"},{"i_lat":-6.32484,"i_long":106.640411,"station_name":"Cisauk","transit":false,"line":3,"time":4,"distance":1784,"station_id":"CSK","is_transit":false},{"i_lat":-6.329547,"distance":2519,"station_id":"CC","transit":false,"is_transit":false,"i_long":106.617853,"line":3,"station_name":"Cicayur","time":4},{"station_name":"Parung Panjang","i_lat":-6.3441410000000005,"time":8,"i_long":106.568863,"station_id":"PRP","is_transit":false,"distance":5968,"line":6,"transit":false},{"i_lat":-6.354349,"time":9,"transit":false,"line":3,"is_transit":false,"station_name":"Cilejit","station_id":"CJT","distance":7025,"i_long":106.508482}],[{"station_name":"Cibitung","i_long":107.083084,"time":0,"distance":0,"is_transit":false,"station_id":"CIT","transit":false,"line":1,"i_lat":-6.261877},{"distance":3420,"is_transit":false,"station_id":"TB","line":1,"time":3,"transit":false,"station_name":"Tambun","i_lat":-6.258864,"i_long":107.055722},{"i_lat":-6.248029,"station_name":"Bekasi Timur","station_id":"BKST","time":7,"transit":false,"i_long":107.016735,"is_transit":false,"line":1,"distance":4460},{"time":2,"station_name":"Bekasi","i_long":106.997013,"is_transit":false,"transit":false,"distance":2368,"i_lat":-6.236616,"line":1,"station_id":"BKS"},{"time":4,"station_name":"Kranji","transit":false,"is_transit":false,"station_id":"KRI","distance":2520,"line":1,"i_long":106.977657,"i_lat":-6.224515},{"is_transit":false,"distance":3097,"station_name":"Cakung","line":1,"transit":false,"time":3,"i_lat":-6.219053,"i_long":106.951283,"station_id":"CUK"},{"station_id":"KLDB","station_name":"Klenderbaru","distance":1385,"transit":false,"is_transit":false,"line":1,"time":8,"i_long":106.939679,"i_lat":-6.217455},{"station_id":"BUA","time":1,"i_long":106.922662,"line":1,"distance":1305,"i_lat":-6.215568,"is_transit":false,"transit":false,"station_name":"Buaran"},{"i_long":106.899548,"i_lat":-6.2135,"distance":3100,"transit":false,"station_id":"KLD","is_transit":false,"station_name":"Klender","line":1,"time":2},{"time":3,"distance":3395,"i_long":106.86807400000001,"station_id":"JNG","station_name":"Jatinegara","is_transit":true,"i_lat":-6.215091,"transit":true,"line":1},{"i_long":106.861737,"i_lat":-6.209188,"station_id":"POK","line":11,"is_transit":false,"transit":false,"time":2,"distance":1236,"station_name":"Pondok Jati"},{"station_name":"Kramat","station_id":"KMT","is_transit":false,"transit":false,"distance":1829,"i_lat":-6.193792,"i_long":106.855437,"line":11,"time":2},{"line":11,"is_transit":false,"station_name":"Gang Sentiong","transit":false,"time":1,"station_id":"GST","i_lat":-6.185975,"i_long":106.850107,"distance":973},{"station_name":"Pasar Senen","i_long":106.84368,"station_id":"PSE","line":11,"i_lat":-6.174784,"distance":1567,"time":8,"transit":false,"is_transit":false},{"line":11,"is_transit":false,"transit":false,"station_name":"Kemayoran","station_id":"KMO","i_long":106.839204,"i_lat":-6.161728,"time":4,"distance":1436},{"i_long":106.836569,"distance":1901,"is_transit":false,"station_name":"Rajawali","transit":false,"station_id":"RJW","time":5,"i_lat":-6.14505,"line":11},{"is_transit":true,"station_name":"Kampung Bandan","i_lat":-6.132549,"i_long":106.826365,"line":4,"time":3,"distance":1444,"transit":true,"station_id":"KPB"},{"i_lat":-6.144674,"i_long":106.79867,"distance":4102,"transit":false,"station_id":"AK","is_transit":false,"line":1,"time":9,"station_name":"Angke"},{"i_lat":-6.155215,"is_transit":false,"line":1,"i_long":106.800832,"distance":1230,"time":4,"transit":false,"station_id":"DU","station_name":"Duri"},{"i_long":106.811091,"station_name":"Tanah Abang","line":1,"distance":3632,"transit":true,"is_transit":true,"time":8,"i_lat":-6.185545,"station_id":"THB"},{"i_long":106.79689,"transit":false,"time":6,"station_id":"PLM","is_transit":false,"station_name":"Palmerah","distance":3191,"i_lat":-6.207404,"line":6},{"i_lat":-6.237242,"i_long":106.780334,"distance":3737,"transit":false,"station_id":"KBY","time":7,"station_name":"Kebayoran","line":6,"is_transit":false},{"distance":6218,"i_lat":-6.276362,"is_transit":false,"station_id":"PDJ","time":8,"transit":false,"station_name":"Pondokranji","i_long":106.74273,"line":6},{"i_long":106.728916,"distance":2179,"transit":false,"line":6,"station_id":"JMU","station_name":"Jurangmangu","is_transit":false,"time":3,"i_lat":-6.288927},{"distance":1994,"transit":false,"i_lat":-6.296963,"station_name":"Sudimara","station_id":"SDM","i_long":106.712277,"line":6,"is_transit":false,"time":4},{"line":6,"distance":4566,"station_id":"RU","i_long":106.675475,"transit":false,"time":6,"is_transit":false,"station_name":"Rawa Buntu","i_lat":-6.314823},{"time":4,"is_transit":false,"i_lat":-6.319871,"station_id":"SRP","line":6,"station_name":"Serpong","transit":false,"distance":2413,"i_long":106.66566},{"station_id":"CSK","distance":1784,"transit":false,"line":3,"station_name":"Cisauk","i_lat":-6.32484,"is_transit":false,"time":4,"i_long":106.640411},{"distance":2519,"transit":false,"time":4,"is_transit":false,"i_lat":-6.329547,"station_id":"CC","i_long":106.617853,"station_name":"Cicayur","line":3},{"transit":false,"station_id":"PRP","station_name":"Parung Panjang","i_lat":-6.3441410000000005,"time":8,"line":6,"i_long":106.568863,"is_transit":false,"distance":5968},{"station_name":"Cilejit","i_long":106.508482,"transit":false,"i_lat":-6.354349,"distance":7025,"line":3,"station_id":"CJT","is_transit":false,"time":9}],[{"distance":0,"station_id":"CIT","time":0,"transit":false,"station_name":"Cibitung","line":1,"is_transit":false,"i_lat":-6.261877,"i_long":107.083084},{"i_lat":-6.258864,"distance":3420,"i_long":107.055722,"transit":false,"is_transit":false,"station_id":"TB","station_name":"Tambun","line":1,"time":3},{"line":1,"time":7,"transit":false,"station_name":"Bekasi Timur","station_id":"BKST","i_long":107.016735,"distance":4460,"i_lat":-6.248029,"is_transit":false},{"station_id":"BKS","station_name":"Bekasi","i_long":106.997013,"is_transit":false,"time":2,"i_lat":-6.236616,"distance":2368,"line":1,"transit":false},{"transit":false,"i_lat":-6.224515,"is_transit":false,"i_long":106.977657,"distance":2520,"station_name":"Kranji","line":1,"time":4,"station_id":"KRI"},{"distance":3097,"station_id":"CUK","station_name":"Cakung","i_long":106.951283,"i_lat":-6.219053,"line":1,"transit":false,"time":3,"is_transit":false},{"i_lat":-6.217455,"distance":1385,"station_name":"Klenderbaru","time":8,"transit":false,"i_long":106.939679,"line":1,"station_id":"KLDB","is_transit":false},{"i_lat":-6.215568,"station_name":"Buaran","time":1,"distance":1305,"is_transit":false,"station_id":"BUA","i_long":106.922662,"line":1,"transit":false},{"i_long":106.899548,"is_transit":false,"station_id":"KLD","transit":false,"distance":3100,"station_name":"Klender","line":1,"i_lat":-6.2135,"time":2},{"distance":3395,"station_id":"JNG","time":3,"station_name":"Jatinegara","line":1,"i_lat":-6.215091,"i_long":106.86807400000001,"is_transit":false,"transit":false},{"station_name":"Matraman","i_lat":-6.212485,"line":1,"time":2,"transit":false,"i_long":106.858896,"is_transit":false,"distance":1377,"station_id":"MTR"},{"line":2,"station_name":"Manggarai","i_long":106.84912,"time":2,"is_transit":true,"transit":true,"i_lat":-6.209883,"distance":1275,"station_id":"MRI"},{"is_transit":false,"time":4,"distance":1590,"transit":false,"station_name":"Cikini","station_id":"CKI","i_lat":-6.198556,"i_long":106.840169,"line":2},{"is_transit":false,"distance":1750,"transit":false,"station_name":"Gondangdia","time":3,"line":2,"station_id":"GDD","i_long":106.832183,"i_lat":-6.186295},{"is_transit":false,"station_id":"JUA","station_name":"Juanda","i_long":106.828284,"time":4,"transit":false,"line":2,"distance":2015,"i_lat":-6.166716},{"time":2,"distance":1149,"transit":false,"station_id":"SW","station_name":"Sawah Besar","line":2,"i_long":106.827103,"is_transit":false,"i_lat":-6.160725},{"i_long":106.82482,"is_transit":false,"distance":906,"station_id":"MGB","station_name":"Manggabesar","line":2,"transit":false,"i_lat":-6.149769,"time":2},{"i_lat":-6.141205,"is_transit":false,"distance":1080,"line":2,"station_id":"JAY","station_name":"Jayakarta","time":2,"transit":false,"i_long":106.820901},{"station_id":"JAKK","i_lat":-6.137569,"distance":1264,"transit":true,"i_long":106.812439,"line":2,"time":4,"station_name":"Jakarta Kota","is_transit":true},{"i_long":106.826365,"is_transit":true,"i_lat":-6.132549,"transit":true,"time":3,"line":4,"distance":1364,"station_id":"KPB","station_name":"Kampung Bandan"},{"station_id":"AK","i_lat":-6.144674,"time":9,"line":1,"station_name":"Angke","i_long":106.79867,"is_transit":false,"transit":false,"distance":4102},{"distance":1230,"station_name":"Duri","i_lat":-6.155215,"time":4,"is_transit":false,"transit":false,"i_long":106.800832,"station_id":"DU","line":1},{"i_long":106.811091,"i_lat":-6.185545,"is_transit":true,"time":8,"transit":true,"station_id":"THB","distance":3632,"station_name":"Tanah Abang","line":1},{"transit":false,"station_id":"PLM","i_long":106.79689,"i_lat":-6.207404,"line":6,"station_name":"Palmerah","time":6,"is_transit":false,"distance":3191},{"transit":false,"i_long":106.780334,"distance":3737,"station_id":"KBY","i_lat":-6.237242,"is_transit":false,"time":7,"station_name":"Kebayoran","line":6},{"i_long":106.74273,"is_transit":false,"station_name":"Pondokranji","distance":6218,"station_id":"PDJ","transit":false,"time":8,"i_lat":-6.276362,"line":6},{"station_id":"JMU","i_lat":-6.288927,"transit":false,"distance":2179,"station_name":"Jurangmangu","line":6,"i_long":106.728916,"is_transit":false,"time":3},{"i_lat":-6.296963,"time":4,"is_transit":false,"distance":1994,"station_name":"Sudimara","i_long":106.712277,"line":6,"transit":false,"station_id":"SDM"},{"is_transit":false,"transit":false,"i_long":106.675475,"line":6,"time":6,"station_id":"RU","distance":4566,"station_name":"Rawa Buntu","i_lat":-6.314823},{"distance":2413,"transit":false,"is_transit":false,"time":4,"station_id":"SRP","station_name":"Serpong","i_lat":-6.319871,"i_long":106.66566,"line":6},{"transit":false,"station_id":"CSK","i_lat":-6.32484,"time":4,"is_transit":false,"station_name":"Cisauk","line":3,"distance":1784,"i_long":106.640411},{"station_id":"CC","station_name":"Cicayur","line":3,"distance":2519,"time":4,"transit":false,"is_transit":false,"i_long":106.617853,"i_lat":-6.329547},{"i_lat":-6.3441410000000005,"i_long":106.568863,"transit":false,"line":6,"station_id":"PRP","time":8,"distance":5968,"station_name":"Parung Panjang","is_transit":false},{"time":9,"is_transit":false,"i_lat":-6.354349,"transit":false,"line":3,"station_name":"Cilejit","distance":7025,"i_long":106.508482,"station_id":"CJT"}],[{"i_long":107.083084,"station_name":"Cibitung","station_id":"CIT","distance":0,"transit":false,"line":1,"is_transit":false,"i_lat":-6.261877,"time":0},{"transit":false,"is_transit":false,"time":3,"distance":3420,"i_lat":-6.258864,"i_long":107.055722,"station_id":"TB","station_name":"Tambun","line":1},{"line":1,"is_transit":false,"transit":false,"station_id":"BKST","distance":4460,"station_name":"Bekasi Timur","i_lat":-6.248029,"i_long":107.016735,"time":7},{"is_transit":false,"station_id":"BKS","station_name":"Bekasi","i_lat":-6.236616,"line":1,"transit":false,"time":2,"distance":2368,"i_long":106.997013},{"time":4,"i_long":106.977657,"is_transit":false,"station_id":"KRI","i_lat":-6.224515,"distance":2520,"transit":false,"station_name":"Kranji","line":1},{"distance":3097,"station_name":"Cakung","i_long":106.951283,"time":3,"transit":false,"is_transit":false,"station_id":"CUK","i_lat":-6.219053,"line":1},{"station_name":"Klenderbaru","distance":1385,"station_id":"KLDB","i_lat":-6.217455,"is_transit":false,"time":8,"line":1,"i_long":106.939679,"transit":false},{"station_name":"Buaran","transit":false,"distance":1305,"i_lat":-6.215568,"is_transit":false,"line":1,"time":1,"i_long":106.922662,"station_id":"BUA"},{"is_transit":false,"line":1,"transit":false,"station_name":"Klender","time":2,"i_lat":-6.2135,"i_long":106.899548,"station_id":"KLD","distance":3100},{"i_lat":-6.215091,"distance":3395,"station_id":"JNG","i_long":106.86807400000001,"transit":true,"line":1,"time":3,"station_name":"Jatinegara","is_transit":true},{"i_long":106.861737,"line":11,"i_lat":-6.209188,"station_name":"Pondok Jati","is_transit":false,"distance":1236,"time":2,"transit":false,"station_id":"POK"},{"time":2,"is_transit":false,"station_id":"KMT","transit":false,"station_name":"Kramat","i_long":106.855437,"distance":1829,"i_lat":-6.193792,"line":11},{"is_transit":false,"i_long":106.850107,"line":11,"i_lat":-6.185975,"transit":false,"distance":973,"station_name":"Gang Sentiong","station_id":"GST","time":1},{"distance":1567,"i_lat":-6.174784,"station_name":"Pasar Senen","station_id":"PSE","time":8,"i_long":106.84368,"transit":false,"line":11,"is_transit":false},{"distance":1436,"transit":false,"time":4,"station_id":"KMO","is_transit":false,"station_name":"Kemayoran","i_lat":-6.161728,"line":11,"i_long":106.839204},{"i_long":106.836569,"i_lat":-6.14505,"transit":false,"line":11,"distance":1901,"is_transit":false,"station_name":"Rajawali","time":5,"station_id":"RJW"},{"station_id":"KPB","station_name":"Kampung Bandan","i_lat":-6.132549,"is_transit":true,"time":3,"distance":1444,"i_long":106.826365,"line":4,"transit":true},{"distance":1364,"i_lat":-6.137569,"line":2,"i_long":106.812439,"station_id":"JAKK","station_name":"Jakarta Kota","time":3,"is_transit":true,"transit":true},{"is_transit":false,"station_name":"Jayakarta","i_lat":-6.141205,"line":2,"time":4,"distance":1264,"transit":false,"station_id":"JAY","i_long":106.820901},{"station_id":"MGB","station_name":"Manggabesar","i_long":106.82482,"line":2,"distance":1080,"time":2,"transit":false,"i_lat":-6.149769,"is_transit":false},{"station_id":"SW","distance":906,"i_lat":-6.160725,"time":2,"station_name":"Sawah Besar","line":2,"i_long":106.827103,"is_transit":false,"transit":false},{"i_long":106.828284,"transit":false,"station_name":"Juanda","line":2,"i_lat":-6.166716,"is_transit":false,"distance":1149,"time":2,"station_id":"JUA"},{"transit":false,"time":4,"is_transit":false,"station_name":"Gondangdia","i_long":106.832183,"i_lat":-6.186295,"line":2,"distance":2015,"station_id":"GDD"},{"time":3,"transit":false,"distance":1750,"station_id":"CKI","station_name":"Cikini","i_lat":-6.198556,"is_transit":false,"i_long":106.840169,"line":2},{"transit":true,"time":4,"distance":1590,"line":2,"station_id":"MRI","i_long":106.84912,"station_name":"Manggarai","i_lat":-6.209883,"is_transit":true},{"station_id":"SUD","i_lat":-6.202263,"time":4,"i_long":106.822649,"is_transit":false,"distance":3186,"station_name":"Sudirman","transit":false,"line":1},{"transit":false,"line":1,"i_long":106.819881,"station_name":"Sudirman Baru","time":1,"station_id":"SUDB","distance":280,"i_lat":-6.201433,"is_transit":false},{"i_long":106.816351,"line":1,"transit":false,"distance":471,"i_lat":-6.20132,"station_id":"KAT","is_transit":false,"time":1,"station_name":"Karet"},{"station_id":"THB","is_transit":true,"line":1,"time":5,"distance":2029,"station_name":"Tanah Abang","i_lat":-6.185545,"i_long":106.811091,"transit":true},{"transit":false,"station_id":"PLM","time":6,"i_long":106.79689,"i_lat":-6.207404,"station_name":"Palmerah","is_transit":false,"distance":3191,"line":6},{"line":6,"transit":false,"time":7,"is_transit":false,"i_lat":-6.237242,"station_id":"KBY","station_name":"Kebayoran","i_long":106.780334,"distance":3737},{"is_transit":false,"station_id":"PDJ","transit":false,"station_name":"Pondokranji","i_lat":-6.276362,"distance":6218,"i_long":106.74273,"line":6,"time":8},{"i_long":106.728916,"time":3,"distance":2179,"transit":false,"station_name":"Jurangmangu","i_lat":-6.288927,"is_transit":false,"line":6,"station_id":"JMU"},{"transit":false,"station_name":"Sudimara","line":6,"i_long":106.712277,"is_transit":false,"station_id":"SDM","i_lat":-6.296963,"distance":1994,"time":4},{"i_long":106.675475,"line":6,"distance":4566,"i_lat":-6.314823,"station_id":"RU","transit":false,"station_name":"Rawa Buntu","time":6,"is_transit":false},{"i_long":106.66566,"distance":2413,"is_transit":false,"i_lat":-6.319871,"line":6,"station_name":"Serpong","transit":false,"time":4,"station_id":"SRP"},{"transit":false,"is_transit":false,"station_id":"CSK","time":4,"station_name":"Cisauk","i_long":106.640411,"line":3,"distance":1784,"i_lat":-6.32484},{"i_long":106.617853,"distance":2519,"time":4,"line":3,"transit":false,"station_id":"CC","station_name":"Cicayur","i_lat":-6.329547,"is_transit":false},{"is_transit":false,"i_long":106.568863,"station_id":"PRP","station_name":"Parung Panjang","transit":false,"line":6,"time":8,"i_lat":-6.3441410000000005,"distance":5968},{"distance":7025,"i_lat":-6.354349,"time":9,"transit":false,"is_transit":false,"station_name":"Cilejit","line":3,"station_id":"CJT","i_long":106.508482}]]}