{"data":[[{"station_id":"CIT","time":0,"station_name":"Cibitung","i_lat":-6.261877,"i_long":107.083084,"is_transit":false,"line":1,"distance":0,"transit":false},{"transit":false,"time":3,"distance":3420,"station_name":"Tambun","i_long":107.055722,"station_id":"TB","line":1,"is_transit":false,"i_lat":-6.258864},{"station_id":"BKST","is_transit":false,"line":1,"time":7,"distance":4460,"transit":false,"i_long":107.016735,"station_name":"Bekasi Timur","i_lat":-6.248029},{"distance":2368,"transit":false,"station_name":"Bekasi","line":1,"is_transit":false,"i_lat":-6.236616,"i_long":106.997013,"time":2,"station_id":"BKS"},{"station_name":"Kranji","is_transit":false,"i_lat":-6.224515,"i_long":106.977657,"distance":2520,"line":1,"transit":false,"station_id":"KRI","time":4},{"distance":3097,"line":1,"station_name":"Cakung","transit":false,"i_lat":-6.219053,"i_long":106.951283,"station_id":"CUK","time":3,"is_transit":false},{"time":8,"station_name":"Klenderbaru","is_transit":false,"transit":false,"station_id":"KLDB","distance":1385,"i_lat":-6.217455,"i_long":106.939679,"line":1},{"time":1,"distance":1305,"station_id":"BUA","i_lat":-6.215568,"station_name":"Buaran","is_transit":false,"line":1,"transit":false,"i_long":106.922662},{"i_lat":-6.2135,"time":2,"station_name":"Klender","i_long":106.899548,"is_transit":false,"line":1,"station_id":"KLD","transit":false,"distance":3100},{"distance":3395,"station_id":"JNG","station_name":"Jatinegara","i_long":106.86807400000001,"line":1,"transit":false,"time":3,"is_transit":false,"i_lat":-6.215091},{"station_name":"Matraman","time":2,"station_id":"MTR","i_lat":-6.212485,"i_long":106.858896,"is_transit":false,"line":1,"distance":1377,"transit":false},{"is_transit":true,"line":2,"station_name":"Manggarai","i_long":106.84912,"i_lat":-6.209883,"transit":true,"time":2,"station_id":"MRI","distance":1275},{"i_long":106.857948,"station_id":"TEB","transit":false,"line":2,"distance":2610,"i_lat":-6.226659,"station_name":"Tebet","time":4,"is_transit":false},{"is_transit":false,"i_long":106.856607,"distance":1230,"transit":false,"station_name":"Cawang","line":2,"time":2,"station_id":"CW","i_lat":-6.242512},{"station_id":"DRN","transit":false,"i_lat":-6.255332,"time":3,"is_transit":false,"i_long":106.85449,"distance":1546,"line":2,"station_name":"Duren Kalibata"},{"i_lat":-6.263214,"line":2,"time":2,"transit":false,"i_long":106.851577,"station_name":"Pasar Minggu Baru","station_id":"PSMB","distance":824,"is_transit":false},{"station_name":"Pasar Minggu","line":2,"time":2,"i_lat":-6.2842400000000005,"distance":2380,"transit":false,"station_id":"PSM","is_transit":false,"i_long":106.843999},{"transit":false,"distance":2820,"i_long":106.838896,"is_transit":false,"time":4,"station_id":"TNT","station_name":"Tanjung Barat","i_lat":-6.3080680000000005,"line":2},{"station_id":"LNA","distance":2671,"transit":false,"i_lat":-6.330363,"i_long":106.832616,"station_name":"Lenteng Agung","is_transit":false,"line":2,"time":3},{"line":2,"time":2,"station_name":"Univ. Pancasila","station_id":"UP","is_transit":false,"transit":false,"i_long":106.834175,"distance":1029,"i_lat":-6.339291},{"is_transit":false,"i_lat":-6.360749,"time":3,"i_long":106.831474,"station_id":"UI","station_name":"Univ. Indonesia","line":2,"distance":2264,"transit":false},{"line":2,"is_transit":false,"distance":1109,"i_long":106.831114,"station_id":"POC","i_lat":-6.369073,"time":2,"transit":false,"station_name":"Pondok Cina"},{"distance":2727,"station_name":"Depokbaru","line":2,"station_id":"DPB","is_transit":false,"i_lat":-6.391065,"time":4,"transit":false,"i_long":106.819451},{"station_name":"Depok","line":2,"distance":1584,"is_transit":false,"i_long":106.816926,"station_id":"DP","transit":false,"time":3,"i_lat":-6.405256},{"i_lat":-6.448811,"i_long":106.800298,"station_id":"CTA","distance":5084,"station_name":"Citayam","time":6,"line":2,"transit":true,"is_transit":true},{"line":21,"transit":false,"time":0,"distance":0,"station_id":"PDRG","i_long":106.824374,"i_lat":-6.460735,"station_name":"Pondok Rajeg","is_transit":false}],[{"i_lat":-6.261877,"station_id":"CIT","is_transit":false,"distance":0,"line":1,"station_name":"Cibitung","i_long":107.083084,"time":0,"transit":false},{"time":3,"station_id":"TB","station_name":"Tambun","i_lat":-6.258864,"is_transit":false,"line":1,"transit":false,"distance":3420,"i_long":107.055722},{"i_long":107.016735,"distance":4460,"line":1,"time":7,"i_lat":-6.248029,"transit":false,"station_id":"BKST","station_name":"Bekasi Timur","is_transit":false},{"line":1,"is_transit":false,"i_lat":-6.236616,"time":2,"station_id":"BKS","station_name":"Bekasi","i_long":106.997013,"transit":false,"distance":2368},{"is_transit":false,"time":4,"distance":2520,"transit":false,"station_name":"Kranji","line":1,"station_id":"KRI","i_lat":-6.224515,"i_long":106.977657},{"distance":3097,"station_name":"Cakung","is_transit":false,"line":1,"station_id":"CUK","time":3,"i_lat":-6.219053,"transit":false,"i_long":106.951283},{"i_long":106.939679,"line":1,"i_lat":-6.217455,"time":8,"distance":1385,"transit":false,"station_name":"Klenderbaru","is_transit":false,"station_id":"KLDB"},{"i_long":106.922662,"station_name":"Buaran","is_transit":false,"i_lat":-6.215568,"distance":1305,"line":1,"time":1,"station_id":"BUA","transit":false},{"time":2,"distance":3100,"station_id":"KLD","station_name":"Klender","is_transit":false,"line":1,"transit":false,"i_lat":-6.2135,"i_long":106.899548},{"i_lat":-6.215091,"distance":3395,"station_id":"JNG","line":1,"station_name":"Jatinegara","i_long":106.86807400000001,"is_transit":true,"time":3,"transit":true},{"is_transit":false,"transit":false,"distance":1236,"station_id":"POK","station_name":"Pondok Jati","i_lat":-6.209188,"time":2,"line":11,"i_long":106.861737},{"distance":1829,"i_long":106.855437,"i_lat":-6.193792,"line":11,"time":2,"is_transit":false,"station_id":"KMT","transit":false,"station_name":"Kramat"},{"line":11,"i_long":106.850107,"i_lat":-6.185975,"station_name":"Gang Sentiong","transit":false,"time":1,"is_transit":false,"station_id":"GST","distance":973},{"line":11,"transit":false,"time":8,"station_name":"Pasar Senen","distance":1567,"station_id":"PSE","is_transit":false,"i_lat":-6.174784,"i_long":106.84368},{"i_lat":-6.161728,"station_id":"KMO","station_name":"Kemayoran","distance":1436,"time":4,"line":11,"transit":false,"i_long":106.839204,"is_transit":false},{"transit":false,"is_transit":false,"distance":1901,"station_name":"Rajawali","i_lat":-6.14505,"line":11,"i_long":106.836569,"time":5,"station_id":"RJW"},{"station_id":"KPB","transit":true,"i_lat":-6.132549,"time":3,"station_name":"Kampung Bandan","distance":1444,"is_transit":true,"i_long":106.826365,"line":4},{"station_id":"AK","time":9,"i_long":106.79867,"line":1,"station_name":"Angke","transit":false,"distance":4102,"is_transit":false,"i_lat":-6.144674},{"line":1,"i_long":106.800832,"time":4,"station_name":"Duri","i_lat":-6.155215,"transit":false,"station_id":"DU","is_transit":false,"distance":1230},{"station_name":"Tanah Abang","is_transit":false,"distance":3632,"station_id":"THB","i_long":106.811091,"line":1,"i_lat":-6.185545,"time":8,"transit":false},{"distance":2029,"time":5,"i_lat":-6.20132,"station_id":"KAT","transit":false,"station_name":"Karet","is_transit":false,"i_long":106.816351,"line":1},{"station_id":"SUDB","line":1,"time":1,"transit":false,"distance":471,"is_transit":false,"i_long":106.819881,"station_name":"Sudirman Baru","i_lat":-6.201433},{"time":1,"distance":280,"station_id":"SUD","transit":false,"station_name":"Sudirman","is_transit":false,"i_lat":-6.202263,"line":1,"i_long":106.822649},{"station_id":"MRI","i_long":106.84912,"time":4,"transit":true,"is_transit":true,"station_name":"Manggarai","i_lat":-6.209883,"line":2,"distance":3186},{"i_lat":-6.226659,"i_long":106.857948,"station_name":"Tebet","line":2,"distance":2610,"time":4,"transit":false,"station_id":"TEB","is_transit":false},{"is_transit":false,"station_id":"CW","time":2,"transit":false,"i_lat":-6.242512,"distance":1230,"station_name":"Cawang","i_long":106.856607,"line":2},{"i_lat":-6.255332,"distance":1546,"line":2,"station_id":"DRN","transit":false,"station_name":"Duren Kalibata","is_transit":false,"i_long":106.85449,"time":3},{"station_id":"PSMB","station_name":"Pasar Minggu Baru","time":2,"is_transit":false,"transit":false,"i_lat":-6.263214,"i_long":106.851577,"line":2,"distance":824},{"i_long":106.843999,"time":2,"is_transit":false,"line":2,"i_lat":-6.2842400000000005,"transit":false,"distance":2380,"station_name":"Pasar Minggu","station_id":"PSM"},{"station_id":"TNT","transit":false,"time":4,"station_name":"Tanjung Barat","i_lat":-6.3080680000000005,"line":2,"distance":2820,"i_long":106.838896,"is_transit":false},{"is_transit":false,"time":3,"station_name":"Lenteng Agung","distance":2671,"transit":false,"i_lat":-6.330363,"station_id":"LNA","i_long":106.832616,"line":2},{"station_name":"Univ. Pancasila","is_transit":false,"time":2,"transit":false,"i_lat":-6.339291,"station_id":"UP","distance":1029,"i_long":106.834175,"line":2},{"i_long":106.831474,"is_transit":false,"distance":2264,"station_id":"UI","line":2,"station_name":"Univ. Indonesia","transit":false,"i_lat":-6.360749,"time":3},{"line":2,"is_transit":false,"i_lat":-6.369073,"distance":1109,"transit":false,"station_id":"POC","station_name":"Pondok Cina","i_long":106.831114,"time":2},{"station_id":"DPB","transit":false,"distance":2727,"station_name":"Depokbaru","is_transit":false,"i_lat":-6.391065,"time":4,"i_long":106.819451,"line":2},{"i_lat":-6.405256,"i_long":106.816926,"line":2,"distance":1584,"station_id":"DP","transit":false,"time":3,"station_name":"Depok","is_transit":false},{"i_lat":-6.448811,"distance":5084,"station_id":"CTA","is_transit":true,"line":2,"time":6,"station_name":"Citayam","i_long":106.800298,"transit":true},{"i_long":106.824374,"transit":false,"station_id":"PDRG","time":0,"station_name":"Pondok Rajeg","distance":0,"is_transit":false,"line":21,"i_lat":-6.460735}],[{"time":0,"station_id":"CIT","i_lat":-6.261877,"transit":false,"distance":0,"is_transit":false,"i_long":107.083084,"line":1,"station_name":"Cibitung"},{"station_name":"Tambun","is_transit":false,"distance":3420,"time":3,"i_long":107.055722,"i_lat":-6.258864,"station_id":"TB","line":1,"transit":false},{"station_name":"Bekasi Timur","time":7,"i_lat":-6.248029,"line":1,"station_id":"BKST","is_transit":false,"distance":4460,"transit":false,"i_long":107.016735},{"station_id":"BKS","line":1,"station_name":"Bekasi","i_lat":-6.236616,"time":2,"transit":false,"is_transit":false,"i_long":106.997013,"distance":2368},{"transit":false,"is_transit":false,"station_id":"KRI","distance":2520,"i_long":106.977657,"i_lat":-6.224515,"time":4,"line":1,"station_name":"Kranji"},{"i_lat":-6.219053,"station_name":"Cakung","is_transit":false,"transit":false,"station_id":"CUK","i_long":106.951283,"line":1,"time":3,"distance":3097},{"distance":1385,"transit":false,"i_long":106.939679,"is_transit":false,"line":1,"time":8,"station_id":"KLDB","station_name":"Klenderbaru","i_lat":-6.217455},{"transit":false,"station_name":"Buaran","i_lat":-6.215568,"time":1,"station_id":"BUA","distance":1305,"i_long":106.922662,"is_transit":false,"line":1},{"station_name":"Klender","i_lat":-6.2135,"station_id":"KLD","line":1,"is_transit":false,"transit":false,"distance":3100,"time":2,"i_long":106.899548},{"time":3,"i_long":106.86807400000001,"transit":true,"i_lat":-6.215091,"station_name":"Jatinegara","is_transit":true,"station_id":"JNG","distance":3395,"line":1},{"is_transit":false,"station_id":"POK","i_long":106.861737,"line":11,"i_lat":-6.209188,"distance":1236,"time":2,"transit":false,"station_name":"Pondok Jati"},{"station_id":"KMT","distance":1829,"transit":false,"i_long":106.855437,"station_name":"Kramat","i_lat":-6.193792,"line":11,"is_transit":false,"time":2},{"i_lat":-6.185975,"i_long":106.850107,"is_transit":false,"time":1,"line":11,"station_name":"Gang Sentiong","transit":false,"station_id":"GST","distance":973},{"i_lat":-6.174784,"station_id":"PSE","line":11,"i_long":106.84368,"transit":false,"distance":1567,"time":8,"station_name":"Pasar Senen","is_transit":false},{"transit":false,"is_transit":false,"line":11,"time":4,"i_lat":-6.161728,"i_long":106.839204,"station_id":"KMO","distance":1436,"station_name":"Kemayoran"},{"time":5,"transit":false,"i_long":106.836569,"i_lat":-6.14505,"is_transit":false,"station_name":"Rajawali","line":11,"station_id":"RJW","distance":1901},{"i_long":106.826365,"transit":true,"distance":1444,"station_id":"KPB","time":3,"station_name":"Kampung Bandan","is_transit":true,"i_lat":-6.132549,"line":4},{"transit":true,"i_lat":-6.137569,"i_long":106.812439,"station_name":"Jakarta Kota","station_id":"JAKK","line":2,"time":3,"is_transit":true,"distance":1364},{"distance":1264,"is_transit":false,"station_id":"JAY","station_name":"Jayakarta","time":4,"i_lat":-6.141205,"i_long":106.820901,"transit":false,"line":2},{"station_id":"MGB","station_name":"Manggabesar","distance":1080,"time":2,"is_transit":false,"transit":false,"line":2,"i_lat":-6.149769,"i_long":106.82482},{"transit":false,"time":2,"distance":906,"is_transit":false,"i_long":106.827103,"station_name":"Sawah Besar","i_lat":-6.160725,"station_id":"SW","line":2},{"station_id":"JUA","is_transit":false,"i_lat":-6.166716,"line":2,"transit":false,"distance":1149,"station_name":"Juanda","i_long":106.828284,"time":2},{"line":2,"station_name":"Gondangdia","station_id":"GDD","i_lat":-6.186295,"distance":2015,"transit":false,"is_transit":false,"i_long":106.832183,"time":4},{"line":2,"time":3,"station_id":"CKI","i_lat":-6.198556,"distance":1750,"is_transit":false,"transit":false,"station_name":"Cikini","i_long":106.840169},{"is_transit":false,"i_long":106.84912,"line":2,"i_lat":-6.209883,"transit":false,"station_name":"Manggarai","station_id":"MRI","time":4,"distance":1590},{"is_transit":false,"distance":2610,"transit":false,"station_name":"Tebet","time":4,"station_id":"TEB","line":2,"i_lat":-6.226659,"i_long":106.857948},{"line":2,"i_lat":-6.242512,"transit":false,"time":2,"is_transit":false,"distance":1230,"station_name":"Cawang","i_long":106.856607,"station_id":"CW"},{"time":3,"distance":1546,"station_id":"DRN","i_lat":-6.255332,"station_name":"Duren Kalibata","line":2,"transit":false,"is_transit":false,"i_long":106.85449},{"is_transit":false,"station_name":"Pasar Minggu Baru","distance":824,"station_id":"PSMB","i_long":106.851577,"line":2,"transit":false,"i_lat":-6.263214,"time":2},{"transit":false,"line":2,"station_id":"PSM","is_transit":false,"i_lat":-6.2842400000000005,"station_name":"Pasar Minggu","i_long":106.843999,"time":2,"distance":2380},{"i_long":106.838896,"time":4,"line":2,"distance":2820,"transit":false,"station_id":"TNT","station_name":"Tanjung Barat","i_lat":-6.3080680000000005,"is_transit":false},{"station_id":"LNA","station_name":"Lenteng Agung","time":3,"is_transit":false,"i_long":106.832616,"transit":false,"distance":2671,"i_lat":-6.330363,"line":2},{"station_name":"Univ. Pancasila","line":2,"distance":1029,"station_id":"UP","is_transit":false,"i_long":106.834175,"time":2,"transit":false,"i_lat":-6.339291},{"distance":2264,"station_name":"Univ. Indonesia","line":2,"station_id":"UI","i_long":106.831474,"transit":false,"is_transit":false,"i_lat":-6.360749,"time":3},{"station_id":"POC","time":2,"transit":false,"i_lat":-6.369073,"distance":1109,"station_name":"Pondok Cina","line":2,"is_transit":false,"i_long":106.831114},{"time":4,"station_id":"DPB","i_lat":-6.391065,"i_long":106.819451,"transit":false,"station_name":"Depokbaru","distance":2727,"is_transit":false,"line":2},{"time":3,"line":2,"i_lat":-6.405256,"is_transit":false,"distance":1584,"i_long":106.816926,"station_id":"DP","station_name":"Depok","transit":false},{"i_long":106.800298,"line":2,"station_id":"CTA","i_lat":-6.448811,"time":6,"station_name":"Citayam","transit":true,"distance":5084,"is_transit":true},{"i_lat":-6.460735,"distance":0,"station_name":"Pondok Rajeg","transit":false,"time":0,"line":21,"station_id":"PDRG","i_long":106.824374,"is_transit":false}]]}