{"data":[[{"time":0,"is_transit":false,"line":1,"distance":0,"station_id":"CIT","station_name":"Cibitung","i_long":107.083084,"transit":false,"i_lat":-6.261877},{"transit":false,"station_id":"TB","station_name":"Tambun","line":1,"distance":3420,"time":3,"is_transit":false,"i_lat":-6.258864,"i_long":107.055722},{"station_id":"BKST","i_long":107.016735,"transit":false,"line":1,"station_name":"Bekasi Timur","i_lat":-6.248029,"distance":4460,"is_transit":false,"time":7},{"station_id":"BKS","i_lat":-6.236616,"station_name":"Bekasi","transit":false,"i_long":106.997013,"line":1,"is_transit":false,"time":2,"distance":2368},{"i_long":106.977657,"is_transit":false,"time":4,"i_lat":-6.224515,"line":1,"distance":2520,"station_id":"KRI","station_name":"Kranji","transit":false},{"time":3,"station_id":"CUK","transit":false,"i_lat":-6.219053,"i_long":106.951283,"station_name":"Cakung","is_transit":false,"line":1,"distance":3097},{"distance":1385,"time":8,"i_long":106.939679,"i_lat":-6.217455,"is_transit":false,"station_name":"Klenderbaru","transit":false,"line":1,"station_id":"KLDB"},{"distance":1305,"station_name":"Buaran","time":1,"transit":false,"is_transit":false,"i_lat":-6.215568,"station_id":"BUA","line":1,"i_long":106.922662},{"station_id":"KLD","station_name":"Klender","transit":false,"i_lat":-6.2135,"i_long":106.899548,"line":1,"is_transit":false,"time":2,"distance":3100},{"is_transit":true,"i_lat":-6.215091,"transit":true,"station_name":"Jatinegara","station_id":"JNG","i_long":106.86807400000001,"time":3,"distance":3395,"line":1},{"is_transit":false,"i_lat":-6.209188,"line":11,"distance":1236,"time":2,"station_id":"POK","station_name":"Pondok Jati","i_long":106.861737,"transit":false}],[{"transit":false,"line":1,"station_id":"CIT","i_long":107.083084,"time":0,"distance":0,"station_name":"Cibitung","is_transit":false,"i_lat":-6.261877},{"is_transit":false,"line":1,"station_name":"Tambun","transit":false,"i_lat":-6.258864,"distance":3420,"i_long":107.055722,"time":3,"station_id":"TB"},{"distance":4460,"is_transit":false,"line":1,"transit":false,"station_name":"Bekasi Timur","time":7,"i_lat":-6.248029,"i_long":107.016735,"station_id":"BKST"},{"transit":false,"is_transit":false,"i_lat":-6.236616,"line":1,"i_long":106.997013,"station_name":"Bekasi","time":2,"distance":2368,"station_id":"BKS"},{"line":1,"station_name":"Kranji","distance":2520,"is_transit":false,"i_lat":-6.224515,"time":4,"station_id":"KRI","transit":false,"i_long":106.977657},{"i_long":106.951283,"line":1,"time":3,"station_id":"CUK","station_name":"Cakung","is_transit":false,"distance":3097,"transit":false,"i_lat":-6.219053},{"distance":1385,"is_transit":false,"i_lat":-6.217455,"line":1,"i_long":106.939679,"time":8,"station_id":"KLDB","station_name":"Klenderbaru","transit":false},{"distance":1305,"line":1,"time":1,"is_transit":false,"transit":false,"i_lat":-6.215568,"i_long":106.922662,"station_name":"Buaran","station_id":"BUA"},{"i_long":106.899548,"station_id":"KLD","transit":false,"i_lat":-6.2135,"time":2,"line":1,"station_name":"Klender","distance":3100,"is_transit":false},{"station_id":"JNG","station_name":"Jatinegara","distance":3395,"transit":false,"time":3,"is_transit":false,"i_lat":-6.215091,"i_long":106.86807400000001,"line":1},{"line":1,"time":2,"station_id":"MTR","i_long":106.858896,"distance":1377,"is_transit":false,"transit":false,"i_lat":-6.212485,"station_name":"Matraman"},{"distance":1275,"transit":false,"line":2,"station_id":"MRI","time":2,"i_lat":-6.209883,"station_name":"Manggarai","is_transit":false,"i_long":106.84912},{"i_long":106.822649,"time":4,"line":1,"is_transit":false,"station_id":"SUD","distance":3186,"station_name":"Sudirman","transit":false,"i_lat":-6.202263},{"transit":false,"i_long":106.819881,"station_id":"SUDB","line":1,"time":1,"distance":280,"station_name":"Sudirman Baru","is_transit":false,"i_lat":-6.201433},{"transit":false,"i_lat":-6.20132,"line":1,"station_id":"KAT","station_name":"Karet","i_long":106.816351,"time":1,"distance":471,"is_transit":false},{"distance":2029,"station_id":"THB","station_name":"Tanah Abang","is_transit":false,"i_lat":-6.185545,"i_long":106.811091,"line":1,"time":5,"transit":false},{"is_transit":false,"distance":3632,"station_id":"DU","time":8,"transit":false,"line":1,"i_long":106.800832,"i_lat":-6.155215,"station_name":"Duri"},{"i_long":106.79867,"distance":1230,"station_name":"Angke","transit":false,"station_id":"AK","i_lat":-6.144674,"line":1,"is_transit":false,"time":4},{"transit":true,"station_name":"Kampung Bandan","is_transit":true,"i_lat":-6.132549,"line":4,"distance":4102,"i_long":106.826365,"station_id":"KPB","time":9},{"is_transit":false,"transit":false,"station_id":"RJW","time":3,"i_lat":-6.14505,"distance":1444,"station_name":"Rajawali","line":11,"i_long":106.836569},{"station_id":"KMO","is_transit":false,"i_lat":-6.161728,"distance":1901,"i_long":106.839204,"line":11,"transit":false,"time":5,"station_name":"Kemayoran"},{"station_id":"PSE","time":4,"station_name":"Pasar Senen","is_transit":false,"distance":1436,"transit":false,"i_long":106.84368,"line":11,"i_lat":-6.174784},{"i_long":106.850107,"is_transit":false,"i_lat":-6.185975,"transit":false,"station_id":"GST","station_name":"Gang Sentiong","time":8,"distance":1567,"line":11},{"i_long":106.855437,"station_id":"KMT","is_transit":false,"time":1,"line":11,"distance":973,"transit":false,"i_lat":-6.193792,"station_name":"Kramat"},{"station_id":"POK","station_name":"Pondok Jati","line":11,"transit":false,"is_transit":false,"i_lat":-6.209188,"distance":1829,"i_long":106.861737,"time":2}],[{"distance":0,"time":0,"is_transit":false,"line":1,"station_id":"CIT","transit":false,"station_name":"Cibitung","i_lat":-6.261877,"i_long":107.083084},{"station_name":"Tambun","station_id":"TB","distance":3420,"transit":false,"time":3,"is_transit":false,"i_lat":-6.258864,"i_long":107.055722,"line":1},{"transit":false,"station_id":"BKST","is_transit":false,"i_long":107.016735,"distance":4460,"station_name":"Bekasi Timur","i_lat":-6.248029,"time":7,"line":1},{"distance":2368,"is_transit":false,"station_name":"Bekasi","transit":false,"i_lat":-6.236616,"i_long":106.997013,"station_id":"BKS","time":2,"line":1},{"i_lat":-6.224515,"time":4,"distance":2520,"station_id":"KRI","station_name":"Kranji","line":1,"i_long":106.977657,"is_transit":false,"transit":false},{"is_transit":false,"distance":3097,"time":3,"transit":false,"line":1,"station_name":"Cakung","i_long":106.951283,"i_lat":-6.219053,"station_id":"CUK"},{"line":1,"i_long":106.939679,"time":8,"is_transit":false,"transit":false,"i_lat":-6.217455,"distance":1385,"station_id":"KLDB","station_name":"Klenderbaru"},{"line":1,"distance":1305,"is_transit":false,"transit":false,"station_name":"Buaran","i_lat":-6.215568,"time":1,"station_id":"BUA","i_long":106.922662},{"transit":false,"time":2,"station_name":"Klender","i_long":106.899548,"line":1,"distance":3100,"i_lat":-6.2135,"station_id":"KLD","is_transit":false},{"line":1,"station_name":"Jatinegara","transit":false,"i_long":106.86807400000001,"station_id":"JNG","distance":3395,"is_transit":false,"time":3,"i_lat":-6.215091},{"i_lat":-6.212485,"distance":1377,"time":2,"station_id":"MTR","station_name":"Matraman","line":1,"transit":false,"is_transit":false,"i_long":106.858896},{"line":2,"distance":1275,"station_id":"MRI","time":2,"transit":true,"is_transit":true,"station_name":"Manggarai","i_long":106.84912,"i_lat":-6.209883},{"time":4,"i_long":106.840169,"line":2,"station_id":"CKI","transit":false,"is_transit":false,"distance":1590,"station_name":"Cikini","i_lat":-6.198556},{"i_lat":-6.186295,"i_long":106.832183,"is_transit":false,"line":2,"time":3,"station_name":"Gondangdia","distance":1750,"transit":false,"station_id":"GDD"},{"i_long":106.828284,"i_lat":-6.166716,"distance":2015,"station_id":"JUA","is_transit":false,"time":4,"transit":false,"line":2,"station_name":"Juanda"},{"is_transit":false,"station_id":"SW","station_name":"Sawah Besar","time":2,"i_long":106.827103,"transit":false,"i_lat":-6.160725,"distance":1149,"line":2},{"distance":906,"transit":false,"time":2,"station_id":"MGB","station_name":"Manggabesar","i_long":106.82482,"line":2,"is_transit":false,"i_lat":-6.149769},{"distance":1080,"i_lat":-6.141205,"is_transit":false,"line":2,"station_name":"Jayakarta","i_long":106.820901,"station_id":"JAY","transit":false,"time":2},{"line":2,"time":4,"station_name":"Jakarta Kota","i_lat":-6.137569,"station_id":"JAKK","transit":true,"distance":1264,"is_transit":true,"i_long":106.812439},{"distance":1364,"i_lat":-6.132549,"is_transit":true,"station_name":"Kampung Bandan","time":3,"line":4,"transit":true,"i_long":106.826365,"station_id":"KPB"},{"station_name":"Rajawali","transit":false,"station_id":"RJW","line":11,"time":3,"i_lat":-6.14505,"i_long":106.836569,"is_transit":false,"distance":1444},{"distance":1901,"i_long":106.839204,"line":11,"i_lat":-6.161728,"station_name":"Kemayoran","is_transit":false,"time":5,"station_id":"KMO","transit":false},{"transit":false,"is_transit":false,"station_name":"Pasar Senen","line":11,"i_lat":-6.174784,"distance":1436,"time":4,"station_id":"PSE","i_long":106.84368},{"station_name":"Gang Sentiong","time":8,"distance":1567,"line":11,"is_transit":false,"station_id":"GST","i_long":106.850107,"i_lat":-6.185975,"transit":false},{"line":11,"transit":false,"station_name":"Kramat","i_lat":-6.193792,"i_long":106.855437,"time":1,"is_transit":false,"station_id":"KMT","distance":973},{"transit":false,"distance":1829,"i_long":106.861737,"time":2,"is_transit":false,"station_id":"POK","station_name":"Pondok Jati","i_lat":-6.209188,"line":11}]]}