{"data":[[{"i_long":107.083084,"station_id":"CIT","distance":0,"station_name":"Cibitung","transit":false,"i_lat":-6.261877,"is_transit":false,"line":1,"time":0},{"station_id":"TB","station_name":"Tambun","line":1,"is_transit":false,"i_lat":-6.258864,"i_long":107.055722,"transit":false,"time":3,"distance":3420},{"line":1,"distance":4460,"station_id":"BKST","time":7,"station_name":"Bekasi Timur","is_transit":false,"i_lat":-6.248029,"i_long":107.016735,"transit":false},{"distance":2368,"i_lat":-6.236616,"time":2,"station_name":"Bekasi","transit":false,"is_transit":false,"line":1,"i_long":106.997013,"station_id":"BKS"},{"i_lat":-6.224515,"distance":2520,"is_transit":false,"station_name":"Kranji","line":1,"station_id":"KRI","i_long":106.977657,"transit":false,"time":4},{"line":1,"distance":3097,"i_lat":-6.219053,"time":3,"transit":false,"station_id":"CUK","i_long":106.951283,"station_name":"Cakung","is_transit":false},{"i_lat":-6.217455,"transit":false,"station_name":"Klenderbaru","line":1,"i_long":106.939679,"time":8,"station_id":"KLDB","is_transit":false,"distance":1385},{"station_name":"Buaran","i_lat":-6.215568,"i_long":106.922662,"station_id":"BUA","is_transit":false,"line":1,"distance":1305,"time":1,"transit":false},{"line":1,"i_lat":-6.2135,"station_name":"Klender","is_transit":false,"station_id":"KLD","distance":3100,"time":2,"transit":false,"i_long":106.899548},{"line":1,"is_transit":false,"i_lat":-6.215091,"station_id":"JNG","distance":3395,"station_name":"Jatinegara","i_long":106.86807400000001,"transit":false,"time":3},{"i_long":106.858896,"transit":false,"station_name":"Matraman","is_transit":false,"distance":1377,"line":1,"station_id":"MTR","time":2,"i_lat":-6.212485},{"i_lat":-6.209883,"is_transit":true,"time":2,"station_id":"MRI","distance":1275,"transit":true,"i_long":106.84912,"line":2,"station_name":"Manggarai"},{"transit":false,"station_id":"TEB","i_lat":-6.226659,"distance":2610,"i_long":106.857948,"line":2,"time":4,"is_transit":false,"station_name":"Tebet"},{"station_id":"CW","i_lat":-6.242512,"time":2,"station_name":"Cawang","i_long":106.856607,"is_transit":false,"transit":false,"distance":1230,"line":2},{"distance":1546,"time":3,"is_transit":false,"transit":false,"line":2,"i_lat":-6.255332,"i_long":106.85449,"station_name":"Duren Kalibata","station_id":"DRN"},{"i_long":106.851577,"transit":false,"time":2,"distance":824,"i_lat":-6.263214,"line":2,"is_transit":false,"station_id":"PSMB","station_name":"Pasar Minggu Baru"},{"station_name":"Pasar Minggu","transit":false,"is_transit":false,"distance":2380,"station_id":"PSM","i_long":106.843999,"time":2,"line":2,"i_lat":-6.2842400000000005},{"line":2,"is_transit":false,"time":4,"distance":2820,"station_name":"Tanjung Barat","i_long":106.838896,"i_lat":-6.3080680000000005,"transit":false,"station_id":"TNT"},{"is_transit":false,"transit":false,"time":3,"station_id":"LNA","i_lat":-6.330363,"line":2,"station_name":"Lenteng Agung","i_long":106.832616,"distance":2671},{"i_long":106.834175,"transit":false,"distance":1029,"is_transit":false,"station_id":"UP","i_lat":-6.339291,"station_name":"Univ. Pancasila","time":2,"line":2},{"station_id":"UI","time":3,"station_name":"Univ. Indonesia","is_transit":false,"i_long":106.831474,"i_lat":-6.360749,"distance":2264,"transit":false,"line":2},{"time":2,"station_name":"Pondok Cina","distance":1109,"station_id":"POC","is_transit":false,"i_lat":-6.369073,"i_long":106.831114,"transit":false,"line":2},{"transit":false,"station_name":"Depokbaru","i_lat":-6.391065,"is_transit":false,"station_id":"DPB","distance":2727,"i_long":106.819451,"time":4,"line":2},{"i_long":106.816926,"station_id":"DP","station_name":"Depok","i_lat":-6.405256,"line":2,"distance":1584,"time":3,"is_transit":false,"transit":false},{"distance":5084,"station_name":"Citayam","station_id":"CTA","is_transit":true,"i_long":106.800298,"i_lat":-6.448811,"line":2,"time":6,"transit":true},{"distance":0,"station_name":"Pondok Rajeg","i_lat":-6.460735,"time":0,"is_transit":false,"transit":false,"i_long":106.824374,"line":21,"station_id":"PDRG"},{"station_name":"Cibinong","transit":false,"distance":0,"station_id":"CBN","i_lat":-6.46424,"line":21,"time":0,"is_transit":false,"i_long":106.851978},{"station_id":"NMO","is_transit":false,"station_name":"Nambo","time":10,"i_lat":-6.466285,"i_long":106.905196,"line":21,"distance":6527,"transit":false}],[{"station_id":"CIT","distance":0,"transit":false,"i_long":107.083084,"i_lat":-6.261877,"line":1,"station_name":"Cibitung","is_transit":false,"time":0},{"station_id":"TB","station_name":"Tambun","is_transit":false,"distance":3420,"i_lat":-6.258864,"i_long":107.055722,"line":1,"time":3,"transit":false},{"is_transit":false,"distance":4460,"station_id":"BKST","station_name":"Bekasi Timur","i_long":107.016735,"line":1,"time":7,"i_lat":-6.248029,"transit":false},{"i_lat":-6.236616,"time":2,"distance":2368,"station_id":"BKS","is_transit":false,"transit":false,"station_name":"Bekasi","line":1,"i_long":106.997013},{"distance":2520,"time":4,"station_name":"Kranji","station_id":"KRI","i_lat":-6.224515,"i_long":106.977657,"is_transit":false,"line":1,"transit":false},{"time":3,"station_name":"Cakung","line":1,"station_id":"CUK","distance":3097,"is_transit":false,"transit":false,"i_lat":-6.219053,"i_long":106.951283},{"i_lat":-6.217455,"transit":false,"distance":1385,"is_transit":false,"station_name":"Klenderbaru","i_long":106.939679,"line":1,"station_id":"KLDB","time":8},{"transit":false,"i_lat":-6.215568,"is_transit":false,"distance":1305,"station_name":"Buaran","station_id":"BUA","time":1,"i_long":106.922662,"line":1},{"station_name":"Klender","i_long":106.899548,"distance":3100,"line":1,"time":2,"is_transit":false,"transit":false,"i_lat":-6.2135,"station_id":"KLD"},{"station_name":"Jatinegara","is_transit":true,"i_long":106.86807400000001,"line":1,"i_lat":-6.215091,"time":3,"transit":true,"distance":3395,"station_id":"JNG"},{"distance":1236,"station_name":"Pondok Jati","is_transit":false,"i_lat":-6.209188,"transit":false,"i_long":106.861737,"time":2,"station_id":"POK","line":11},{"distance":1829,"is_transit":false,"transit":false,"station_name":"Kramat","time":2,"station_id":"KMT","i_lat":-6.193792,"i_long":106.855437,"line":11},{"station_name":"Gang Sentiong","line":11,"station_id":"GST","is_transit":false,"i_lat":-6.185975,"transit":false,"time":1,"distance":973,"i_long":106.850107},{"line":11,"station_name":"Pasar Senen","i_long":106.84368,"transit":false,"i_lat":-6.174784,"station_id":"PSE","distance":1567,"is_transit":false,"time":8},{"i_long":106.839204,"transit":false,"time":4,"i_lat":-6.161728,"line":11,"station_name":"Kemayoran","distance":1436,"is_transit":false,"station_id":"KMO"},{"time":5,"i_long":106.836569,"station_name":"Rajawali","station_id":"RJW","is_transit":false,"distance":1901,"i_lat":-6.14505,"transit":false,"line":11},{"time":3,"station_id":"KPB","distance":1444,"is_transit":true,"transit":true,"i_lat":-6.132549,"line":4,"station_name":"Kampung Bandan","i_long":106.826365},{"i_long":106.79867,"i_lat":-6.144674,"distance":4102,"station_name":"Angke","transit":false,"line":1,"station_id":"AK","is_transit":false,"time":9},{"time":4,"i_long":106.800832,"station_name":"Duri","i_lat":-6.155215,"station_id":"DU","line":1,"is_transit":false,"distance":1230,"transit":false},{"distance":3632,"station_name":"Tanah Abang","i_long":106.811091,"time":8,"i_lat":-6.185545,"line":1,"is_transit":false,"transit":false,"station_id":"THB"},{"i_long":106.816351,"time":5,"line":1,"transit":false,"is_transit":false,"distance":2029,"i_lat":-6.20132,"station_id":"KAT","station_name":"Karet"},{"is_transit":false,"line":1,"station_name":"Sudirman Baru","station_id":"SUDB","transit":false,"i_long":106.819881,"time":1,"distance":471,"i_lat":-6.201433},{"i_lat":-6.202263,"transit":false,"station_id":"SUD","station_name":"Sudirman","distance":280,"time":1,"line":1,"is_transit":false,"i_long":106.822649},{"i_long":106.84912,"line":2,"station_name":"Manggarai","i_lat":-6.209883,"distance":3186,"time":4,"is_transit":true,"station_id":"MRI","transit":true},{"line":2,"time":4,"is_transit":false,"i_lat":-6.226659,"distance":2610,"transit":false,"station_name":"Tebet","station_id":"TEB","i_long":106.857948},{"line":2,"station_name":"Cawang","i_long":106.856607,"is_transit":false,"station_id":"CW","i_lat":-6.242512,"distance":1230,"time":2,"transit":false},{"i_long":106.85449,"time":3,"station_id":"DRN","is_transit":false,"line":2,"i_lat":-6.255332,"distance":1546,"station_name":"Duren Kalibata","transit":false},{"time":2,"distance":824,"station_id":"PSMB","station_name":"Pasar Minggu Baru","is_transit":false,"transit":false,"i_lat":-6.263214,"i_long":106.851577,"line":2},{"time":2,"distance":2380,"station_name":"Pasar Minggu","transit":false,"i_lat":-6.2842400000000005,"is_transit":false,"station_id":"PSM","i_long":106.843999,"line":2},{"is_transit":false,"distance":2820,"station_name":"Tanjung Barat","transit":false,"i_lat":-6.3080680000000005,"time":4,"i_long":106.838896,"station_id":"TNT","line":2},{"line":2,"station_id":"LNA","transit":false,"is_transit":false,"distance":2671,"station_name":"Lenteng Agung","i_long":106.832616,"i_lat":-6.330363,"time":3},{"line":2,"distance":1029,"is_transit":false,"transit":false,"time":2,"station_id":"UP","station_name":"Univ. Pancasila","i_lat":-6.339291,"i_long":106.834175},{"i_lat":-6.360749,"time":3,"line":2,"station_name":"Univ. Indonesia","is_transit":false,"i_long":106.831474,"transit":false,"distance":2264,"station_id":"UI"},{"transit":false,"i_long":106.831114,"distance":1109,"is_transit":false,"line":2,"station_name":"Pondok Cina","i_lat":-6.369073,"station_id":"POC","time":2},{"line":2,"station_id":"DPB","i_lat":-6.391065,"station_name":"Depokbaru","time":4,"distance":2727,"transit":false,"is_transit":false,"i_long":106.819451},{"transit":false,"distance":1584,"i_lat":-6.405256,"line":2,"time":3,"station_name":"Depok","i_long":106.816926,"station_id":"DP","is_transit":false},{"i_lat":-6.448811,"station_name":"Citayam","station_id":"CTA","transit":true,"line":2,"time":6,"is_transit":true,"i_long":106.800298,"distance":5084},{"station_name":"Pondok Rajeg","i_long":106.824374,"time":0,"line":21,"station_id":"PDRG","is_transit":false,"distance":0,"i_lat":-6.460735,"transit":false},{"line":21,"i_long":106.851978,"is_transit":false,"time":0,"station_name":"Cibinong","transit":false,"station_id":"CBN","i_lat":-6.46424,"distance":0},{"station_id":"NMO","time":10,"is_transit":false,"transit":false,"line":21,"distance":6527,"i_long":106.905196,"station_name":"Nambo","i_lat":-6.466285}],[{"is_transit":false,"line":1,"time":0,"station_id":"CIT","station_name":"Cibitung","transit":false,"i_lat":-6.261877,"i_long":107.083084,"distance":0},{"line":1,"transit":false,"is_transit":false,"time":3,"distance":3420,"i_lat":-6.258864,"i_long":107.055722,"station_id":"TB","station_name":"Tambun"},{"i_lat":-6.248029,"station_name":"Bekasi Timur","line":1,"distance":4460,"transit":false,"station_id":"BKST","time":7,"is_transit":false,"i_long":107.016735},{"i_lat":-6.236616,"station_id":"BKS","distance":2368,"station_name":"Bekasi","time":2,"transit":false,"i_long":106.997013,"line":1,"is_transit":false},{"line":1,"station_id":"KRI","distance":2520,"is_transit":false,"i_long":106.977657,"station_name":"Kranji","transit":false,"time":4,"i_lat":-6.224515},{"station_name":"Cakung","distance":3097,"i_lat":-6.219053,"station_id":"CUK","i_long":106.951283,"time":3,"line":1,"transit":false,"is_transit":false},{"distance":1385,"station_id":"KLDB","is_transit":false,"station_name":"Klenderbaru","line":1,"i_lat":-6.217455,"i_long":106.939679,"transit":false,"time":8},{"i_long":106.922662,"transit":false,"time":1,"station_id":"BUA","distance":1305,"is_transit":false,"line":1,"station_name":"Buaran","i_lat":-6.215568},{"line":1,"distance":3100,"i_lat":-6.2135,"time":2,"is_transit":false,"station_id":"KLD","i_long":106.899548,"station_name":"Klender","transit":false},{"station_id":"JNG","station_name":"Jatinegara","i_lat":-6.215091,"line":1,"is_transit":true,"transit":true,"i_long":106.86807400000001,"time":3,"distance":3395},{"distance":1236,"time":2,"station_id":"POK","station_name":"Pondok Jati","i_long":106.861737,"line":11,"is_transit":false,"transit":false,"i_lat":-6.209188},{"transit":false,"time":2,"station_name":"Kramat","i_lat":-6.193792,"i_long":106.855437,"station_id":"KMT","distance":1829,"is_transit":false,"line":11},{"transit":false,"station_name":"Gang Sentiong","distance":973,"line":11,"i_long":106.850107,"i_lat":-6.185975,"station_id":"GST","time":1,"is_transit":false},{"station_name":"Pasar Senen","is_transit":false,"transit":false,"distance":1567,"station_id":"PSE","i_long":106.84368,"line":11,"i_lat":-6.174784,"time":8},{"time":4,"station_id":"KMO","is_transit":false,"line":11,"distance":1436,"station_name":"Kemayoran","i_lat":-6.161728,"i_long":106.839204,"transit":false},{"i_long":106.836569,"station_id":"RJW","distance":1901,"is_transit":false,"transit":false,"station_name":"Rajawali","line":11,"time":5,"i_lat":-6.14505},{"station_name":"Kampung Bandan","is_transit":true,"line":4,"i_lat":-6.132549,"transit":true,"distance":1444,"i_long":106.826365,"time":3,"station_id":"KPB"},{"is_transit":true,"time":3,"i_long":106.812439,"distance":1364,"i_lat":-6.137569,"station_name":"Jakarta Kota","station_id":"JAKK","line":2,"transit":true},{"transit":false,"distance":1264,"i_lat":-6.141205,"i_long":106.820901,"is_transit":false,"station_name":"Jayakarta","time":4,"station_id":"JAY","line":2},{"distance":1080,"line":2,"transit":false,"i_long":106.82482,"is_transit":false,"time":2,"station_name":"Manggabesar","i_lat":-6.149769,"station_id":"MGB"},{"station_id":"SW","i_long":106.827103,"line":2,"station_name":"Sawah Besar","i_lat":-6.160725,"time":2,"distance":906,"is_transit":false,"transit":false},{"transit":false,"is_transit":false,"line":2,"station_id":"JUA","distance":1149,"station_name":"Juanda","i_lat":-6.166716,"i_long":106.828284,"time":2},{"station_id":"GDD","distance":2015,"i_lat":-6.186295,"time":4,"station_name":"Gondangdia","i_long":106.832183,"line":2,"is_transit":false,"transit":false},{"station_id":"CKI","station_name":"Cikini","distance":1750,"transit":false,"i_long":106.840169,"is_transit":false,"time":3,"line":2,"i_lat":-6.198556},{"transit":false,"station_id":"MRI","i_lat":-6.209883,"distance":1590,"time":4,"is_transit":false,"i_long":106.84912,"line":2,"station_name":"Manggarai"},{"station_id":"TEB","transit":false,"i_lat":-6.226659,"time":4,"i_long":106.857948,"is_transit":false,"line":2,"station_name":"Tebet","distance":2610},{"station_id":"CW","transit":false,"i_long":106.856607,"line":2,"i_lat":-6.242512,"distance":1230,"station_name":"Cawang","is_transit":false,"time":2},{"station_id":"DRN","distance":1546,"i_lat":-6.255332,"transit":false,"i_long":106.85449,"time":3,"is_transit":false,"station_name":"Duren Kalibata","line":2},{"line":2,"station_id":"PSMB","i_lat":-6.263214,"i_long":106.851577,"station_name":"Pasar Minggu Baru","distance":824,"transit":false,"is_transit":false,"time":2},{"station_name":"Pasar Minggu","line":2,"distance":2380,"station_id":"PSM","i_lat":-6.2842400000000005,"i_long":106.843999,"transit":false,"time":2,"is_transit":false},{"i_lat":-6.3080680000000005,"time":4,"distance":2820,"is_transit":false,"i_long":106.838896,"station_id":"TNT","station_name":"Tanjung Barat","line":2,"transit":false},{"station_id":"LNA","station_name":"Lenteng Agung","distance":2671,"transit":false,"i_lat":-6.330363,"line":2,"time":3,"is_transit":false,"i_long":106.832616},{"line":2,"distance":1029,"station_name":"Univ. Pancasila","is_transit":false,"transit":false,"i_long":106.834175,"i_lat":-6.339291,"station_id":"UP","time":2},{"time":3,"station_name":"Univ. Indonesia","is_transit":false,"distance":2264,"transit":false,"i_long":106.831474,"line":2,"i_lat":-6.360749,"station_id":"UI"},{"transit":false,"i_lat":-6.369073,"station_id":"POC","time":2,"line":2,"is_transit":false,"i_long":106.831114,"station_name":"Pondok Cina","distance":1109},{"line":2,"i_lat":-6.391065,"transit":false,"station_name":"Depokbaru","is_transit":false,"station_id":"DPB","distance":2727,"time":4,"i_long":106.819451},{"station_name":"Depok","transit":false,"i_long":106.816926,"is_transit":false,"line":2,"i_lat":-6.405256,"time":3,"station_id":"DP","distance":1584},{"station_id":"CTA","i_long":106.800298,"time":6,"transit":true,"i_lat":-6.448811,"station_name":"Citayam","distance":5084,"is_transit":true,"line":2},{"is_transit":false,"i_long":106.824374,"station_id":"PDRG","line":21,"i_lat":-6.460735,"time":0,"station_name":"Pondok Rajeg","distance":0,"transit":false},{"station_name":"Cibinong","line":21,"station_id":"CBN","distance":0,"is_transit":false,"i_lat":-6.46424,"i_long":106.851978,"transit":false,"time":0},{"distance":6527,"station_name":"Nambo","station_id":"NMO","i_long":106.905196,"i_lat":-6.466285,"transit":false,"line":21,"is_transit":false,"time":10}]]}