{"data":[[{"distance":0,"transit":false,"station_id":"CIT","station_name":"Cibitung","i_lat":-6.261877,"is_transit":false,"i_long":107.083084,"line":0,"time":0},{"transit":false,"distance":3420,"time":3,"i_long":107.055722,"station_name":"Tambun","i_lat":-6.258864,"is_transit":false,"line":1,"station_id":"TB"},{"i_long":107.016735,"time":7,"station_id":"BKST","line":0,"is_transit":false,"i_lat":-6.248029,"station_name":"Bekasi Timur","distance":4460,"transit":false},{"line":0,"distance":2368,"i_long":106.997013,"time":2,"station_id":"BKS","i_lat":-6.236616,"is_transit":false,"station_name":"Bekasi","transit":false},{"distance":2520,"station_name":"Kranji","is_transit":false,"time":4,"i_lat":-6.224515,"line":1,"transit":false,"i_long":106.977657,"station_id":"KRI"},{"line":0,"transit":false,"station_name":"Cakung","is_transit":false,"distance":3097,"time":3,"station_id":"CUK","i_lat":-6.219053,"i_long":106.951283},{"time":8,"station_name":"Klenderbaru","is_transit":false,"distance":1385,"i_long":106.939679,"i_lat":-6.217455,"station_id":"KLDB","line":1,"transit":false},{"station_id":"BUA","station_name":"Buaran","time":1,"i_long":106.922662,"is_transit":false,"i_lat":-6.215568,"distance":1305,"line":0,"transit":false},{"time":2,"line":1,"distance":3100,"i_long":106.899548,"transit":false,"is_transit":false,"station_name":"Klender","i_lat":-6.2135,"station_id":"KLD"},{"is_transit":true,"time":3,"transit":false,"line":0,"distance":3395,"station_id":"JNG","station_name":"Jatinegara","i_lat":-6.215091,"i_long":106.86807400000001},{"distance":1377,"station_name":"Matraman","i_long":106.858896,"time":2,"is_transit":false,"transit":false,"i_lat":-6.212485,"line":1,"station_id":"MTR"},{"station_id":"MRI","transit":false,"i_long":106.84912,"station_name":"Manggarai","is_transit":true,"time":2,"line":0,"i_lat":-6.209883,"distance":1275},{"transit":false,"i_long":106.822649,"i_lat":-6.202263,"station_id":"SUD","station_name":"Sudirman","is_transit":false,"time":4,"distance":3186,"line":1},{"i_long":106.819881,"line":1,"distance":280,"time":1,"is_transit":false,"i_lat":-6.201433,"station_id":"SUDB","station_name":"Sudirman Baru","transit":false},{"station_id":"KAT","time":1,"i_long":106.816351,"station_name":"Karet","i_lat":-6.20132,"distance":471,"transit":false,"is_transit":false,"line":1},{"station_name":"Tanah Abang","is_transit":true,"distance":2029,"i_long":106.811091,"time":5,"transit":false,"station_id":"THB","line":1,"i_lat":-6.185545},{"transit":true,"is_transit":true,"line":1,"station_name":"Duri","i_lat":-6.155215,"station_id":"DU","i_long":106.800832,"distance":3632,"time":8},{"is_transit":false,"line":5,"time":3,"station_id":"GGL","transit":false,"i_lat":-6.162021,"distance":1700,"i_long":106.788277,"station_name":"Grogol"},{"is_transit":false,"i_lat":-6.161433,"time":2,"i_long":106.771379,"station_id":"PSG","line":5,"distance":2036,"transit":false,"station_name":"Pesing"},{"station_id":"TKO","distance":1614,"transit":false,"i_lat":-6.1587309999999995,"station_name":"Taman Kota","line":5,"i_long":106.756522,"is_transit":false,"time":2},{"is_transit":false,"i_long":106.737035,"distance":2334,"line":0,"station_id":"BOI","time":2,"transit":false,"i_lat":-6.159876,"station_name":"Bojongindah"},{"station_id":"RW","station_name":"Rawa Buaya","i_lat":-6.162758,"distance":1152,"transit":false,"is_transit":false,"i_long":106.723064,"line":5,"time":4}],[{"station_name":"Cibitung","is_transit":false,"transit":false,"i_lat":-6.261877,"time":0,"i_long":107.083084,"station_id":"CIT","distance":0,"line":0},{"i_long":107.055722,"station_name":"Tambun","station_id":"TB","distance":3420,"line":1,"time":3,"i_lat":-6.258864,"is_transit":false,"transit":false},{"transit":false,"station_name":"Bekasi Timur","i_long":107.016735,"is_transit":false,"line":0,"station_id":"BKST","time":7,"distance":4460,"i_lat":-6.248029},{"line":0,"distance":2368,"station_id":"BKS","is_transit":false,"i_lat":-6.236616,"time":2,"transit":false,"i_long":106.997013,"station_name":"Bekasi"},{"i_long":106.977657,"station_name":"Kranji","distance":2520,"time":4,"line":1,"station_id":"KRI","i_lat":-6.224515,"transit":false,"is_transit":false},{"i_lat":-6.219053,"station_id":"CUK","station_name":"Cakung","distance":3097,"line":0,"is_transit":false,"transit":false,"time":3,"i_long":106.951283},{"distance":1385,"transit":false,"station_id":"KLDB","is_transit":false,"i_lat":-6.217455,"station_name":"Klenderbaru","time":8,"line":1,"i_long":106.939679},{"is_transit":false,"station_id":"BUA","line":0,"station_name":"Buaran","distance":1305,"transit":false,"i_long":106.922662,"i_lat":-6.215568,"time":1},{"i_lat":-6.2135,"is_transit":false,"line":1,"transit":false,"distance":3100,"station_id":"KLD","i_long":106.899548,"time":2,"station_name":"Klender"},{"station_id":"JNG","distance":3395,"transit":true,"line":0,"i_lat":-6.215091,"is_transit":true,"i_long":106.86807400000001,"time":3,"station_name":"Jatinegara"},{"transit":false,"station_name":"Pondok Jati","distance":1236,"line":11,"i_long":106.861737,"station_id":"POK","is_transit":false,"i_lat":-6.209188,"time":2},{"station_name":"Kramat","line":11,"distance":1829,"transit":false,"i_lat":-6.193792,"station_id":"KMT","is_transit":false,"time":2,"i_long":106.855437},{"distance":973,"transit":false,"is_transit":false,"time":1,"station_name":"Gang Sentiong","station_id":"GST","i_long":106.850107,"line":11,"i_lat":-6.185975},{"station_id":"PSE","line":11,"time":8,"station_name":"Pasar Senen","transit":false,"distance":1567,"i_lat":-6.174784,"is_transit":false,"i_long":106.84368},{"distance":1436,"i_long":106.839204,"station_name":"Kemayoran","is_transit":false,"station_id":"KMO","time":4,"transit":false,"i_lat":-6.161728,"line":11},{"i_long":106.836569,"station_id":"RJW","i_lat":-6.14505,"time":5,"is_transit":false,"distance":1901,"line":11,"station_name":"Rajawali","transit":false},{"line":0,"station_id":"KPB","station_name":"Kampung Bandan","transit":true,"is_transit":true,"time":3,"distance":1444,"i_long":106.826365,"i_lat":-6.132549},{"distance":4102,"line":0,"time":9,"transit":false,"i_lat":-6.144674,"station_name":"Angke","i_long":106.79867,"station_id":"AK","is_transit":false},{"time":4,"transit":true,"i_long":106.800832,"is_transit":true,"distance":1230,"station_name":"Duri","station_id":"DU","line":1,"i_lat":-6.155215},{"distance":1700,"i_lat":-6.162021,"i_long":106.788277,"transit":false,"time":3,"station_id":"GGL","line":5,"is_transit":false,"station_name":"Grogol"},{"is_transit":false,"time":2,"distance":2036,"line":5,"transit":false,"i_long":106.771379,"i_lat":-6.161433,"station_id":"PSG","station_name":"Pesing"},{"i_long":106.756522,"line":5,"is_transit":false,"station_name":"Taman Kota","time":2,"distance":1614,"transit":false,"station_id":"TKO","i_lat":-6.1587309999999995},{"time":2,"distance":2334,"transit":false,"station_id":"BOI","i_lat":-6.159876,"station_name":"Bojongindah","is_transit":false,"i_long":106.737035,"line":0},{"is_transit":false,"i_long":106.723064,"station_name":"Rawa Buaya","i_lat":-6.162758,"line":5,"distance":1152,"time":4,"transit":false,"station_id":"RW"}],[{"line":0,"distance":0,"time":0,"is_transit":false,"transit":false,"station_name":"Cibitung","station_id":"CIT","i_long":107.083084,"i_lat":-6.261877},{"station_name":"Tambun","distance":3420,"time":3,"transit":false,"line":1,"station_id":"TB","i_long":107.055722,"i_lat":-6.258864,"is_transit":false},{"line":0,"transit":false,"is_transit":false,"time":7,"station_id":"BKST","station_name":"Bekasi Timur","distance":4460,"i_lat":-6.248029,"i_long":107.016735},{"is_transit":false,"station_name":"Bekasi","transit":false,"time":2,"distance":2368,"i_lat":-6.236616,"station_id":"BKS","i_long":106.997013,"line":0},{"is_transit":false,"station_id":"KRI","station_name":"Kranji","time":4,"distance":2520,"transit":false,"i_lat":-6.224515,"i_long":106.977657,"line":1},{"station_id":"CUK","station_name":"Cakung","distance":3097,"time":3,"i_lat":-6.219053,"i_long":106.951283,"transit":false,"is_transit":false,"line":0},{"is_transit":false,"i_lat":-6.217455,"line":1,"station_id":"KLDB","i_long":106.939679,"station_name":"Klenderbaru","distance":1385,"transit":false,"time":8},{"station_name":"Buaran","line":0,"station_id":"BUA","is_transit":false,"time":1,"i_long":106.922662,"transit":false,"i_lat":-6.215568,"distance":1305},{"distance":3100,"i_lat":-6.2135,"line":1,"station_name":"Klender","station_id":"KLD","transit":false,"time":2,"i_long":106.899548,"is_transit":false},{"transit":false,"station_id":"JNG","distance":3395,"time":3,"i_lat":-6.215091,"station_name":"Jatinegara","i_long":106.86807400000001,"is_transit":true,"line":0},{"station_id":"MTR","i_lat":-6.212485,"transit":false,"is_transit":false,"distance":1377,"time":2,"i_long":106.858896,"line":1,"station_name":"Matraman"},{"is_transit":true,"transit":true,"i_long":106.84912,"station_id":"MRI","i_lat":-6.209883,"station_name":"Manggarai","time":2,"distance":1275,"line":0},{"line":0,"station_id":"CKI","transit":false,"distance":1590,"time":4,"i_long":106.840169,"is_transit":false,"i_lat":-6.198556,"station_name":"Cikini"},{"line":2,"station_name":"Gondangdia","is_transit":false,"distance":1750,"i_long":106.832183,"transit":false,"station_id":"GDD","time":3,"i_lat":-6.186295},{"i_lat":-6.166716,"station_id":"JUA","transit":false,"distance":2015,"station_name":"Juanda","line":2,"i_long":106.828284,"is_transit":false,"time":4},{"station_id":"SW","time":2,"station_name":"Sawah Besar","transit":false,"is_transit":false,"distance":1149,"i_lat":-6.160725,"i_long":106.827103,"line":2},{"i_lat":-6.149769,"transit":false,"is_transit":false,"station_name":"Manggabesar","line":2,"i_long":106.82482,"distance":906,"station_id":"MGB","time":2},{"line":7,"is_transit":false,"transit":false,"station_id":"JAY","distance":1080,"i_lat":-6.141205,"time":2,"station_name":"Jayakarta","i_long":106.820901},{"is_transit":true,"time":4,"transit":true,"station_name":"Jakarta Kota","distance":1264,"i_lat":-6.137569,"station_id":"JAKK","line":0,"i_long":106.812439},{"transit":false,"i_lat":-6.132549,"station_name":"Kampung Bandan","line":0,"is_transit":true,"time":3,"i_long":106.826365,"distance":1364,"station_id":"KPB"},{"i_long":106.79867,"station_name":"Angke","line":0,"distance":4102,"time":9,"station_id":"AK","i_lat":-6.144674,"is_transit":false,"transit":false},{"transit":true,"time":4,"station_id":"DU","station_name":"Duri","i_long":106.800832,"line":1,"i_lat":-6.155215,"distance":1230,"is_transit":true},{"line":5,"i_long":106.788277,"transit":false,"i_lat":-6.162021,"distance":1700,"station_id":"GGL","is_transit":false,"time":3,"station_name":"Grogol"},{"station_id":"PSG","i_long":106.771379,"station_name":"Pesing","transit":false,"i_lat":-6.161433,"distance":2036,"time":2,"line":5,"is_transit":false},{"i_long":106.756522,"station_id":"TKO","i_lat":-6.1587309999999995,"transit":false,"time":2,"is_transit":false,"station_name":"Taman Kota","distance":1614,"line":5},{"i_lat":-6.159876,"time":2,"i_long":106.737035,"line":0,"station_name":"Bojongindah","transit":false,"is_transit":false,"station_id":"BOI","distance":2334},{"distance":1152,"i_lat":-6.162758,"i_long":106.723064,"station_id":"RW","station_name":"Rawa Buaya","is_transit":false,"time":4,"transit":false,"line":5}],[{"i_long":107.083084,"station_name":"Cibitung","is_transit":false,"station_id":"CIT","i_lat":-6.261877,"time":0,"transit":false,"distance":0,"line":0},{"line":1,"is_transit":false,"time":3,"transit":false,"i_lat":-6.258864,"i_long":107.055722,"distance":3420,"station_id":"TB","station_name":"Tambun"},{"i_long":107.016735,"transit":false,"is_transit":false,"i_lat":-6.248029,"line":0,"distance":4460,"station_id":"BKST","station_name":"Bekasi Timur","time":7},{"is_transit":false,"distance":2368,"station_id":"BKS","station_name":"Bekasi","transit":false,"i_lat":-6.236616,"i_long":106.997013,"time":2,"line":0},{"i_lat":-6.224515,"transit":false,"distance":2520,"time":4,"line":1,"i_long":106.977657,"is_transit":false,"station_name":"Kranji","station_id":"KRI"},{"is_transit":false,"time":3,"distance":3097,"i_long":106.951283,"station_id":"CUK","station_name":"Cakung","transit":false,"i_lat":-6.219053,"line":0},{"distance":1385,"time":8,"is_transit":false,"i_lat":-6.217455,"line":1,"station_name":"Klenderbaru","transit":false,"i_long":106.939679,"station_id":"KLDB"},{"line":0,"is_transit":false,"time":1,"transit":false,"i_lat":-6.215568,"station_name":"Buaran","station_id":"BUA","i_long":106.922662,"distance":1305},{"is_transit":false,"time":2,"station_name":"Klender","transit":false,"i_long":106.899548,"i_lat":-6.2135,"distance":3100,"station_id":"KLD","line":1},{"line":0,"is_transit":true,"i_lat":-6.215091,"time":3,"distance":3395,"transit":true,"station_name":"Jatinegara","i_long":106.86807400000001,"station_id":"JNG"},{"line":11,"time":2,"is_transit":false,"i_lat":-6.209188,"distance":1236,"station_id":"POK","station_name":"Pondok Jati","i_long":106.861737,"transit":false},{"distance":1829,"station_name":"Kramat","is_transit":false,"i_lat":-6.193792,"line":11,"time":2,"transit":false,"i_long":106.855437,"station_id":"KMT"},{"time":1,"distance":973,"station_name":"Gang Sentiong","is_transit":false,"station_id":"GST","i_long":106.850107,"transit":false,"i_lat":-6.185975,"line":11},{"line":11,"distance":1567,"station_id":"PSE","is_transit":false,"transit":false,"station_name":"Pasar Senen","time":8,"i_long":106.84368,"i_lat":-6.174784},{"station_id":"KMO","i_lat":-6.161728,"is_transit":false,"distance":1436,"time":4,"transit":false,"station_name":"Kemayoran","line":11,"i_long":106.839204},{"i_long":106.836569,"time":5,"i_lat":-6.14505,"station_name":"Rajawali","distance":1901,"is_transit":false,"station_id":"RJW","transit":false,"line":11},{"station_name":"Kampung Bandan","line":0,"is_transit":true,"transit":true,"station_id":"KPB","distance":1444,"time":3,"i_lat":-6.132549,"i_long":106.826365},{"time":3,"transit":true,"i_long":106.812439,"line":0,"station_name":"Jakarta Kota","is_transit":true,"i_lat":-6.137569,"station_id":"JAKK","distance":1364},{"station_name":"Jayakarta","is_transit":false,"time":4,"i_lat":-6.141205,"i_long":106.820901,"distance":1264,"transit":false,"line":7,"station_id":"JAY"},{"transit":false,"station_id":"MGB","is_transit":false,"i_long":106.82482,"line":2,"station_name":"Manggabesar","time":2,"i_lat":-6.149769,"distance":1080},{"transit":false,"line":2,"station_name":"Sawah Besar","i_lat":-6.160725,"station_id":"SW","is_transit":false,"distance":906,"i_long":106.827103,"time":2},{"distance":1149,"line":2,"station_name":"Juanda","time":2,"station_id":"JUA","i_long":106.828284,"is_transit":false,"i_lat":-6.166716,"transit":false},{"transit":false,"distance":2015,"i_long":106.832183,"line":2,"is_transit":false,"station_id":"GDD","station_name":"Gondangdia","time":4,"i_lat":-6.186295},{"i_long":106.840169,"is_transit":false,"station_id":"CKI","distance":1750,"transit":false,"line":0,"station_name":"Cikini","time":3,"i_lat":-6.198556},{"station_name":"Manggarai","is_transit":true,"distance":1590,"line":0,"time":4,"i_lat":-6.209883,"transit":true,"i_long":106.84912,"station_id":"MRI"},{"station_name":"Sudirman","is_transit":false,"i_lat":-6.202263,"line":1,"station_id":"SUD","transit":false,"time":4,"i_long":106.822649,"distance":3186},{"i_long":106.819881,"is_transit":false,"station_name":"Sudirman Baru","distance":280,"transit":false,"i_lat":-6.201433,"line":1,"station_id":"SUDB","time":1},{"time":1,"i_long":106.816351,"line":1,"transit":false,"station_id":"KAT","is_transit":false,"station_name":"Karet","distance":471,"i_lat":-6.20132},{"distance":2029,"i_long":106.811091,"line":1,"station_id":"THB","station_name":"Tanah Abang","is_transit":true,"transit":false,"i_lat":-6.185545,"time":5},{"line":1,"transit":true,"station_name":"Duri","i_lat":-6.155215,"time":8,"is_transit":true,"i_long":106.800832,"station_id":"DU","distance":3632},{"station_id":"GGL","transit":false,"i_lat":-6.162021,"i_long":106.788277,"station_name":"Grogol","is_transit":false,"time":3,"line":5,"distance":1700},{"station_name":"Pesing","is_transit":false,"distance":2036,"i_lat":-6.161433,"station_id":"PSG","time":2,"transit":false,"i_long":106.771379,"line":5},{"distance":1614,"i_long":106.756522,"line":5,"time":2,"station_name":"Taman Kota","is_transit":false,"transit":false,"i_lat":-6.1587309999999995,"station_id":"TKO"},{"time":2,"station_id":"BOI","line":0,"distance":2334,"i_lat":-6.159876,"transit":false,"station_name":"Bojongindah","i_long":106.737035,"is_transit":false},{"line":5,"i_lat":-6.162758,"station_id":"RW","time":4,"transit":false,"station_name":"Rawa Buaya","is_transit":false,"distance":1152,"i_long":106.723064}]]}