{"data":[[{"station_id":"CIT","time":0,"station_name":"Cibitung","line":0,"i_long":107.083084,"is_transit":false,"i_lat":-6.261877,"transit":false,"distance":0},{"time":3,"transit":false,"i_long":107.055722,"station_name":"Tambun","station_id":"TB","distance":3420,"is_transit":false,"i_lat":-6.258864,"line":1},{"line":0,"distance":4460,"transit":false,"station_name":"Bekasi Timur","is_transit":false,"station_id":"BKST","time":7,"i_lat":-6.248029,"i_long":107.016735},{"time":2,"is_transit":false,"distance":2368,"station_id":"BKS","station_name":"Bekasi","i_lat":-6.236616,"i_long":106.997013,"transit":false,"line":0},{"line":1,"station_id":"KRI","station_name":"Kranji","i_lat":-6.224515,"transit":false,"distance":2520,"time":4,"is_transit":false,"i_long":106.977657},{"is_transit":false,"time":3,"line":0,"i_lat":-6.219053,"station_id":"CUK","transit":false,"distance":3097,"i_long":106.951283,"station_name":"Cakung"},{"station_id":"KLDB","time":8,"distance":1385,"i_lat":-6.217455,"i_long":106.939679,"station_name":"Klenderbaru","line":1,"is_transit":false,"transit":false},{"transit":false,"distance":1305,"time":1,"i_lat":-6.215568,"is_transit":false,"i_long":106.922662,"line":0,"station_name":"Buaran","station_id":"BUA"},{"station_name":"Klender","transit":false,"distance":3100,"station_id":"KLD","is_transit":false,"time":2,"i_long":106.899548,"i_lat":-6.2135,"line":1},{"line":0,"is_transit":true,"transit":false,"station_id":"JNG","distance":3395,"time":3,"i_lat":-6.215091,"i_long":106.86807400000001,"station_name":"Jatinegara"},{"station_name":"Matraman","is_transit":false,"i_long":106.858896,"transit":false,"time":2,"station_id":"MTR","i_lat":-6.212485,"line":1,"distance":1377},{"transit":false,"line":0,"is_transit":true,"time":2,"distance":1275,"i_lat":-6.209883,"i_long":106.84912,"station_name":"Manggarai","station_id":"MRI"},{"station_id":"SUD","station_name":"Sudirman","line":1,"i_lat":-6.202263,"is_transit":false,"time":4,"i_long":106.822649,"transit":false,"distance":3186},{"line":1,"i_lat":-6.201433,"is_transit":false,"time":1,"transit":false,"station_id":"SUDB","distance":280,"i_long":106.819881,"station_name":"Sudirman Baru"},{"station_id":"KAT","time":1,"line":1,"distance":471,"station_name":"Karet","is_transit":false,"i_long":106.816351,"i_lat":-6.20132,"transit":false},{"line":1,"i_lat":-6.185545,"i_long":106.811091,"transit":true,"time":5,"station_name":"Tanah Abang","is_transit":true,"station_id":"THB","distance":2029},{"distance":3191,"i_lat":-6.207404,"line":6,"transit":false,"station_name":"Palmerah","time":6,"station_id":"PLM","is_transit":false,"i_long":106.79689},{"distance":3737,"station_name":"Kebayoran","transit":false,"line":6,"i_long":106.780334,"is_transit":false,"time":7,"station_id":"KBY","i_lat":-6.237242},{"station_id":"PDJ","distance":6218,"i_lat":-6.276362,"line":6,"i_long":106.74273,"is_transit":false,"transit":false,"station_name":"Pondokranji","time":8},{"distance":2179,"station_name":"Jurangmangu","time":3,"station_id":"JMU","i_long":106.728916,"is_transit":false,"transit":false,"line":6,"i_lat":-6.288927},{"station_name":"Sudimara","i_long":106.712277,"line":6,"station_id":"SDM","time":4,"distance":1994,"is_transit":false,"i_lat":-6.296963,"transit":false},{"station_name":"Rawa Buntu","transit":false,"station_id":"RU","is_transit":false,"time":6,"line":6,"distance":4566,"i_lat":-6.314823,"i_long":106.675475},{"station_name":"Serpong","is_transit":false,"line":6,"time":4,"transit":false,"i_long":106.66566,"i_lat":-6.319871,"station_id":"SRP","distance":2413},{"is_transit":false,"line":0,"time":4,"station_name":"Cisauk","transit":false,"i_lat":-6.32484,"distance":1784,"i_long":106.640411,"station_id":"CSK"},{"station_name":"Cicayur","is_transit":false,"line":0,"distance":2519,"station_id":"CC","time":4,"i_long":106.617853,"i_lat":-6.329547,"transit":false},{"station_name":"Parung Panjang","distance":5968,"line":6,"station_id":"PRP","i_long":106.568863,"transit":false,"i_lat":-6.3441410000000005,"is_transit":false,"time":8},{"transit":false,"i_long":106.508482,"line":0,"station_id":"CJT","station_name":"Cilejit","is_transit":false,"distance":7025,"time":9,"i_lat":-6.354349}],[{"i_lat":-6.261877,"time":0,"station_name":"Cibitung","is_transit":false,"line":0,"distance":0,"station_id":"CIT","i_long":107.083084,"transit":false},{"is_transit":false,"time":3,"i_long":107.055722,"station_id":"TB","distance":3420,"station_name":"Tambun","i_lat":-6.258864,"line":1,"transit":false},{"i_lat":-6.248029,"time":7,"i_long":107.016735,"distance":4460,"transit":false,"line":0,"station_id":"BKST","station_name":"Bekasi Timur","is_transit":false},{"i_long":106.997013,"transit":false,"station_id":"BKS","line":0,"is_transit":false,"time":2,"distance":2368,"station_name":"Bekasi","i_lat":-6.236616},{"station_name":"Kranji","time":4,"transit":false,"station_id":"KRI","distance":2520,"i_long":106.977657,"i_lat":-6.224515,"line":1,"is_transit":false},{"transit":false,"station_name":"Cakung","time":3,"distance":3097,"is_transit":false,"line":0,"station_id":"CUK","i_long":106.951283,"i_lat":-6.219053},{"i_long":106.939679,"transit":false,"is_transit":false,"station_name":"Klenderbaru","i_lat":-6.217455,"line":1,"time":8,"station_id":"KLDB","distance":1385},{"is_transit":false,"i_long":106.922662,"line":0,"i_lat":-6.215568,"station_name":"Buaran","station_id":"BUA","time":1,"distance":1305,"transit":false},{"distance":3100,"is_transit":false,"i_lat":-6.2135,"transit":false,"station_name":"Klender","i_long":106.899548,"time":2,"line":1,"station_id":"KLD"},{"station_id":"JNG","time":3,"is_transit":true,"i_lat":-6.215091,"station_name":"Jatinegara","transit":true,"distance":3395,"line":0,"i_long":106.86807400000001},{"time":2,"station_id":"POK","is_transit":false,"station_name":"Pondok Jati","distance":1236,"i_long":106.861737,"transit":false,"i_lat":-6.209188,"line":11},{"is_transit":false,"i_lat":-6.193792,"time":2,"distance":1829,"i_long":106.855437,"line":11,"station_name":"Kramat","station_id":"KMT","transit":false},{"distance":973,"i_long":106.850107,"station_id":"GST","i_lat":-6.185975,"is_transit":false,"line":11,"transit":false,"station_name":"Gang Sentiong","time":1},{"station_name":"Pasar Senen","line":11,"time":8,"distance":1567,"transit":false,"i_lat":-6.174784,"is_transit":false,"i_long":106.84368,"station_id":"PSE"},{"station_id":"KMO","i_long":106.839204,"time":4,"line":11,"distance":1436,"is_transit":false,"station_name":"Kemayoran","transit":false,"i_lat":-6.161728},{"transit":false,"station_id":"RJW","line":11,"station_name":"Rajawali","i_long":106.836569,"i_lat":-6.14505,"time":5,"is_transit":false,"distance":1901},{"station_id":"KPB","line":0,"i_long":106.826365,"transit":true,"is_transit":true,"distance":1444,"i_lat":-6.132549,"time":3,"station_name":"Kampung Bandan"},{"transit":false,"i_lat":-6.144674,"station_name":"Angke","line":0,"is_transit":false,"i_long":106.79867,"station_id":"AK","distance":4102,"time":9},{"transit":true,"station_id":"DU","time":4,"distance":1230,"line":1,"i_long":106.800832,"station_name":"Duri","i_lat":-6.155215,"is_transit":true},{"station_id":"THB","station_name":"Tanah Abang","time":8,"i_lat":-6.185545,"is_transit":true,"i_long":106.811091,"transit":true,"line":1,"distance":3632},{"distance":3191,"station_name":"Palmerah","station_id":"PLM","line":6,"transit":false,"is_transit":false,"time":6,"i_lat":-6.207404,"i_long":106.79689},{"is_transit":false,"time":7,"station_name":"Kebayoran","station_id":"KBY","distance":3737,"line":6,"transit":false,"i_lat":-6.237242,"i_long":106.780334},{"line":6,"station_name":"Pondokranji","transit":false,"station_id":"PDJ","is_transit":false,"distance":6218,"i_lat":-6.276362,"time":8,"i_long":106.74273},{"line":6,"station_name":"Jurangmangu","time":3,"is_transit":false,"station_id":"JMU","transit":false,"i_lat":-6.288927,"distance":2179,"i_long":106.728916},{"i_lat":-6.296963,"station_name":"Sudimara","line":6,"station_id":"SDM","i_long":106.712277,"time":4,"is_transit":false,"distance":1994,"transit":false},{"transit":false,"line":6,"time":6,"i_lat":-6.314823,"is_transit":false,"station_id":"RU","distance":4566,"i_long":106.675475,"station_name":"Rawa Buntu"},{"transit":false,"station_id":"SRP","time":4,"station_name":"Serpong","i_lat":-6.319871,"is_transit":false,"distance":2413,"i_long":106.66566,"line":6},{"i_lat":-6.32484,"time":4,"station_id":"CSK","distance":1784,"i_long":106.640411,"station_name":"Cisauk","transit":false,"is_transit":false,"line":0},{"line":0,"station_id":"CC","distance":2519,"is_transit":false,"time":4,"transit":false,"station_name":"Cicayur","i_long":106.617853,"i_lat":-6.329547},{"line":6,"time":8,"i_lat":-6.3441410000000005,"distance":5968,"is_transit":false,"station_name":"Parung Panjang","i_long":106.568863,"transit":false,"station_id":"PRP"},{"i_long":106.508482,"time":9,"station_id":"CJT","line":0,"station_name":"Cilejit","is_transit":false,"distance":7025,"i_lat":-6.354349,"transit":false}],[{"is_transit":false,"time":0,"i_lat":-6.261877,"distance":0,"station_name":"Cibitung","transit":false,"station_id":"CIT","i_long":107.083084,"line":0},{"i_long":107.055722,"time":3,"station_id":"TB","distance":3420,"is_transit":false,"station_name":"Tambun","i_lat":-6.258864,"line":1,"transit":false},{"line":0,"station_id":"BKST","i_lat":-6.248029,"transit":false,"is_transit":false,"time":7,"distance":4460,"station_name":"Bekasi Timur","i_long":107.016735},{"i_lat":-6.236616,"distance":2368,"i_long":106.997013,"transit":false,"line":0,"station_name":"Bekasi","time":2,"station_id":"BKS","is_transit":false},{"is_transit":false,"station_id":"KRI","i_long":106.977657,"line":1,"i_lat":-6.224515,"transit":false,"station_name":"Kranji","time":4,"distance":2520},{"transit":false,"station_name":"Cakung","line":0,"is_transit":false,"i_lat":-6.219053,"i_long":106.951283,"distance":3097,"station_id":"CUK","time":3},{"i_lat":-6.217455,"is_transit":false,"i_long":106.939679,"station_id":"KLDB","transit":false,"time":8,"station_name":"Klenderbaru","distance":1385,"line":1},{"transit":false,"is_transit":false,"distance":1305,"i_long":106.922662,"line":0,"i_lat":-6.215568,"station_name":"Buaran","station_id":"BUA","time":1},{"i_long":106.899548,"station_name":"Klender","station_id":"KLD","time":2,"line":1,"distance":3100,"is_transit":false,"transit":false,"i_lat":-6.2135},{"time":3,"station_id":"JNG","i_lat":-6.215091,"i_long":106.86807400000001,"is_transit":true,"line":0,"station_name":"Jatinegara","transit":false,"distance":3395},{"station_name":"Matraman","transit":false,"station_id":"MTR","distance":1377,"i_lat":-6.212485,"i_long":106.858896,"line":1,"time":2,"is_transit":false},{"line":0,"is_transit":true,"station_id":"MRI","distance":1275,"transit":true,"i_long":106.84912,"station_name":"Manggarai","time":2,"i_lat":-6.209883},{"transit":false,"time":4,"station_id":"CKI","is_transit":false,"line":0,"distance":1590,"i_lat":-6.198556,"station_name":"Cikini","i_long":106.840169},{"line":2,"station_name":"Gondangdia","time":3,"station_id":"GDD","distance":1750,"i_lat":-6.186295,"i_long":106.832183,"transit":false,"is_transit":false},{"time":4,"line":2,"transit":false,"distance":2015,"station_name":"Juanda","i_long":106.828284,"is_transit":false,"station_id":"JUA","i_lat":-6.166716},{"station_name":"Sawah Besar","station_id":"SW","time":2,"distance":1149,"i_long":106.827103,"i_lat":-6.160725,"is_transit":false,"transit":false,"line":2},{"station_name":"Manggabesar","transit":false,"station_id":"MGB","distance":906,"line":2,"i_lat":-6.149769,"time":2,"is_transit":false,"i_long":106.82482},{"station_name":"Jayakarta","station_id":"JAY","line":7,"transit":false,"distance":1080,"i_lat":-6.141205,"is_transit":false,"i_long":106.820901,"time":2},{"line":0,"i_long":106.812439,"station_id":"JAKK","time":4,"station_name":"Jakarta Kota","transit":true,"is_transit":true,"distance":1264,"i_lat":-6.137569},{"i_long":106.826365,"station_id":"KPB","time":3,"is_transit":true,"i_lat":-6.132549,"line":0,"distance":1364,"station_name":"Kampung Bandan","transit":false},{"time":9,"line":0,"station_id":"AK","distance":4102,"i_long":106.79867,"is_transit":false,"transit":false,"i_lat":-6.144674,"station_name":"Angke"},{"i_lat":-6.155215,"is_transit":true,"station_name":"Duri","time":4,"line":1,"station_id":"DU","transit":true,"distance":1230,"i_long":106.800832},{"is_transit":true,"station_name":"Tanah Abang","time":8,"i_lat":-6.185545,"distance":3632,"transit":true,"i_long":106.811091,"station_id":"THB","line":1},{"station_name":"Palmerah","i_lat":-6.207404,"station_id":"PLM","transit":false,"i_long":106.79689,"time":6,"line":6,"distance":3191,"is_transit":false},{"i_lat":-6.237242,"is_transit":false,"transit":false,"station_id":"KBY","i_long":106.780334,"time":7,"line":6,"station_name":"Kebayoran","distance":3737},{"station_name":"Pondokranji","i_lat":-6.276362,"is_transit":false,"i_long":106.74273,"distance":6218,"transit":false,"time":8,"line":6,"station_id":"PDJ"},{"station_id":"JMU","transit":false,"line":6,"station_name":"Jurangmangu","distance":2179,"i_long":106.728916,"i_lat":-6.288927,"is_transit":false,"time":3},{"transit":false,"i_lat":-6.296963,"is_transit":false,"line":6,"time":4,"distance":1994,"station_id":"SDM","i_long":106.712277,"station_name":"Sudimara"},{"is_transit":false,"i_lat":-6.314823,"station_id":"RU","transit":false,"station_name":"Rawa Buntu","time":6,"i_long":106.675475,"line":6,"distance":4566},{"station_id":"SRP","is_transit":false,"time":4,"i_long":106.66566,"station_name":"Serpong","transit":false,"distance":2413,"i_lat":-6.319871,"line":6},{"transit":false,"is_transit":false,"i_long":106.640411,"line":0,"distance":1784,"station_name":"Cisauk","time":4,"i_lat":-6.32484,"station_id":"CSK"},{"line":0,"station_name":"Cicayur","station_id":"CC","i_lat":-6.329547,"i_long":106.617853,"distance":2519,"time":4,"transit":false,"is_transit":false},{"is_transit":false,"i_lat":-6.3441410000000005,"transit":false,"distance":5968,"i_long":106.568863,"station_id":"PRP","line":6,"time":8,"station_name":"Parung Panjang"},{"transit":false,"i_long":106.508482,"line":0,"station_id":"CJT","station_name":"Cilejit","time":9,"i_lat":-6.354349,"is_transit":false,"distance":7025}],[{"station_name":"Cibitung","time":0,"i_long":107.083084,"transit":false,"line":0,"distance":0,"station_id":"CIT","i_lat":-6.261877,"is_transit":false},{"i_long":107.055722,"transit":false,"station_name":"Tambun","time":3,"line":1,"station_id":"TB","is_transit":false,"distance":3420,"i_lat":-6.258864},{"time":7,"is_transit":false,"transit":false,"station_id":"BKST","distance":4460,"i_lat":-6.248029,"i_long":107.016735,"line":0,"station_name":"Bekasi Timur"},{"is_transit":false,"station_name":"Bekasi","transit":false,"line":0,"station_id":"BKS","time":2,"i_long":106.997013,"distance":2368,"i_lat":-6.236616},{"transit":false,"station_name":"Kranji","i_lat":-6.224515,"distance":2520,"station_id":"KRI","i_long":106.977657,"time":4,"is_transit":false,"line":1},{"line":0,"is_transit":false,"transit":false,"station_id":"CUK","i_long":106.951283,"station_name":"Cakung","i_lat":-6.219053,"time":3,"distance":3097},{"distance":1385,"i_long":106.939679,"time":8,"transit":false,"station_name":"Klenderbaru","line":1,"station_id":"KLDB","is_transit":false,"i_lat":-6.217455},{"station_id":"BUA","i_long":106.922662,"time":1,"distance":1305,"is_transit":false,"i_lat":-6.215568,"station_name":"Buaran","line":0,"transit":false},{"i_long":106.899548,"i_lat":-6.2135,"is_transit":false,"station_id":"KLD","transit":false,"line":1,"time":2,"station_name":"Klender","distance":3100},{"line":0,"is_transit":true,"i_lat":-6.215091,"transit":true,"station_id":"JNG","distance":3395,"i_long":106.86807400000001,"station_name":"Jatinegara","time":3},{"i_lat":-6.209188,"i_long":106.861737,"station_id":"POK","time":2,"distance":1236,"station_name":"Pondok Jati","transit":false,"line":11,"is_transit":false},{"line":11,"station_id":"KMT","i_long":106.855437,"is_transit":false,"transit":false,"time":2,"i_lat":-6.193792,"distance":1829,"station_name":"Kramat"},{"line":11,"station_id":"GST","time":1,"i_long":106.850107,"is_transit":false,"distance":973,"transit":false,"i_lat":-6.185975,"station_name":"Gang Sentiong"},{"distance":1567,"line":11,"is_transit":false,"time":8,"station_name":"Pasar Senen","station_id":"PSE","i_long":106.84368,"i_lat":-6.174784,"transit":false},{"station_name":"Kemayoran","i_long":106.839204,"i_lat":-6.161728,"is_transit":false,"time":4,"line":11,"transit":false,"station_id":"KMO","distance":1436},{"station_name":"Rajawali","transit":false,"i_lat":-6.14505,"i_long":106.836569,"time":5,"is_transit":false,"line":11,"distance":1901,"station_id":"RJW"},{"line":0,"station_id":"KPB","time":3,"is_transit":true,"distance":1444,"station_name":"Kampung Bandan","transit":true,"i_lat":-6.132549,"i_long":106.826365},{"line":0,"station_id":"JAKK","is_transit":true,"distance":1364,"time":3,"i_lat":-6.137569,"station_name":"Jakarta Kota","i_long":106.812439,"transit":true},{"distance":1264,"station_id":"JAY","is_transit":false,"time":4,"i_long":106.820901,"line":7,"station_name":"Jayakarta","transit":false,"i_lat":-6.141205},{"station_name":"Manggabesar","i_lat":-6.149769,"i_long":106.82482,"line":2,"is_transit":false,"time":2,"transit":false,"station_id":"MGB","distance":1080},{"i_lat":-6.160725,"is_transit":false,"i_long":106.827103,"station_id":"SW","line":2,"station_name":"Sawah Besar","transit":false,"time":2,"distance":906},{"time":2,"distance":1149,"i_lat":-6.166716,"i_long":106.828284,"line":2,"is_transit":false,"station_name":"Juanda","transit":false,"station_id":"JUA"},{"distance":2015,"is_transit":false,"i_lat":-6.186295,"i_long":106.832183,"station_id":"GDD","station_name":"Gondangdia","transit":false,"line":2,"time":4},{"distance":1750,"transit":false,"i_long":106.840169,"i_lat":-6.198556,"line":0,"is_transit":false,"station_name":"Cikini","time":3,"station_id":"CKI"},{"station_name":"Manggarai","line":0,"transit":true,"station_id":"MRI","distance":1590,"time":4,"i_lat":-6.209883,"is_transit":true,"i_long":106.84912},{"transit":false,"i_lat":-6.202263,"station_name":"Sudirman","station_id":"SUD","line":1,"time":4,"is_transit":false,"distance":3186,"i_long":106.822649},{"line":1,"station_name":"Sudirman Baru","transit":false,"time":1,"station_id":"SUDB","is_transit":false,"i_lat":-6.201433,"i_long":106.819881,"distance":280},{"line":1,"i_lat":-6.20132,"station_id":"KAT","distance":471,"transit":false,"station_name":"Karet","time":1,"is_transit":false,"i_long":106.816351},{"transit":true,"i_long":106.811091,"line":1,"distance":2029,"station_name":"Tanah Abang","time":5,"is_transit":true,"station_id":"THB","i_lat":-6.185545},{"time":6,"station_name":"Palmerah","i_lat":-6.207404,"transit":false,"i_long":106.79689,"distance":3191,"line":6,"is_transit":false,"station_id":"PLM"},{"station_id":"KBY","transit":false,"i_long":106.780334,"i_lat":-6.237242,"line":6,"is_transit":false,"time":7,"distance":3737,"station_name":"Kebayoran"},{"i_long":106.74273,"station_name":"Pondokranji","transit":false,"is_transit":false,"time":8,"distance":6218,"line":6,"i_lat":-6.276362,"station_id":"PDJ"},{"station_name":"Jurangmangu","station_id":"JMU","i_lat":-6.288927,"is_transit":false,"time":3,"distance":2179,"i_long":106.728916,"transit":false,"line":6},{"line":6,"station_id":"SDM","is_transit":false,"station_name":"Sudimara","transit":false,"time":4,"distance":1994,"i_long":106.712277,"i_lat":-6.296963},{"transit":false,"i_lat":-6.314823,"station_id":"RU","distance":4566,"is_transit":false,"i_long":106.675475,"line":6,"station_name":"Rawa Buntu","time":6},{"station_id":"SRP","station_name":"Serpong","time":4,"i_long":106.66566,"is_transit":false,"line":6,"transit":false,"distance":2413,"i_lat":-6.319871},{"station_id":"CSK","distance":1784,"station_name":"Cisauk","transit":false,"line":0,"i_lat":-6.32484,"i_long":106.640411,"is_transit":false,"time":4},{"is_transit":false,"station_name":"Cicayur","transit":false,"time":4,"station_id":"CC","i_long":106.617853,"i_lat":-6.329547,"distance":2519,"line":0},{"i_lat":-6.3441410000000005,"i_long":106.568863,"line":6,"station_name":"Parung Panjang","transit":false,"time":8,"station_id":"PRP","is_transit":false,"distance":5968},{"time":9,"line":0,"station_id":"CJT","is_transit":false,"i_lat":-6.354349,"i_long":106.508482,"transit":false,"station_name":"Cilejit","distance":7025}]]}