{"data":[[{"is_transit":false,"i_long":107.083084,"distance":0,"transit":false,"station_id":"CIT","i_lat":-6.261877,"line":1,"station_name":"Cibitung","time":0},{"is_transit":false,"distance":3420,"i_lat":-6.258864,"transit":false,"i_long":107.055722,"station_name":"Tambun","station_id":"TB","line":1,"time":3},{"i_lat":-6.248029,"station_name":"Bekasi Timur","line":1,"transit":false,"i_long":107.016735,"station_id":"BKST","distance":4460,"is_transit":false,"time":7},{"time":2,"is_transit":false,"i_long":106.997013,"distance":2368,"line":1,"transit":false,"i_lat":-6.236616,"station_id":"BKS","station_name":"Bekasi"},{"station_name":"Kranji","transit":false,"i_lat":-6.224515,"distance":2520,"station_id":"KRI","i_long":106.977657,"line":1,"time":4,"is_transit":false},{"line":1,"i_long":106.951283,"station_id":"CUK","transit":false,"distance":3097,"is_transit":false,"station_name":"Cakung","i_lat":-6.219053,"time":3},{"is_transit":false,"i_long":106.939679,"line":1,"station_name":"Klenderbaru","distance":1385,"i_lat":-6.217455,"station_id":"KLDB","time":8,"transit":false},{"transit":false,"station_name":"Buaran","distance":1305,"is_transit":false,"line":1,"i_long":106.922662,"i_lat":-6.215568,"station_id":"BUA","time":1},{"station_id":"KLD","time":2,"is_transit":false,"distance":3100,"i_lat":-6.2135,"i_long":106.899548,"station_name":"Klender","line":1,"transit":false},{"is_transit":false,"i_long":106.86807400000001,"station_name":"Jatinegara","transit":false,"i_lat":-6.215091,"time":3,"line":1,"station_id":"JNG","distance":3395},{"time":2,"is_transit":false,"station_name":"Matraman","distance":1377,"i_long":106.858896,"station_id":"MTR","line":1,"i_lat":-6.212485,"transit":false},{"i_lat":-6.209883,"station_id":"MRI","time":2,"is_transit":false,"distance":1275,"station_name":"Manggarai","i_long":106.84912,"line":2,"transit":false},{"distance":3186,"i_long":106.822649,"station_name":"Sudirman","time":4,"is_transit":false,"i_lat":-6.202263,"station_id":"SUD","line":1,"transit":false},{"station_name":"Sudirman Baru","line":1,"station_id":"SUDB","distance":280,"is_transit":false,"i_long":106.819881,"time":1,"transit":false,"i_lat":-6.201433},{"transit":false,"i_lat":-6.20132,"is_transit":false,"station_name":"Karet","time":1,"station_id":"KAT","i_long":106.816351,"distance":471,"line":1},{"is_transit":true,"i_lat":-6.185545,"i_long":106.811091,"station_id":"THB","line":1,"transit":true,"station_name":"Tanah Abang","distance":2029,"time":5},{"line":6,"i_lat":-6.207404,"station_id":"PLM","transit":false,"distance":3191,"i_long":106.79689,"time":6,"station_name":"Palmerah","is_transit":false},{"station_name":"Kebayoran","line":6,"station_id":"KBY","i_long":106.780334,"distance":3737,"is_transit":false,"transit":false,"i_lat":-6.237242,"time":7},{"time":8,"distance":6218,"line":6,"is_transit":false,"i_long":106.74273,"station_name":"Pondokranji","transit":false,"i_lat":-6.276362,"station_id":"PDJ"},{"distance":2179,"time":3,"station_id":"JMU","station_name":"Jurangmangu","i_lat":-6.288927,"line":6,"is_transit":false,"transit":false,"i_long":106.728916},{"station_name":"Sudimara","line":6,"station_id":"SDM","i_lat":-6.296963,"i_long":106.712277,"is_transit":false,"transit":false,"distance":1994,"time":4},{"transit":false,"station_name":"Rawa Buntu","station_id":"RU","i_long":106.675475,"is_transit":false,"time":6,"i_lat":-6.314823,"line":6,"distance":4566},{"transit":false,"distance":2413,"i_long":106.66566,"line":6,"is_transit":false,"time":4,"i_lat":-6.319871,"station_name":"Serpong","station_id":"SRP"},{"line":3,"i_lat":-6.32484,"distance":1784,"station_id":"CSK","station_name":"Cisauk","time":4,"is_transit":false,"transit":false,"i_long":106.640411},{"i_lat":-6.329547,"transit":false,"is_transit":false,"time":4,"i_long":106.617853,"line":3,"station_id":"CC","station_name":"Cicayur","distance":2519},{"station_name":"Parung Panjang","i_lat":-6.3441410000000005,"i_long":106.568863,"time":8,"is_transit":false,"station_id":"PRP","line":6,"distance":5968,"transit":false},{"time":9,"line":3,"station_id":"CJT","transit":false,"station_name":"Cilejit","i_lat":-6.354349,"distance":7025,"is_transit":false,"i_long":106.508482}],[{"i_long":107.083084,"time":0,"transit":false,"distance":0,"is_transit":false,"line":1,"station_id":"CIT","i_lat":-6.261877,"station_name":"Cibitung"},{"station_id":"TB","station_name":"Tambun","time":3,"distance":3420,"is_transit":false,"i_long":107.055722,"line":1,"i_lat":-6.258864,"transit":false},{"station_id":"BKST","station_name":"Bekasi Timur","is_transit":false,"transit":false,"distance":4460,"i_lat":-6.248029,"time":7,"i_long":107.016735,"line":1},{"i_lat":-6.236616,"distance":2368,"i_long":106.997013,"line":1,"station_id":"BKS","is_transit":false,"transit":false,"time":2,"station_name":"Bekasi"},{"station_id":"KRI","line":1,"station_name":"Kranji","time":4,"distance":2520,"is_transit":false,"i_lat":-6.224515,"i_long":106.977657,"transit":false},{"station_id":"CUK","is_transit":false,"line":1,"i_lat":-6.219053,"transit":false,"distance":3097,"time":3,"i_long":106.951283,"station_name":"Cakung"},{"distance":1385,"i_long":106.939679,"is_transit":false,"time":8,"i_lat":-6.217455,"station_name":"Klenderbaru","station_id":"KLDB","line":1,"transit":false},{"transit":false,"time":1,"station_name":"Buaran","i_lat":-6.215568,"i_long":106.922662,"line":1,"distance":1305,"is_transit":false,"station_id":"BUA"},{"i_lat":-6.2135,"line":1,"station_name":"Klender","station_id":"KLD","distance":3100,"is_transit":false,"i_long":106.899548,"transit":false,"time":2},{"i_long":106.86807400000001,"station_id":"JNG","transit":true,"station_name":"Jatinegara","is_transit":true,"distance":3395,"i_lat":-6.215091,"line":1,"time":3},{"transit":false,"station_name":"Pondok Jati","time":2,"i_lat":-6.209188,"station_id":"POK","is_transit":false,"i_long":106.861737,"distance":1236,"line":11},{"line":11,"distance":1829,"station_name":"Kramat","time":2,"i_long":106.855437,"i_lat":-6.193792,"station_id":"KMT","transit":false,"is_transit":false},{"is_transit":false,"i_lat":-6.185975,"line":11,"station_id":"GST","time":1,"i_long":106.850107,"station_name":"Gang Sentiong","distance":973,"transit":false},{"is_transit":false,"i_lat":-6.174784,"station_name":"Pasar Senen","time":8,"station_id":"PSE","i_long":106.84368,"transit":false,"line":11,"distance":1567},{"line":11,"i_long":106.839204,"station_id":"KMO","is_transit":false,"transit":false,"station_name":"Kemayoran","time":4,"distance":1436,"i_lat":-6.161728},{"distance":1901,"transit":false,"is_transit":false,"station_id":"RJW","line":11,"i_lat":-6.14505,"time":5,"i_long":106.836569,"station_name":"Rajawali"},{"time":3,"is_transit":true,"line":4,"distance":1444,"station_id":"KPB","transit":true,"i_long":106.826365,"station_name":"Kampung Bandan","i_lat":-6.132549},{"time":9,"transit":false,"station_name":"Angke","distance":4102,"is_transit":false,"i_long":106.79867,"line":1,"i_lat":-6.144674,"station_id":"AK"},{"transit":false,"i_long":106.800832,"is_transit":false,"time":4,"station_id":"DU","station_name":"Duri","i_lat":-6.155215,"distance":1230,"line":1},{"time":8,"i_lat":-6.185545,"distance":3632,"i_long":106.811091,"line":1,"station_name":"Tanah Abang","is_transit":true,"station_id":"THB","transit":true},{"time":6,"distance":3191,"station_id":"PLM","transit":false,"station_name":"Palmerah","i_lat":-6.207404,"is_transit":false,"i_long":106.79689,"line":6},{"time":7,"is_transit":false,"transit":false,"i_lat":-6.237242,"station_name":"Kebayoran","station_id":"KBY","line":6,"distance":3737,"i_long":106.780334},{"time":8,"station_id":"PDJ","transit":false,"i_long":106.74273,"station_name":"Pondokranji","line":6,"i_lat":-6.276362,"distance":6218,"is_transit":false},{"station_name":"Jurangmangu","i_long":106.728916,"is_transit":false,"time":3,"station_id":"JMU","transit":false,"line":6,"distance":2179,"i_lat":-6.288927},{"station_id":"SDM","is_transit":false,"station_name":"Sudimara","distance":1994,"i_lat":-6.296963,"i_long":106.712277,"transit":false,"time":4,"line":6},{"time":6,"station_name":"Rawa Buntu","is_transit":false,"station_id":"RU","distance":4566,"line":6,"transit":false,"i_long":106.675475,"i_lat":-6.314823},{"is_transit":false,"distance":2413,"time":4,"transit":false,"i_long":106.66566,"station_name":"Serpong","i_lat":-6.319871,"line":6,"station_id":"SRP"},{"station_name":"Cisauk","time":4,"i_lat":-6.32484,"is_transit":false,"station_id":"CSK","i_long":106.640411,"transit":false,"distance":1784,"line":3},{"line":3,"station_name":"Cicayur","transit":false,"station_id":"CC","distance":2519,"i_lat":-6.329547,"is_transit":false,"i_long":106.617853,"time":4},{"line":6,"time":8,"transit":false,"station_name":"Parung Panjang","distance":5968,"is_transit":false,"i_lat":-6.3441410000000005,"i_long":106.568863,"station_id":"PRP"},{"line":3,"transit":false,"i_long":106.508482,"is_transit":false,"station_id":"CJT","station_name":"Cilejit","i_lat":-6.354349,"time":9,"distance":7025}],[{"i_lat":-6.261877,"time":0,"station_id":"CIT","distance":0,"i_long":107.083084,"transit":false,"station_name":"Cibitung","line":1,"is_transit":false},{"time":3,"i_lat":-6.258864,"i_long":107.055722,"line":1,"station_name":"Tambun","is_transit":false,"distance":3420,"transit":false,"station_id":"TB"},{"i_lat":-6.248029,"line":1,"i_long":107.016735,"station_name":"Bekasi Timur","station_id":"BKST","is_transit":false,"distance":4460,"transit":false,"time":7},{"transit":false,"i_long":106.997013,"time":2,"station_name":"Bekasi","line":1,"distance":2368,"is_transit":false,"station_id":"BKS","i_lat":-6.236616},{"is_transit":false,"line":1,"i_lat":-6.224515,"station_name":"Kranji","transit":false,"station_id":"KRI","distance":2520,"time":4,"i_long":106.977657},{"i_lat":-6.219053,"station_id":"CUK","time":3,"station_name":"Cakung","i_long":106.951283,"line":1,"distance":3097,"is_transit":false,"transit":false},{"i_long":106.939679,"time":8,"is_transit":false,"transit":false,"i_lat":-6.217455,"line":1,"distance":1385,"station_name":"Klenderbaru","station_id":"KLDB"},{"time":1,"distance":1305,"station_id":"BUA","station_name":"Buaran","i_lat":-6.215568,"transit":false,"i_long":106.922662,"is_transit":false,"line":1},{"transit":false,"is_transit":false,"i_lat":-6.2135,"i_long":106.899548,"line":1,"time":2,"station_id":"KLD","distance":3100,"station_name":"Klender"},{"time":3,"i_long":106.86807400000001,"station_name":"Jatinegara","transit":false,"distance":3395,"line":1,"i_lat":-6.215091,"station_id":"JNG","is_transit":false},{"line":1,"i_long":106.858896,"station_id":"MTR","i_lat":-6.212485,"transit":false,"time":2,"station_name":"Matraman","distance":1377,"is_transit":false},{"line":2,"distance":1275,"station_name":"Manggarai","transit":true,"i_lat":-6.209883,"time":2,"is_transit":true,"i_long":106.84912,"station_id":"MRI"},{"is_transit":false,"i_lat":-6.198556,"line":2,"station_id":"CKI","transit":false,"time":4,"i_long":106.840169,"station_name":"Cikini","distance":1590},{"station_name":"Gondangdia","distance":1750,"transit":false,"i_lat":-6.186295,"i_long":106.832183,"is_transit":false,"station_id":"GDD","time":3,"line":2},{"transit":false,"distance":2015,"i_long":106.828284,"station_name":"Juanda","station_id":"JUA","time":4,"line":2,"is_transit":false,"i_lat":-6.166716},{"time":2,"transit":false,"i_long":106.827103,"station_id":"SW","station_name":"Sawah Besar","is_transit":false,"distance":1149,"i_lat":-6.160725,"line":2},{"station_id":"MGB","distance":906,"station_name":"Manggabesar","i_long":106.82482,"i_lat":-6.149769,"time":2,"line":2,"is_transit":false,"transit":false},{"line":2,"time":2,"distance":1080,"i_long":106.820901,"transit":false,"station_id":"JAY","station_name":"Jayakarta","i_lat":-6.141205,"is_transit":false},{"i_long":106.812439,"transit":true,"station_id":"JAKK","distance":1264,"line":2,"station_name":"Jakarta Kota","time":4,"is_transit":true,"i_lat":-6.137569},{"line":4,"i_long":106.826365,"transit":true,"is_transit":true,"time":3,"station_id":"KPB","station_name":"Kampung Bandan","i_lat":-6.132549,"distance":1364},{"transit":false,"line":1,"station_id":"AK","time":9,"station_name":"Angke","is_transit":false,"i_long":106.79867,"distance":4102,"i_lat":-6.144674},{"transit":false,"line":1,"distance":1230,"station_id":"DU","time":4,"is_transit":false,"i_lat":-6.155215,"i_long":106.800832,"station_name":"Duri"},{"is_transit":true,"i_long":106.811091,"station_id":"THB","transit":true,"distance":3632,"station_name":"Tanah Abang","line":1,"time":8,"i_lat":-6.185545},{"station_name":"Palmerah","transit":false,"station_id":"PLM","time":6,"distance":3191,"line":6,"i_long":106.79689,"i_lat":-6.207404,"is_transit":false},{"transit":false,"time":7,"is_transit":false,"station_id":"KBY","station_name":"Kebayoran","i_lat":-6.237242,"i_long":106.780334,"line":6,"distance":3737},{"is_transit":false,"i_long":106.74273,"transit":false,"line":6,"i_lat":-6.276362,"time":8,"station_name":"Pondokranji","distance":6218,"station_id":"PDJ"},{"distance":2179,"i_long":106.728916,"station_id":"JMU","is_transit":false,"line":6,"i_lat":-6.288927,"time":3,"transit":false,"station_name":"Jurangmangu"},{"station_id":"SDM","transit":false,"distance":1994,"i_lat":-6.296963,"i_long":106.712277,"line":6,"is_transit":false,"station_name":"Sudimara","time":4},{"i_lat":-6.314823,"is_transit":false,"line":6,"i_long":106.675475,"time":6,"transit":false,"station_id":"RU","station_name":"Rawa Buntu","distance":4566},{"transit":false,"i_lat":-6.319871,"line":6,"station_name":"Serpong","time":4,"i_long":106.66566,"distance":2413,"station_id":"SRP","is_transit":false},{"i_lat":-6.32484,"time":4,"station_name":"Cisauk","station_id":"CSK","transit":false,"distance":1784,"i_long":106.640411,"line":3,"is_transit":false},{"distance":2519,"station_id":"CC","i_long":106.617853,"station_name":"Cicayur","line":3,"time":4,"transit":false,"is_transit":false,"i_lat":-6.329547},{"is_transit":false,"i_lat":-6.3441410000000005,"transit":false,"i_long":106.568863,"distance":5968,"station_id":"PRP","station_name":"Parung Panjang","line":6,"time":8},{"station_name":"Cilejit","transit":false,"is_transit":false,"time":9,"station_id":"CJT","distance":7025,"i_lat":-6.354349,"i_long":106.508482,"line":3}],[{"time":0,"distance":0,"i_long":107.083084,"line":1,"is_transit":false,"station_name":"Cibitung","i_lat":-6.261877,"station_id":"CIT","transit":false},{"is_transit":false,"i_long":107.055722,"line":1,"time":3,"i_lat":-6.258864,"distance":3420,"station_id":"TB","station_name":"Tambun","transit":false},{"station_name":"Bekasi Timur","distance":4460,"transit":false,"i_long":107.016735,"station_id":"BKST","line":1,"time":7,"i_lat":-6.248029,"is_transit":false},{"line":1,"station_name":"Bekasi","is_transit":false,"distance":2368,"i_lat":-6.236616,"time":2,"i_long":106.997013,"station_id":"BKS","transit":false},{"line":1,"station_id":"KRI","i_lat":-6.224515,"transit":false,"is_transit":false,"i_long":106.977657,"station_name":"Kranji","distance":2520,"time":4},{"is_transit":false,"transit":false,"station_id":"CUK","i_lat":-6.219053,"distance":3097,"line":1,"time":3,"station_name":"Cakung","i_long":106.951283},{"station_name":"Klenderbaru","i_lat":-6.217455,"time":8,"i_long":106.939679,"line":1,"station_id":"KLDB","distance":1385,"is_transit":false,"transit":false},{"station_id":"BUA","station_name":"Buaran","i_long":106.922662,"transit":false,"is_transit":false,"line":1,"distance":1305,"i_lat":-6.215568,"time":1},{"i_long":106.899548,"station_id":"KLD","line":1,"transit":false,"i_lat":-6.2135,"distance":3100,"is_transit":false,"time":2,"station_name":"Klender"},{"line":1,"transit":true,"i_long":106.86807400000001,"i_lat":-6.215091,"station_name":"Jatinegara","time":3,"is_transit":true,"distance":3395,"station_id":"JNG"},{"i_long":106.861737,"is_transit":false,"station_id":"POK","line":11,"i_lat":-6.209188,"time":2,"distance":1236,"transit":false,"station_name":"Pondok Jati"},{"time":2,"is_transit":false,"i_long":106.855437,"distance":1829,"transit":false,"i_lat":-6.193792,"line":11,"station_id":"KMT","station_name":"Kramat"},{"i_lat":-6.185975,"station_id":"GST","time":1,"line":11,"transit":false,"station_name":"Gang Sentiong","is_transit":false,"distance":973,"i_long":106.850107},{"station_name":"Pasar Senen","is_transit":false,"station_id":"PSE","distance":1567,"transit":false,"line":11,"i_lat":-6.174784,"time":8,"i_long":106.84368},{"line":11,"is_transit":false,"transit":false,"i_long":106.839204,"station_id":"KMO","time":4,"distance":1436,"i_lat":-6.161728,"station_name":"Kemayoran"},{"station_id":"RJW","time":5,"transit":false,"is_transit":false,"i_lat":-6.14505,"station_name":"Rajawali","i_long":106.836569,"line":11,"distance":1901},{"station_id":"KPB","station_name":"Kampung Bandan","i_long":106.826365,"time":3,"transit":true,"distance":1444,"line":4,"is_transit":true,"i_lat":-6.132549},{"time":3,"distance":1364,"is_transit":true,"i_lat":-6.137569,"line":2,"station_id":"JAKK","i_long":106.812439,"station_name":"Jakarta Kota","transit":true},{"distance":1264,"i_lat":-6.141205,"i_long":106.820901,"station_id":"JAY","station_name":"Jayakarta","transit":false,"is_transit":false,"time":4,"line":2},{"station_name":"Manggabesar","i_lat":-6.149769,"distance":1080,"is_transit":false,"line":2,"time":2,"i_long":106.82482,"station_id":"MGB","transit":false},{"i_long":106.827103,"line":2,"time":2,"station_name":"Sawah Besar","distance":906,"is_transit":false,"i_lat":-6.160725,"transit":false,"station_id":"SW"},{"transit":false,"station_id":"JUA","line":2,"station_name":"Juanda","is_transit":false,"time":2,"i_lat":-6.166716,"distance":1149,"i_long":106.828284},{"i_lat":-6.186295,"line":2,"station_name":"Gondangdia","distance":2015,"station_id":"GDD","i_long":106.832183,"is_transit":false,"time":4,"transit":false},{"transit":false,"station_name":"Cikini","i_lat":-6.198556,"line":2,"is_transit":false,"distance":1750,"station_id":"CKI","i_long":106.840169,"time":3},{"distance":1590,"is_transit":true,"i_long":106.84912,"line":2,"transit":true,"station_id":"MRI","time":4,"i_lat":-6.209883,"station_name":"Manggarai"},{"station_id":"SUD","i_lat":-6.202263,"station_name":"Sudirman","i_long":106.822649,"is_transit":false,"transit":false,"line":1,"time":4,"distance":3186},{"station_name":"Sudirman Baru","transit":false,"station_id":"SUDB","i_long":106.819881,"distance":280,"line":1,"is_transit":false,"time":1,"i_lat":-6.201433},{"station_id":"KAT","time":1,"is_transit":false,"transit":false,"distance":471,"i_long":106.816351,"line":1,"i_lat":-6.20132,"station_name":"Karet"},{"station_name":"Tanah Abang","i_long":106.811091,"time":5,"line":1,"distance":2029,"is_transit":true,"i_lat":-6.185545,"transit":true,"station_id":"THB"},{"distance":3191,"time":6,"station_name":"Palmerah","is_transit":false,"station_id":"PLM","transit":false,"line":6,"i_long":106.79689,"i_lat":-6.207404},{"is_transit":false,"station_id":"KBY","station_name":"Kebayoran","distance":3737,"i_long":106.780334,"time":7,"transit":false,"i_lat":-6.237242,"line":6},{"time":8,"transit":false,"distance":6218,"i_long":106.74273,"line":6,"station_name":"Pondokranji","is_transit":false,"station_id":"PDJ","i_lat":-6.276362},{"station_id":"JMU","i_lat":-6.288927,"transit":false,"station_name":"Jurangmangu","line":6,"time":3,"distance":2179,"is_transit":false,"i_long":106.728916},{"distance":1994,"is_transit":false,"i_long":106.712277,"time":4,"station_id":"SDM","transit":false,"i_lat":-6.296963,"line":6,"station_name":"Sudimara"},{"i_long":106.675475,"distance":4566,"time":6,"is_transit":false,"line":6,"i_lat":-6.314823,"station_id":"RU","transit":false,"station_name":"Rawa Buntu"},{"transit":false,"time":4,"station_name":"Serpong","line":6,"distance":2413,"i_long":106.66566,"i_lat":-6.319871,"is_transit":false,"station_id":"SRP"},{"distance":1784,"time":4,"station_id":"CSK","line":3,"i_long":106.640411,"transit":false,"station_name":"Cisauk","is_transit":false,"i_lat":-6.32484},{"distance":2519,"time":4,"is_transit":false,"i_lat":-6.329547,"station_id":"CC","line":3,"station_name":"Cicayur","i_long":106.617853,"transit":false},{"time":8,"station_name":"Parung Panjang","i_long":106.568863,"station_id":"PRP","i_lat":-6.3441410000000005,"is_transit":false,"line":6,"transit":false,"distance":5968},{"i_long":106.508482,"line":3,"station_id":"CJT","distance":7025,"station_name":"Cilejit","transit":false,"time":9,"is_transit":false,"i_lat":-6.354349}]]}