{"data":[[{"time":0,"line":1,"is_transit":false,"station_id":"CIT","distance":0,"station_name":"Cibitung","i_long":107.083084,"i_lat":-6.261877,"transit":false},{"i_lat":-6.258864,"i_long":107.055722,"distance":3420,"time":3,"station_name":"Tambun","station_id":"TB","is_transit":false,"line":1,"transit":false},{"distance":4460,"time":7,"station_id":"BKST","is_transit":false,"i_long":107.016735,"transit":false,"station_name":"Bekasi Timur","line":1,"i_lat":-6.248029},{"station_name":"Bekasi","i_lat":-6.236616,"line":1,"i_long":106.997013,"is_transit":false,"station_id":"BKS","distance":2368,"time":2,"transit":false},{"i_lat":-6.224515,"line":1,"station_name":"Kranji","time":4,"station_id":"KRI","transit":false,"distance":2520,"is_transit":false,"i_long":106.977657},{"i_long":106.951283,"transit":false,"distance":3097,"time":3,"i_lat":-6.219053,"line":1,"station_name":"Cakung","station_id":"CUK","is_transit":false},{"i_lat":-6.217455,"i_long":106.939679,"station_id":"KLDB","is_transit":false,"line":1,"station_name":"Klenderbaru","time":8,"transit":false,"distance":1385},{"time":1,"distance":1305,"transit":false,"is_transit":false,"i_lat":-6.215568,"i_long":106.922662,"line":1,"station_name":"Buaran","station_id":"BUA"},{"station_name":"Klender","distance":3100,"i_lat":-6.2135,"time":2,"is_transit":false,"line":1,"station_id":"KLD","i_long":106.899548,"transit":false}]]}