{"data":[[{"station_id":"CIT","line":1,"station_name":"Cibitung","i_long":107.083084,"i_lat":-6.261877,"distance":0,"transit":false,"time":0,"is_transit":false},{"is_transit":false,"station_name":"Tambun","transit":false,"i_lat":-6.258864,"line":1,"distance":3420,"i_long":107.055722,"time":3,"station_id":"TB"},{"time":7,"line":1,"distance":4460,"i_long":107.016735,"station_name":"Bekasi Timur","station_id":"BKST","is_transit":false,"transit":false,"i_lat":-6.248029},{"station_id":"BKS","is_transit":false,"distance":2368,"time":2,"i_long":106.997013,"i_lat":-6.236616,"line":1,"station_name":"Bekasi","transit":false},{"transit":false,"distance":2520,"i_lat":-6.224515,"line":1,"station_name":"Kranji","station_id":"KRI","time":4,"i_long":106.977657,"is_transit":false},{"i_long":106.951283,"distance":3097,"station_id":"CUK","transit":false,"time":3,"is_transit":false,"i_lat":-6.219053,"station_name":"Cakung","line":1},{"distance":1385,"station_id":"KLDB","transit":false,"station_name":"Klenderbaru","time":8,"line":1,"i_lat":-6.217455,"is_transit":false,"i_long":106.939679},{"is_transit":false,"distance":1305,"station_id":"BUA","transit":false,"i_long":106.922662,"i_lat":-6.215568,"station_name":"Buaran","time":1,"line":1},{"transit":false,"line":1,"distance":3100,"station_id":"KLD","i_lat":-6.2135,"is_transit":false,"station_name":"Klender","i_long":106.899548,"time":2},{"station_name":"Jatinegara","line":1,"is_transit":true,"transit":true,"i_lat":-6.215091,"distance":3395,"time":3,"i_long":106.86807400000001,"station_id":"JNG"},{"line":11,"distance":1236,"station_name":"Pondok Jati","transit":false,"is_transit":false,"i_lat":-6.209188,"i_long":106.861737,"station_id":"POK","time":2},{"distance":1829,"i_long":106.855437,"transit":false,"station_id":"KMT","i_lat":-6.193792,"time":2,"station_name":"Kramat","is_transit":false,"line":11},{"station_name":"Gang Sentiong","time":1,"distance":973,"station_id":"GST","is_transit":false,"transit":false,"i_lat":-6.185975,"i_long":106.850107,"line":11},{"station_name":"Pasar Senen","distance":1567,"i_long":106.84368,"i_lat":-6.174784,"time":8,"station_id":"PSE","is_transit":false,"transit":false,"line":11},{"is_transit":false,"distance":1436,"i_long":106.839204,"transit":false,"station_name":"Kemayoran","i_lat":-6.161728,"line":11,"station_id":"KMO","time":4}],[{"distance":0,"is_transit":false,"station_name":"Cibitung","i_long":107.083084,"line":1,"transit":false,"time":0,"station_id":"CIT","i_lat":-6.261877},{"line":1,"transit":false,"i_lat":-6.258864,"is_transit":false,"time":3,"distance":3420,"station_id":"TB","station_name":"Tambun","i_long":107.055722},{"time":7,"line":1,"transit":false,"distance":4460,"station_id":"BKST","is_transit":false,"i_long":107.016735,"station_name":"Bekasi Timur","i_lat":-6.248029},{"line":1,"is_transit":false,"i_long":106.997013,"distance":2368,"station_id":"BKS","i_lat":-6.236616,"transit":false,"time":2,"station_name":"Bekasi"},{"distance":2520,"time":4,"is_transit":false,"i_lat":-6.224515,"transit":false,"station_id":"KRI","station_name":"Kranji","i_long":106.977657,"line":1},{"is_transit":false,"line":1,"transit":false,"distance":3097,"i_lat":-6.219053,"time":3,"station_name":"Cakung","station_id":"CUK","i_long":106.951283},{"time":8,"station_name":"Klenderbaru","line":1,"station_id":"KLDB","i_long":106.939679,"i_lat":-6.217455,"is_transit":false,"transit":false,"distance":1385},{"line":1,"transit":false,"station_name":"Buaran","time":1,"is_transit":false,"distance":1305,"i_lat":-6.215568,"i_long":106.922662,"station_id":"BUA"},{"station_name":"Klender","i_lat":-6.2135,"time":2,"station_id":"KLD","is_transit":false,"distance":3100,"i_long":106.899548,"transit":false,"line":1},{"i_lat":-6.215091,"station_id":"JNG","transit":false,"i_long":106.86807400000001,"line":1,"time":3,"distance":3395,"station_name":"Jatinegara","is_transit":false},{"distance":1377,"station_name":"Matraman","line":1,"i_lat":-6.212485,"is_transit":false,"time":2,"transit":false,"i_long":106.858896,"station_id":"MTR"},{"transit":false,"line":2,"station_id":"MRI","i_lat":-6.209883,"time":2,"distance":1275,"i_long":106.84912,"station_name":"Manggarai","is_transit":false},{"line":1,"station_id":"SUD","i_long":106.822649,"station_name":"Sudirman","transit":false,"is_transit":false,"time":4,"distance":3186,"i_lat":-6.202263},{"i_long":106.819881,"i_lat":-6.201433,"station_id":"SUDB","transit":false,"station_name":"Sudirman Baru","time":1,"line":1,"is_transit":false,"distance":280},{"distance":471,"station_name":"Karet","transit":false,"line":1,"station_id":"KAT","i_long":106.816351,"i_lat":-6.20132,"is_transit":false,"time":1},{"station_id":"THB","is_transit":false,"time":5,"distance":2029,"i_long":106.811091,"transit":false,"station_name":"Tanah Abang","line":1,"i_lat":-6.185545},{"transit":false,"time":8,"i_long":106.800832,"distance":3632,"station_name":"Duri","is_transit":false,"station_id":"DU","line":1,"i_lat":-6.155215},{"is_transit":false,"distance":1230,"i_long":106.79867,"line":1,"i_lat":-6.144674,"station_name":"Angke","time":4,"transit":false,"station_id":"AK"},{"station_id":"KPB","i_lat":-6.132549,"transit":true,"time":9,"is_transit":true,"i_long":106.826365,"line":4,"distance":4102,"station_name":"Kampung Bandan"},{"i_lat":-6.14505,"line":11,"distance":1444,"station_id":"RJW","i_long":106.836569,"is_transit":false,"transit":false,"station_name":"Rajawali","time":3},{"station_name":"Kemayoran","station_id":"KMO","time":5,"distance":1901,"is_transit":false,"transit":false,"i_lat":-6.161728,"line":11,"i_long":106.839204}],[{"time":0,"line":1,"i_long":107.083084,"station_id":"CIT","station_name":"Cibitung","distance":0,"transit":false,"i_lat":-6.261877,"is_transit":false},{"transit":false,"station_name":"Tambun","time":3,"i_lat":-6.258864,"is_transit":false,"distance":3420,"station_id":"TB","i_long":107.055722,"line":1},{"i_long":107.016735,"transit":false,"station_name":"Bekasi Timur","is_transit":false,"i_lat":-6.248029,"line":1,"station_id":"BKST","time":7,"distance":4460},{"i_long":106.997013,"station_name":"Bekasi","time":2,"distance":2368,"transit":false,"station_id":"BKS","i_lat":-6.236616,"is_transit":false,"line":1},{"station_name":"Kranji","station_id":"KRI","is_transit":false,"transit":false,"time":4,"distance":2520,"i_lat":-6.224515,"line":1,"i_long":106.977657},{"transit":false,"line":1,"is_transit":false,"time":3,"i_long":106.951283,"station_id":"CUK","distance":3097,"i_lat":-6.219053,"station_name":"Cakung"},{"station_id":"KLDB","distance":1385,"time":8,"station_name":"Klenderbaru","line":1,"i_long":106.939679,"transit":false,"is_transit":false,"i_lat":-6.217455},{"time":1,"i_long":106.922662,"station_name":"Buaran","i_lat":-6.215568,"is_transit":false,"transit":false,"station_id":"BUA","line":1,"distance":1305},{"i_long":106.899548,"i_lat":-6.2135,"line":1,"is_transit":false,"distance":3100,"station_id":"KLD","transit":false,"station_name":"Klender","time":2},{"i_long":106.86807400000001,"distance":3395,"i_lat":-6.215091,"is_transit":false,"station_id":"JNG","transit":false,"station_name":"Jatinegara","time":3,"line":1},{"time":2,"is_transit":false,"distance":1377,"transit":false,"station_name":"Matraman","station_id":"MTR","i_long":106.858896,"line":1,"i_lat":-6.212485},{"i_lat":-6.209883,"i_long":106.84912,"is_transit":true,"distance":1275,"line":2,"station_id":"MRI","station_name":"Manggarai","time":2,"transit":true},{"i_lat":-6.198556,"line":2,"distance":1590,"transit":false,"i_long":106.840169,"is_transit":false,"time":4,"station_name":"Cikini","station_id":"CKI"},{"i_long":106.832183,"is_transit":false,"distance":1750,"transit":false,"station_name":"Gondangdia","i_lat":-6.186295,"line":2,"time":3,"station_id":"GDD"},{"station_name":"Juanda","is_transit":false,"line":2,"transit":false,"i_long":106.828284,"distance":2015,"station_id":"JUA","i_lat":-6.166716,"time":4},{"i_lat":-6.160725,"distance":1149,"station_id":"SW","i_long":106.827103,"time":2,"transit":false,"line":2,"station_name":"Sawah Besar","is_transit":false},{"is_transit":false,"station_id":"MGB","time":2,"i_long":106.82482,"transit":false,"i_lat":-6.149769,"distance":906,"line":2,"station_name":"Manggabesar"},{"time":2,"station_name":"Jayakarta","distance":1080,"i_lat":-6.141205,"transit":false,"i_long":106.820901,"station_id":"JAY","is_transit":false,"line":2},{"is_transit":true,"i_lat":-6.137569,"transit":true,"time":4,"i_long":106.812439,"line":2,"distance":1264,"station_id":"JAKK","station_name":"Jakarta Kota"},{"i_lat":-6.132549,"station_name":"Kampung Bandan","i_long":106.826365,"is_transit":true,"station_id":"KPB","line":4,"distance":1364,"time":3,"transit":true},{"is_transit":false,"i_long":106.836569,"line":11,"time":3,"distance":1444,"transit":false,"station_name":"Rajawali","station_id":"RJW","i_lat":-6.14505},{"station_id":"KMO","line":11,"transit":false,"is_transit":false,"station_name":"Kemayoran","distance":1901,"time":5,"i_lat":-6.161728,"i_long":106.839204}]]}