{"data":[[{"is_transit":false,"transit":false,"station_id":"CIT","time":0,"line":0,"distance":0,"station_name":"Cibitung","i_lat":-6.261877,"i_long":107.083084},{"i_lat":-6.258864,"time":3,"line":1,"is_transit":false,"station_name":"Tambun","distance":3420,"i_long":107.055722,"transit":false,"station_id":"TB"},{"line":0,"i_long":107.016735,"transit":false,"i_lat":-6.248029,"station_id":"BKST","station_name":"Bekasi Timur","distance":4460,"is_transit":false,"time":7},{"i_lat":-6.236616,"is_transit":false,"line":0,"station_name":"Bekasi","time":2,"i_long":106.997013,"transit":false,"distance":2368,"station_id":"BKS"},{"distance":2520,"is_transit":false,"i_lat":-6.224515,"i_long":106.977657,"station_id":"KRI","time":4,"station_name":"Kranji","line":1,"transit":false},{"i_long":106.951283,"i_lat":-6.219053,"line":0,"transit":false,"station_id":"CUK","time":3,"distance":3097,"station_name":"Cakung","is_transit":false},{"i_long":106.939679,"line":1,"is_transit":false,"station_id":"KLDB","station_name":"Klenderbaru","transit":false,"i_lat":-6.217455,"distance":1385,"time":8},{"station_name":"Buaran","time":1,"distance":1305,"transit":false,"i_long":106.922662,"line":0,"station_id":"BUA","i_lat":-6.215568,"is_transit":false},{"is_transit":false,"line":1,"i_lat":-6.2135,"distance":3100,"transit":false,"station_id":"KLD","time":2,"i_long":106.899548,"station_name":"Klender"},{"i_long":106.86807400000001,"i_lat":-6.215091,"line":0,"transit":false,"station_id":"JNG","station_name":"Jatinegara","time":3,"is_transit":true,"distance":3395},{"station_name":"Matraman","i_lat":-6.212485,"time":2,"distance":1377,"line":1,"transit":false,"station_id":"MTR","i_long":106.858896,"is_transit":false},{"station_name":"Manggarai","time":2,"distance":1275,"line":0,"is_transit":true,"transit":true,"i_lat":-6.209883,"i_long":106.84912,"station_id":"MRI"},{"is_transit":false,"i_long":106.840169,"transit":false,"time":4,"i_lat":-6.198556,"line":0,"distance":1590,"station_name":"Cikini","station_id":"CKI"},{"line":2,"is_transit":false,"i_lat":-6.186295,"i_long":106.832183,"station_name":"Gondangdia","time":3,"distance":1750,"station_id":"GDD","transit":false}],[{"distance":0,"station_id":"CIT","transit":false,"station_name":"Cibitung","i_lat":-6.261877,"line":0,"time":0,"i_long":107.083084,"is_transit":false},{"station_name":"Tambun","is_transit":false,"i_long":107.055722,"station_id":"TB","distance":3420,"transit":false,"i_lat":-6.258864,"line":1,"time":3},{"transit":false,"station_name":"Bekasi Timur","line":0,"i_lat":-6.248029,"i_long":107.016735,"is_transit":false,"time":7,"distance":4460,"station_id":"BKST"},{"line":0,"time":2,"station_name":"Bekasi","distance":2368,"station_id":"BKS","is_transit":false,"i_long":106.997013,"i_lat":-6.236616,"transit":false},{"is_transit":false,"distance":2520,"time":4,"i_long":106.977657,"line":1,"station_id":"KRI","i_lat":-6.224515,"transit":false,"station_name":"Kranji"},{"i_lat":-6.219053,"line":0,"is_transit":false,"distance":3097,"station_name":"Cakung","i_long":106.951283,"transit":false,"station_id":"CUK","time":3},{"station_name":"Klenderbaru","line":1,"time":8,"i_long":106.939679,"transit":false,"is_transit":false,"distance":1385,"i_lat":-6.217455,"station_id":"KLDB"},{"distance":1305,"i_long":106.922662,"time":1,"line":0,"station_id":"BUA","is_transit":false,"i_lat":-6.215568,"transit":false,"station_name":"Buaran"},{"transit":false,"station_name":"Klender","i_long":106.899548,"line":1,"station_id":"KLD","is_transit":false,"distance":3100,"i_lat":-6.2135,"time":2},{"i_lat":-6.215091,"distance":3395,"line":0,"time":3,"i_long":106.86807400000001,"station_id":"JNG","transit":true,"station_name":"Jatinegara","is_transit":true},{"i_lat":-6.209188,"is_transit":false,"i_long":106.861737,"line":11,"transit":false,"station_name":"Pondok Jati","station_id":"POK","distance":1236,"time":2},{"station_name":"Kramat","line":11,"is_transit":false,"distance":1829,"i_long":106.855437,"station_id":"KMT","i_lat":-6.193792,"transit":false,"time":2},{"station_name":"Gang Sentiong","station_id":"GST","i_lat":-6.185975,"i_long":106.850107,"distance":973,"transit":false,"is_transit":false,"time":1,"line":11},{"station_name":"Pasar Senen","i_lat":-6.174784,"transit":false,"time":8,"i_long":106.84368,"distance":1567,"station_id":"PSE","line":11,"is_transit":false},{"station_id":"KMO","line":11,"i_lat":-6.161728,"time":4,"transit":false,"distance":1436,"i_long":106.839204,"station_name":"Kemayoran","is_transit":false},{"i_lat":-6.14505,"time":5,"line":11,"i_long":106.836569,"station_id":"RJW","station_name":"Rajawali","distance":1901,"transit":false,"is_transit":false},{"i_long":106.826365,"is_transit":true,"time":3,"station_id":"KPB","transit":true,"distance":1444,"line":0,"station_name":"Kampung Bandan","i_lat":-6.132549},{"line":0,"station_id":"JAKK","i_long":106.812439,"distance":1364,"is_transit":true,"i_lat":-6.137569,"time":3,"station_name":"Jakarta Kota","transit":true},{"is_transit":false,"distance":1264,"station_name":"Jayakarta","time":4,"transit":false,"i_long":106.820901,"line":7,"i_lat":-6.141205,"station_id":"JAY"},{"distance":1080,"i_lat":-6.149769,"station_name":"Manggabesar","transit":false,"station_id":"MGB","time":2,"i_long":106.82482,"line":2,"is_transit":false},{"station_id":"SW","line":2,"distance":906,"i_lat":-6.160725,"transit":false,"i_long":106.827103,"station_name":"Sawah Besar","time":2,"is_transit":false},{"is_transit":false,"transit":false,"station_id":"JUA","station_name":"Juanda","time":2,"i_lat":-6.166716,"i_long":106.828284,"distance":1149,"line":2},{"transit":false,"line":2,"time":4,"station_name":"Gondangdia","i_lat":-6.186295,"i_long":106.832183,"is_transit":false,"station_id":"GDD","distance":2015}],[{"i_lat":-6.261877,"distance":0,"station_id":"CIT","i_long":107.083084,"time":0,"is_transit":false,"transit":false,"station_name":"Cibitung","line":0},{"line":1,"station_name":"Tambun","i_long":107.055722,"i_lat":-6.258864,"transit":false,"station_id":"TB","time":3,"is_transit":false,"distance":3420},{"distance":4460,"line":0,"i_long":107.016735,"station_name":"Bekasi Timur","time":7,"station_id":"BKST","i_lat":-6.248029,"transit":false,"is_transit":false},{"distance":2368,"is_transit":false,"station_name":"Bekasi","line":0,"transit":false,"station_id":"BKS","i_lat":-6.236616,"i_long":106.997013,"time":2},{"transit":false,"time":4,"i_lat":-6.224515,"station_name":"Kranji","is_transit":false,"station_id":"KRI","i_long":106.977657,"line":1,"distance":2520},{"transit":false,"time":3,"station_name":"Cakung","i_lat":-6.219053,"station_id":"CUK","is_transit":false,"i_long":106.951283,"distance":3097,"line":0},{"transit":false,"i_long":106.939679,"distance":1385,"station_name":"Klenderbaru","is_transit":false,"time":8,"i_lat":-6.217455,"station_id":"KLDB","line":1},{"transit":false,"distance":1305,"station_id":"BUA","time":1,"i_lat":-6.215568,"station_name":"Buaran","i_long":106.922662,"line":0,"is_transit":false},{"i_long":106.899548,"time":2,"line":1,"station_name":"Klender","is_transit":false,"transit":false,"i_lat":-6.2135,"distance":3100,"station_id":"KLD"},{"distance":3395,"transit":false,"station_name":"Jatinegara","is_transit":true,"i_long":106.86807400000001,"line":0,"time":3,"i_lat":-6.215091,"station_id":"JNG"},{"transit":false,"station_name":"Matraman","i_lat":-6.212485,"line":1,"station_id":"MTR","is_transit":false,"time":2,"distance":1377,"i_long":106.858896},{"time":2,"station_id":"MRI","i_lat":-6.209883,"i_long":106.84912,"distance":1275,"is_transit":true,"line":0,"transit":false,"station_name":"Manggarai"},{"station_id":"SUD","transit":false,"time":4,"i_lat":-6.202263,"i_long":106.822649,"station_name":"Sudirman","distance":3186,"line":1,"is_transit":false},{"transit":false,"i_lat":-6.201433,"i_long":106.819881,"distance":280,"station_id":"SUDB","station_name":"Sudirman Baru","is_transit":false,"line":1,"time":1},{"i_long":106.816351,"time":1,"station_name":"Karet","transit":false,"line":1,"station_id":"KAT","distance":471,"i_lat":-6.20132,"is_transit":false},{"i_lat":-6.185545,"station_name":"Tanah Abang","transit":false,"line":1,"station_id":"THB","distance":2029,"i_long":106.811091,"is_transit":true,"time":5},{"transit":true,"station_id":"DU","is_transit":true,"distance":3632,"station_name":"Duri","i_lat":-6.155215,"i_long":106.800832,"line":1,"time":8},{"time":4,"transit":false,"distance":1230,"station_name":"Angke","i_long":106.79867,"line":0,"is_transit":false,"i_lat":-6.144674,"station_id":"AK"},{"line":0,"transit":false,"distance":4102,"station_name":"Kampung Bandan","station_id":"KPB","time":9,"is_transit":true,"i_long":106.826365,"i_lat":-6.132549},{"station_id":"JAKK","time":3,"i_lat":-6.137569,"line":0,"i_long":106.812439,"station_name":"Jakarta Kota","is_transit":true,"transit":true,"distance":1364},{"is_transit":false,"i_lat":-6.141205,"line":7,"station_id":"JAY","station_name":"Jayakarta","time":4,"distance":1264,"transit":false,"i_long":106.820901},{"is_transit":false,"i_long":106.82482,"line":2,"transit":false,"station_id":"MGB","station_name":"Manggabesar","time":2,"distance":1080,"i_lat":-6.149769},{"i_lat":-6.160725,"is_transit":false,"distance":906,"line":2,"time":2,"station_id":"SW","station_name":"Sawah Besar","transit":false,"i_long":106.827103},{"i_long":106.828284,"line":2,"distance":1149,"is_transit":false,"i_lat":-6.166716,"station_name":"Juanda","transit":false,"station_id":"JUA","time":2},{"i_long":106.832183,"station_name":"Gondangdia","is_transit":false,"i_lat":-6.186295,"line":2,"transit":false,"station_id":"GDD","time":4,"distance":2015}],[{"i_long":107.083084,"time":0,"distance":0,"station_id":"CIT","station_name":"Cibitung","i_lat":-6.261877,"is_transit":false,"line":0,"transit":false},{"station_name":"Tambun","is_transit":false,"time":3,"i_long":107.055722,"distance":3420,"station_id":"TB","line":1,"i_lat":-6.258864,"transit":false},{"distance":4460,"transit":false,"station_name":"Bekasi Timur","time":7,"station_id":"BKST","is_transit":false,"line":0,"i_long":107.016735,"i_lat":-6.248029},{"station_name":"Bekasi","time":2,"transit":false,"i_lat":-6.236616,"is_transit":false,"station_id":"BKS","i_long":106.997013,"line":0,"distance":2368},{"station_name":"Kranji","i_lat":-6.224515,"is_transit":false,"i_long":106.977657,"distance":2520,"station_id":"KRI","line":1,"time":4,"transit":false},{"station_name":"Cakung","is_transit":false,"transit":false,"time":3,"station_id":"CUK","distance":3097,"i_lat":-6.219053,"line":0,"i_long":106.951283},{"line":1,"transit":false,"is_transit":false,"i_long":106.939679,"time":8,"distance":1385,"i_lat":-6.217455,"station_name":"Klenderbaru","station_id":"KLDB"},{"distance":1305,"transit":false,"line":0,"is_transit":false,"station_name":"Buaran","time":1,"i_lat":-6.215568,"i_long":106.922662,"station_id":"BUA"},{"transit":false,"i_long":106.899548,"time":2,"is_transit":false,"station_name":"Klender","station_id":"KLD","distance":3100,"line":1,"i_lat":-6.2135},{"station_id":"JNG","is_transit":true,"station_name":"Jatinegara","transit":true,"time":3,"i_lat":-6.215091,"i_long":106.86807400000001,"distance":3395,"line":0},{"distance":1236,"line":11,"i_lat":-6.209188,"transit":false,"station_name":"Pondok Jati","is_transit":false,"time":2,"station_id":"POK","i_long":106.861737},{"distance":1829,"line":11,"i_long":106.855437,"station_id":"KMT","i_lat":-6.193792,"time":2,"station_name":"Kramat","is_transit":false,"transit":false},{"is_transit":false,"station_id":"GST","i_lat":-6.185975,"i_long":106.850107,"time":1,"distance":973,"line":11,"station_name":"Gang Sentiong","transit":false},{"station_id":"PSE","is_transit":false,"station_name":"Pasar Senen","transit":false,"line":11,"i_long":106.84368,"distance":1567,"time":8,"i_lat":-6.174784},{"distance":1436,"i_long":106.839204,"is_transit":false,"time":4,"station_name":"Kemayoran","i_lat":-6.161728,"transit":false,"line":11,"station_id":"KMO"},{"is_transit":false,"time":5,"station_name":"Rajawali","distance":1901,"i_lat":-6.14505,"station_id":"RJW","transit":false,"i_long":106.836569,"line":11},{"transit":true,"station_id":"KPB","is_transit":true,"i_lat":-6.132549,"line":0,"station_name":"Kampung Bandan","time":3,"distance":1444,"i_long":106.826365},{"i_long":106.79867,"station_id":"AK","time":9,"transit":false,"distance":4102,"is_transit":false,"line":0,"station_name":"Angke","i_lat":-6.144674},{"line":1,"is_transit":true,"transit":true,"station_name":"Duri","i_lat":-6.155215,"i_long":106.800832,"station_id":"DU","time":4,"distance":1230},{"i_long":106.811091,"line":1,"time":8,"station_name":"Tanah Abang","i_lat":-6.185545,"is_transit":true,"transit":false,"station_id":"THB","distance":3632},{"transit":false,"is_transit":false,"line":1,"distance":2029,"i_long":106.816351,"i_lat":-6.20132,"station_id":"KAT","time":5,"station_name":"Karet"},{"station_name":"Sudirman Baru","time":1,"i_lat":-6.201433,"transit":false,"station_id":"SUDB","distance":471,"line":1,"is_transit":false,"i_long":106.819881},{"transit":false,"station_id":"SUD","i_lat":-6.202263,"line":1,"station_name":"Sudirman","i_long":106.822649,"is_transit":false,"time":1,"distance":280},{"station_name":"Manggarai","time":4,"distance":3186,"transit":true,"line":0,"station_id":"MRI","is_transit":true,"i_lat":-6.209883,"i_long":106.84912},{"is_transit":false,"time":4,"i_long":106.840169,"station_name":"Cikini","transit":false,"line":0,"i_lat":-6.198556,"station_id":"CKI","distance":1590},{"i_lat":-6.186295,"distance":1750,"time":3,"line":2,"station_name":"Gondangdia","station_id":"GDD","transit":false,"is_transit":false,"i_long":106.832183}]]}