{"data":[[{"i_lat":-6.261877,"line":1,"transit":false,"station_id":"CIT","is_transit":false,"i_long":107.083084,"time":0,"distance":0,"station_name":"Cibitung"},{"is_transit":false,"i_long":107.055722,"line":1,"time":3,"i_lat":-6.258864,"station_id":"TB","transit":false,"station_name":"Tambun","distance":3420},{"is_transit":false,"transit":false,"station_id":"BKST","distance":4460,"station_name":"Bekasi Timur","line":1,"time":7,"i_long":107.016735,"i_lat":-6.248029},{"line":1,"station_id":"BKS","i_long":106.997013,"station_name":"Bekasi","transit":false,"is_transit":false,"time":2,"i_lat":-6.236616,"distance":2368},{"station_id":"KRI","is_transit":false,"station_name":"Kranji","i_lat":-6.224515,"time":4,"line":1,"distance":2520,"i_long":106.977657,"transit":false},{"i_long":106.951283,"distance":3097,"time":3,"line":1,"transit":false,"i_lat":-6.219053,"is_transit":false,"station_id":"CUK","station_name":"Cakung"},{"distance":1385,"transit":false,"is_transit":false,"station_name":"Klenderbaru","i_long":106.939679,"time":8,"i_lat":-6.217455,"line":1,"station_id":"KLDB"},{"transit":false,"is_transit":false,"station_name":"Buaran","distance":1305,"i_long":106.922662,"line":1,"time":1,"station_id":"BUA","i_lat":-6.215568},{"station_name":"Klender","transit":false,"is_transit":false,"i_long":106.899548,"distance":3100,"i_lat":-6.2135,"line":1,"time":2,"station_id":"KLD"},{"time":3,"line":1,"distance":3395,"i_long":106.86807400000001,"i_lat":-6.215091,"station_name":"Jatinegara","transit":false,"station_id":"JNG","is_transit":false},{"station_name":"Matraman","transit":false,"line":1,"station_id":"MTR","distance":1377,"is_transit":false,"time":2,"i_lat":-6.212485,"i_long":106.858896},{"time":2,"i_lat":-6.209883,"station_name":"Manggarai","distance":1275,"station_id":"MRI","is_transit":false,"line":2,"transit":false,"i_long":106.84912},{"station_name":"Sudirman","i_long":106.822649,"station_id":"SUD","line":1,"is_transit":false,"i_lat":-6.202263,"time":4,"transit":false,"distance":3186},{"distance":280,"time":1,"station_name":"Sudirman Baru","station_id":"SUDB","i_lat":-6.201433,"line":1,"i_long":106.819881,"transit":false,"is_transit":false},{"transit":false,"i_lat":-6.20132,"i_long":106.816351,"distance":471,"is_transit":false,"station_name":"Karet","station_id":"KAT","time":1,"line":1},{"is_transit":false,"transit":false,"station_id":"THB","i_long":106.811091,"time":5,"line":1,"i_lat":-6.185545,"station_name":"Tanah Abang","distance":2029},{"station_id":"DU","is_transit":true,"i_lat":-6.155215,"station_name":"Duri","line":1,"i_long":106.800832,"time":8,"transit":true,"distance":3632},{"i_long":106.788277,"transit":false,"station_id":"GGL","distance":1700,"time":3,"i_lat":-6.162021,"line":5,"station_name":"Grogol","is_transit":false},{"station_name":"Pesing","is_transit":false,"line":5,"transit":false,"i_lat":-6.161433,"time":2,"i_long":106.771379,"distance":2036,"station_id":"PSG"},{"transit":false,"time":2,"i_long":106.756522,"distance":1614,"station_name":"Taman Kota","line":5,"i_lat":-6.1587309999999995,"station_id":"TKO","is_transit":false},{"time":2,"station_name":"Bojongindah","i_long":106.737035,"transit":false,"station_id":"BOI","is_transit":false,"distance":2334,"line":5,"i_lat":-6.159876},{"time":4,"station_id":"RW","distance":1152,"i_long":106.723064,"line":5,"is_transit":false,"i_lat":-6.162758,"transit":false,"station_name":"Rawa Buaya"}],[{"time":0,"is_transit":false,"distance":0,"line":1,"station_name":"Cibitung","i_lat":-6.261877,"station_id":"CIT","i_long":107.083084,"transit":false},{"transit":false,"station_name":"Tambun","time":3,"is_transit":false,"i_lat":-6.258864,"i_long":107.055722,"line":1,"distance":3420,"station_id":"TB"},{"is_transit":false,"distance":4460,"station_id":"BKST","i_lat":-6.248029,"time":7,"i_long":107.016735,"station_name":"Bekasi Timur","transit":false,"line":1},{"is_transit":false,"line":1,"transit":false,"station_id":"BKS","distance":2368,"time":2,"station_name":"Bekasi","i_lat":-6.236616,"i_long":106.997013},{"i_lat":-6.224515,"time":4,"transit":false,"distance":2520,"station_name":"Kranji","station_id":"KRI","is_transit":false,"i_long":106.977657,"line":1},{"time":3,"line":1,"station_name":"Cakung","station_id":"CUK","is_transit":false,"transit":false,"i_long":106.951283,"distance":3097,"i_lat":-6.219053},{"i_long":106.939679,"i_lat":-6.217455,"is_transit":false,"distance":1385,"station_name":"Klenderbaru","line":1,"station_id":"KLDB","transit":false,"time":8},{"is_transit":false,"station_id":"BUA","transit":false,"distance":1305,"time":1,"station_name":"Buaran","i_long":106.922662,"i_lat":-6.215568,"line":1},{"distance":3100,"i_lat":-6.2135,"is_transit":false,"time":2,"transit":false,"station_name":"Klender","i_long":106.899548,"line":1,"station_id":"KLD"},{"i_long":106.86807400000001,"time":3,"i_lat":-6.215091,"is_transit":true,"distance":3395,"line":1,"station_id":"JNG","station_name":"Jatinegara","transit":true},{"line":11,"station_id":"POK","i_lat":-6.209188,"distance":1236,"is_transit":false,"station_name":"Pondok Jati","transit":false,"time":2,"i_long":106.861737},{"i_long":106.855437,"time":2,"line":11,"station_id":"KMT","is_transit":false,"station_name":"Kramat","distance":1829,"i_lat":-6.193792,"transit":false},{"station_name":"Gang Sentiong","time":1,"line":11,"i_long":106.850107,"station_id":"GST","is_transit":false,"i_lat":-6.185975,"transit":false,"distance":973},{"distance":1567,"transit":false,"i_lat":-6.174784,"station_name":"Pasar Senen","is_transit":false,"time":8,"line":11,"station_id":"PSE","i_long":106.84368},{"i_lat":-6.161728,"station_id":"KMO","line":11,"is_transit":false,"time":4,"station_name":"Kemayoran","distance":1436,"transit":false,"i_long":106.839204},{"transit":false,"station_name":"Rajawali","distance":1901,"is_transit":false,"time":5,"i_long":106.836569,"station_id":"RJW","line":11,"i_lat":-6.14505},{"i_long":106.826365,"line":4,"distance":1444,"is_transit":true,"station_name":"Kampung Bandan","station_id":"KPB","time":3,"i_lat":-6.132549,"transit":true},{"i_long":106.79867,"distance":4102,"station_name":"Angke","line":1,"i_lat":-6.144674,"is_transit":false,"time":9,"station_id":"AK","transit":false},{"line":1,"i_long":106.800832,"distance":1230,"is_transit":true,"station_name":"Duri","station_id":"DU","i_lat":-6.155215,"transit":true,"time":4},{"transit":false,"line":5,"i_lat":-6.162021,"station_id":"GGL","is_transit":false,"distance":1700,"station_name":"Grogol","i_long":106.788277,"time":3},{"i_long":106.771379,"i_lat":-6.161433,"station_name":"Pesing","time":2,"line":5,"station_id":"PSG","is_transit":false,"distance":2036,"transit":false},{"is_transit":false,"i_lat":-6.1587309999999995,"line":5,"station_name":"Taman Kota","i_long":106.756522,"time":2,"distance":1614,"transit":false,"station_id":"TKO"},{"i_lat":-6.159876,"time":2,"distance":2334,"station_name":"Bojongindah","transit":false,"station_id":"BOI","is_transit":false,"line":5,"i_long":106.737035},{"transit":false,"i_long":106.723064,"line":5,"time":4,"station_id":"RW","distance":1152,"is_transit":false,"i_lat":-6.162758,"station_name":"Rawa Buaya"}],[{"station_id":"CIT","time":0,"i_long":107.083084,"transit":false,"i_lat":-6.261877,"station_name":"Cibitung","line":1,"distance":0,"is_transit":false},{"station_id":"TB","i_long":107.055722,"station_name":"Tambun","time":3,"distance":3420,"line":1,"i_lat":-6.258864,"transit":false,"is_transit":false},{"time":7,"station_name":"Bekasi Timur","distance":4460,"is_transit":false,"i_lat":-6.248029,"i_long":107.016735,"station_id":"BKST","transit":false,"line":1},{"station_id":"BKS","time":2,"line":1,"transit":false,"is_transit":false,"i_lat":-6.236616,"station_name":"Bekasi","i_long":106.997013,"distance":2368},{"line":1,"i_long":106.977657,"station_id":"KRI","station_name":"Kranji","time":4,"transit":false,"distance":2520,"i_lat":-6.224515,"is_transit":false},{"i_long":106.951283,"station_id":"CUK","transit":false,"line":1,"station_name":"Cakung","time":3,"i_lat":-6.219053,"distance":3097,"is_transit":false},{"is_transit":false,"line":1,"transit":false,"station_id":"KLDB","distance":1385,"time":8,"i_long":106.939679,"station_name":"Klenderbaru","i_lat":-6.217455},{"distance":1305,"i_long":106.922662,"transit":false,"is_transit":false,"line":1,"time":1,"station_name":"Buaran","i_lat":-6.215568,"station_id":"BUA"},{"i_lat":-6.2135,"is_transit":false,"line":1,"time":2,"distance":3100,"i_long":106.899548,"station_id":"KLD","transit":false,"station_name":"Klender"},{"station_id":"JNG","time":3,"i_long":106.86807400000001,"distance":3395,"line":1,"is_transit":false,"transit":false,"i_lat":-6.215091,"station_name":"Jatinegara"},{"station_id":"MTR","line":1,"transit":false,"station_name":"Matraman","i_long":106.858896,"i_lat":-6.212485,"is_transit":false,"time":2,"distance":1377},{"station_name":"Manggarai","station_id":"MRI","i_long":106.84912,"distance":1275,"time":2,"transit":true,"line":2,"i_lat":-6.209883,"is_transit":true},{"station_name":"Cikini","is_transit":false,"i_lat":-6.198556,"distance":1590,"transit":false,"i_long":106.840169,"line":2,"station_id":"CKI","time":4},{"i_long":106.832183,"distance":1750,"i_lat":-6.186295,"line":2,"transit":false,"is_transit":false,"time":3,"station_name":"Gondangdia","station_id":"GDD"},{"station_id":"JUA","station_name":"Juanda","transit":false,"is_transit":false,"i_long":106.828284,"time":4,"i_lat":-6.166716,"line":2,"distance":2015},{"is_transit":false,"station_name":"Sawah Besar","station_id":"SW","distance":1149,"i_long":106.827103,"line":2,"i_lat":-6.160725,"transit":false,"time":2},{"i_lat":-6.149769,"station_name":"Manggabesar","i_long":106.82482,"distance":906,"station_id":"MGB","is_transit":false,"time":2,"transit":false,"line":2},{"distance":1080,"i_lat":-6.141205,"i_long":106.820901,"time":2,"is_transit":false,"line":2,"transit":false,"station_name":"Jayakarta","station_id":"JAY"},{"i_long":106.812439,"line":2,"station_name":"Jakarta Kota","distance":1264,"transit":true,"i_lat":-6.137569,"station_id":"JAKK","is_transit":true,"time":4},{"line":4,"transit":true,"station_name":"Kampung Bandan","station_id":"KPB","time":3,"i_lat":-6.132549,"distance":1364,"is_transit":true,"i_long":106.826365},{"transit":false,"is_transit":false,"station_id":"AK","time":9,"i_long":106.79867,"distance":4102,"station_name":"Angke","line":1,"i_lat":-6.144674},{"i_long":106.800832,"station_id":"DU","transit":true,"is_transit":true,"distance":1230,"i_lat":-6.155215,"line":1,"time":4,"station_name":"Duri"},{"line":5,"distance":1700,"station_name":"Grogol","is_transit":false,"time":3,"i_long":106.788277,"station_id":"GGL","i_lat":-6.162021,"transit":false},{"station_name":"Pesing","is_transit":false,"station_id":"PSG","i_lat":-6.161433,"line":5,"distance":2036,"transit":false,"i_long":106.771379,"time":2},{"line":5,"time":2,"distance":1614,"station_id":"TKO","is_transit":false,"station_name":"Taman Kota","i_long":106.756522,"i_lat":-6.1587309999999995,"transit":false},{"station_id":"BOI","is_transit":false,"station_name":"Bojongindah","transit":false,"i_long":106.737035,"time":2,"i_lat":-6.159876,"distance":2334,"line":5},{"is_transit":false,"station_id":"RW","station_name":"Rawa Buaya","distance":1152,"i_long":106.723064,"transit":false,"time":4,"line":5,"i_lat":-6.162758}],[{"i_long":107.083084,"station_id":"CIT","distance":0,"time":0,"station_name":"Cibitung","line":1,"transit":false,"is_transit":false,"i_lat":-6.261877},{"line":1,"distance":3420,"i_long":107.055722,"transit":false,"station_name":"Tambun","is_transit":false,"station_id":"TB","i_lat":-6.258864,"time":3},{"line":1,"is_transit":false,"distance":4460,"time":7,"station_name":"Bekasi Timur","transit":false,"i_lat":-6.248029,"i_long":107.016735,"station_id":"BKST"},{"is_transit":false,"transit":false,"distance":2368,"i_lat":-6.236616,"station_id":"BKS","station_name":"Bekasi","line":1,"i_long":106.997013,"time":2},{"distance":2520,"transit":false,"station_name":"Kranji","i_long":106.977657,"station_id":"KRI","is_transit":false,"i_lat":-6.224515,"time":4,"line":1},{"distance":3097,"time":3,"station_id":"CUK","transit":false,"is_transit":false,"i_long":106.951283,"i_lat":-6.219053,"station_name":"Cakung","line":1},{"transit":false,"station_name":"Klenderbaru","i_long":106.939679,"i_lat":-6.217455,"is_transit":false,"station_id":"KLDB","line":1,"time":8,"distance":1385},{"station_name":"Buaran","i_long":106.922662,"line":1,"i_lat":-6.215568,"time":1,"distance":1305,"is_transit":false,"transit":false,"station_id":"BUA"},{"i_long":106.899548,"line":1,"transit":false,"station_name":"Klender","station_id":"KLD","time":2,"i_lat":-6.2135,"is_transit":false,"distance":3100},{"is_transit":true,"time":3,"i_long":106.86807400000001,"i_lat":-6.215091,"station_name":"Jatinegara","line":1,"station_id":"JNG","distance":3395,"transit":true},{"transit":false,"line":11,"time":2,"i_lat":-6.209188,"station_name":"Pondok Jati","station_id":"POK","is_transit":false,"distance":1236,"i_long":106.861737},{"time":2,"i_lat":-6.193792,"is_transit":false,"station_name":"Kramat","station_id":"KMT","i_long":106.855437,"distance":1829,"transit":false,"line":11},{"is_transit":false,"line":11,"time":1,"station_name":"Gang Sentiong","transit":false,"distance":973,"i_lat":-6.185975,"i_long":106.850107,"station_id":"GST"},{"station_id":"PSE","transit":false,"is_transit":false,"i_lat":-6.174784,"time":8,"distance":1567,"i_long":106.84368,"station_name":"Pasar Senen","line":11},{"is_transit":false,"i_lat":-6.161728,"station_name":"Kemayoran","distance":1436,"transit":false,"station_id":"KMO","time":4,"i_long":106.839204,"line":11},{"i_lat":-6.14505,"i_long":106.836569,"time":5,"station_id":"RJW","is_transit":false,"transit":false,"line":11,"distance":1901,"station_name":"Rajawali"},{"station_name":"Kampung Bandan","distance":1444,"i_lat":-6.132549,"line":4,"time":3,"i_long":106.826365,"transit":true,"station_id":"KPB","is_transit":true},{"distance":1364,"time":3,"station_id":"JAKK","i_long":106.812439,"i_lat":-6.137569,"is_transit":true,"transit":true,"station_name":"Jakarta Kota","line":2},{"station_name":"Jayakarta","i_lat":-6.141205,"i_long":106.820901,"station_id":"JAY","transit":false,"line":2,"is_transit":false,"time":4,"distance":1264},{"transit":false,"line":2,"time":2,"distance":1080,"i_long":106.82482,"i_lat":-6.149769,"is_transit":false,"station_id":"MGB","station_name":"Manggabesar"},{"transit":false,"line":2,"station_id":"SW","time":2,"i_lat":-6.160725,"i_long":106.827103,"station_name":"Sawah Besar","is_transit":false,"distance":906},{"transit":false,"line":2,"time":2,"station_id":"JUA","i_lat":-6.166716,"i_long":106.828284,"is_transit":false,"distance":1149,"station_name":"Juanda"},{"station_id":"GDD","is_transit":false,"distance":2015,"time":4,"station_name":"Gondangdia","i_lat":-6.186295,"transit":false,"i_long":106.832183,"line":2},{"time":3,"station_name":"Cikini","line":2,"i_long":106.840169,"transit":false,"i_lat":-6.198556,"station_id":"CKI","distance":1750,"is_transit":false},{"i_long":106.84912,"distance":1590,"line":2,"station_name":"Manggarai","transit":true,"time":4,"station_id":"MRI","is_transit":true,"i_lat":-6.209883},{"station_id":"SUD","i_long":106.822649,"is_transit":false,"i_lat":-6.202263,"station_name":"Sudirman","transit":false,"time":4,"distance":3186,"line":1},{"distance":280,"station_name":"Sudirman Baru","transit":false,"line":1,"i_long":106.819881,"is_transit":false,"station_id":"SUDB","time":1,"i_lat":-6.201433},{"distance":471,"i_lat":-6.20132,"line":1,"is_transit":false,"station_id":"KAT","time":1,"station_name":"Karet","i_long":106.816351,"transit":false},{"station_id":"THB","time":5,"i_lat":-6.185545,"is_transit":false,"station_name":"Tanah Abang","transit":false,"distance":2029,"i_long":106.811091,"line":1},{"transit":true,"time":8,"line":1,"distance":3632,"station_id":"DU","station_name":"Duri","is_transit":true,"i_lat":-6.155215,"i_long":106.800832},{"i_long":106.788277,"is_transit":false,"time":3,"station_id":"GGL","station_name":"Grogol","line":5,"i_lat":-6.162021,"distance":1700,"transit":false},{"i_long":106.771379,"line":5,"transit":false,"distance":2036,"time":2,"station_id":"PSG","is_transit":false,"station_name":"Pesing","i_lat":-6.161433},{"station_name":"Taman Kota","distance":1614,"time":2,"is_transit":false,"i_long":106.756522,"transit":false,"i_lat":-6.1587309999999995,"line":5,"station_id":"TKO"},{"is_transit":false,"transit":false,"i_long":106.737035,"line":5,"station_id":"BOI","i_lat":-6.159876,"distance":2334,"time":2,"station_name":"Bojongindah"},{"time":4,"station_name":"Rawa Buaya","i_long":106.723064,"is_transit":false,"line":5,"distance":1152,"i_lat":-6.162758,"station_id":"RW","transit":false}]]}