{"data":[[{"i_lat":-6.261877,"station_id":"CIT","distance":0,"line":1,"is_transit":false,"transit":false,"time":0,"i_long":107.083084,"station_name":"Cibitung"},{"i_long":107.055722,"transit":false,"is_transit":false,"distance":3420,"i_lat":-6.258864,"time":3,"line":1,"station_id":"TB","station_name":"Tambun"},{"time":7,"distance":4460,"is_transit":false,"i_long":107.016735,"station_id":"BKST","line":1,"i_lat":-6.248029,"station_name":"Bekasi Timur","transit":false},{"line":1,"is_transit":false,"station_name":"Bekasi","station_id":"BKS","time":2,"transit":false,"distance":2368,"i_long":106.997013,"i_lat":-6.236616},{"distance":2520,"transit":false,"time":4,"line":1,"station_name":"Kranji","i_long":106.977657,"i_lat":-6.224515,"is_transit":false,"station_id":"KRI"},{"i_lat":-6.219053,"time":3,"is_transit":false,"distance":3097,"transit":false,"i_long":106.951283,"station_name":"Cakung","line":1,"station_id":"CUK"},{"station_id":"KLDB","transit":false,"time":8,"i_lat":-6.217455,"station_name":"Klenderbaru","distance":1385,"is_transit":false,"i_long":106.939679,"line":1},{"station_id":"BUA","is_transit":false,"distance":1305,"i_long":106.922662,"line":1,"time":1,"transit":false,"station_name":"Buaran","i_lat":-6.215568},{"time":2,"transit":false,"station_name":"Klender","is_transit":false,"distance":3100,"i_long":106.899548,"station_id":"KLD","i_lat":-6.2135,"line":1},{"station_name":"Jatinegara","time":3,"transit":false,"i_lat":-6.215091,"station_id":"JNG","i_long":106.86807400000001,"distance":3395,"line":1,"is_transit":false},{"line":1,"i_lat":-6.212485,"is_transit":false,"station_name":"Matraman","transit":false,"time":2,"station_id":"MTR","distance":1377,"i_long":106.858896},{"is_transit":true,"i_long":106.84912,"time":2,"station_id":"MRI","line":2,"distance":1275,"transit":true,"i_lat":-6.209883,"station_name":"Manggarai"},{"i_lat":-6.226659,"line":2,"transit":false,"time":4,"station_name":"Tebet","distance":2610,"is_transit":false,"station_id":"TEB","i_long":106.857948},{"is_transit":false,"station_id":"CW","station_name":"Cawang","line":2,"transit":false,"i_long":106.856607,"distance":1230,"time":2,"i_lat":-6.242512},{"station_name":"Duren Kalibata","time":3,"i_lat":-6.255332,"is_transit":false,"distance":1546,"transit":false,"station_id":"DRN","i_long":106.85449,"line":2},{"i_lat":-6.263214,"transit":false,"station_id":"PSMB","station_name":"Pasar Minggu Baru","line":2,"is_transit":false,"time":2,"i_long":106.851577,"distance":824},{"distance":2380,"transit":false,"time":2,"i_long":106.843999,"station_name":"Pasar Minggu","station_id":"PSM","i_lat":-6.2842400000000005,"is_transit":false,"line":2},{"i_lat":-6.3080680000000005,"i_long":106.838896,"line":2,"transit":false,"station_name":"Tanjung Barat","station_id":"TNT","distance":2820,"is_transit":false,"time":4},{"line":2,"time":3,"transit":false,"station_id":"LNA","is_transit":false,"i_long":106.832616,"station_name":"Lenteng Agung","distance":2671,"i_lat":-6.330363},{"is_transit":false,"time":2,"i_lat":-6.339291,"i_long":106.834175,"line":2,"transit":false,"station_name":"Univ. Pancasila","station_id":"UP","distance":1029},{"distance":2264,"station_id":"UI","station_name":"Univ. Indonesia","transit":false,"i_lat":-6.360749,"line":2,"time":3,"is_transit":false,"i_long":106.831474},{"line":2,"distance":1109,"time":2,"i_lat":-6.369073,"station_name":"Pondok Cina","station_id":"POC","i_long":106.831114,"transit":false,"is_transit":false},{"line":2,"station_id":"DPB","time":4,"i_long":106.819451,"transit":false,"distance":2727,"is_transit":false,"i_lat":-6.391065,"station_name":"Depokbaru"},{"line":2,"station_name":"Depok","i_lat":-6.405256,"time":3,"i_long":106.816926,"distance":1584,"station_id":"DP","transit":false,"is_transit":false},{"i_lat":-6.448811,"is_transit":true,"line":2,"station_name":"Citayam","i_long":106.800298,"time":6,"transit":true,"station_id":"CTA","distance":5084},{"i_long":106.824374,"time":0,"station_name":"Pondok Rajeg","is_transit":false,"station_id":"PDRG","transit":false,"i_lat":-6.460735,"distance":0,"line":21},{"is_transit":false,"line":21,"station_id":"CBN","time":0,"station_name":"Cibinong","distance":0,"i_lat":-6.46424,"i_long":106.851978,"transit":false},{"station_name":"Nambo","is_transit":false,"line":21,"i_long":106.905196,"time":10,"distance":6527,"station_id":"NMO","transit":false,"i_lat":-6.466285}],[{"station_id":"CIT","station_name":"Cibitung","i_lat":-6.261877,"transit":false,"time":0,"distance":0,"is_transit":false,"i_long":107.083084,"line":1},{"station_name":"Tambun","time":3,"i_long":107.055722,"line":1,"is_transit":false,"distance":3420,"i_lat":-6.258864,"transit":false,"station_id":"TB"},{"i_lat":-6.248029,"line":1,"distance":4460,"station_name":"Bekasi Timur","i_long":107.016735,"station_id":"BKST","is_transit":false,"time":7,"transit":false},{"time":2,"i_long":106.997013,"i_lat":-6.236616,"distance":2368,"is_transit":false,"line":1,"transit":false,"station_name":"Bekasi","station_id":"BKS"},{"distance":2520,"line":1,"time":4,"transit":false,"station_name":"Kranji","is_transit":false,"i_lat":-6.224515,"station_id":"KRI","i_long":106.977657},{"line":1,"station_name":"Cakung","i_lat":-6.219053,"distance":3097,"time":3,"transit":false,"is_transit":false,"i_long":106.951283,"station_id":"CUK"},{"i_lat":-6.217455,"station_name":"Klenderbaru","is_transit":false,"transit":false,"station_id":"KLDB","distance":1385,"line":1,"i_long":106.939679,"time":8},{"line":1,"is_transit":false,"transit":false,"distance":1305,"time":1,"i_lat":-6.215568,"i_long":106.922662,"station_name":"Buaran","station_id":"BUA"},{"transit":false,"distance":3100,"station_id":"KLD","time":2,"i_lat":-6.2135,"i_long":106.899548,"line":1,"station_name":"Klender","is_transit":false},{"transit":true,"i_lat":-6.215091,"is_transit":true,"time":3,"station_id":"JNG","distance":3395,"station_name":"Jatinegara","i_long":106.86807400000001,"line":1},{"transit":false,"station_name":"Pondok Jati","station_id":"POK","i_long":106.861737,"time":2,"i_lat":-6.209188,"distance":1236,"is_transit":false,"line":11},{"time":2,"station_id":"KMT","distance":1829,"i_long":106.855437,"i_lat":-6.193792,"line":11,"transit":false,"station_name":"Kramat","is_transit":false},{"station_id":"GST","i_long":106.850107,"distance":973,"is_transit":false,"transit":false,"time":1,"i_lat":-6.185975,"line":11,"station_name":"Gang Sentiong"},{"transit":false,"i_lat":-6.174784,"station_id":"PSE","i_long":106.84368,"distance":1567,"is_transit":false,"station_name":"Pasar Senen","line":11,"time":8},{"distance":1436,"i_lat":-6.161728,"station_id":"KMO","time":4,"is_transit":false,"transit":false,"line":11,"station_name":"Kemayoran","i_long":106.839204},{"time":5,"i_long":106.836569,"distance":1901,"is_transit":false,"transit":false,"i_lat":-6.14505,"station_name":"Rajawali","station_id":"RJW","line":11},{"station_id":"KPB","station_name":"Kampung Bandan","is_transit":true,"time":3,"i_long":106.826365,"i_lat":-6.132549,"distance":1444,"line":4,"transit":true},{"i_long":106.79867,"transit":false,"station_name":"Angke","time":9,"i_lat":-6.144674,"distance":4102,"is_transit":false,"line":1,"station_id":"AK"},{"line":1,"time":4,"i_long":106.800832,"is_transit":false,"station_name":"Duri","i_lat":-6.155215,"transit":false,"station_id":"DU","distance":1230},{"line":1,"distance":3632,"transit":false,"station_id":"THB","station_name":"Tanah Abang","is_transit":false,"i_lat":-6.185545,"time":8,"i_long":106.811091},{"i_lat":-6.20132,"distance":2029,"line":1,"transit":false,"time":5,"station_name":"Karet","is_transit":false,"i_long":106.816351,"station_id":"KAT"},{"i_lat":-6.201433,"time":1,"i_long":106.819881,"transit":false,"is_transit":false,"distance":471,"station_id":"SUDB","line":1,"station_name":"Sudirman Baru"},{"station_name":"Sudirman","transit":false,"station_id":"SUD","is_transit":false,"time":1,"line":1,"distance":280,"i_long":106.822649,"i_lat":-6.202263},{"station_id":"MRI","time":4,"distance":3186,"i_long":106.84912,"line":2,"station_name":"Manggarai","i_lat":-6.209883,"transit":true,"is_transit":true},{"transit":false,"time":4,"line":2,"i_lat":-6.226659,"distance":2610,"station_name":"Tebet","is_transit":false,"i_long":106.857948,"station_id":"TEB"},{"i_lat":-6.242512,"transit":false,"time":2,"line":2,"distance":1230,"station_name":"Cawang","station_id":"CW","is_transit":false,"i_long":106.856607},{"distance":1546,"station_name":"Duren Kalibata","time":3,"transit":false,"line":2,"is_transit":false,"station_id":"DRN","i_long":106.85449,"i_lat":-6.255332},{"time":2,"i_lat":-6.263214,"i_long":106.851577,"line":2,"station_name":"Pasar Minggu Baru","distance":824,"station_id":"PSMB","transit":false,"is_transit":false},{"transit":false,"distance":2380,"i_lat":-6.2842400000000005,"is_transit":false,"station_name":"Pasar Minggu","i_long":106.843999,"line":2,"station_id":"PSM","time":2},{"station_id":"TNT","transit":false,"i_lat":-6.3080680000000005,"distance":2820,"line":2,"time":4,"i_long":106.838896,"station_name":"Tanjung Barat","is_transit":false},{"is_transit":false,"distance":2671,"station_id":"LNA","time":3,"i_lat":-6.330363,"i_long":106.832616,"line":2,"transit":false,"station_name":"Lenteng Agung"},{"is_transit":false,"station_name":"Univ. Pancasila","i_long":106.834175,"station_id":"UP","time":2,"i_lat":-6.339291,"transit":false,"line":2,"distance":1029},{"distance":2264,"i_lat":-6.360749,"transit":false,"station_name":"Univ. Indonesia","i_long":106.831474,"line":2,"is_transit":false,"station_id":"UI","time":3},{"time":2,"transit":false,"i_lat":-6.369073,"line":2,"is_transit":false,"station_name":"Pondok Cina","i_long":106.831114,"distance":1109,"station_id":"POC"},{"line":2,"distance":2727,"is_transit":false,"station_id":"DPB","i_lat":-6.391065,"station_name":"Depokbaru","i_long":106.819451,"transit":false,"time":4},{"transit":false,"station_name":"Depok","time":3,"distance":1584,"i_lat":-6.405256,"is_transit":false,"i_long":106.816926,"station_id":"DP","line":2},{"line":2,"station_name":"Citayam","time":6,"station_id":"CTA","distance":5084,"transit":true,"i_lat":-6.448811,"i_long":106.800298,"is_transit":true},{"line":21,"is_transit":false,"time":0,"i_lat":-6.460735,"i_long":106.824374,"transit":false,"station_name":"Pondok Rajeg","station_id":"PDRG","distance":0},{"station_id":"CBN","transit":false,"station_name":"Cibinong","is_transit":false,"line":21,"distance":0,"i_long":106.851978,"time":0,"i_lat":-6.46424},{"i_lat":-6.466285,"line":21,"i_long":106.905196,"station_id":"NMO","time":10,"transit":false,"is_transit":false,"station_name":"Nambo","distance":6527}],[{"station_name":"Cibitung","distance":0,"is_transit":false,"time":0,"i_long":107.083084,"line":1,"transit":false,"station_id":"CIT","i_lat":-6.261877},{"station_id":"TB","line":1,"transit":false,"station_name":"Tambun","i_lat":-6.258864,"time":3,"is_transit":false,"distance":3420,"i_long":107.055722},{"distance":4460,"transit":false,"is_transit":false,"time":7,"station_name":"Bekasi Timur","i_lat":-6.248029,"i_long":107.016735,"line":1,"station_id":"BKST"},{"distance":2368,"station_name":"Bekasi","is_transit":false,"station_id":"BKS","transit":false,"i_long":106.997013,"time":2,"line":1,"i_lat":-6.236616},{"distance":2520,"i_lat":-6.224515,"i_long":106.977657,"is_transit":false,"station_id":"KRI","line":1,"time":4,"station_name":"Kranji","transit":false},{"line":1,"station_id":"CUK","transit":false,"is_transit":false,"i_lat":-6.219053,"distance":3097,"station_name":"Cakung","time":3,"i_long":106.951283},{"i_lat":-6.217455,"i_long":106.939679,"transit":false,"line":1,"station_name":"Klenderbaru","time":8,"distance":1385,"station_id":"KLDB","is_transit":false},{"distance":1305,"i_lat":-6.215568,"i_long":106.922662,"time":1,"is_transit":false,"station_id":"BUA","line":1,"station_name":"Buaran","transit":false},{"station_id":"KLD","i_lat":-6.2135,"distance":3100,"i_long":106.899548,"transit":false,"time":2,"station_name":"Klender","line":1,"is_transit":false},{"time":3,"line":1,"station_id":"JNG","i_long":106.86807400000001,"distance":3395,"transit":true,"is_transit":true,"i_lat":-6.215091,"station_name":"Jatinegara"},{"i_lat":-6.209188,"station_name":"Pondok Jati","station_id":"POK","distance":1236,"transit":false,"time":2,"i_long":106.861737,"is_transit":false,"line":11},{"i_long":106.855437,"station_name":"Kramat","distance":1829,"time":2,"transit":false,"i_lat":-6.193792,"line":11,"station_id":"KMT","is_transit":false},{"is_transit":false,"transit":false,"station_id":"GST","i_long":106.850107,"line":11,"time":1,"distance":973,"station_name":"Gang Sentiong","i_lat":-6.185975},{"i_lat":-6.174784,"station_name":"Pasar Senen","transit":false,"is_transit":false,"time":8,"i_long":106.84368,"distance":1567,"station_id":"PSE","line":11},{"is_transit":false,"time":4,"station_id":"KMO","transit":false,"distance":1436,"station_name":"Kemayoran","i_lat":-6.161728,"i_long":106.839204,"line":11},{"i_long":106.836569,"station_id":"RJW","time":5,"station_name":"Rajawali","line":11,"i_lat":-6.14505,"transit":false,"is_transit":false,"distance":1901},{"station_name":"Kampung Bandan","station_id":"KPB","is_transit":true,"time":3,"distance":1444,"i_lat":-6.132549,"i_long":106.826365,"line":4,"transit":true},{"time":3,"is_transit":true,"transit":true,"station_name":"Jakarta Kota","i_lat":-6.137569,"station_id":"JAKK","distance":1364,"i_long":106.812439,"line":2},{"i_long":106.820901,"station_id":"JAY","transit":false,"is_transit":false,"line":2,"station_name":"Jayakarta","distance":1264,"time":4,"i_lat":-6.141205},{"station_name":"Manggabesar","is_transit":false,"transit":false,"i_long":106.82482,"i_lat":-6.149769,"line":2,"distance":1080,"station_id":"MGB","time":2},{"distance":906,"i_lat":-6.160725,"transit":false,"is_transit":false,"i_long":106.827103,"station_name":"Sawah Besar","time":2,"line":2,"station_id":"SW"},{"i_lat":-6.166716,"i_long":106.828284,"time":2,"distance":1149,"station_id":"JUA","is_transit":false,"transit":false,"line":2,"station_name":"Juanda"},{"distance":2015,"time":4,"line":2,"transit":false,"station_name":"Gondangdia","is_transit":false,"station_id":"GDD","i_lat":-6.186295,"i_long":106.832183},{"is_transit":false,"transit":false,"station_name":"Cikini","station_id":"CKI","i_long":106.840169,"line":2,"distance":1750,"i_lat":-6.198556,"time":3},{"station_id":"MRI","is_transit":false,"time":4,"i_lat":-6.209883,"i_long":106.84912,"line":2,"station_name":"Manggarai","distance":1590,"transit":false},{"time":4,"station_name":"Tebet","i_long":106.857948,"distance":2610,"transit":false,"line":2,"is_transit":false,"i_lat":-6.226659,"station_id":"TEB"},{"is_transit":false,"i_lat":-6.242512,"i_long":106.856607,"station_name":"Cawang","transit":false,"line":2,"distance":1230,"time":2,"station_id":"CW"},{"i_lat":-6.255332,"is_transit":false,"station_id":"DRN","time":3,"i_long":106.85449,"transit":false,"line":2,"station_name":"Duren Kalibata","distance":1546},{"station_id":"PSMB","transit":false,"i_long":106.851577,"line":2,"station_name":"Pasar Minggu Baru","time":2,"is_transit":false,"i_lat":-6.263214,"distance":824},{"station_name":"Pasar Minggu","transit":false,"time":2,"distance":2380,"is_transit":false,"line":2,"station_id":"PSM","i_long":106.843999,"i_lat":-6.2842400000000005},{"is_transit":false,"transit":false,"i_lat":-6.3080680000000005,"i_long":106.838896,"time":4,"station_id":"TNT","distance":2820,"station_name":"Tanjung Barat","line":2},{"line":2,"i_lat":-6.330363,"distance":2671,"transit":false,"station_name":"Lenteng Agung","i_long":106.832616,"time":3,"is_transit":false,"station_id":"LNA"},{"is_transit":false,"i_long":106.834175,"station_name":"Univ. Pancasila","time":2,"line":2,"transit":false,"station_id":"UP","i_lat":-6.339291,"distance":1029},{"i_lat":-6.360749,"line":2,"is_transit":false,"time":3,"distance":2264,"station_id":"UI","i_long":106.831474,"transit":false,"station_name":"Univ. Indonesia"},{"i_long":106.831114,"line":2,"i_lat":-6.369073,"station_name":"Pondok Cina","distance":1109,"transit":false,"time":2,"is_transit":false,"station_id":"POC"},{"i_long":106.819451,"is_transit":false,"time":4,"distance":2727,"station_id":"DPB","transit":false,"station_name":"Depokbaru","line":2,"i_lat":-6.391065},{"station_name":"Depok","time":3,"i_long":106.816926,"station_id":"DP","transit":false,"line":2,"is_transit":false,"distance":1584,"i_lat":-6.405256},{"is_transit":true,"line":2,"i_lat":-6.448811,"time":6,"transit":true,"station_id":"CTA","station_name":"Citayam","i_long":106.800298,"distance":5084},{"transit":false,"distance":0,"station_name":"Pondok Rajeg","station_id":"PDRG","is_transit":false,"time":0,"i_long":106.824374,"i_lat":-6.460735,"line":21},{"distance":0,"time":0,"i_long":106.851978,"transit":false,"station_id":"CBN","is_transit":false,"i_lat":-6.46424,"station_name":"Cibinong","line":21},{"i_lat":-6.466285,"transit":false,"station_id":"NMO","station_name":"Nambo","is_transit":false,"line":21,"i_long":106.905196,"time":10,"distance":6527}]]}