{"data":[[{"transit":false,"time":0,"i_long":107.083084,"distance":0,"station_id":"CIT","station_name":"Cibitung","is_transit":false,"i_lat":-6.261877,"line":1},{"station_id":"TB","station_name":"Tambun","transit":false,"is_transit":false,"line":1,"i_lat":-6.258864,"distance":3420,"i_long":107.055722,"time":3},{"distance":4460,"i_long":107.016735,"time":7,"line":1,"transit":false,"station_id":"BKST","station_name":"Bekasi Timur","is_transit":false,"i_lat":-6.248029},{"i_lat":-6.236616,"station_name":"Bekasi","time":2,"station_id":"BKS","transit":false,"is_transit":false,"i_long":106.997013,"distance":2368,"line":1},{"time":4,"station_name":"Kranji","is_transit":false,"station_id":"KRI","i_lat":-6.224515,"distance":2520,"transit":false,"i_long":106.977657,"line":1},{"line":1,"station_name":"Cakung","transit":false,"i_long":106.951283,"station_id":"CUK","i_lat":-6.219053,"time":3,"distance":3097,"is_transit":false},{"distance":1385,"is_transit":false,"time":8,"i_long":106.939679,"station_id":"KLDB","transit":false,"station_name":"Klenderbaru","line":1,"i_lat":-6.217455},{"station_id":"BUA","time":1,"is_transit":false,"i_long":106.922662,"i_lat":-6.215568,"transit":false,"station_name":"Buaran","line":1,"distance":1305},{"transit":false,"station_id":"KLD","is_transit":false,"time":2,"line":1,"distance":3100,"i_lat":-6.2135,"station_name":"Klender","i_long":106.899548},{"is_transit":false,"distance":3395,"station_name":"Jatinegara","i_lat":-6.215091,"time":3,"station_id":"JNG","transit":false,"i_long":106.86807400000001,"line":1},{"station_id":"MTR","transit":false,"i_lat":-6.212485,"distance":1377,"i_long":106.858896,"line":1,"station_name":"Matraman","time":2,"is_transit":false},{"is_transit":false,"time":2,"i_lat":-6.209883,"station_name":"Manggarai","transit":false,"line":2,"distance":1275,"station_id":"MRI","i_long":106.84912},{"time":4,"line":1,"distance":3186,"is_transit":false,"i_lat":-6.202263,"station_name":"Sudirman","station_id":"SUD","transit":false,"i_long":106.822649}],[{"i_lat":-6.261877,"time":0,"is_transit":false,"station_name":"Cibitung","distance":0,"transit":false,"i_long":107.083084,"line":1,"station_id":"CIT"},{"time":3,"distance":3420,"station_name":"Tambun","i_long":107.055722,"is_transit":false,"station_id":"TB","line":1,"i_lat":-6.258864,"transit":false},{"i_long":107.016735,"is_transit":false,"transit":false,"distance":4460,"time":7,"station_name":"Bekasi Timur","i_lat":-6.248029,"station_id":"BKST","line":1},{"time":2,"is_transit":false,"transit":false,"i_long":106.997013,"station_name":"Bekasi","line":1,"i_lat":-6.236616,"station_id":"BKS","distance":2368},{"station_id":"KRI","i_long":106.977657,"distance":2520,"transit":false,"is_transit":false,"station_name":"Kranji","line":1,"time":4,"i_lat":-6.224515},{"line":1,"station_name":"Cakung","is_transit":false,"i_lat":-6.219053,"transit":false,"i_long":106.951283,"distance":3097,"station_id":"CUK","time":3},{"distance":1385,"is_transit":false,"time":8,"station_id":"KLDB","station_name":"Klenderbaru","i_long":106.939679,"line":1,"i_lat":-6.217455,"transit":false},{"i_long":106.922662,"i_lat":-6.215568,"time":1,"station_id":"BUA","distance":1305,"transit":false,"line":1,"is_transit":false,"station_name":"Buaran"},{"i_lat":-6.2135,"distance":3100,"time":2,"transit":false,"i_long":106.899548,"line":1,"station_name":"Klender","station_id":"KLD","is_transit":false},{"transit":true,"station_name":"Jatinegara","distance":3395,"is_transit":true,"i_lat":-6.215091,"time":3,"station_id":"JNG","i_long":106.86807400000001,"line":1},{"transit":false,"i_lat":-6.209188,"time":2,"station_name":"Pondok Jati","distance":1236,"line":11,"i_long":106.861737,"station_id":"POK","is_transit":false},{"station_name":"Kramat","i_long":106.855437,"transit":false,"time":2,"i_lat":-6.193792,"is_transit":false,"station_id":"KMT","distance":1829,"line":11},{"is_transit":false,"i_lat":-6.185975,"distance":973,"i_long":106.850107,"station_name":"Gang Sentiong","station_id":"GST","line":11,"time":1,"transit":false},{"line":11,"station_name":"Pasar Senen","transit":false,"i_lat":-6.174784,"distance":1567,"is_transit":false,"time":8,"i_long":106.84368,"station_id":"PSE"},{"i_long":106.839204,"transit":false,"time":4,"station_name":"Kemayoran","i_lat":-6.161728,"distance":1436,"station_id":"KMO","is_transit":false,"line":11},{"station_id":"RJW","is_transit":false,"time":5,"transit":false,"i_long":106.836569,"line":11,"distance":1901,"i_lat":-6.14505,"station_name":"Rajawali"},{"line":4,"transit":true,"time":3,"distance":1444,"is_transit":true,"i_long":106.826365,"station_id":"KPB","station_name":"Kampung Bandan","i_lat":-6.132549},{"i_long":106.79867,"station_id":"AK","station_name":"Angke","line":1,"is_transit":false,"distance":4102,"time":9,"transit":false,"i_lat":-6.144674},{"i_long":106.800832,"transit":false,"station_name":"Duri","time":4,"distance":1230,"is_transit":false,"station_id":"DU","i_lat":-6.155215,"line":1},{"distance":3632,"line":1,"i_lat":-6.185545,"station_name":"Tanah Abang","transit":false,"is_transit":false,"time":8,"station_id":"THB","i_long":106.811091},{"transit":false,"is_transit":false,"i_lat":-6.20132,"i_long":106.816351,"line":1,"distance":2029,"station_name":"Karet","time":5,"station_id":"KAT"},{"time":1,"distance":471,"i_lat":-6.201433,"is_transit":false,"station_name":"Sudirman Baru","i_long":106.819881,"line":1,"station_id":"SUDB","transit":false},{"distance":280,"i_lat":-6.202263,"is_transit":false,"line":1,"station_name":"Sudirman","i_long":106.822649,"station_id":"SUD","transit":false,"time":1}],[{"line":1,"time":0,"station_name":"Cibitung","i_lat":-6.261877,"station_id":"CIT","is_transit":false,"distance":0,"transit":false,"i_long":107.083084},{"distance":3420,"i_lat":-6.258864,"is_transit":false,"station_name":"Tambun","time":3,"line":1,"transit":false,"i_long":107.055722,"station_id":"TB"},{"station_name":"Bekasi Timur","transit":false,"station_id":"BKST","line":1,"time":7,"i_lat":-6.248029,"i_long":107.016735,"is_transit":false,"distance":4460},{"distance":2368,"i_long":106.997013,"line":1,"i_lat":-6.236616,"station_name":"Bekasi","is_transit":false,"station_id":"BKS","time":2,"transit":false},{"is_transit":false,"transit":false,"station_name":"Kranji","line":1,"i_lat":-6.224515,"distance":2520,"time":4,"station_id":"KRI","i_long":106.977657},{"transit":false,"time":3,"distance":3097,"line":1,"is_transit":false,"station_id":"CUK","i_long":106.951283,"i_lat":-6.219053,"station_name":"Cakung"},{"line":1,"station_name":"Klenderbaru","transit":false,"i_lat":-6.217455,"i_long":106.939679,"is_transit":false,"time":8,"station_id":"KLDB","distance":1385},{"transit":false,"distance":1305,"i_long":106.922662,"time":1,"is_transit":false,"station_id":"BUA","station_name":"Buaran","i_lat":-6.215568,"line":1},{"i_lat":-6.2135,"time":2,"station_id":"KLD","station_name":"Klender","distance":3100,"transit":false,"i_long":106.899548,"is_transit":false,"line":1},{"transit":false,"station_name":"Jatinegara","i_long":106.86807400000001,"line":1,"is_transit":false,"station_id":"JNG","time":3,"distance":3395,"i_lat":-6.215091},{"i_lat":-6.212485,"line":1,"time":2,"is_transit":false,"transit":false,"station_id":"MTR","station_name":"Matraman","distance":1377,"i_long":106.858896},{"time":2,"transit":true,"i_lat":-6.209883,"line":2,"station_id":"MRI","i_long":106.84912,"station_name":"Manggarai","distance":1275,"is_transit":true},{"distance":1590,"i_lat":-6.198556,"line":2,"time":4,"station_id":"CKI","transit":false,"is_transit":false,"i_long":106.840169,"station_name":"Cikini"},{"transit":false,"time":3,"station_name":"Gondangdia","station_id":"GDD","distance":1750,"is_transit":false,"line":2,"i_lat":-6.186295,"i_long":106.832183},{"transit":false,"i_long":106.828284,"station_name":"Juanda","i_lat":-6.166716,"line":2,"is_transit":false,"time":4,"station_id":"JUA","distance":2015},{"line":2,"station_name":"Sawah Besar","time":2,"station_id":"SW","distance":1149,"transit":false,"i_long":106.827103,"i_lat":-6.160725,"is_transit":false},{"station_name":"Manggabesar","transit":false,"line":2,"i_lat":-6.149769,"station_id":"MGB","time":2,"is_transit":false,"distance":906,"i_long":106.82482},{"line":2,"transit":false,"time":2,"i_lat":-6.141205,"i_long":106.820901,"station_name":"Jayakarta","distance":1080,"is_transit":false,"station_id":"JAY"},{"distance":1264,"station_name":"Jakarta Kota","i_lat":-6.137569,"line":2,"is_transit":true,"time":4,"station_id":"JAKK","transit":true,"i_long":106.812439},{"station_name":"Kampung Bandan","transit":true,"distance":1364,"station_id":"KPB","i_lat":-6.132549,"i_long":106.826365,"line":4,"time":3,"is_transit":true},{"transit":false,"is_transit":false,"station_id":"AK","i_long":106.79867,"line":1,"station_name":"Angke","distance":4102,"time":9,"i_lat":-6.144674},{"i_long":106.800832,"distance":1230,"i_lat":-6.155215,"line":1,"is_transit":false,"time":4,"transit":false,"station_name":"Duri","station_id":"DU"},{"i_lat":-6.185545,"line":1,"time":8,"distance":3632,"i_long":106.811091,"transit":false,"is_transit":false,"station_id":"THB","station_name":"Tanah Abang"},{"transit":false,"station_name":"Karet","line":1,"distance":2029,"is_transit":false,"station_id":"KAT","time":5,"i_lat":-6.20132,"i_long":106.816351},{"distance":471,"station_id":"SUDB","time":1,"i_lat":-6.201433,"is_transit":false,"i_long":106.819881,"station_name":"Sudirman Baru","line":1,"transit":false},{"i_lat":-6.202263,"i_long":106.822649,"is_transit":false,"station_id":"SUD","transit":false,"line":1,"time":1,"station_name":"Sudirman","distance":280}],[{"distance":0,"is_transit":false,"station_id":"CIT","transit":false,"station_name":"Cibitung","i_lat":-6.261877,"time":0,"i_long":107.083084,"line":1},{"station_name":"Tambun","i_long":107.055722,"line":1,"is_transit":false,"i_lat":-6.258864,"transit":false,"distance":3420,"time":3,"station_id":"TB"},{"distance":4460,"transit":false,"i_long":107.016735,"line":1,"i_lat":-6.248029,"is_transit":false,"station_id":"BKST","time":7,"station_name":"Bekasi Timur"},{"transit":false,"station_id":"BKS","i_lat":-6.236616,"line":1,"i_long":106.997013,"is_transit":false,"station_name":"Bekasi","time":2,"distance":2368},{"is_transit":false,"time":4,"station_id":"KRI","station_name":"Kranji","line":1,"i_long":106.977657,"i_lat":-6.224515,"distance":2520,"transit":false},{"i_lat":-6.219053,"is_transit":false,"time":3,"distance":3097,"station_id":"CUK","station_name":"Cakung","transit":false,"i_long":106.951283,"line":1},{"station_name":"Klenderbaru","distance":1385,"i_long":106.939679,"line":1,"i_lat":-6.217455,"transit":false,"is_transit":false,"time":8,"station_id":"KLDB"},{"station_name":"Buaran","transit":false,"is_transit":false,"i_lat":-6.215568,"i_long":106.922662,"distance":1305,"station_id":"BUA","time":1,"line":1},{"i_long":106.899548,"time":2,"station_id":"KLD","transit":false,"station_name":"Klender","is_transit":false,"distance":3100,"i_lat":-6.2135,"line":1},{"is_transit":true,"distance":3395,"station_name":"Jatinegara","i_long":106.86807400000001,"time":3,"station_id":"JNG","i_lat":-6.215091,"line":1,"transit":true},{"station_name":"Pondok Jati","line":11,"station_id":"POK","i_long":106.861737,"transit":false,"time":2,"distance":1236,"is_transit":false,"i_lat":-6.209188},{"is_transit":false,"station_name":"Kramat","i_lat":-6.193792,"time":2,"i_long":106.855437,"station_id":"KMT","distance":1829,"line":11,"transit":false},{"line":11,"transit":false,"is_transit":false,"i_lat":-6.185975,"station_name":"Gang Sentiong","station_id":"GST","distance":973,"i_long":106.850107,"time":1},{"line":11,"station_id":"PSE","distance":1567,"i_long":106.84368,"transit":false,"station_name":"Pasar Senen","is_transit":false,"time":8,"i_lat":-6.174784},{"transit":false,"time":4,"i_lat":-6.161728,"station_id":"KMO","i_long":106.839204,"station_name":"Kemayoran","is_transit":false,"distance":1436,"line":11},{"i_long":106.836569,"is_transit":false,"station_id":"RJW","time":5,"transit":false,"station_name":"Rajawali","i_lat":-6.14505,"line":11,"distance":1901},{"is_transit":true,"station_name":"Kampung Bandan","line":4,"i_long":106.826365,"time":3,"transit":true,"i_lat":-6.132549,"station_id":"KPB","distance":1444},{"station_id":"JAKK","distance":1364,"station_name":"Jakarta Kota","time":3,"i_lat":-6.137569,"transit":true,"i_long":106.812439,"line":2,"is_transit":true},{"station_id":"JAY","transit":false,"line":2,"station_name":"Jayakarta","distance":1264,"is_transit":false,"i_lat":-6.141205,"i_long":106.820901,"time":4},{"line":2,"station_id":"MGB","distance":1080,"i_long":106.82482,"transit":false,"time":2,"is_transit":false,"i_lat":-6.149769,"station_name":"Manggabesar"},{"transit":false,"i_long":106.827103,"i_lat":-6.160725,"is_transit":false,"station_id":"SW","distance":906,"time":2,"line":2,"station_name":"Sawah Besar"},{"i_long":106.828284,"is_transit":false,"i_lat":-6.166716,"station_id":"JUA","station_name":"Juanda","line":2,"transit":false,"time":2,"distance":1149},{"i_long":106.832183,"transit":false,"distance":2015,"station_id":"GDD","i_lat":-6.186295,"station_name":"Gondangdia","line":2,"is_transit":false,"time":4},{"station_name":"Cikini","is_transit":false,"distance":1750,"transit":false,"station_id":"CKI","time":3,"i_long":106.840169,"i_lat":-6.198556,"line":2},{"station_name":"Manggarai","distance":1590,"line":2,"is_transit":true,"i_lat":-6.209883,"station_id":"MRI","transit":true,"i_long":106.84912,"time":4},{"is_transit":false,"time":4,"distance":3186,"i_long":106.822649,"station_id":"SUD","i_lat":-6.202263,"station_name":"Sudirman","line":1,"transit":false}]]}