{"data":[[{"distance":0,"transit":false,"station_id":"CIT","i_long":107.083084,"line":1,"time":0,"i_lat":-6.261877,"is_transit":false,"station_name":"Cibitung"},{"distance":3420,"station_name":"Tambun","i_lat":-6.258864,"time":3,"i_long":107.055722,"is_transit":false,"line":1,"transit":false,"station_id":"TB"},{"station_name":"Bekasi Timur","transit":false,"is_transit":false,"i_lat":-6.248029,"i_long":107.016735,"time":7,"distance":4460,"line":1,"station_id":"BKST"},{"is_transit":false,"i_lat":-6.236616,"distance":2368,"station_id":"BKS","transit":false,"time":2,"i_long":106.997013,"station_name":"Bekasi","line":1},{"line":1,"time":4,"i_lat":-6.224515,"station_name":"Kranji","distance":2520,"station_id":"KRI","is_transit":false,"transit":false,"i_long":106.977657},{"distance":3097,"is_transit":false,"time":3,"line":1,"station_id":"CUK","station_name":"Cakung","i_lat":-6.219053,"i_long":106.951283,"transit":false},{"distance":1385,"line":1,"transit":false,"i_lat":-6.217455,"station_id":"KLDB","is_transit":false,"time":8,"station_name":"Klenderbaru","i_long":106.939679},{"i_long":106.922662,"line":1,"time":1,"station_name":"Buaran","i_lat":-6.215568,"station_id":"BUA","distance":1305,"is_transit":false,"transit":false},{"distance":3100,"i_long":106.899548,"line":1,"station_name":"Klender","station_id":"KLD","i_lat":-6.2135,"time":2,"is_transit":false,"transit":false},{"is_transit":false,"station_id":"JNG","station_name":"Jatinegara","time":3,"i_lat":-6.215091,"distance":3395,"transit":false,"i_long":106.86807400000001,"line":1},{"transit":false,"i_long":106.858896,"station_name":"Matraman","station_id":"MTR","is_transit":false,"time":2,"distance":1377,"i_lat":-6.212485,"line":1},{"time":2,"station_name":"Manggarai","i_lat":-6.209883,"line":2,"transit":true,"is_transit":true,"i_long":106.84912,"distance":1275,"station_id":"MRI"},{"distance":2610,"is_transit":false,"transit":false,"line":2,"time":4,"station_name":"Tebet","i_lat":-6.226659,"i_long":106.857948,"station_id":"TEB"},{"i_long":106.856607,"transit":false,"line":2,"distance":1230,"station_id":"CW","is_transit":false,"time":2,"station_name":"Cawang","i_lat":-6.242512},{"station_id":"DRN","i_lat":-6.255332,"line":2,"distance":1546,"station_name":"Duren Kalibata","time":3,"transit":false,"i_long":106.85449,"is_transit":false},{"transit":false,"is_transit":false,"distance":824,"i_long":106.851577,"line":2,"station_name":"Pasar Minggu Baru","time":2,"station_id":"PSMB","i_lat":-6.263214},{"station_id":"PSM","distance":2380,"time":2,"transit":false,"is_transit":false,"line":2,"i_long":106.843999,"station_name":"Pasar Minggu","i_lat":-6.2842400000000005},{"distance":2820,"i_lat":-6.3080680000000005,"station_name":"Tanjung Barat","time":4,"line":2,"station_id":"TNT","is_transit":false,"transit":false,"i_long":106.838896},{"line":2,"distance":2671,"time":3,"station_id":"LNA","is_transit":false,"station_name":"Lenteng Agung","i_lat":-6.330363,"i_long":106.832616,"transit":false},{"station_id":"UP","station_name":"Univ. Pancasila","transit":false,"line":2,"is_transit":false,"i_long":106.834175,"distance":1029,"time":2,"i_lat":-6.339291},{"i_lat":-6.360749,"i_long":106.831474,"distance":2264,"is_transit":false,"transit":false,"station_id":"UI","line":2,"time":3,"station_name":"Univ. Indonesia"},{"station_name":"Pondok Cina","i_lat":-6.369073,"line":2,"is_transit":false,"transit":false,"distance":1109,"i_long":106.831114,"time":2,"station_id":"POC"},{"is_transit":false,"distance":2727,"i_long":106.819451,"line":2,"i_lat":-6.391065,"station_id":"DPB","station_name":"Depokbaru","time":4,"transit":false},{"station_id":"DP","distance":1584,"station_name":"Depok","is_transit":false,"transit":false,"i_lat":-6.405256,"line":2,"time":3,"i_long":106.816926},{"distance":5084,"line":2,"is_transit":true,"station_name":"Citayam","time":6,"i_lat":-6.448811,"transit":true,"station_id":"CTA","i_long":106.800298},{"station_name":"Pondok Rajeg","is_transit":false,"i_lat":-6.460735,"distance":0,"transit":false,"station_id":"PDRG","line":21,"time":0,"i_long":106.824374},{"distance":0,"line":21,"transit":false,"i_lat":-6.46424,"i_long":106.851978,"station_id":"CBN","is_transit":false,"station_name":"Cibinong","time":0},{"station_name":"Nambo","time":10,"i_lat":-6.466285,"transit":false,"line":21,"distance":6527,"is_transit":false,"station_id":"NMO","i_long":106.905196}],[{"i_long":107.083084,"line":1,"transit":false,"time":0,"i_lat":-6.261877,"station_id":"CIT","is_transit":false,"station_name":"Cibitung","distance":0},{"station_name":"Tambun","i_lat":-6.258864,"i_long":107.055722,"is_transit":false,"transit":false,"station_id":"TB","distance":3420,"time":3,"line":1},{"station_name":"Bekasi Timur","distance":4460,"station_id":"BKST","i_lat":-6.248029,"i_long":107.016735,"transit":false,"is_transit":false,"line":1,"time":7},{"station_name":"Bekasi","distance":2368,"transit":false,"station_id":"BKS","i_lat":-6.236616,"i_long":106.997013,"time":2,"is_transit":false,"line":1},{"time":4,"transit":false,"line":1,"station_id":"KRI","distance":2520,"is_transit":false,"i_lat":-6.224515,"station_name":"Kranji","i_long":106.977657},{"i_long":106.951283,"station_name":"Cakung","transit":false,"i_lat":-6.219053,"is_transit":false,"line":1,"station_id":"CUK","time":3,"distance":3097},{"station_name":"Klenderbaru","time":8,"station_id":"KLDB","distance":1385,"transit":false,"is_transit":false,"i_lat":-6.217455,"line":1,"i_long":106.939679},{"station_id":"BUA","i_lat":-6.215568,"distance":1305,"station_name":"Buaran","is_transit":false,"transit":false,"i_long":106.922662,"time":1,"line":1},{"time":2,"is_transit":false,"i_lat":-6.2135,"transit":false,"line":1,"station_name":"Klender","distance":3100,"i_long":106.899548,"station_id":"KLD"},{"i_long":106.86807400000001,"station_name":"Jatinegara","station_id":"JNG","distance":3395,"transit":true,"line":1,"is_transit":true,"i_lat":-6.215091,"time":3},{"transit":false,"is_transit":false,"time":2,"distance":1236,"i_lat":-6.209188,"i_long":106.861737,"station_name":"Pondok Jati","station_id":"POK","line":11},{"line":11,"is_transit":false,"station_name":"Kramat","station_id":"KMT","distance":1829,"transit":false,"i_lat":-6.193792,"i_long":106.855437,"time":2},{"is_transit":false,"station_id":"GST","station_name":"Gang Sentiong","i_lat":-6.185975,"line":11,"transit":false,"time":1,"distance":973,"i_long":106.850107},{"time":8,"i_long":106.84368,"is_transit":false,"station_id":"PSE","i_lat":-6.174784,"distance":1567,"station_name":"Pasar Senen","transit":false,"line":11},{"distance":1436,"station_name":"Kemayoran","i_long":106.839204,"time":4,"transit":false,"is_transit":false,"station_id":"KMO","i_lat":-6.161728,"line":11},{"station_name":"Rajawali","distance":1901,"station_id":"RJW","i_lat":-6.14505,"time":5,"is_transit":false,"line":11,"i_long":106.836569,"transit":false},{"station_name":"Kampung Bandan","transit":true,"distance":1444,"i_lat":-6.132549,"is_transit":true,"line":4,"time":3,"i_long":106.826365,"station_id":"KPB"},{"i_lat":-6.144674,"i_long":106.79867,"time":9,"station_id":"AK","is_transit":false,"transit":false,"distance":4102,"line":1,"station_name":"Angke"},{"distance":1230,"line":1,"time":4,"i_long":106.800832,"station_name":"Duri","is_transit":false,"i_lat":-6.155215,"transit":false,"station_id":"DU"},{"is_transit":false,"time":8,"i_long":106.811091,"station_name":"Tanah Abang","distance":3632,"station_id":"THB","transit":false,"line":1,"i_lat":-6.185545},{"time":5,"station_id":"KAT","i_lat":-6.20132,"i_long":106.816351,"line":1,"station_name":"Karet","distance":2029,"transit":false,"is_transit":false},{"is_transit":false,"station_name":"Sudirman Baru","time":1,"distance":471,"i_long":106.819881,"i_lat":-6.201433,"line":1,"transit":false,"station_id":"SUDB"},{"distance":280,"station_id":"SUD","station_name":"Sudirman","time":1,"transit":false,"i_long":106.822649,"line":1,"i_lat":-6.202263,"is_transit":false},{"is_transit":true,"time":4,"station_id":"MRI","station_name":"Manggarai","transit":true,"i_lat":-6.209883,"line":2,"distance":3186,"i_long":106.84912},{"time":4,"line":2,"station_name":"Tebet","transit":false,"station_id":"TEB","distance":2610,"is_transit":false,"i_lat":-6.226659,"i_long":106.857948},{"i_long":106.856607,"distance":1230,"time":2,"is_transit":false,"i_lat":-6.242512,"station_name":"Cawang","station_id":"CW","line":2,"transit":false},{"is_transit":false,"station_name":"Duren Kalibata","i_lat":-6.255332,"station_id":"DRN","time":3,"line":2,"transit":false,"distance":1546,"i_long":106.85449},{"is_transit":false,"distance":824,"i_lat":-6.263214,"i_long":106.851577,"transit":false,"station_id":"PSMB","station_name":"Pasar Minggu Baru","time":2,"line":2},{"i_long":106.843999,"is_transit":false,"distance":2380,"time":2,"transit":false,"station_name":"Pasar Minggu","station_id":"PSM","i_lat":-6.2842400000000005,"line":2},{"station_id":"TNT","i_lat":-6.3080680000000005,"line":2,"distance":2820,"i_long":106.838896,"is_transit":false,"time":4,"transit":false,"station_name":"Tanjung Barat"},{"is_transit":false,"i_lat":-6.330363,"station_id":"LNA","transit":false,"time":3,"distance":2671,"line":2,"station_name":"Lenteng Agung","i_long":106.832616},{"transit":false,"line":2,"station_name":"Univ. Pancasila","time":2,"station_id":"UP","i_long":106.834175,"distance":1029,"is_transit":false,"i_lat":-6.339291},{"station_name":"Univ. Indonesia","time":3,"station_id":"UI","is_transit":false,"distance":2264,"line":2,"i_lat":-6.360749,"transit":false,"i_long":106.831474},{"line":2,"is_transit":false,"station_id":"POC","distance":1109,"station_name":"Pondok Cina","time":2,"transit":false,"i_long":106.831114,"i_lat":-6.369073},{"i_long":106.819451,"transit":false,"station_id":"DPB","station_name":"Depokbaru","is_transit":false,"time":4,"distance":2727,"i_lat":-6.391065,"line":2},{"station_id":"DP","is_transit":false,"distance":1584,"i_long":106.816926,"transit":false,"station_name":"Depok","i_lat":-6.405256,"line":2,"time":3},{"station_id":"CTA","transit":true,"i_lat":-6.448811,"time":6,"distance":5084,"i_long":106.800298,"line":2,"is_transit":true,"station_name":"Citayam"},{"distance":0,"station_name":"Pondok Rajeg","is_transit":false,"i_long":106.824374,"line":21,"time":0,"transit":false,"i_lat":-6.460735,"station_id":"PDRG"},{"time":0,"station_name":"Cibinong","is_transit":false,"distance":0,"i_lat":-6.46424,"i_long":106.851978,"line":21,"station_id":"CBN","transit":false},{"transit":false,"distance":6527,"station_id":"NMO","time":10,"is_transit":false,"station_name":"Nambo","i_lat":-6.466285,"i_long":106.905196,"line":21}],[{"line":1,"i_long":107.083084,"distance":0,"station_name":"Cibitung","time":0,"is_transit":false,"station_id":"CIT","transit":false,"i_lat":-6.261877},{"distance":3420,"station_name":"Tambun","i_lat":-6.258864,"time":3,"station_id":"TB","transit":false,"is_transit":false,"i_long":107.055722,"line":1},{"is_transit":false,"i_long":107.016735,"line":1,"i_lat":-6.248029,"transit":false,"station_name":"Bekasi Timur","time":7,"distance":4460,"station_id":"BKST"},{"transit":false,"station_id":"BKS","i_long":106.997013,"time":2,"distance":2368,"station_name":"Bekasi","line":1,"is_transit":false,"i_lat":-6.236616},{"i_long":106.977657,"distance":2520,"station_name":"Kranji","transit":false,"line":1,"is_transit":false,"station_id":"KRI","time":4,"i_lat":-6.224515},{"station_name":"Cakung","distance":3097,"i_lat":-6.219053,"time":3,"transit":false,"station_id":"CUK","is_transit":false,"line":1,"i_long":106.951283},{"line":1,"i_long":106.939679,"i_lat":-6.217455,"station_id":"KLDB","transit":false,"time":8,"station_name":"Klenderbaru","is_transit":false,"distance":1385},{"is_transit":false,"i_lat":-6.215568,"distance":1305,"line":1,"time":1,"transit":false,"i_long":106.922662,"station_name":"Buaran","station_id":"BUA"},{"i_lat":-6.2135,"line":1,"station_name":"Klender","transit":false,"time":2,"station_id":"KLD","distance":3100,"i_long":106.899548,"is_transit":false},{"station_name":"Jatinegara","distance":3395,"station_id":"JNG","is_transit":true,"line":1,"transit":true,"time":3,"i_lat":-6.215091,"i_long":106.86807400000001},{"i_long":106.861737,"time":2,"station_id":"POK","is_transit":false,"transit":false,"station_name":"Pondok Jati","i_lat":-6.209188,"distance":1236,"line":11},{"is_transit":false,"station_id":"KMT","station_name":"Kramat","time":2,"line":11,"i_long":106.855437,"distance":1829,"i_lat":-6.193792,"transit":false},{"is_transit":false,"i_lat":-6.185975,"transit":false,"i_long":106.850107,"station_id":"GST","station_name":"Gang Sentiong","line":11,"time":1,"distance":973},{"time":8,"i_long":106.84368,"station_id":"PSE","distance":1567,"transit":false,"i_lat":-6.174784,"line":11,"is_transit":false,"station_name":"Pasar Senen"},{"distance":1436,"line":11,"time":4,"i_lat":-6.161728,"station_name":"Kemayoran","i_long":106.839204,"station_id":"KMO","transit":false,"is_transit":false},{"line":11,"station_name":"Rajawali","distance":1901,"is_transit":false,"transit":false,"time":5,"i_long":106.836569,"i_lat":-6.14505,"station_id":"RJW"},{"is_transit":true,"i_long":106.826365,"distance":1444,"time":3,"transit":true,"station_id":"KPB","station_name":"Kampung Bandan","i_lat":-6.132549,"line":4},{"distance":1364,"transit":true,"station_id":"JAKK","is_transit":true,"station_name":"Jakarta Kota","line":2,"time":3,"i_long":106.812439,"i_lat":-6.137569},{"time":4,"transit":false,"is_transit":false,"line":2,"station_name":"Jayakarta","distance":1264,"i_lat":-6.141205,"i_long":106.820901,"station_id":"JAY"},{"distance":1080,"i_lat":-6.149769,"is_transit":false,"station_name":"Manggabesar","station_id":"MGB","line":2,"time":2,"transit":false,"i_long":106.82482},{"station_id":"SW","i_lat":-6.160725,"station_name":"Sawah Besar","transit":false,"i_long":106.827103,"time":2,"line":2,"distance":906,"is_transit":false},{"station_id":"JUA","time":2,"station_name":"Juanda","distance":1149,"i_long":106.828284,"is_transit":false,"transit":false,"i_lat":-6.166716,"line":2},{"station_name":"Gondangdia","time":4,"is_transit":false,"line":2,"transit":false,"station_id":"GDD","i_lat":-6.186295,"distance":2015,"i_long":106.832183},{"distance":1750,"line":2,"station_id":"CKI","is_transit":false,"transit":false,"i_lat":-6.198556,"time":3,"station_name":"Cikini","i_long":106.840169},{"line":2,"station_id":"MRI","station_name":"Manggarai","is_transit":false,"i_lat":-6.209883,"i_long":106.84912,"distance":1590,"transit":false,"time":4},{"station_name":"Tebet","time":4,"is_transit":false,"line":2,"i_lat":-6.226659,"station_id":"TEB","i_long":106.857948,"transit":false,"distance":2610},{"time":2,"transit":false,"distance":1230,"station_id":"CW","is_transit":false,"i_long":106.856607,"station_name":"Cawang","i_lat":-6.242512,"line":2},{"i_long":106.85449,"transit":false,"is_transit":false,"distance":1546,"station_id":"DRN","time":3,"i_lat":-6.255332,"line":2,"station_name":"Duren Kalibata"},{"line":2,"i_lat":-6.263214,"i_long":106.851577,"is_transit":false,"station_id":"PSMB","time":2,"transit":false,"distance":824,"station_name":"Pasar Minggu Baru"},{"is_transit":false,"i_lat":-6.2842400000000005,"distance":2380,"i_long":106.843999,"station_id":"PSM","time":2,"station_name":"Pasar Minggu","line":2,"transit":false},{"distance":2820,"station_name":"Tanjung Barat","i_lat":-6.3080680000000005,"i_long":106.838896,"line":2,"transit":false,"is_transit":false,"time":4,"station_id":"TNT"},{"i_lat":-6.330363,"time":3,"transit":false,"line":2,"i_long":106.832616,"station_name":"Lenteng Agung","station_id":"LNA","is_transit":false,"distance":2671},{"station_name":"Univ. Pancasila","is_transit":false,"line":2,"i_lat":-6.339291,"i_long":106.834175,"distance":1029,"station_id":"UP","time":2,"transit":false},{"i_long":106.831474,"i_lat":-6.360749,"distance":2264,"is_transit":false,"station_id":"UI","time":3,"line":2,"transit":false,"station_name":"Univ. Indonesia"},{"is_transit":false,"transit":false,"i_lat":-6.369073,"time":2,"i_long":106.831114,"line":2,"distance":1109,"station_name":"Pondok Cina","station_id":"POC"},{"i_long":106.819451,"i_lat":-6.391065,"station_name":"Depokbaru","station_id":"DPB","is_transit":false,"line":2,"time":4,"transit":false,"distance":2727},{"transit":false,"i_long":106.816926,"line":2,"i_lat":-6.405256,"station_id":"DP","is_transit":false,"station_name":"Depok","time":3,"distance":1584},{"station_id":"CTA","station_name":"Citayam","is_transit":true,"distance":5084,"transit":true,"i_lat":-6.448811,"time":6,"line":2,"i_long":106.800298},{"station_name":"Pondok Rajeg","is_transit":false,"transit":false,"distance":0,"station_id":"PDRG","time":0,"line":21,"i_lat":-6.460735,"i_long":106.824374},{"i_long":106.851978,"station_id":"CBN","transit":false,"i_lat":-6.46424,"line":21,"is_transit":false,"distance":0,"time":0,"station_name":"Cibinong"},{"time":10,"i_long":106.905196,"station_id":"NMO","station_name":"Nambo","line":21,"distance":6527,"is_transit":false,"transit":false,"i_lat":-6.466285}]]}