{"data":[[{"is_transit":false,"i_lat":-6.261877,"i_long":107.083084,"time":0,"transit":false,"station_name":"Cibitung","distance":0,"line":1,"station_id":"CIT"},{"is_transit":false,"i_lat":-6.258864,"i_long":107.055722,"station_name":"Tambun","station_id":"TB","line":1,"transit":false,"distance":3420,"time":3},{"transit":false,"station_id":"BKST","time":7,"distance":4460,"line":1,"is_transit":false,"i_lat":-6.248029,"station_name":"Bekasi Timur","i_long":107.016735},{"station_id":"BKS","time":2,"station_name":"Bekasi","transit":false,"i_long":106.997013,"line":1,"distance":2368,"i_lat":-6.236616,"is_transit":false},{"station_id":"KRI","distance":2520,"transit":false,"time":4,"is_transit":false,"i_lat":-6.224515,"i_long":106.977657,"line":1,"station_name":"Kranji"},{"i_long":106.951283,"transit":false,"is_transit":false,"line":1,"station_id":"CUK","distance":3097,"station_name":"Cakung","i_lat":-6.219053,"time":3},{"i_long":106.939679,"time":8,"station_id":"KLDB","is_transit":false,"distance":1385,"i_lat":-6.217455,"station_name":"Klenderbaru","line":1,"transit":false},{"is_transit":false,"station_name":"Buaran","i_long":106.922662,"time":1,"station_id":"BUA","line":1,"transit":false,"i_lat":-6.215568,"distance":1305},{"station_name":"Klender","time":2,"distance":3100,"station_id":"KLD","is_transit":false,"i_long":106.899548,"line":1,"i_lat":-6.2135,"transit":false},{"distance":3395,"station_id":"JNG","is_transit":false,"station_name":"Jatinegara","line":1,"transit":false,"time":3,"i_lat":-6.215091,"i_long":106.86807400000001},{"station_name":"Matraman","distance":1377,"station_id":"MTR","i_lat":-6.212485,"is_transit":false,"i_long":106.858896,"transit":false,"time":2,"line":1},{"is_transit":false,"distance":1275,"transit":false,"time":2,"station_name":"Manggarai","station_id":"MRI","line":2,"i_lat":-6.209883,"i_long":106.84912},{"i_lat":-6.202263,"line":1,"is_transit":false,"distance":3186,"station_name":"Sudirman","transit":false,"station_id":"SUD","i_long":106.822649,"time":4},{"time":1,"is_transit":false,"i_lat":-6.201433,"i_long":106.819881,"transit":false,"station_id":"SUDB","line":1,"station_name":"Sudirman Baru","distance":280},{"station_id":"KAT","i_lat":-6.20132,"transit":false,"i_long":106.816351,"station_name":"Karet","time":1,"is_transit":false,"distance":471,"line":1},{"line":1,"is_transit":false,"station_id":"THB","transit":false,"station_name":"Tanah Abang","distance":2029,"i_lat":-6.185545,"i_long":106.811091,"time":5},{"transit":true,"station_name":"Duri","station_id":"DU","i_long":106.800832,"line":1,"is_transit":true,"i_lat":-6.155215,"distance":3632,"time":8},{"i_lat":-6.162021,"distance":1700,"i_long":106.788277,"line":5,"station_name":"Grogol","is_transit":false,"transit":false,"time":3,"station_id":"GGL"},{"i_lat":-6.161433,"line":5,"transit":false,"station_id":"PSG","is_transit":false,"i_long":106.771379,"time":2,"distance":2036,"station_name":"Pesing"},{"is_transit":false,"i_long":106.756522,"line":5,"time":2,"i_lat":-6.1587309999999995,"station_id":"TKO","transit":false,"station_name":"Taman Kota","distance":1614},{"is_transit":false,"transit":false,"station_id":"BOI","distance":2334,"station_name":"Bojongindah","line":5,"time":2,"i_long":106.737035,"i_lat":-6.159876},{"line":5,"station_id":"RW","i_long":106.723064,"station_name":"Rawa Buaya","transit":false,"time":4,"is_transit":false,"i_lat":-6.162758,"distance":1152},{"station_id":"KDS","is_transit":false,"station_name":"Kalideres","i_lat":-6.166068,"time":3,"line":5,"distance":2504,"i_long":106.701612,"transit":false},{"i_long":106.679458,"distance":2548,"time":3,"line":5,"transit":false,"i_lat":-6.169933,"is_transit":false,"station_id":"PI","station_name":"Poris"}],[{"is_transit":false,"transit":false,"station_name":"Cibitung","distance":0,"i_long":107.083084,"time":0,"i_lat":-6.261877,"line":1,"station_id":"CIT"},{"transit":false,"is_transit":false,"station_name":"Tambun","distance":3420,"i_long":107.055722,"line":1,"time":3,"station_id":"TB","i_lat":-6.258864},{"station_name":"Bekasi Timur","transit":false,"is_transit":false,"i_long":107.016735,"distance":4460,"i_lat":-6.248029,"line":1,"time":7,"station_id":"BKST"},{"time":2,"line":1,"distance":2368,"i_long":106.997013,"i_lat":-6.236616,"station_name":"Bekasi","transit":false,"station_id":"BKS","is_transit":false},{"station_name":"Kranji","transit":false,"line":1,"station_id":"KRI","distance":2520,"time":4,"is_transit":false,"i_lat":-6.224515,"i_long":106.977657},{"time":3,"i_lat":-6.219053,"station_name":"Cakung","station_id":"CUK","is_transit":false,"distance":3097,"line":1,"transit":false,"i_long":106.951283},{"distance":1385,"i_long":106.939679,"station_id":"KLDB","line":1,"is_transit":false,"i_lat":-6.217455,"time":8,"transit":false,"station_name":"Klenderbaru"},{"station_name":"Buaran","is_transit":false,"distance":1305,"station_id":"BUA","i_lat":-6.215568,"line":1,"i_long":106.922662,"transit":false,"time":1},{"transit":false,"i_lat":-6.2135,"i_long":106.899548,"distance":3100,"is_transit":false,"station_name":"Klender","station_id":"KLD","time":2,"line":1},{"distance":3395,"transit":true,"station_id":"JNG","i_long":106.86807400000001,"time":3,"line":1,"i_lat":-6.215091,"station_name":"Jatinegara","is_transit":true},{"is_transit":false,"distance":1236,"i_lat":-6.209188,"station_name":"Pondok Jati","line":11,"i_long":106.861737,"time":2,"transit":false,"station_id":"POK"},{"distance":1829,"i_lat":-6.193792,"transit":false,"time":2,"is_transit":false,"i_long":106.855437,"station_id":"KMT","line":11,"station_name":"Kramat"},{"i_lat":-6.185975,"line":11,"i_long":106.850107,"time":1,"distance":973,"station_id":"GST","station_name":"Gang Sentiong","is_transit":false,"transit":false},{"time":8,"i_long":106.84368,"line":11,"is_transit":false,"distance":1567,"i_lat":-6.174784,"station_name":"Pasar Senen","transit":false,"station_id":"PSE"},{"line":11,"time":4,"is_transit":false,"i_lat":-6.161728,"distance":1436,"station_id":"KMO","i_long":106.839204,"transit":false,"station_name":"Kemayoran"},{"station_name":"Rajawali","i_lat":-6.14505,"transit":false,"distance":1901,"i_long":106.836569,"station_id":"RJW","time":5,"line":11,"is_transit":false},{"is_transit":true,"time":3,"station_id":"KPB","station_name":"Kampung Bandan","i_lat":-6.132549,"i_long":106.826365,"line":4,"distance":1444,"transit":true},{"transit":false,"station_name":"Angke","time":9,"is_transit":false,"i_lat":-6.144674,"i_long":106.79867,"line":1,"distance":4102,"station_id":"AK"},{"is_transit":true,"station_id":"DU","distance":1230,"i_lat":-6.155215,"time":4,"i_long":106.800832,"station_name":"Duri","transit":true,"line":1},{"is_transit":false,"line":5,"transit":false,"station_id":"GGL","station_name":"Grogol","time":3,"distance":1700,"i_lat":-6.162021,"i_long":106.788277},{"i_lat":-6.161433,"time":2,"transit":false,"station_name":"Pesing","distance":2036,"station_id":"PSG","is_transit":false,"i_long":106.771379,"line":5},{"time":2,"line":5,"station_name":"Taman Kota","station_id":"TKO","is_transit":false,"transit":false,"i_long":106.756522,"distance":1614,"i_lat":-6.1587309999999995},{"i_long":106.737035,"i_lat":-6.159876,"is_transit":false,"station_name":"Bojongindah","distance":2334,"line":5,"transit":false,"station_id":"BOI","time":2},{"is_transit":false,"station_id":"RW","transit":false,"time":4,"station_name":"Rawa Buaya","distance":1152,"i_long":106.723064,"i_lat":-6.162758,"line":5},{"distance":2504,"i_lat":-6.166068,"is_transit":false,"time":3,"transit":false,"station_name":"Kalideres","i_long":106.701612,"line":5,"station_id":"KDS"},{"i_long":106.679458,"time":3,"i_lat":-6.169933,"is_transit":false,"distance":2548,"line":5,"station_id":"PI","station_name":"Poris","transit":false}],[{"line":1,"station_id":"CIT","i_lat":-6.261877,"distance":0,"station_name":"Cibitung","is_transit":false,"transit":false,"time":0,"i_long":107.083084},{"i_long":107.055722,"time":3,"line":1,"station_id":"TB","station_name":"Tambun","is_transit":false,"distance":3420,"i_lat":-6.258864,"transit":false},{"distance":4460,"time":7,"line":1,"i_long":107.016735,"station_id":"BKST","is_transit":false,"i_lat":-6.248029,"transit":false,"station_name":"Bekasi Timur"},{"distance":2368,"transit":false,"i_lat":-6.236616,"station_name":"Bekasi","time":2,"is_transit":false,"line":1,"station_id":"BKS","i_long":106.997013},{"i_lat":-6.224515,"station_id":"KRI","line":1,"station_name":"Kranji","time":4,"is_transit":false,"distance":2520,"transit":false,"i_long":106.977657},{"transit":false,"station_name":"Cakung","distance":3097,"is_transit":false,"time":3,"i_long":106.951283,"station_id":"CUK","line":1,"i_lat":-6.219053},{"i_long":106.939679,"line":1,"distance":1385,"is_transit":false,"station_name":"Klenderbaru","station_id":"KLDB","time":8,"i_lat":-6.217455,"transit":false},{"i_lat":-6.215568,"time":1,"station_id":"BUA","is_transit":false,"distance":1305,"i_long":106.922662,"transit":false,"station_name":"Buaran","line":1},{"is_transit":false,"distance":3100,"time":2,"line":1,"station_name":"Klender","i_lat":-6.2135,"i_long":106.899548,"transit":false,"station_id":"KLD"},{"transit":false,"distance":3395,"station_name":"Jatinegara","station_id":"JNG","i_long":106.86807400000001,"is_transit":false,"i_lat":-6.215091,"line":1,"time":3},{"is_transit":false,"i_lat":-6.212485,"i_long":106.858896,"transit":false,"time":2,"station_name":"Matraman","station_id":"MTR","distance":1377,"line":1},{"is_transit":true,"i_long":106.84912,"time":2,"station_name":"Manggarai","station_id":"MRI","distance":1275,"transit":true,"i_lat":-6.209883,"line":2},{"station_id":"CKI","line":2,"is_transit":false,"transit":false,"station_name":"Cikini","time":4,"distance":1590,"i_long":106.840169,"i_lat":-6.198556},{"is_transit":false,"line":2,"i_lat":-6.186295,"time":3,"station_name":"Gondangdia","distance":1750,"transit":false,"i_long":106.832183,"station_id":"GDD"},{"line":2,"is_transit":false,"transit":false,"time":4,"station_name":"Juanda","station_id":"JUA","distance":2015,"i_lat":-6.166716,"i_long":106.828284},{"distance":1149,"i_lat":-6.160725,"line":2,"station_id":"SW","transit":false,"time":2,"station_name":"Sawah Besar","is_transit":false,"i_long":106.827103},{"distance":906,"i_long":106.82482,"transit":false,"is_transit":false,"i_lat":-6.149769,"station_name":"Manggabesar","station_id":"MGB","line":2,"time":2},{"station_id":"JAY","distance":1080,"line":2,"transit":false,"is_transit":false,"i_lat":-6.141205,"station_name":"Jayakarta","i_long":106.820901,"time":2},{"line":2,"i_long":106.812439,"station_id":"JAKK","station_name":"Jakarta Kota","time":4,"transit":true,"distance":1264,"i_lat":-6.137569,"is_transit":true},{"i_long":106.826365,"station_id":"KPB","transit":true,"line":4,"station_name":"Kampung Bandan","time":3,"i_lat":-6.132549,"distance":1364,"is_transit":true},{"is_transit":false,"line":1,"transit":false,"station_id":"AK","time":9,"distance":4102,"i_long":106.79867,"station_name":"Angke","i_lat":-6.144674},{"distance":1230,"i_long":106.800832,"transit":true,"is_transit":true,"line":1,"time":4,"station_name":"Duri","i_lat":-6.155215,"station_id":"DU"},{"i_lat":-6.162021,"is_transit":false,"line":5,"time":3,"distance":1700,"i_long":106.788277,"transit":false,"station_id":"GGL","station_name":"Grogol"},{"station_id":"PSG","time":2,"i_long":106.771379,"distance":2036,"line":5,"is_transit":false,"transit":false,"i_lat":-6.161433,"station_name":"Pesing"},{"station_id":"TKO","line":5,"transit":false,"station_name":"Taman Kota","i_long":106.756522,"i_lat":-6.1587309999999995,"time":2,"is_transit":false,"distance":1614},{"station_name":"Bojongindah","station_id":"BOI","i_long":106.737035,"distance":2334,"time":2,"transit":false,"line":5,"i_lat":-6.159876,"is_transit":false},{"station_name":"Rawa Buaya","is_transit":false,"i_lat":-6.162758,"distance":1152,"transit":false,"i_long":106.723064,"line":5,"station_id":"RW","time":4},{"i_long":106.701612,"distance":2504,"i_lat":-6.166068,"line":5,"transit":false,"is_transit":false,"time":3,"station_name":"Kalideres","station_id":"KDS"},{"station_name":"Poris","distance":2548,"transit":false,"is_transit":false,"i_long":106.679458,"time":3,"i_lat":-6.169933,"line":5,"station_id":"PI"}],[{"station_name":"Cibitung","is_transit":false,"station_id":"CIT","distance":0,"i_long":107.083084,"line":1,"i_lat":-6.261877,"transit":false,"time":0},{"i_lat":-6.258864,"station_name":"Tambun","i_long":107.055722,"distance":3420,"station_id":"TB","time":3,"is_transit":false,"transit":false,"line":1},{"station_name":"Bekasi Timur","i_lat":-6.248029,"transit":false,"station_id":"BKST","time":7,"is_transit":false,"distance":4460,"i_long":107.016735,"line":1},{"station_id":"BKS","i_long":106.997013,"transit":false,"station_name":"Bekasi","time":2,"i_lat":-6.236616,"is_transit":false,"line":1,"distance":2368},{"station_name":"Kranji","distance":2520,"transit":false,"is_transit":false,"i_lat":-6.224515,"time":4,"line":1,"station_id":"KRI","i_long":106.977657},{"station_id":"CUK","line":1,"i_long":106.951283,"station_name":"Cakung","is_transit":false,"time":3,"transit":false,"distance":3097,"i_lat":-6.219053},{"is_transit":false,"i_long":106.939679,"i_lat":-6.217455,"station_id":"KLDB","line":1,"transit":false,"time":8,"station_name":"Klenderbaru","distance":1385},{"station_id":"BUA","distance":1305,"line":1,"transit":false,"i_lat":-6.215568,"i_long":106.922662,"is_transit":false,"time":1,"station_name":"Buaran"},{"i_lat":-6.2135,"distance":3100,"line":1,"station_id":"KLD","i_long":106.899548,"time":2,"station_name":"Klender","is_transit":false,"transit":false},{"i_lat":-6.215091,"i_long":106.86807400000001,"line":1,"station_name":"Jatinegara","station_id":"JNG","is_transit":true,"transit":true,"distance":3395,"time":3},{"station_id":"POK","distance":1236,"i_lat":-6.209188,"time":2,"line":11,"transit":false,"is_transit":false,"i_long":106.861737,"station_name":"Pondok Jati"},{"station_name":"Kramat","i_lat":-6.193792,"transit":false,"i_long":106.855437,"time":2,"station_id":"KMT","is_transit":false,"distance":1829,"line":11},{"station_name":"Gang Sentiong","distance":973,"i_lat":-6.185975,"station_id":"GST","time":1,"transit":false,"line":11,"is_transit":false,"i_long":106.850107},{"distance":1567,"transit":false,"station_id":"PSE","time":8,"station_name":"Pasar Senen","is_transit":false,"line":11,"i_lat":-6.174784,"i_long":106.84368},{"is_transit":false,"i_long":106.839204,"line":11,"station_id":"KMO","time":4,"distance":1436,"i_lat":-6.161728,"transit":false,"station_name":"Kemayoran"},{"station_name":"Rajawali","transit":false,"i_lat":-6.14505,"line":11,"i_long":106.836569,"distance":1901,"station_id":"RJW","time":5,"is_transit":false},{"station_name":"Kampung Bandan","i_lat":-6.132549,"station_id":"KPB","time":3,"is_transit":true,"line":4,"transit":true,"distance":1444,"i_long":106.826365},{"distance":1364,"time":3,"transit":true,"station_id":"JAKK","is_transit":true,"i_long":106.812439,"i_lat":-6.137569,"station_name":"Jakarta Kota","line":2},{"transit":false,"distance":1264,"i_long":106.820901,"i_lat":-6.141205,"is_transit":false,"station_id":"JAY","line":2,"time":4,"station_name":"Jayakarta"},{"station_name":"Manggabesar","i_long":106.82482,"line":2,"i_lat":-6.149769,"time":2,"is_transit":false,"distance":1080,"transit":false,"station_id":"MGB"},{"i_long":106.827103,"line":2,"transit":false,"station_name":"Sawah Besar","station_id":"SW","time":2,"i_lat":-6.160725,"is_transit":false,"distance":906},{"is_transit":false,"distance":1149,"i_long":106.828284,"i_lat":-6.166716,"station_name":"Juanda","line":2,"transit":false,"station_id":"JUA","time":2},{"transit":false,"line":2,"time":4,"i_lat":-6.186295,"station_name":"Gondangdia","station_id":"GDD","is_transit":false,"distance":2015,"i_long":106.832183},{"time":3,"i_lat":-6.198556,"is_transit":false,"station_name":"Cikini","station_id":"CKI","i_long":106.840169,"transit":false,"distance":1750,"line":2},{"is_transit":true,"line":2,"time":4,"station_name":"Manggarai","transit":true,"distance":1590,"i_lat":-6.209883,"i_long":106.84912,"station_id":"MRI"},{"station_id":"SUD","transit":false,"is_transit":false,"i_lat":-6.202263,"time":4,"distance":3186,"i_long":106.822649,"station_name":"Sudirman","line":1},{"is_transit":false,"i_lat":-6.201433,"station_name":"Sudirman Baru","distance":280,"transit":false,"station_id":"SUDB","time":1,"i_long":106.819881,"line":1},{"i_lat":-6.20132,"i_long":106.816351,"time":1,"station_id":"KAT","is_transit":false,"transit":false,"line":1,"distance":471,"station_name":"Karet"},{"station_name":"Tanah Abang","distance":2029,"i_lat":-6.185545,"line":1,"time":5,"i_long":106.811091,"transit":false,"station_id":"THB","is_transit":false},{"distance":3632,"i_long":106.800832,"transit":true,"station_name":"Duri","time":8,"line":1,"i_lat":-6.155215,"is_transit":true,"station_id":"DU"},{"station_id":"GGL","station_name":"Grogol","time":3,"line":5,"transit":false,"distance":1700,"i_lat":-6.162021,"i_long":106.788277,"is_transit":false},{"transit":false,"line":5,"i_lat":-6.161433,"i_long":106.771379,"is_transit":false,"time":2,"station_id":"PSG","station_name":"Pesing","distance":2036},{"station_name":"Taman Kota","i_lat":-6.1587309999999995,"i_long":106.756522,"distance":1614,"station_id":"TKO","transit":false,"line":5,"time":2,"is_transit":false},{"station_id":"BOI","is_transit":false,"transit":false,"time":2,"i_lat":-6.159876,"i_long":106.737035,"station_name":"Bojongindah","distance":2334,"line":5},{"transit":false,"station_name":"Rawa Buaya","time":4,"is_transit":false,"station_id":"RW","i_lat":-6.162758,"distance":1152,"i_long":106.723064,"line":5},{"station_id":"KDS","i_lat":-6.166068,"time":3,"transit":false,"line":5,"is_transit":false,"i_long":106.701612,"station_name":"Kalideres","distance":2504},{"distance":2548,"i_long":106.679458,"line":5,"is_transit":false,"station_id":"PI","station_name":"Poris","i_lat":-6.169933,"transit":false,"time":3}]]}