{"data":[[{"distance":0,"station_name":"Cibitung","time":0,"transit":false,"is_transit":false,"i_lat":-6.261877,"line":1,"station_id":"CIT","i_long":107.083084},{"transit":false,"time":3,"line":1,"is_transit":false,"distance":3420,"i_lat":-6.258864,"station_name":"Tambun","station_id":"TB","i_long":107.055722},{"station_name":"Bekasi Timur","transit":false,"i_long":107.016735,"station_id":"BKST","time":7,"distance":4460,"is_transit":false,"i_lat":-6.248029,"line":1},{"station_name":"Bekasi","i_lat":-6.236616,"i_long":106.997013,"line":1,"time":2,"is_transit":false,"station_id":"BKS","transit":false,"distance":2368},{"i_lat":-6.224515,"line":1,"station_name":"Kranji","i_long":106.977657,"distance":2520,"is_transit":false,"station_id":"KRI","transit":false,"time":4},{"is_transit":false,"station_id":"CUK","time":3,"i_lat":-6.219053,"station_name":"Cakung","i_long":106.951283,"line":1,"transit":false,"distance":3097},{"distance":1385,"i_long":106.939679,"station_id":"KLDB","time":8,"station_name":"Klenderbaru","transit":false,"is_transit":false,"line":1,"i_lat":-6.217455},{"is_transit":false,"i_lat":-6.215568,"transit":false,"time":1,"station_id":"BUA","station_name":"Buaran","line":1,"distance":1305,"i_long":106.922662},{"station_id":"KLD","station_name":"Klender","is_transit":false,"line":1,"i_long":106.899548,"time":2,"distance":3100,"i_lat":-6.2135,"transit":false},{"i_long":106.86807400000001,"is_transit":false,"line":1,"station_id":"JNG","transit":false,"station_name":"Jatinegara","time":3,"i_lat":-6.215091,"distance":3395},{"i_lat":-6.212485,"i_long":106.858896,"time":2,"distance":1377,"is_transit":false,"station_id":"MTR","line":1,"station_name":"Matraman","transit":false},{"is_transit":false,"i_lat":-6.209883,"line":2,"station_id":"MRI","i_long":106.84912,"transit":false,"distance":1275,"station_name":"Manggarai","time":2},{"line":1,"station_name":"Sudirman","transit":false,"time":4,"distance":3186,"is_transit":false,"i_long":106.822649,"station_id":"SUD","i_lat":-6.202263},{"i_long":106.819881,"line":1,"i_lat":-6.201433,"station_name":"Sudirman Baru","transit":false,"time":1,"is_transit":false,"distance":280,"station_id":"SUDB"},{"transit":false,"i_long":106.816351,"time":1,"distance":471,"station_name":"Karet","station_id":"KAT","i_lat":-6.20132,"line":1,"is_transit":false},{"transit":true,"time":5,"i_lat":-6.185545,"line":1,"station_name":"Tanah Abang","distance":2029,"station_id":"THB","i_long":106.811091,"is_transit":true},{"transit":false,"distance":3191,"i_long":106.79689,"station_id":"PLM","station_name":"Palmerah","line":6,"i_lat":-6.207404,"time":6,"is_transit":false},{"line":6,"transit":false,"time":7,"station_name":"Kebayoran","is_transit":false,"i_lat":-6.237242,"station_id":"KBY","distance":3737,"i_long":106.780334},{"transit":false,"station_id":"PDJ","i_long":106.74273,"time":8,"line":6,"is_transit":false,"i_lat":-6.276362,"distance":6218,"station_name":"Pondokranji"},{"transit":false,"distance":2179,"is_transit":false,"station_id":"JMU","station_name":"Jurangmangu","i_long":106.728916,"line":6,"time":3,"i_lat":-6.288927}],[{"station_id":"CIT","line":1,"transit":false,"i_lat":-6.261877,"time":0,"distance":0,"is_transit":false,"i_long":107.083084,"station_name":"Cibitung"},{"is_transit":false,"time":3,"i_long":107.055722,"station_id":"TB","transit":false,"i_lat":-6.258864,"line":1,"station_name":"Tambun","distance":3420},{"is_transit":false,"transit":false,"station_id":"BKST","time":7,"i_lat":-6.248029,"station_name":"Bekasi Timur","i_long":107.016735,"distance":4460,"line":1},{"station_name":"Bekasi","i_lat":-6.236616,"line":1,"station_id":"BKS","is_transit":false,"transit":false,"time":2,"distance":2368,"i_long":106.997013},{"time":4,"station_id":"KRI","distance":2520,"transit":false,"is_transit":false,"i_long":106.977657,"station_name":"Kranji","i_lat":-6.224515,"line":1},{"i_lat":-6.219053,"line":1,"station_name":"Cakung","i_long":106.951283,"time":3,"transit":false,"distance":3097,"station_id":"CUK","is_transit":false},{"line":1,"is_transit":false,"transit":false,"i_lat":-6.217455,"station_name":"Klenderbaru","time":8,"distance":1385,"i_long":106.939679,"station_id":"KLDB"},{"i_long":106.922662,"station_name":"Buaran","distance":1305,"line":1,"is_transit":false,"transit":false,"station_id":"BUA","time":1,"i_lat":-6.215568},{"time":2,"i_lat":-6.2135,"station_name":"Klender","is_transit":false,"station_id":"KLD","line":1,"transit":false,"distance":3100,"i_long":106.899548},{"time":3,"i_lat":-6.215091,"i_long":106.86807400000001,"line":1,"is_transit":true,"station_id":"JNG","station_name":"Jatinegara","distance":3395,"transit":true},{"is_transit":false,"line":11,"transit":false,"i_lat":-6.209188,"station_id":"POK","distance":1236,"station_name":"Pondok Jati","time":2,"i_long":106.861737},{"transit":false,"station_name":"Kramat","line":11,"time":2,"station_id":"KMT","i_long":106.855437,"i_lat":-6.193792,"distance":1829,"is_transit":false},{"i_long":106.850107,"distance":973,"i_lat":-6.185975,"line":11,"time":1,"is_transit":false,"station_name":"Gang Sentiong","transit":false,"station_id":"GST"},{"time":8,"line":11,"transit":false,"distance":1567,"station_id":"PSE","station_name":"Pasar Senen","i_lat":-6.174784,"is_transit":false,"i_long":106.84368},{"line":11,"station_name":"Kemayoran","time":4,"is_transit":false,"station_id":"KMO","distance":1436,"transit":false,"i_lat":-6.161728,"i_long":106.839204},{"time":5,"station_id":"RJW","distance":1901,"is_transit":false,"i_long":106.836569,"i_lat":-6.14505,"line":11,"station_name":"Rajawali","transit":false},{"station_id":"KPB","station_name":"Kampung Bandan","time":3,"distance":1444,"i_long":106.826365,"line":4,"transit":true,"i_lat":-6.132549,"is_transit":true},{"i_long":106.79867,"is_transit":false,"station_id":"AK","distance":4102,"time":9,"transit":false,"line":1,"i_lat":-6.144674,"station_name":"Angke"},{"station_name":"Duri","distance":1230,"is_transit":false,"i_long":106.800832,"line":1,"time":4,"station_id":"DU","i_lat":-6.155215,"transit":false},{"station_id":"THB","transit":true,"station_name":"Tanah Abang","i_lat":-6.185545,"i_long":106.811091,"distance":3632,"time":8,"is_transit":true,"line":1},{"is_transit":false,"line":6,"station_name":"Palmerah","station_id":"PLM","i_lat":-6.207404,"i_long":106.79689,"transit":false,"time":6,"distance":3191},{"time":7,"is_transit":false,"i_long":106.780334,"station_name":"Kebayoran","i_lat":-6.237242,"line":6,"transit":false,"station_id":"KBY","distance":3737},{"line":6,"station_name":"Pondokranji","i_lat":-6.276362,"i_long":106.74273,"distance":6218,"time":8,"transit":false,"station_id":"PDJ","is_transit":false},{"i_lat":-6.288927,"i_long":106.728916,"line":6,"is_transit":false,"station_id":"JMU","station_name":"Jurangmangu","transit":false,"time":3,"distance":2179}],[{"transit":false,"i_lat":-6.261877,"i_long":107.083084,"time":0,"station_id":"CIT","distance":0,"station_name":"Cibitung","is_transit":false,"line":1},{"station_id":"TB","i_lat":-6.258864,"i_long":107.055722,"distance":3420,"station_name":"Tambun","line":1,"is_transit":false,"transit":false,"time":3},{"station_id":"BKST","i_lat":-6.248029,"station_name":"Bekasi Timur","transit":false,"time":7,"line":1,"is_transit":false,"distance":4460,"i_long":107.016735},{"time":2,"distance":2368,"is_transit":false,"i_lat":-6.236616,"i_long":106.997013,"station_id":"BKS","transit":false,"line":1,"station_name":"Bekasi"},{"i_lat":-6.224515,"distance":2520,"station_id":"KRI","is_transit":false,"station_name":"Kranji","time":4,"i_long":106.977657,"transit":false,"line":1},{"station_name":"Cakung","i_lat":-6.219053,"is_transit":false,"i_long":106.951283,"transit":false,"time":3,"line":1,"station_id":"CUK","distance":3097},{"transit":false,"station_id":"KLDB","i_long":106.939679,"distance":1385,"time":8,"i_lat":-6.217455,"is_transit":false,"line":1,"station_name":"Klenderbaru"},{"is_transit":false,"i_lat":-6.215568,"time":1,"distance":1305,"line":1,"transit":false,"station_id":"BUA","i_long":106.922662,"station_name":"Buaran"},{"is_transit":false,"line":1,"distance":3100,"i_long":106.899548,"transit":false,"station_id":"KLD","station_name":"Klender","i_lat":-6.2135,"time":2},{"distance":3395,"is_transit":false,"station_name":"Jatinegara","station_id":"JNG","i_lat":-6.215091,"transit":false,"i_long":106.86807400000001,"line":1,"time":3},{"station_name":"Matraman","is_transit":false,"line":1,"distance":1377,"time":2,"transit":false,"i_long":106.858896,"station_id":"MTR","i_lat":-6.212485},{"time":2,"i_long":106.84912,"distance":1275,"i_lat":-6.209883,"station_name":"Manggarai","is_transit":true,"line":2,"transit":true,"station_id":"MRI"},{"transit":false,"station_id":"CKI","i_lat":-6.198556,"station_name":"Cikini","time":4,"distance":1590,"is_transit":false,"i_long":106.840169,"line":2},{"station_name":"Gondangdia","line":2,"transit":false,"i_long":106.832183,"time":3,"distance":1750,"is_transit":false,"i_lat":-6.186295,"station_id":"GDD"},{"station_id":"JUA","time":4,"transit":false,"distance":2015,"station_name":"Juanda","is_transit":false,"i_long":106.828284,"i_lat":-6.166716,"line":2},{"station_name":"Sawah Besar","is_transit":false,"distance":1149,"i_long":106.827103,"line":2,"station_id":"SW","i_lat":-6.160725,"transit":false,"time":2},{"line":2,"station_name":"Manggabesar","distance":906,"is_transit":false,"i_long":106.82482,"i_lat":-6.149769,"station_id":"MGB","transit":false,"time":2},{"station_name":"Jayakarta","line":2,"i_long":106.820901,"i_lat":-6.141205,"station_id":"JAY","time":2,"distance":1080,"transit":false,"is_transit":false},{"line":2,"i_lat":-6.137569,"is_transit":true,"station_name":"Jakarta Kota","distance":1264,"time":4,"transit":true,"station_id":"JAKK","i_long":106.812439},{"i_lat":-6.132549,"time":3,"i_long":106.826365,"line":4,"station_name":"Kampung Bandan","transit":true,"station_id":"KPB","distance":1364,"is_transit":true},{"time":9,"station_id":"AK","i_long":106.79867,"station_name":"Angke","line":1,"transit":false,"distance":4102,"is_transit":false,"i_lat":-6.144674},{"time":4,"station_id":"DU","distance":1230,"is_transit":false,"i_lat":-6.155215,"i_long":106.800832,"transit":false,"line":1,"station_name":"Duri"},{"is_transit":true,"transit":true,"line":1,"station_name":"Tanah Abang","time":8,"i_long":106.811091,"i_lat":-6.185545,"distance":3632,"station_id":"THB"},{"time":6,"transit":false,"line":6,"station_name":"Palmerah","distance":3191,"i_long":106.79689,"is_transit":false,"i_lat":-6.207404,"station_id":"PLM"},{"transit":false,"i_long":106.780334,"station_name":"Kebayoran","i_lat":-6.237242,"line":6,"time":7,"station_id":"KBY","distance":3737,"is_transit":false},{"i_long":106.74273,"station_name":"Pondokranji","time":8,"line":6,"transit":false,"distance":6218,"station_id":"PDJ","is_transit":false,"i_lat":-6.276362},{"transit":false,"is_transit":false,"station_id":"JMU","line":6,"i_lat":-6.288927,"station_name":"Jurangmangu","distance":2179,"i_long":106.728916,"time":3}],[{"i_lat":-6.261877,"line":1,"is_transit":false,"station_name":"Cibitung","transit":false,"station_id":"CIT","i_long":107.083084,"distance":0,"time":0},{"time":3,"line":1,"transit":false,"distance":3420,"station_id":"TB","is_transit":false,"station_name":"Tambun","i_lat":-6.258864,"i_long":107.055722},{"transit":false,"is_transit":false,"station_name":"Bekasi Timur","i_lat":-6.248029,"i_long":107.016735,"time":7,"station_id":"BKST","line":1,"distance":4460},{"station_name":"Bekasi","transit":false,"time":2,"distance":2368,"is_transit":false,"line":1,"i_lat":-6.236616,"i_long":106.997013,"station_id":"BKS"},{"is_transit":false,"i_long":106.977657,"transit":false,"time":4,"station_name":"Kranji","i_lat":-6.224515,"station_id":"KRI","distance":2520,"line":1},{"transit":false,"i_long":106.951283,"line":1,"station_name":"Cakung","distance":3097,"is_transit":false,"station_id":"CUK","i_lat":-6.219053,"time":3},{"time":8,"is_transit":false,"station_name":"Klenderbaru","station_id":"KLDB","distance":1385,"i_lat":-6.217455,"line":1,"i_long":106.939679,"transit":false},{"is_transit":false,"station_name":"Buaran","transit":false,"i_lat":-6.215568,"time":1,"i_long":106.922662,"line":1,"distance":1305,"station_id":"BUA"},{"i_long":106.899548,"line":1,"station_name":"Klender","i_lat":-6.2135,"distance":3100,"transit":false,"is_transit":false,"station_id":"KLD","time":2},{"distance":3395,"i_long":106.86807400000001,"station_name":"Jatinegara","transit":true,"time":3,"line":1,"station_id":"JNG","is_transit":true,"i_lat":-6.215091},{"is_transit":false,"line":11,"station_name":"Pondok Jati","transit":false,"station_id":"POK","i_lat":-6.209188,"i_long":106.861737,"time":2,"distance":1236},{"transit":false,"i_long":106.855437,"is_transit":false,"station_id":"KMT","distance":1829,"time":2,"line":11,"station_name":"Kramat","i_lat":-6.193792},{"distance":973,"i_lat":-6.185975,"transit":false,"line":11,"station_name":"Gang Sentiong","is_transit":false,"i_long":106.850107,"time":1,"station_id":"GST"},{"transit":false,"time":8,"is_transit":false,"line":11,"station_id":"PSE","station_name":"Pasar Senen","i_lat":-6.174784,"distance":1567,"i_long":106.84368},{"time":4,"station_name":"Kemayoran","i_long":106.839204,"line":11,"i_lat":-6.161728,"distance":1436,"transit":false,"is_transit":false,"station_id":"KMO"},{"i_long":106.836569,"is_transit":false,"transit":false,"line":11,"time":5,"distance":1901,"station_name":"Rajawali","station_id":"RJW","i_lat":-6.14505},{"line":4,"station_name":"Kampung Bandan","time":3,"distance":1444,"station_id":"KPB","is_transit":true,"i_lat":-6.132549,"transit":true,"i_long":106.826365},{"is_transit":true,"station_name":"Jakarta Kota","distance":1364,"line":2,"i_long":106.812439,"i_lat":-6.137569,"station_id":"JAKK","transit":true,"time":3},{"station_name":"Jayakarta","is_transit":false,"transit":false,"distance":1264,"station_id":"JAY","i_long":106.820901,"line":2,"i_lat":-6.141205,"time":4},{"time":2,"station_id":"MGB","is_transit":false,"line":2,"station_name":"Manggabesar","distance":1080,"i_lat":-6.149769,"i_long":106.82482,"transit":false},{"i_long":106.827103,"station_id":"SW","transit":false,"distance":906,"is_transit":false,"station_name":"Sawah Besar","line":2,"time":2,"i_lat":-6.160725},{"time":2,"is_transit":false,"line":2,"i_lat":-6.166716,"transit":false,"distance":1149,"i_long":106.828284,"station_id":"JUA","station_name":"Juanda"},{"is_transit":false,"time":4,"i_long":106.832183,"distance":2015,"i_lat":-6.186295,"station_name":"Gondangdia","station_id":"GDD","line":2,"transit":false},{"transit":false,"distance":1750,"i_lat":-6.198556,"i_long":106.840169,"is_transit":false,"station_name":"Cikini","time":3,"station_id":"CKI","line":2},{"distance":1590,"line":2,"transit":true,"i_long":106.84912,"is_transit":true,"station_name":"Manggarai","time":4,"i_lat":-6.209883,"station_id":"MRI"},{"station_id":"SUD","i_long":106.822649,"line":1,"station_name":"Sudirman","i_lat":-6.202263,"time":4,"distance":3186,"is_transit":false,"transit":false},{"transit":false,"is_transit":false,"line":1,"station_id":"SUDB","distance":280,"station_name":"Sudirman Baru","i_lat":-6.201433,"i_long":106.819881,"time":1},{"station_id":"KAT","distance":471,"i_lat":-6.20132,"station_name":"Karet","time":1,"i_long":106.816351,"line":1,"is_transit":false,"transit":false},{"station_id":"THB","station_name":"Tanah Abang","transit":true,"distance":2029,"i_long":106.811091,"is_transit":true,"time":5,"line":1,"i_lat":-6.185545},{"transit":false,"station_id":"PLM","i_lat":-6.207404,"distance":3191,"time":6,"is_transit":false,"i_long":106.79689,"line":6,"station_name":"Palmerah"},{"station_id":"KBY","transit":false,"i_lat":-6.237242,"time":7,"i_long":106.780334,"is_transit":false,"line":6,"station_name":"Kebayoran","distance":3737},{"time":8,"transit":false,"i_long":106.74273,"line":6,"i_lat":-6.276362,"distance":6218,"station_name":"Pondokranji","is_transit":false,"station_id":"PDJ"},{"station_id":"JMU","distance":2179,"i_lat":-6.288927,"transit":false,"i_long":106.728916,"time":3,"is_transit":false,"station_name":"Jurangmangu","line":6}]]}