{"data":[[{"station_id":"CIT","transit":false,"is_transit":false,"station_name":"Cibitung","i_long":107.083084,"line":1,"time":0,"i_lat":-6.261877,"distance":0},{"station_name":"Tambun","line":1,"transit":false,"time":3,"i_lat":-6.258864,"distance":3420,"is_transit":false,"station_id":"TB","i_long":107.055722},{"time":7,"line":1,"is_transit":false,"i_lat":-6.248029,"station_id":"BKST","i_long":107.016735,"distance":4460,"transit":false,"station_name":"Bekasi Timur"},{"distance":2368,"is_transit":false,"i_lat":-6.236616,"i_long":106.997013,"station_id":"BKS","station_name":"Bekasi","transit":false,"line":1,"time":2},{"distance":2520,"time":4,"transit":false,"i_lat":-6.224515,"station_name":"Kranji","i_long":106.977657,"is_transit":false,"line":1,"station_id":"KRI"},{"is_transit":false,"time":3,"distance":3097,"station_id":"CUK","station_name":"Cakung","i_lat":-6.219053,"line":1,"transit":false,"i_long":106.951283},{"station_name":"Klenderbaru","station_id":"KLDB","distance":1385,"i_lat":-6.217455,"is_transit":false,"line":1,"time":8,"i_long":106.939679,"transit":false},{"time":1,"transit":false,"line":1,"i_lat":-6.215568,"is_transit":false,"distance":1305,"i_long":106.922662,"station_id":"BUA","station_name":"Buaran"},{"is_transit":false,"i_long":106.899548,"time":2,"station_id":"KLD","distance":3100,"station_name":"Klender","i_lat":-6.2135,"transit":false,"line":1},{"i_lat":-6.215091,"distance":3395,"transit":false,"station_name":"Jatinegara","time":3,"i_long":106.86807400000001,"line":1,"is_transit":false,"station_id":"JNG"},{"time":2,"is_transit":false,"i_long":106.858896,"transit":false,"i_lat":-6.212485,"line":1,"station_id":"MTR","station_name":"Matraman","distance":1377},{"transit":true,"station_name":"Manggarai","i_long":106.84912,"is_transit":true,"station_id":"MRI","time":2,"line":2,"i_lat":-6.209883,"distance":1275},{"i_long":106.857948,"distance":2610,"i_lat":-6.226659,"station_name":"Tebet","station_id":"TEB","line":2,"transit":false,"time":4,"is_transit":false},{"i_lat":-6.242512,"line":2,"station_id":"CW","distance":1230,"time":2,"transit":false,"station_name":"Cawang","is_transit":false,"i_long":106.856607},{"station_name":"Duren Kalibata","distance":1546,"time":3,"i_lat":-6.255332,"line":2,"station_id":"DRN","i_long":106.85449,"transit":false,"is_transit":false},{"i_long":106.851577,"distance":824,"is_transit":false,"i_lat":-6.263214,"station_name":"Pasar Minggu Baru","station_id":"PSMB","line":2,"transit":false,"time":2},{"i_long":106.843999,"station_name":"Pasar Minggu","line":2,"station_id":"PSM","is_transit":false,"transit":false,"time":2,"distance":2380,"i_lat":-6.2842400000000005},{"time":4,"i_long":106.838896,"station_id":"TNT","station_name":"Tanjung Barat","transit":false,"i_lat":-6.3080680000000005,"distance":2820,"is_transit":false,"line":2},{"is_transit":false,"time":3,"distance":2671,"i_lat":-6.330363,"i_long":106.832616,"station_id":"LNA","transit":false,"station_name":"Lenteng Agung","line":2},{"line":2,"i_lat":-6.339291,"station_name":"Univ. Pancasila","station_id":"UP","i_long":106.834175,"time":2,"distance":1029,"transit":false,"is_transit":false},{"transit":false,"time":3,"line":2,"station_id":"UI","i_lat":-6.360749,"i_long":106.831474,"is_transit":false,"distance":2264,"station_name":"Univ. Indonesia"},{"is_transit":false,"station_id":"POC","transit":false,"i_long":106.831114,"time":2,"station_name":"Pondok Cina","distance":1109,"line":2,"i_lat":-6.369073},{"time":4,"is_transit":false,"line":2,"i_lat":-6.391065,"transit":false,"station_name":"Depokbaru","distance":2727,"station_id":"DPB","i_long":106.819451},{"transit":false,"i_lat":-6.405256,"is_transit":false,"time":3,"distance":1584,"station_name":"Depok","line":2,"station_id":"DP","i_long":106.816926},{"is_transit":true,"station_name":"Citayam","distance":5084,"transit":true,"i_lat":-6.448811,"i_long":106.800298,"line":2,"time":6,"station_id":"CTA"},{"is_transit":false,"distance":0,"i_lat":-6.460735,"line":21,"time":0,"i_long":106.824374,"station_name":"Pondok Rajeg","station_id":"PDRG","transit":false}],[{"distance":0,"time":0,"line":1,"is_transit":false,"station_id":"CIT","station_name":"Cibitung","i_lat":-6.261877,"transit":false,"i_long":107.083084},{"transit":false,"line":1,"station_id":"TB","is_transit":false,"i_lat":-6.258864,"distance":3420,"i_long":107.055722,"time":3,"station_name":"Tambun"},{"line":1,"is_transit":false,"station_name":"Bekasi Timur","i_long":107.016735,"station_id":"BKST","transit":false,"time":7,"distance":4460,"i_lat":-6.248029},{"i_long":106.997013,"time":2,"distance":2368,"station_name":"Bekasi","transit":false,"station_id":"BKS","is_transit":false,"i_lat":-6.236616,"line":1},{"time":4,"i_lat":-6.224515,"line":1,"i_long":106.977657,"station_name":"Kranji","is_transit":false,"transit":false,"station_id":"KRI","distance":2520},{"time":3,"is_transit":false,"distance":3097,"i_long":106.951283,"i_lat":-6.219053,"transit":false,"station_name":"Cakung","line":1,"station_id":"CUK"},{"station_name":"Klenderbaru","distance":1385,"transit":false,"i_long":106.939679,"station_id":"KLDB","time":8,"is_transit":false,"i_lat":-6.217455,"line":1},{"time":1,"line":1,"station_id":"BUA","distance":1305,"station_name":"Buaran","i_lat":-6.215568,"i_long":106.922662,"transit":false,"is_transit":false},{"is_transit":false,"i_lat":-6.2135,"transit":false,"time":2,"i_long":106.899548,"station_id":"KLD","line":1,"station_name":"Klender","distance":3100},{"i_lat":-6.215091,"i_long":106.86807400000001,"station_name":"Jatinegara","distance":3395,"line":1,"transit":true,"station_id":"JNG","is_transit":true,"time":3},{"i_lat":-6.209188,"transit":false,"time":2,"is_transit":false,"station_name":"Pondok Jati","i_long":106.861737,"line":11,"station_id":"POK","distance":1236},{"is_transit":false,"station_name":"Kramat","transit":false,"distance":1829,"i_lat":-6.193792,"line":11,"time":2,"station_id":"KMT","i_long":106.855437},{"station_id":"GST","transit":false,"distance":973,"is_transit":false,"time":1,"station_name":"Gang Sentiong","i_long":106.850107,"line":11,"i_lat":-6.185975},{"station_id":"PSE","transit":false,"line":11,"i_lat":-6.174784,"is_transit":false,"time":8,"station_name":"Pasar Senen","distance":1567,"i_long":106.84368},{"time":4,"distance":1436,"station_name":"Kemayoran","i_long":106.839204,"line":11,"is_transit":false,"station_id":"KMO","i_lat":-6.161728,"transit":false},{"transit":false,"time":5,"station_id":"RJW","line":11,"distance":1901,"station_name":"Rajawali","is_transit":false,"i_lat":-6.14505,"i_long":106.836569},{"is_transit":true,"distance":1444,"station_id":"KPB","i_lat":-6.132549,"i_long":106.826365,"time":3,"transit":true,"line":4,"station_name":"Kampung Bandan"},{"is_transit":false,"station_id":"AK","i_lat":-6.144674,"line":1,"station_name":"Angke","transit":false,"i_long":106.79867,"distance":4102,"time":9},{"i_lat":-6.155215,"line":1,"station_name":"Duri","transit":false,"station_id":"DU","time":4,"is_transit":false,"i_long":106.800832,"distance":1230},{"transit":false,"station_name":"Tanah Abang","time":8,"i_long":106.811091,"i_lat":-6.185545,"line":1,"distance":3632,"station_id":"THB","is_transit":false},{"i_lat":-6.20132,"transit":false,"line":1,"i_long":106.816351,"time":5,"station_name":"Karet","station_id":"KAT","is_transit":false,"distance":2029},{"transit":false,"station_name":"Sudirman Baru","is_transit":false,"i_lat":-6.201433,"i_long":106.819881,"time":1,"line":1,"distance":471,"station_id":"SUDB"},{"time":1,"i_lat":-6.202263,"station_name":"Sudirman","line":1,"transit":false,"station_id":"SUD","distance":280,"is_transit":false,"i_long":106.822649},{"i_lat":-6.209883,"is_transit":true,"distance":3186,"line":2,"i_long":106.84912,"transit":true,"station_name":"Manggarai","station_id":"MRI","time":4},{"i_lat":-6.226659,"station_id":"TEB","is_transit":false,"distance":2610,"transit":false,"i_long":106.857948,"time":4,"station_name":"Tebet","line":2},{"is_transit":false,"station_name":"Cawang","time":2,"transit":false,"distance":1230,"station_id":"CW","i_lat":-6.242512,"i_long":106.856607,"line":2},{"station_id":"DRN","transit":false,"is_transit":false,"i_lat":-6.255332,"line":2,"station_name":"Duren Kalibata","time":3,"i_long":106.85449,"distance":1546},{"i_long":106.851577,"time":2,"station_name":"Pasar Minggu Baru","line":2,"station_id":"PSMB","distance":824,"is_transit":false,"i_lat":-6.263214,"transit":false},{"distance":2380,"station_name":"Pasar Minggu","station_id":"PSM","transit":false,"i_long":106.843999,"i_lat":-6.2842400000000005,"line":2,"is_transit":false,"time":2},{"station_name":"Tanjung Barat","i_lat":-6.3080680000000005,"line":2,"station_id":"TNT","i_long":106.838896,"time":4,"distance":2820,"is_transit":false,"transit":false},{"station_id":"LNA","time":3,"i_long":106.832616,"i_lat":-6.330363,"line":2,"is_transit":false,"distance":2671,"station_name":"Lenteng Agung","transit":false},{"station_id":"UP","transit":false,"is_transit":false,"time":2,"distance":1029,"i_lat":-6.339291,"line":2,"station_name":"Univ. Pancasila","i_long":106.834175},{"transit":false,"station_id":"UI","distance":2264,"i_long":106.831474,"line":2,"is_transit":false,"time":3,"i_lat":-6.360749,"station_name":"Univ. Indonesia"},{"line":2,"time":2,"i_long":106.831114,"i_lat":-6.369073,"station_id":"POC","transit":false,"station_name":"Pondok Cina","is_transit":false,"distance":1109},{"line":2,"distance":2727,"is_transit":false,"station_id":"DPB","time":4,"i_long":106.819451,"station_name":"Depokbaru","transit":false,"i_lat":-6.391065},{"line":2,"time":3,"i_long":106.816926,"transit":false,"station_id":"DP","distance":1584,"station_name":"Depok","is_transit":false,"i_lat":-6.405256},{"is_transit":true,"i_long":106.800298,"i_lat":-6.448811,"time":6,"station_id":"CTA","line":2,"station_name":"Citayam","distance":5084,"transit":true},{"is_transit":false,"station_id":"PDRG","transit":false,"distance":0,"line":21,"time":0,"station_name":"Pondok Rajeg","i_long":106.824374,"i_lat":-6.460735}],[{"station_name":"Cibitung","time":0,"i_long":107.083084,"station_id":"CIT","transit":false,"line":1,"is_transit":false,"i_lat":-6.261877,"distance":0},{"is_transit":false,"distance":3420,"station_name":"Tambun","station_id":"TB","i_lat":-6.258864,"time":3,"i_long":107.055722,"line":1,"transit":false},{"distance":4460,"i_lat":-6.248029,"time":7,"is_transit":false,"i_long":107.016735,"line":1,"transit":false,"station_name":"Bekasi Timur","station_id":"BKST"},{"station_id":"BKS","time":2,"i_lat":-6.236616,"transit":false,"is_transit":false,"station_name":"Bekasi","distance":2368,"line":1,"i_long":106.997013},{"station_id":"KRI","distance":2520,"i_long":106.977657,"time":4,"station_name":"Kranji","line":1,"i_lat":-6.224515,"transit":false,"is_transit":false},{"line":1,"is_transit":false,"time":3,"i_lat":-6.219053,"distance":3097,"station_id":"CUK","station_name":"Cakung","transit":false,"i_long":106.951283},{"transit":false,"station_name":"Klenderbaru","line":1,"i_long":106.939679,"i_lat":-6.217455,"station_id":"KLDB","time":8,"distance":1385,"is_transit":false},{"station_name":"Buaran","transit":false,"time":1,"station_id":"BUA","i_lat":-6.215568,"is_transit":false,"distance":1305,"line":1,"i_long":106.922662},{"i_long":106.899548,"is_transit":false,"i_lat":-6.2135,"line":1,"transit":false,"time":2,"station_name":"Klender","station_id":"KLD","distance":3100},{"transit":true,"i_lat":-6.215091,"time":3,"station_name":"Jatinegara","distance":3395,"line":1,"i_long":106.86807400000001,"is_transit":true,"station_id":"JNG"},{"i_lat":-6.209188,"line":11,"station_id":"POK","time":2,"transit":false,"station_name":"Pondok Jati","is_transit":false,"distance":1236,"i_long":106.861737},{"line":11,"station_id":"KMT","time":2,"transit":false,"station_name":"Kramat","distance":1829,"i_lat":-6.193792,"is_transit":false,"i_long":106.855437},{"distance":973,"station_id":"GST","transit":false,"is_transit":false,"i_long":106.850107,"line":11,"time":1,"i_lat":-6.185975,"station_name":"Gang Sentiong"},{"distance":1567,"i_long":106.84368,"line":11,"i_lat":-6.174784,"time":8,"station_name":"Pasar Senen","transit":false,"is_transit":false,"station_id":"PSE"},{"i_lat":-6.161728,"is_transit":false,"transit":false,"station_id":"KMO","time":4,"station_name":"Kemayoran","distance":1436,"i_long":106.839204,"line":11},{"i_long":106.836569,"transit":false,"station_id":"RJW","distance":1901,"i_lat":-6.14505,"station_name":"Rajawali","is_transit":false,"line":11,"time":5},{"line":4,"i_long":106.826365,"station_id":"KPB","i_lat":-6.132549,"station_name":"Kampung Bandan","distance":1444,"transit":true,"time":3,"is_transit":true},{"time":3,"i_lat":-6.137569,"line":2,"station_id":"JAKK","station_name":"Jakarta Kota","is_transit":true,"transit":true,"distance":1364,"i_long":106.812439},{"transit":false,"time":4,"i_lat":-6.141205,"station_id":"JAY","is_transit":false,"station_name":"Jayakarta","i_long":106.820901,"line":2,"distance":1264},{"transit":false,"i_long":106.82482,"line":2,"i_lat":-6.149769,"station_name":"Manggabesar","is_transit":false,"station_id":"MGB","distance":1080,"time":2},{"time":2,"station_name":"Sawah Besar","i_lat":-6.160725,"station_id":"SW","i_long":106.827103,"transit":false,"is_transit":false,"line":2,"distance":906},{"station_id":"JUA","station_name":"Juanda","i_long":106.828284,"transit":false,"is_transit":false,"time":2,"distance":1149,"line":2,"i_lat":-6.166716},{"distance":2015,"time":4,"i_lat":-6.186295,"i_long":106.832183,"station_name":"Gondangdia","is_transit":false,"station_id":"GDD","line":2,"transit":false},{"time":3,"station_name":"Cikini","i_lat":-6.198556,"i_long":106.840169,"transit":false,"is_transit":false,"distance":1750,"station_id":"CKI","line":2},{"is_transit":false,"time":4,"i_long":106.84912,"station_name":"Manggarai","i_lat":-6.209883,"distance":1590,"transit":false,"line":2,"station_id":"MRI"},{"is_transit":false,"time":4,"line":2,"distance":2610,"station_id":"TEB","station_name":"Tebet","transit":false,"i_lat":-6.226659,"i_long":106.857948},{"i_lat":-6.242512,"i_long":106.856607,"station_id":"CW","station_name":"Cawang","distance":1230,"line":2,"time":2,"transit":false,"is_transit":false},{"line":2,"i_long":106.85449,"station_id":"DRN","time":3,"transit":false,"distance":1546,"station_name":"Duren Kalibata","is_transit":false,"i_lat":-6.255332},{"i_lat":-6.263214,"i_long":106.851577,"line":2,"distance":824,"time":2,"is_transit":false,"transit":false,"station_name":"Pasar Minggu Baru","station_id":"PSMB"},{"transit":false,"line":2,"station_name":"Pasar Minggu","distance":2380,"is_transit":false,"i_long":106.843999,"time":2,"i_lat":-6.2842400000000005,"station_id":"PSM"},{"distance":2820,"line":2,"i_long":106.838896,"station_name":"Tanjung Barat","transit":false,"i_lat":-6.3080680000000005,"is_transit":false,"time":4,"station_id":"TNT"},{"i_long":106.832616,"transit":false,"line":2,"distance":2671,"time":3,"i_lat":-6.330363,"station_id":"LNA","is_transit":false,"station_name":"Lenteng Agung"},{"is_transit":false,"station_id":"UP","i_long":106.834175,"time":2,"transit":false,"station_name":"Univ. Pancasila","distance":1029,"i_lat":-6.339291,"line":2},{"station_id":"UI","i_long":106.831474,"station_name":"Univ. Indonesia","time":3,"transit":false,"i_lat":-6.360749,"line":2,"distance":2264,"is_transit":false},{"line":2,"transit":false,"station_name":"Pondok Cina","station_id":"POC","i_lat":-6.369073,"time":2,"i_long":106.831114,"is_transit":false,"distance":1109},{"transit":false,"time":4,"station_name":"Depokbaru","distance":2727,"line":2,"station_id":"DPB","is_transit":false,"i_long":106.819451,"i_lat":-6.391065},{"transit":false,"line":2,"station_name":"Depok","i_lat":-6.405256,"distance":1584,"i_long":106.816926,"time":3,"is_transit":false,"station_id":"DP"},{"i_lat":-6.448811,"line":2,"distance":5084,"time":6,"i_long":106.800298,"station_id":"CTA","transit":true,"is_transit":true,"station_name":"Citayam"},{"transit":false,"distance":0,"i_long":106.824374,"i_lat":-6.460735,"station_name":"Pondok Rajeg","time":0,"station_id":"PDRG","is_transit":false,"line":21}]]}