{"data":[[{"station_id":"CIT","time":0,"station_name":"Cibitung","i_lat":-6.261877,"i_long":107.083084,"line":0,"transit":false,"is_transit":false,"distance":0},{"station_name":"Tambun","transit":false,"i_long":107.055722,"is_transit":false,"line":1,"time":3,"i_lat":-6.258864,"distance":3420,"station_id":"TB"},{"i_long":107.016735,"line":0,"station_name":"Bekasi Timur","is_transit":false,"time":7,"i_lat":-6.248029,"transit":false,"distance":4460,"station_id":"BKST"},{"is_transit":false,"time":2,"station_id":"BKS","i_lat":-6.236616,"station_name":"Bekasi","transit":false,"distance":2368,"i_long":106.997013,"line":0},{"line":1,"transit":false,"i_lat":-6.224515,"distance":2520,"is_transit":false,"station_name":"Kranji","time":4,"i_long":106.977657,"station_id":"KRI"},{"transit":false,"station_id":"CUK","i_lat":-6.219053,"i_long":106.951283,"line":0,"is_transit":false,"distance":3097,"time":3,"station_name":"Cakung"},{"i_lat":-6.217455,"station_name":"Klenderbaru","transit":false,"is_transit":false,"time":8,"distance":1385,"i_long":106.939679,"line":1,"station_id":"KLDB"},{"i_lat":-6.215568,"is_transit":false,"i_long":106.922662,"station_name":"Buaran","time":1,"distance":1305,"line":0,"station_id":"BUA","transit":false},{"is_transit":false,"station_id":"KLD","i_lat":-6.2135,"station_name":"Klender","time":2,"distance":3100,"transit":false,"i_long":106.899548,"line":1}]]}