{"data":[[{"station_id":"CIT","station_name":"Cibitung","is_transit":false,"i_lat":-6.261877,"transit":false,"i_long":107.083084,"line":1,"time":0,"distance":0},{"transit":false,"line":1,"time":3,"station_name":"Tambun","i_long":107.055722,"station_id":"TB","i_lat":-6.258864,"distance":3420,"is_transit":false},{"i_long":107.016735,"station_name":"Bekasi Timur","distance":4460,"i_lat":-6.248029,"station_id":"BKST","time":7,"transit":false,"line":1,"is_transit":false},{"i_lat":-6.236616,"line":1,"station_id":"BKS","is_transit":false,"distance":2368,"i_long":106.997013,"time":2,"station_name":"Bekasi","transit":false},{"time":4,"transit":false,"is_transit":false,"station_id":"KRI","i_lat":-6.224515,"station_name":"Kranji","line":1,"i_long":106.977657,"distance":2520},{"time":3,"distance":3097,"station_name":"Cakung","i_lat":-6.219053,"station_id":"CUK","transit":false,"is_transit":false,"line":1,"i_long":106.951283},{"station_id":"KLDB","time":8,"is_transit":false,"transit":false,"i_long":106.939679,"line":1,"i_lat":-6.217455,"station_name":"Klenderbaru","distance":1385},{"transit":false,"i_lat":-6.215568,"i_long":106.922662,"is_transit":false,"line":1,"time":1,"distance":1305,"station_id":"BUA","station_name":"Buaran"},{"transit":false,"is_transit":false,"i_lat":-6.2135,"station_id":"KLD","distance":3100,"station_name":"Klender","time":2,"line":1,"i_long":106.899548},{"station_name":"Jatinegara","station_id":"JNG","is_transit":false,"i_long":106.86807400000001,"transit":false,"line":1,"i_lat":-6.215091,"time":3,"distance":3395},{"distance":1377,"station_id":"MTR","time":2,"transit":false,"i_long":106.858896,"line":1,"station_name":"Matraman","is_transit":false,"i_lat":-6.212485},{"line":2,"i_lat":-6.209883,"station_id":"MRI","station_name":"Manggarai","is_transit":true,"transit":true,"i_long":106.84912,"distance":1275,"time":2},{"transit":false,"station_id":"TEB","line":2,"i_long":106.857948,"station_name":"Tebet","i_lat":-6.226659,"is_transit":false,"distance":2610,"time":4},{"time":2,"station_name":"Cawang","i_lat":-6.242512,"line":2,"station_id":"CW","is_transit":false,"i_long":106.856607,"distance":1230,"transit":false},{"time":3,"transit":false,"i_lat":-6.255332,"i_long":106.85449,"distance":1546,"is_transit":false,"station_name":"Duren Kalibata","line":2,"station_id":"DRN"},{"station_name":"Pasar Minggu Baru","time":2,"transit":false,"distance":824,"line":2,"station_id":"PSMB","is_transit":false,"i_lat":-6.263214,"i_long":106.851577},{"is_transit":false,"station_name":"Pasar Minggu","transit":false,"time":2,"i_long":106.843999,"i_lat":-6.2842400000000005,"line":2,"station_id":"PSM","distance":2380},{"line":2,"i_long":106.838896,"distance":2820,"i_lat":-6.3080680000000005,"transit":false,"time":4,"is_transit":false,"station_name":"Tanjung Barat","station_id":"TNT"},{"station_name":"Lenteng Agung","time":3,"transit":false,"is_transit":false,"distance":2671,"station_id":"LNA","line":2,"i_lat":-6.330363,"i_long":106.832616},{"i_long":106.834175,"station_name":"Univ. Pancasila","transit":false,"i_lat":-6.339291,"line":2,"is_transit":false,"time":2,"distance":1029,"station_id":"UP"},{"distance":2264,"i_long":106.831474,"i_lat":-6.360749,"line":2,"station_name":"Univ. Indonesia","time":3,"station_id":"UI","transit":false,"is_transit":false},{"line":2,"station_name":"Pondok Cina","transit":false,"distance":1109,"time":2,"station_id":"POC","i_lat":-6.369073,"is_transit":false,"i_long":106.831114},{"distance":2727,"is_transit":false,"i_long":106.819451,"transit":false,"i_lat":-6.391065,"time":4,"line":2,"station_id":"DPB","station_name":"Depokbaru"},{"i_lat":-6.405256,"station_id":"DP","transit":false,"line":2,"is_transit":false,"station_name":"Depok","time":3,"i_long":106.816926,"distance":1584},{"time":6,"is_transit":false,"station_name":"Citayam","line":2,"i_long":106.800298,"transit":false,"station_id":"CTA","distance":5084,"i_lat":-6.448811}],[{"distance":0,"i_long":107.083084,"i_lat":-6.261877,"transit":false,"time":0,"station_id":"CIT","station_name":"Cibitung","line":1,"is_transit":false},{"distance":3420,"station_name":"Tambun","transit":false,"i_long":107.055722,"station_id":"TB","is_transit":false,"line":1,"time":3,"i_lat":-6.258864},{"time":7,"line":1,"i_long":107.016735,"is_transit":false,"distance":4460,"station_name":"Bekasi Timur","i_lat":-6.248029,"transit":false,"station_id":"BKST"},{"transit":false,"station_name":"Bekasi","i_lat":-6.236616,"station_id":"BKS","i_long":106.997013,"time":2,"distance":2368,"is_transit":false,"line":1},{"line":1,"station_name":"Kranji","is_transit":false,"distance":2520,"i_lat":-6.224515,"station_id":"KRI","time":4,"transit":false,"i_long":106.977657},{"line":1,"distance":3097,"station_id":"CUK","time":3,"i_long":106.951283,"station_name":"Cakung","is_transit":false,"i_lat":-6.219053,"transit":false},{"i_lat":-6.217455,"time":8,"station_id":"KLDB","station_name":"Klenderbaru","distance":1385,"is_transit":false,"transit":false,"i_long":106.939679,"line":1},{"is_transit":false,"distance":1305,"i_lat":-6.215568,"line":1,"station_id":"BUA","time":1,"transit":false,"i_long":106.922662,"station_name":"Buaran"},{"distance":3100,"time":2,"i_long":106.899548,"is_transit":false,"station_name":"Klender","transit":false,"line":1,"i_lat":-6.2135,"station_id":"KLD"},{"i_long":106.86807400000001,"i_lat":-6.215091,"station_id":"JNG","transit":true,"line":1,"distance":3395,"is_transit":true,"time":3,"station_name":"Jatinegara"},{"time":2,"line":11,"station_id":"POK","transit":false,"i_long":106.861737,"distance":1236,"is_transit":false,"i_lat":-6.209188,"station_name":"Pondok Jati"},{"i_lat":-6.193792,"i_long":106.855437,"line":11,"time":2,"is_transit":false,"station_name":"Kramat","distance":1829,"transit":false,"station_id":"KMT"},{"station_name":"Gang Sentiong","is_transit":false,"time":1,"distance":973,"transit":false,"station_id":"GST","i_lat":-6.185975,"i_long":106.850107,"line":11},{"station_id":"PSE","station_name":"Pasar Senen","is_transit":false,"line":11,"distance":1567,"i_lat":-6.174784,"time":8,"transit":false,"i_long":106.84368},{"station_id":"KMO","i_lat":-6.161728,"is_transit":false,"transit":false,"i_long":106.839204,"line":11,"distance":1436,"time":4,"station_name":"Kemayoran"},{"distance":1901,"transit":false,"is_transit":false,"i_lat":-6.14505,"line":11,"station_id":"RJW","time":5,"i_long":106.836569,"station_name":"Rajawali"},{"i_lat":-6.132549,"distance":1444,"time":3,"i_long":106.826365,"station_name":"Kampung Bandan","is_transit":true,"station_id":"KPB","line":4,"transit":true},{"distance":4102,"transit":false,"time":9,"is_transit":false,"i_long":106.79867,"i_lat":-6.144674,"line":1,"station_id":"AK","station_name":"Angke"},{"time":4,"is_transit":false,"line":1,"station_id":"DU","distance":1230,"transit":false,"station_name":"Duri","i_lat":-6.155215,"i_long":106.800832},{"is_transit":false,"time":8,"station_id":"THB","i_lat":-6.185545,"line":1,"station_name":"Tanah Abang","i_long":106.811091,"distance":3632,"transit":false},{"is_transit":false,"i_lat":-6.20132,"line":1,"transit":false,"station_id":"KAT","i_long":106.816351,"station_name":"Karet","distance":2029,"time":5},{"station_id":"SUDB","is_transit":false,"transit":false,"line":1,"distance":471,"i_long":106.819881,"i_lat":-6.201433,"station_name":"Sudirman Baru","time":1},{"time":1,"station_id":"SUD","i_lat":-6.202263,"distance":280,"is_transit":false,"i_long":106.822649,"transit":false,"line":1,"station_name":"Sudirman"},{"distance":3186,"is_transit":true,"line":2,"i_lat":-6.209883,"station_name":"Manggarai","i_long":106.84912,"time":4,"station_id":"MRI","transit":true},{"i_long":106.857948,"line":2,"time":4,"station_id":"TEB","is_transit":false,"i_lat":-6.226659,"station_name":"Tebet","distance":2610,"transit":false},{"line":2,"i_lat":-6.242512,"time":2,"is_transit":false,"station_id":"CW","i_long":106.856607,"station_name":"Cawang","transit":false,"distance":1230},{"i_long":106.85449,"time":3,"i_lat":-6.255332,"is_transit":false,"line":2,"transit":false,"station_name":"Duren Kalibata","distance":1546,"station_id":"DRN"},{"distance":824,"transit":false,"station_name":"Pasar Minggu Baru","is_transit":false,"time":2,"i_lat":-6.263214,"i_long":106.851577,"line":2,"station_id":"PSMB"},{"station_name":"Pasar Minggu","i_long":106.843999,"is_transit":false,"distance":2380,"transit":false,"line":2,"time":2,"station_id":"PSM","i_lat":-6.2842400000000005},{"distance":2820,"is_transit":false,"transit":false,"line":2,"i_long":106.838896,"station_name":"Tanjung Barat","time":4,"station_id":"TNT","i_lat":-6.3080680000000005},{"distance":2671,"time":3,"station_name":"Lenteng Agung","station_id":"LNA","is_transit":false,"i_long":106.832616,"line":2,"i_lat":-6.330363,"transit":false},{"i_lat":-6.339291,"line":2,"time":2,"transit":false,"distance":1029,"station_id":"UP","station_name":"Univ. Pancasila","i_long":106.834175,"is_transit":false},{"i_long":106.831474,"transit":false,"i_lat":-6.360749,"time":3,"line":2,"distance":2264,"station_name":"Univ. Indonesia","is_transit":false,"station_id":"UI"},{"station_id":"POC","i_long":106.831114,"time":2,"station_name":"Pondok Cina","is_transit":false,"line":2,"distance":1109,"transit":false,"i_lat":-6.369073},{"line":2,"transit":false,"i_long":106.819451,"station_name":"Depokbaru","distance":2727,"is_transit":false,"time":4,"station_id":"DPB","i_lat":-6.391065},{"i_long":106.816926,"line":2,"station_name":"Depok","distance":1584,"time":3,"is_transit":false,"station_id":"DP","transit":false,"i_lat":-6.405256},{"line":2,"station_name":"Citayam","time":6,"i_long":106.800298,"station_id":"CTA","transit":false,"i_lat":-6.448811,"is_transit":false,"distance":5084}],[{"is_transit":false,"i_lat":-6.261877,"station_name":"Cibitung","distance":0,"time":0,"station_id":"CIT","transit":false,"i_long":107.083084,"line":1},{"line":1,"distance":3420,"station_id":"TB","is_transit":false,"i_lat":-6.258864,"time":3,"transit":false,"station_name":"Tambun","i_long":107.055722},{"i_lat":-6.248029,"line":1,"transit":false,"station_id":"BKST","station_name":"Bekasi Timur","distance":4460,"time":7,"i_long":107.016735,"is_transit":false},{"is_transit":false,"line":1,"distance":2368,"station_name":"Bekasi","i_long":106.997013,"station_id":"BKS","i_lat":-6.236616,"time":2,"transit":false},{"transit":false,"is_transit":false,"distance":2520,"time":4,"station_name":"Kranji","line":1,"i_long":106.977657,"station_id":"KRI","i_lat":-6.224515},{"station_name":"Cakung","is_transit":false,"transit":false,"i_long":106.951283,"line":1,"station_id":"CUK","time":3,"distance":3097,"i_lat":-6.219053},{"station_id":"KLDB","i_long":106.939679,"is_transit":false,"station_name":"Klenderbaru","i_lat":-6.217455,"line":1,"transit":false,"distance":1385,"time":8},{"station_name":"Buaran","is_transit":false,"i_long":106.922662,"i_lat":-6.215568,"time":1,"distance":1305,"line":1,"station_id":"BUA","transit":false},{"station_id":"KLD","distance":3100,"time":2,"station_name":"Klender","is_transit":false,"line":1,"transit":false,"i_lat":-6.2135,"i_long":106.899548},{"station_name":"Jatinegara","i_long":106.86807400000001,"transit":true,"line":1,"i_lat":-6.215091,"distance":3395,"is_transit":true,"station_id":"JNG","time":3},{"distance":1236,"is_transit":false,"i_lat":-6.209188,"line":11,"station_name":"Pondok Jati","station_id":"POK","time":2,"transit":false,"i_long":106.861737},{"i_lat":-6.193792,"station_name":"Kramat","distance":1829,"transit":false,"i_long":106.855437,"time":2,"station_id":"KMT","is_transit":false,"line":11},{"distance":973,"time":1,"i_lat":-6.185975,"is_transit":false,"station_name":"Gang Sentiong","line":11,"transit":false,"station_id":"GST","i_long":106.850107},{"time":8,"distance":1567,"station_id":"PSE","is_transit":false,"i_long":106.84368,"station_name":"Pasar Senen","i_lat":-6.174784,"line":11,"transit":false},{"station_name":"Kemayoran","is_transit":false,"station_id":"KMO","line":11,"i_lat":-6.161728,"time":4,"i_long":106.839204,"transit":false,"distance":1436},{"time":5,"line":11,"distance":1901,"transit":false,"is_transit":false,"station_name":"Rajawali","station_id":"RJW","i_lat":-6.14505,"i_long":106.836569},{"i_lat":-6.132549,"distance":1444,"line":4,"i_long":106.826365,"station_name":"Kampung Bandan","station_id":"KPB","time":3,"transit":true,"is_transit":true},{"transit":true,"station_id":"JAKK","distance":1364,"is_transit":true,"time":3,"i_lat":-6.137569,"station_name":"Jakarta Kota","i_long":106.812439,"line":2},{"time":4,"is_transit":false,"i_long":106.820901,"station_id":"JAY","i_lat":-6.141205,"transit":false,"distance":1264,"line":2,"station_name":"Jayakarta"},{"transit":false,"time":2,"i_long":106.82482,"distance":1080,"station_id":"MGB","line":2,"i_lat":-6.149769,"is_transit":false,"station_name":"Manggabesar"},{"distance":906,"station_name":"Sawah Besar","time":2,"station_id":"SW","line":2,"i_long":106.827103,"i_lat":-6.160725,"transit":false,"is_transit":false},{"is_transit":false,"time":2,"station_name":"Juanda","distance":1149,"i_lat":-6.166716,"transit":false,"line":2,"i_long":106.828284,"station_id":"JUA"},{"time":4,"line":2,"transit":false,"station_id":"GDD","is_transit":false,"i_lat":-6.186295,"i_long":106.832183,"distance":2015,"station_name":"Gondangdia"},{"station_id":"CKI","i_long":106.840169,"is_transit":false,"line":2,"station_name":"Cikini","distance":1750,"time":3,"transit":false,"i_lat":-6.198556},{"time":4,"station_id":"MRI","is_transit":false,"distance":1590,"transit":false,"station_name":"Manggarai","i_long":106.84912,"line":2,"i_lat":-6.209883},{"i_lat":-6.226659,"i_long":106.857948,"transit":false,"time":4,"distance":2610,"station_id":"TEB","is_transit":false,"line":2,"station_name":"Tebet"},{"line":2,"time":2,"station_id":"CW","i_lat":-6.242512,"i_long":106.856607,"station_name":"Cawang","transit":false,"is_transit":false,"distance":1230},{"time":3,"i_lat":-6.255332,"i_long":106.85449,"station_id":"DRN","line":2,"is_transit":false,"station_name":"Duren Kalibata","distance":1546,"transit":false},{"line":2,"distance":824,"station_name":"Pasar Minggu Baru","i_long":106.851577,"station_id":"PSMB","time":2,"transit":false,"i_lat":-6.263214,"is_transit":false},{"transit":false,"is_transit":false,"distance":2380,"station_id":"PSM","i_lat":-6.2842400000000005,"station_name":"Pasar Minggu","time":2,"i_long":106.843999,"line":2},{"line":2,"is_transit":false,"i_long":106.838896,"station_name":"Tanjung Barat","i_lat":-6.3080680000000005,"distance":2820,"transit":false,"station_id":"TNT","time":4},{"distance":2671,"station_id":"LNA","station_name":"Lenteng Agung","line":2,"i_lat":-6.330363,"is_transit":false,"time":3,"transit":false,"i_long":106.832616},{"station_name":"Univ. Pancasila","distance":1029,"transit":false,"i_lat":-6.339291,"is_transit":false,"line":2,"station_id":"UP","time":2,"i_long":106.834175},{"station_name":"Univ. Indonesia","line":2,"i_lat":-6.360749,"is_transit":false,"station_id":"UI","time":3,"i_long":106.831474,"transit":false,"distance":2264},{"transit":false,"station_id":"POC","i_long":106.831114,"station_name":"Pondok Cina","line":2,"distance":1109,"time":2,"i_lat":-6.369073,"is_transit":false},{"is_transit":false,"i_lat":-6.391065,"i_long":106.819451,"distance":2727,"time":4,"station_name":"Depokbaru","line":2,"station_id":"DPB","transit":false},{"station_name":"Depok","time":3,"i_long":106.816926,"transit":false,"distance":1584,"i_lat":-6.405256,"station_id":"DP","line":2,"is_transit":false},{"station_name":"Citayam","is_transit":false,"i_long":106.800298,"line":2,"station_id":"CTA","i_lat":-6.448811,"transit":false,"distance":5084,"time":6}]]}