{"data":[[{"station_id":"CIT","time":0,"i_long":107.083084,"is_transit":false,"transit":false,"line":0,"distance":0,"station_name":"Cibitung","i_lat":-6.261877},{"transit":false,"time":3,"i_lat":-6.258864,"station_id":"TB","is_transit":false,"i_long":107.055722,"line":1,"station_name":"Tambun","distance":3420},{"line":0,"distance":4460,"station_name":"Bekasi Timur","i_long":107.016735,"is_transit":false,"station_id":"BKST","transit":false,"time":7,"i_lat":-6.248029},{"station_name":"Bekasi","distance":2368,"time":2,"i_long":106.997013,"i_lat":-6.236616,"transit":false,"station_id":"BKS","line":0,"is_transit":false},{"is_transit":false,"station_id":"KRI","station_name":"Kranji","i_lat":-6.224515,"distance":2520,"time":4,"transit":false,"line":1,"i_long":106.977657},{"is_transit":false,"station_name":"Cakung","line":0,"transit":false,"station_id":"CUK","time":3,"i_long":106.951283,"distance":3097,"i_lat":-6.219053},{"station_id":"KLDB","transit":false,"time":8,"i_long":106.939679,"line":1,"station_name":"Klenderbaru","is_transit":false,"i_lat":-6.217455,"distance":1385},{"is_transit":false,"i_lat":-6.215568,"distance":1305,"station_id":"BUA","station_name":"Buaran","line":0,"transit":false,"i_long":106.922662,"time":1},{"i_long":106.899548,"transit":false,"station_name":"Klender","i_lat":-6.2135,"station_id":"KLD","line":1,"time":2,"is_transit":false,"distance":3100},{"distance":3395,"is_transit":true,"line":0,"station_name":"Jatinegara","i_long":106.86807400000001,"i_lat":-6.215091,"time":3,"transit":true,"station_id":"JNG"},{"station_name":"Pondok Jati","i_lat":-6.209188,"line":11,"distance":1236,"is_transit":false,"time":2,"transit":false,"station_id":"POK","i_long":106.861737},{"time":2,"station_id":"KMT","i_lat":-6.193792,"distance":1829,"is_transit":false,"transit":false,"station_name":"Kramat","i_long":106.855437,"line":11},{"station_id":"GST","is_transit":false,"i_lat":-6.185975,"i_long":106.850107,"time":1,"transit":false,"station_name":"Gang Sentiong","line":11,"distance":973},{"i_lat":-6.174784,"is_transit":false,"i_long":106.84368,"distance":1567,"transit":false,"time":8,"line":11,"station_name":"Pasar Senen","station_id":"PSE"},{"transit":false,"line":11,"i_long":106.839204,"station_name":"Kemayoran","i_lat":-6.161728,"is_transit":false,"time":4,"distance":1436,"station_id":"KMO"}],[{"is_transit":false,"time":0,"i_lat":-6.261877,"station_id":"CIT","line":0,"station_name":"Cibitung","transit":false,"distance":0,"i_long":107.083084},{"transit":false,"station_name":"Tambun","station_id":"TB","distance":3420,"is_transit":false,"time":3,"i_long":107.055722,"i_lat":-6.258864,"line":1},{"is_transit":false,"line":0,"distance":4460,"station_name":"Bekasi Timur","transit":false,"time":7,"i_lat":-6.248029,"i_long":107.016735,"station_id":"BKST"},{"is_transit":false,"i_lat":-6.236616,"i_long":106.997013,"transit":false,"station_name":"Bekasi","time":2,"distance":2368,"line":0,"station_id":"BKS"},{"is_transit":false,"line":1,"station_name":"Kranji","station_id":"KRI","time":4,"distance":2520,"i_lat":-6.224515,"i_long":106.977657,"transit":false},{"station_id":"CUK","i_long":106.951283,"time":3,"distance":3097,"transit":false,"i_lat":-6.219053,"line":0,"is_transit":false,"station_name":"Cakung"},{"is_transit":false,"i_lat":-6.217455,"station_name":"Klenderbaru","i_long":106.939679,"line":1,"distance":1385,"station_id":"KLDB","transit":false,"time":8},{"station_id":"BUA","transit":false,"time":1,"i_long":106.922662,"distance":1305,"is_transit":false,"i_lat":-6.215568,"station_name":"Buaran","line":0},{"i_long":106.899548,"transit":false,"i_lat":-6.2135,"line":1,"is_transit":false,"station_id":"KLD","station_name":"Klender","time":2,"distance":3100},{"i_long":106.86807400000001,"line":0,"station_id":"JNG","transit":false,"is_transit":true,"station_name":"Jatinegara","time":3,"distance":3395,"i_lat":-6.215091},{"station_id":"MTR","time":2,"i_lat":-6.212485,"line":1,"is_transit":false,"distance":1377,"i_long":106.858896,"transit":false,"station_name":"Matraman"},{"station_name":"Manggarai","i_lat":-6.209883,"station_id":"MRI","transit":false,"time":2,"i_long":106.84912,"is_transit":true,"distance":1275,"line":0},{"time":4,"i_lat":-6.202263,"i_long":106.822649,"line":1,"distance":3186,"station_name":"Sudirman","station_id":"SUD","is_transit":false,"transit":false},{"time":1,"is_transit":false,"i_lat":-6.201433,"station_name":"Sudirman Baru","i_long":106.819881,"station_id":"SUDB","distance":280,"line":1,"transit":false},{"line":1,"station_id":"KAT","time":1,"i_lat":-6.20132,"is_transit":false,"i_long":106.816351,"transit":false,"distance":471,"station_name":"Karet"},{"i_long":106.811091,"time":5,"station_name":"Tanah Abang","is_transit":true,"transit":false,"i_lat":-6.185545,"distance":2029,"station_id":"THB","line":1},{"line":1,"time":8,"station_name":"Duri","distance":3632,"i_long":106.800832,"transit":true,"i_lat":-6.155215,"is_transit":true,"station_id":"DU"},{"station_name":"Angke","transit":false,"station_id":"AK","i_lat":-6.144674,"distance":1230,"is_transit":false,"i_long":106.79867,"time":4,"line":0},{"transit":true,"station_name":"Kampung Bandan","station_id":"KPB","i_lat":-6.132549,"i_long":106.826365,"line":0,"time":9,"distance":4102,"is_transit":true},{"station_name":"Rajawali","distance":1444,"i_long":106.836569,"time":3,"transit":false,"i_lat":-6.14505,"is_transit":false,"station_id":"RJW","line":11},{"is_transit":false,"distance":1901,"station_id":"KMO","time":5,"i_long":106.839204,"transit":false,"i_lat":-6.161728,"line":11,"station_name":"Kemayoran"}],[{"station_id":"CIT","line":0,"station_name":"Cibitung","i_long":107.083084,"distance":0,"is_transit":false,"transit":false,"time":0,"i_lat":-6.261877},{"is_transit":false,"transit":false,"station_name":"Tambun","i_long":107.055722,"distance":3420,"station_id":"TB","time":3,"line":1,"i_lat":-6.258864},{"i_long":107.016735,"distance":4460,"station_name":"Bekasi Timur","station_id":"BKST","line":0,"is_transit":false,"transit":false,"time":7,"i_lat":-6.248029},{"transit":false,"station_name":"Bekasi","station_id":"BKS","i_lat":-6.236616,"i_long":106.997013,"time":2,"line":0,"distance":2368,"is_transit":false},{"distance":2520,"time":4,"station_id":"KRI","is_transit":false,"i_long":106.977657,"line":1,"station_name":"Kranji","transit":false,"i_lat":-6.224515},{"station_name":"Cakung","station_id":"CUK","i_lat":-6.219053,"line":0,"i_long":106.951283,"distance":3097,"transit":false,"time":3,"is_transit":false},{"distance":1385,"transit":false,"station_name":"Klenderbaru","time":8,"i_lat":-6.217455,"station_id":"KLDB","i_long":106.939679,"is_transit":false,"line":1},{"line":0,"station_id":"BUA","is_transit":false,"time":1,"i_lat":-6.215568,"station_name":"Buaran","distance":1305,"transit":false,"i_long":106.922662},{"transit":false,"line":1,"station_name":"Klender","station_id":"KLD","i_long":106.899548,"time":2,"is_transit":false,"distance":3100,"i_lat":-6.2135},{"distance":3395,"transit":false,"time":3,"i_lat":-6.215091,"station_id":"JNG","is_transit":true,"i_long":106.86807400000001,"line":0,"station_name":"Jatinegara"},{"distance":1377,"station_id":"MTR","line":1,"time":2,"i_long":106.858896,"transit":false,"station_name":"Matraman","i_lat":-6.212485,"is_transit":false},{"distance":1275,"station_id":"MRI","time":2,"i_long":106.84912,"station_name":"Manggarai","transit":true,"line":0,"i_lat":-6.209883,"is_transit":true},{"line":0,"station_name":"Cikini","transit":false,"time":4,"i_long":106.840169,"station_id":"CKI","is_transit":false,"i_lat":-6.198556,"distance":1590},{"transit":false,"i_lat":-6.186295,"time":3,"station_name":"Gondangdia","station_id":"GDD","line":2,"is_transit":false,"distance":1750,"i_long":106.832183},{"station_id":"JUA","i_long":106.828284,"i_lat":-6.166716,"distance":2015,"line":2,"station_name":"Juanda","is_transit":false,"transit":false,"time":4},{"line":2,"station_id":"SW","i_lat":-6.160725,"transit":false,"is_transit":false,"i_long":106.827103,"station_name":"Sawah Besar","time":2,"distance":1149},{"station_name":"Manggabesar","i_lat":-6.149769,"i_long":106.82482,"transit":false,"time":2,"distance":906,"line":2,"station_id":"MGB","is_transit":false},{"station_id":"JAY","transit":false,"is_transit":false,"line":7,"time":2,"station_name":"Jayakarta","i_long":106.820901,"i_lat":-6.141205,"distance":1080},{"time":4,"i_long":106.812439,"line":0,"distance":1264,"i_lat":-6.137569,"transit":true,"is_transit":true,"station_name":"Jakarta Kota","station_id":"JAKK"},{"is_transit":true,"distance":1364,"station_name":"Kampung Bandan","transit":true,"station_id":"KPB","time":3,"i_lat":-6.132549,"line":0,"i_long":106.826365},{"time":3,"station_name":"Rajawali","is_transit":false,"transit":false,"i_lat":-6.14505,"i_long":106.836569,"line":11,"station_id":"RJW","distance":1444},{"station_name":"Kemayoran","transit":false,"distance":1901,"station_id":"KMO","i_lat":-6.161728,"line":11,"is_transit":false,"i_long":106.839204,"time":5}]]}