{"data":[[{"station_id":"CIT","line":1,"distance":0,"station_name":"Cibitung","time":0,"is_transit":false,"transit":false,"i_long":107.083084,"i_lat":-6.261877},{"i_long":107.055722,"i_lat":-6.258864,"transit":false,"is_transit":false,"distance":3420,"station_name":"Tambun","time":3,"station_id":"TB","line":1},{"distance":4460,"time":7,"is_transit":false,"station_name":"Bekasi Timur","i_lat":-6.248029,"station_id":"BKST","transit":false,"i_long":107.016735,"line":1},{"station_id":"BKS","is_transit":false,"i_long":106.997013,"line":1,"transit":false,"i_lat":-6.236616,"distance":2368,"station_name":"Bekasi","time":2},{"distance":2520,"transit":false,"i_lat":-6.224515,"i_long":106.977657,"is_transit":false,"station_name":"Kranji","station_id":"KRI","time":4,"line":1},{"is_transit":false,"transit":false,"time":3,"i_lat":-6.219053,"distance":3097,"station_id":"CUK","i_long":106.951283,"station_name":"Cakung","line":1},{"distance":1385,"is_transit":false,"transit":false,"i_lat":-6.217455,"station_name":"Klenderbaru","time":8,"station_id":"KLDB","i_long":106.939679,"line":1},{"i_lat":-6.215568,"distance":1305,"transit":false,"i_long":106.922662,"line":1,"is_transit":false,"time":1,"station_name":"Buaran","station_id":"BUA"},{"time":2,"station_id":"KLD","transit":false,"line":1,"is_transit":false,"i_long":106.899548,"station_name":"Klender","distance":3100,"i_lat":-6.2135},{"line":1,"i_lat":-6.215091,"distance":3395,"time":3,"station_id":"JNG","station_name":"Jatinegara","transit":false,"is_transit":false,"i_long":106.86807400000001},{"is_transit":false,"i_long":106.858896,"station_name":"Matraman","station_id":"MTR","i_lat":-6.212485,"transit":false,"line":1,"time":2,"distance":1377},{"station_name":"Manggarai","line":2,"transit":true,"station_id":"MRI","distance":1275,"i_lat":-6.209883,"is_transit":true,"time":2,"i_long":106.84912},{"time":4,"is_transit":false,"transit":false,"station_name":"Cikini","station_id":"CKI","i_long":106.840169,"line":2,"distance":1590,"i_lat":-6.198556},{"station_id":"GDD","station_name":"Gondangdia","line":2,"distance":1750,"time":3,"transit":false,"i_lat":-6.186295,"is_transit":false,"i_long":106.832183}],[{"station_name":"Cibitung","distance":0,"i_long":107.083084,"is_transit":false,"station_id":"CIT","i_lat":-6.261877,"transit":false,"line":1,"time":0},{"i_lat":-6.258864,"distance":3420,"i_long":107.055722,"is_transit":false,"station_name":"Tambun","time":3,"station_id":"TB","transit":false,"line":1},{"time":7,"i_long":107.016735,"i_lat":-6.248029,"is_transit":false,"line":1,"distance":4460,"station_name":"Bekasi Timur","station_id":"BKST","transit":false},{"station_name":"Bekasi","time":2,"station_id":"BKS","i_lat":-6.236616,"is_transit":false,"transit":false,"i_long":106.997013,"line":1,"distance":2368},{"is_transit":false,"distance":2520,"station_id":"KRI","i_lat":-6.224515,"line":1,"i_long":106.977657,"station_name":"Kranji","transit":false,"time":4},{"time":3,"line":1,"station_name":"Cakung","i_lat":-6.219053,"distance":3097,"transit":false,"is_transit":false,"station_id":"CUK","i_long":106.951283},{"i_lat":-6.217455,"i_long":106.939679,"transit":false,"line":1,"time":8,"station_id":"KLDB","distance":1385,"station_name":"Klenderbaru","is_transit":false},{"i_lat":-6.215568,"distance":1305,"station_name":"Buaran","station_id":"BUA","i_long":106.922662,"time":1,"is_transit":false,"transit":false,"line":1},{"time":2,"station_id":"KLD","distance":3100,"i_lat":-6.2135,"is_transit":false,"i_long":106.899548,"station_name":"Klender","transit":false,"line":1},{"line":1,"station_id":"JNG","transit":true,"time":3,"station_name":"Jatinegara","i_long":106.86807400000001,"distance":3395,"i_lat":-6.215091,"is_transit":true},{"i_lat":-6.209188,"station_name":"Pondok Jati","line":11,"i_long":106.861737,"is_transit":false,"time":2,"station_id":"POK","transit":false,"distance":1236},{"station_name":"Kramat","distance":1829,"time":2,"station_id":"KMT","i_lat":-6.193792,"i_long":106.855437,"transit":false,"is_transit":false,"line":11},{"station_id":"GST","line":11,"is_transit":false,"transit":false,"distance":973,"i_long":106.850107,"i_lat":-6.185975,"time":1,"station_name":"Gang Sentiong"},{"station_id":"PSE","transit":false,"i_long":106.84368,"time":8,"line":11,"distance":1567,"station_name":"Pasar Senen","is_transit":false,"i_lat":-6.174784},{"line":11,"i_long":106.839204,"station_name":"Kemayoran","is_transit":false,"distance":1436,"i_lat":-6.161728,"station_id":"KMO","transit":false,"time":4},{"time":5,"line":11,"transit":false,"is_transit":false,"distance":1901,"station_name":"Rajawali","station_id":"RJW","i_lat":-6.14505,"i_long":106.836569},{"i_long":106.826365,"line":4,"station_name":"Kampung Bandan","time":3,"station_id":"KPB","transit":true,"distance":1444,"i_lat":-6.132549,"is_transit":true},{"transit":true,"station_name":"Jakarta Kota","time":3,"is_transit":true,"distance":1364,"i_long":106.812439,"station_id":"JAKK","i_lat":-6.137569,"line":2},{"i_long":106.820901,"transit":false,"i_lat":-6.141205,"line":2,"station_name":"Jayakarta","time":4,"is_transit":false,"station_id":"JAY","distance":1264},{"transit":false,"i_long":106.82482,"station_name":"Manggabesar","distance":1080,"time":2,"i_lat":-6.149769,"line":2,"station_id":"MGB","is_transit":false},{"line":2,"is_transit":false,"distance":906,"transit":false,"station_name":"Sawah Besar","i_long":106.827103,"i_lat":-6.160725,"time":2,"station_id":"SW"},{"transit":false,"time":2,"is_transit":false,"i_lat":-6.166716,"line":2,"i_long":106.828284,"distance":1149,"station_id":"JUA","station_name":"Juanda"},{"time":4,"distance":2015,"station_name":"Gondangdia","i_long":106.832183,"station_id":"GDD","line":2,"transit":false,"is_transit":false,"i_lat":-6.186295}],[{"line":1,"transit":false,"is_transit":false,"station_id":"CIT","distance":0,"time":0,"i_lat":-6.261877,"i_long":107.083084,"station_name":"Cibitung"},{"line":1,"station_name":"Tambun","is_transit":false,"transit":false,"i_lat":-6.258864,"station_id":"TB","distance":3420,"time":3,"i_long":107.055722},{"transit":false,"is_transit":false,"time":7,"line":1,"i_long":107.016735,"station_name":"Bekasi Timur","distance":4460,"station_id":"BKST","i_lat":-6.248029},{"line":1,"i_long":106.997013,"transit":false,"station_name":"Bekasi","distance":2368,"station_id":"BKS","i_lat":-6.236616,"is_transit":false,"time":2},{"station_name":"Kranji","is_transit":false,"station_id":"KRI","time":4,"transit":false,"i_long":106.977657,"i_lat":-6.224515,"line":1,"distance":2520},{"station_name":"Cakung","time":3,"i_long":106.951283,"transit":false,"distance":3097,"station_id":"CUK","is_transit":false,"line":1,"i_lat":-6.219053},{"distance":1385,"line":1,"time":8,"i_long":106.939679,"station_id":"KLDB","transit":false,"is_transit":false,"station_name":"Klenderbaru","i_lat":-6.217455},{"transit":false,"time":1,"i_long":106.922662,"is_transit":false,"distance":1305,"i_lat":-6.215568,"line":1,"station_id":"BUA","station_name":"Buaran"},{"i_long":106.899548,"time":2,"is_transit":false,"transit":false,"station_id":"KLD","station_name":"Klender","i_lat":-6.2135,"distance":3100,"line":1},{"line":1,"station_id":"JNG","distance":3395,"i_long":106.86807400000001,"transit":false,"station_name":"Jatinegara","time":3,"is_transit":false,"i_lat":-6.215091},{"station_name":"Matraman","distance":1377,"i_lat":-6.212485,"i_long":106.858896,"line":1,"is_transit":false,"transit":false,"station_id":"MTR","time":2},{"transit":false,"distance":1275,"station_id":"MRI","time":2,"line":2,"station_name":"Manggarai","is_transit":false,"i_lat":-6.209883,"i_long":106.84912},{"is_transit":false,"transit":false,"distance":3186,"time":4,"station_name":"Sudirman","station_id":"SUD","i_lat":-6.202263,"i_long":106.822649,"line":1},{"is_transit":false,"distance":280,"line":1,"station_name":"Sudirman Baru","transit":false,"time":1,"i_lat":-6.201433,"i_long":106.819881,"station_id":"SUDB"},{"i_long":106.816351,"i_lat":-6.20132,"distance":471,"transit":false,"station_id":"KAT","time":1,"line":1,"is_transit":false,"station_name":"Karet"},{"time":5,"i_long":106.811091,"line":1,"station_name":"Tanah Abang","i_lat":-6.185545,"transit":false,"is_transit":false,"distance":2029,"station_id":"THB"},{"station_id":"DU","is_transit":false,"distance":3632,"i_lat":-6.155215,"i_long":106.800832,"station_name":"Duri","line":1,"time":8,"transit":false},{"line":1,"station_name":"Angke","i_lat":-6.144674,"time":4,"station_id":"AK","distance":1230,"i_long":106.79867,"is_transit":false,"transit":false},{"station_name":"Kampung Bandan","i_lat":-6.132549,"time":9,"station_id":"KPB","is_transit":true,"line":4,"i_long":106.826365,"distance":4102,"transit":true},{"is_transit":true,"i_lat":-6.137569,"station_name":"Jakarta Kota","station_id":"JAKK","line":2,"transit":true,"distance":1364,"time":3,"i_long":106.812439},{"i_lat":-6.141205,"station_name":"Jayakarta","line":2,"is_transit":false,"distance":1264,"time":4,"transit":false,"station_id":"JAY","i_long":106.820901},{"station_name":"Manggabesar","station_id":"MGB","time":2,"is_transit":false,"line":2,"transit":false,"i_long":106.82482,"distance":1080,"i_lat":-6.149769},{"is_transit":false,"i_lat":-6.160725,"station_id":"SW","i_long":106.827103,"line":2,"distance":906,"station_name":"Sawah Besar","transit":false,"time":2},{"is_transit":false,"station_name":"Juanda","time":2,"line":2,"station_id":"JUA","transit":false,"i_long":106.828284,"i_lat":-6.166716,"distance":1149},{"is_transit":false,"transit":false,"time":4,"i_lat":-6.186295,"distance":2015,"i_long":106.832183,"line":2,"station_name":"Gondangdia","station_id":"GDD"}],[{"is_transit":false,"transit":false,"distance":0,"station_id":"CIT","i_long":107.083084,"line":1,"station_name":"Cibitung","time":0,"i_lat":-6.261877},{"station_id":"TB","time":3,"is_transit":false,"transit":false,"i_long":107.055722,"station_name":"Tambun","line":1,"i_lat":-6.258864,"distance":3420},{"i_long":107.016735,"station_name":"Bekasi Timur","time":7,"i_lat":-6.248029,"station_id":"BKST","line":1,"is_transit":false,"transit":false,"distance":4460},{"distance":2368,"time":2,"station_name":"Bekasi","is_transit":false,"i_long":106.997013,"line":1,"station_id":"BKS","transit":false,"i_lat":-6.236616},{"is_transit":false,"time":4,"distance":2520,"i_long":106.977657,"line":1,"transit":false,"station_name":"Kranji","station_id":"KRI","i_lat":-6.224515},{"station_id":"CUK","station_name":"Cakung","i_long":106.951283,"transit":false,"is_transit":false,"i_lat":-6.219053,"time":3,"distance":3097,"line":1},{"station_id":"KLDB","i_lat":-6.217455,"time":8,"i_long":106.939679,"distance":1385,"line":1,"station_name":"Klenderbaru","is_transit":false,"transit":false},{"i_long":106.922662,"station_name":"Buaran","transit":false,"station_id":"BUA","time":1,"is_transit":false,"distance":1305,"i_lat":-6.215568,"line":1},{"time":2,"line":1,"distance":3100,"station_name":"Klender","is_transit":false,"station_id":"KLD","i_long":106.899548,"i_lat":-6.2135,"transit":false},{"station_id":"JNG","i_lat":-6.215091,"station_name":"Jatinegara","distance":3395,"i_long":106.86807400000001,"line":1,"is_transit":true,"time":3,"transit":true},{"time":2,"station_id":"POK","station_name":"Pondok Jati","transit":false,"line":11,"i_lat":-6.209188,"i_long":106.861737,"distance":1236,"is_transit":false},{"station_id":"KMT","is_transit":false,"distance":1829,"time":2,"station_name":"Kramat","i_long":106.855437,"i_lat":-6.193792,"line":11,"transit":false},{"time":1,"distance":973,"station_id":"GST","line":11,"is_transit":false,"i_long":106.850107,"transit":false,"i_lat":-6.185975,"station_name":"Gang Sentiong"},{"station_name":"Pasar Senen","station_id":"PSE","time":8,"i_lat":-6.174784,"line":11,"distance":1567,"i_long":106.84368,"is_transit":false,"transit":false},{"station_name":"Kemayoran","station_id":"KMO","time":4,"i_lat":-6.161728,"line":11,"distance":1436,"i_long":106.839204,"transit":false,"is_transit":false},{"i_long":106.836569,"i_lat":-6.14505,"station_id":"RJW","station_name":"Rajawali","transit":false,"distance":1901,"time":5,"line":11,"is_transit":false},{"station_name":"Kampung Bandan","is_transit":true,"station_id":"KPB","i_lat":-6.132549,"transit":true,"line":4,"distance":1444,"time":3,"i_long":106.826365},{"i_long":106.79867,"station_name":"Angke","station_id":"AK","distance":4102,"transit":false,"is_transit":false,"i_lat":-6.144674,"time":9,"line":1},{"transit":false,"i_long":106.800832,"distance":1230,"station_id":"DU","station_name":"Duri","i_lat":-6.155215,"line":1,"time":4,"is_transit":false},{"station_id":"THB","i_lat":-6.185545,"line":1,"time":8,"station_name":"Tanah Abang","distance":3632,"is_transit":false,"transit":false,"i_long":106.811091},{"station_id":"KAT","i_long":106.816351,"is_transit":false,"distance":2029,"transit":false,"time":5,"i_lat":-6.20132,"station_name":"Karet","line":1},{"time":1,"station_name":"Sudirman Baru","i_long":106.819881,"i_lat":-6.201433,"is_transit":false,"distance":471,"station_id":"SUDB","line":1,"transit":false},{"i_long":106.822649,"station_id":"SUD","time":1,"i_lat":-6.202263,"distance":280,"line":1,"is_transit":false,"station_name":"Sudirman","transit":false},{"station_name":"Manggarai","time":4,"i_long":106.84912,"station_id":"MRI","line":2,"transit":true,"distance":3186,"i_lat":-6.209883,"is_transit":true},{"is_transit":false,"distance":1590,"i_long":106.840169,"station_name":"Cikini","i_lat":-6.198556,"line":2,"transit":false,"station_id":"CKI","time":4},{"station_name":"Gondangdia","transit":false,"i_long":106.832183,"line":2,"is_transit":false,"station_id":"GDD","distance":1750,"i_lat":-6.186295,"time":3}]]}