{"data":[[{"i_long":107.083084,"station_name":"Cibitung","transit":false,"distance":0,"i_lat":-6.261877,"line":1,"is_transit":false,"time":0,"station_id":"CIT"},{"i_long":107.055722,"i_lat":-6.258864,"station_id":"TB","time":3,"distance":3420,"transit":false,"is_transit":false,"line":1,"station_name":"Tambun"},{"is_transit":false,"time":7,"line":1,"i_lat":-6.248029,"i_long":107.016735,"station_id":"BKST","distance":4460,"transit":false,"station_name":"Bekasi Timur"},{"station_name":"Bekasi","i_lat":-6.236616,"is_transit":false,"distance":2368,"i_long":106.997013,"transit":false,"time":2,"line":1,"station_id":"BKS"},{"time":4,"i_lat":-6.224515,"station_name":"Kranji","line":1,"is_transit":false,"transit":false,"station_id":"KRI","distance":2520,"i_long":106.977657},{"i_long":106.951283,"station_name":"Cakung","station_id":"CUK","is_transit":false,"transit":false,"distance":3097,"i_lat":-6.219053,"time":3,"line":1},{"time":8,"transit":false,"distance":1385,"is_transit":false,"line":1,"i_long":106.939679,"station_name":"Klenderbaru","station_id":"KLDB","i_lat":-6.217455},{"station_name":"Buaran","i_lat":-6.215568,"station_id":"BUA","is_transit":false,"i_long":106.922662,"line":1,"transit":false,"time":1,"distance":1305},{"is_transit":false,"station_name":"Klender","transit":false,"station_id":"KLD","line":1,"i_lat":-6.2135,"distance":3100,"time":2,"i_long":106.899548},{"is_transit":true,"distance":3395,"station_name":"Jatinegara","transit":true,"station_id":"JNG","i_long":106.86807400000001,"time":3,"line":1,"i_lat":-6.215091},{"distance":1236,"i_lat":-6.209188,"station_name":"Pondok Jati","line":11,"time":2,"station_id":"POK","transit":false,"i_long":106.861737,"is_transit":false},{"time":2,"i_lat":-6.193792,"station_id":"KMT","i_long":106.855437,"line":11,"is_transit":false,"transit":false,"station_name":"Kramat","distance":1829},{"distance":973,"i_lat":-6.185975,"station_name":"Gang Sentiong","is_transit":false,"time":1,"line":11,"station_id":"GST","i_long":106.850107,"transit":false},{"transit":false,"is_transit":false,"station_id":"PSE","distance":1567,"station_name":"Pasar Senen","time":8,"i_lat":-6.174784,"i_long":106.84368,"line":11},{"time":4,"transit":false,"station_name":"Kemayoran","distance":1436,"i_lat":-6.161728,"i_long":106.839204,"station_id":"KMO","line":11,"is_transit":false}],[{"transit":false,"is_transit":false,"station_name":"Cibitung","station_id":"CIT","distance":0,"i_lat":-6.261877,"i_long":107.083084,"line":1,"time":0},{"station_id":"TB","line":1,"is_transit":false,"station_name":"Tambun","i_long":107.055722,"transit":false,"i_lat":-6.258864,"distance":3420,"time":3},{"transit":false,"is_transit":false,"line":1,"station_name":"Bekasi Timur","distance":4460,"i_lat":-6.248029,"station_id":"BKST","time":7,"i_long":107.016735},{"is_transit":false,"station_name":"Bekasi","distance":2368,"station_id":"BKS","i_lat":-6.236616,"i_long":106.997013,"line":1,"transit":false,"time":2},{"is_transit":false,"i_lat":-6.224515,"station_name":"Kranji","transit":false,"station_id":"KRI","time":4,"distance":2520,"line":1,"i_long":106.977657},{"station_name":"Cakung","transit":false,"station_id":"CUK","is_transit":false,"line":1,"i_lat":-6.219053,"i_long":106.951283,"time":3,"distance":3097},{"line":1,"station_id":"KLDB","station_name":"Klenderbaru","distance":1385,"time":8,"i_lat":-6.217455,"transit":false,"is_transit":false,"i_long":106.939679},{"distance":1305,"i_lat":-6.215568,"transit":false,"station_name":"Buaran","station_id":"BUA","time":1,"is_transit":false,"i_long":106.922662,"line":1},{"time":2,"i_lat":-6.2135,"station_name":"Klender","i_long":106.899548,"distance":3100,"is_transit":false,"line":1,"station_id":"KLD","transit":false},{"station_name":"Jatinegara","distance":3395,"time":3,"i_lat":-6.215091,"station_id":"JNG","i_long":106.86807400000001,"line":1,"transit":false,"is_transit":false},{"i_lat":-6.212485,"transit":false,"line":1,"station_name":"Matraman","is_transit":false,"station_id":"MTR","time":2,"distance":1377,"i_long":106.858896},{"time":2,"i_lat":-6.209883,"i_long":106.84912,"distance":1275,"line":2,"transit":false,"station_id":"MRI","station_name":"Manggarai","is_transit":false},{"is_transit":false,"i_long":106.822649,"line":1,"station_name":"Sudirman","distance":3186,"station_id":"SUD","transit":false,"i_lat":-6.202263,"time":4},{"station_name":"Sudirman Baru","i_lat":-6.201433,"is_transit":false,"time":1,"i_long":106.819881,"line":1,"distance":280,"station_id":"SUDB","transit":false},{"station_name":"Karet","time":1,"station_id":"KAT","is_transit":false,"distance":471,"i_long":106.816351,"line":1,"i_lat":-6.20132,"transit":false},{"line":1,"i_lat":-6.185545,"is_transit":false,"station_id":"THB","i_long":106.811091,"distance":2029,"station_name":"Tanah Abang","transit":false,"time":5},{"i_long":106.800832,"is_transit":false,"transit":false,"i_lat":-6.155215,"distance":3632,"station_id":"DU","station_name":"Duri","line":1,"time":8},{"station_name":"Angke","i_lat":-6.144674,"distance":1230,"i_long":106.79867,"station_id":"AK","is_transit":false,"time":4,"line":1,"transit":false},{"i_lat":-6.132549,"station_name":"Kampung Bandan","i_long":106.826365,"station_id":"KPB","transit":true,"time":9,"distance":4102,"line":4,"is_transit":true},{"station_id":"RJW","time":3,"line":11,"distance":1444,"is_transit":false,"i_long":106.836569,"i_lat":-6.14505,"transit":false,"station_name":"Rajawali"},{"line":11,"station_name":"Kemayoran","i_lat":-6.161728,"is_transit":false,"distance":1901,"station_id":"KMO","time":5,"i_long":106.839204,"transit":false}],[{"station_name":"Cibitung","i_lat":-6.261877,"transit":false,"distance":0,"station_id":"CIT","time":0,"i_long":107.083084,"is_transit":false,"line":1},{"i_lat":-6.258864,"distance":3420,"station_id":"TB","transit":false,"station_name":"Tambun","time":3,"line":1,"i_long":107.055722,"is_transit":false},{"transit":false,"station_name":"Bekasi Timur","is_transit":false,"distance":4460,"i_long":107.016735,"time":7,"station_id":"BKST","line":1,"i_lat":-6.248029},{"distance":2368,"i_lat":-6.236616,"i_long":106.997013,"line":1,"station_name":"Bekasi","transit":false,"is_transit":false,"station_id":"BKS","time":2},{"station_name":"Kranji","is_transit":false,"time":4,"distance":2520,"station_id":"KRI","transit":false,"i_lat":-6.224515,"i_long":106.977657,"line":1},{"line":1,"time":3,"station_id":"CUK","is_transit":false,"station_name":"Cakung","i_long":106.951283,"distance":3097,"i_lat":-6.219053,"transit":false},{"is_transit":false,"time":8,"station_name":"Klenderbaru","station_id":"KLDB","distance":1385,"line":1,"transit":false,"i_lat":-6.217455,"i_long":106.939679},{"station_name":"Buaran","transit":false,"station_id":"BUA","is_transit":false,"i_lat":-6.215568,"time":1,"distance":1305,"i_long":106.922662,"line":1},{"i_long":106.899548,"i_lat":-6.2135,"station_id":"KLD","line":1,"time":2,"distance":3100,"transit":false,"station_name":"Klender","is_transit":false},{"station_id":"JNG","i_long":106.86807400000001,"station_name":"Jatinegara","is_transit":false,"time":3,"distance":3395,"line":1,"i_lat":-6.215091,"transit":false},{"distance":1377,"i_lat":-6.212485,"time":2,"i_long":106.858896,"line":1,"station_name":"Matraman","is_transit":false,"station_id":"MTR","transit":false},{"station_name":"Manggarai","distance":1275,"transit":true,"i_long":106.84912,"station_id":"MRI","i_lat":-6.209883,"line":2,"time":2,"is_transit":true},{"station_name":"Cikini","distance":1590,"station_id":"CKI","time":4,"line":2,"transit":false,"is_transit":false,"i_lat":-6.198556,"i_long":106.840169},{"station_id":"GDD","station_name":"Gondangdia","distance":1750,"transit":false,"time":3,"i_lat":-6.186295,"i_long":106.832183,"line":2,"is_transit":false},{"time":4,"i_lat":-6.166716,"station_name":"Juanda","is_transit":false,"i_long":106.828284,"transit":false,"line":2,"distance":2015,"station_id":"JUA"},{"i_long":106.827103,"line":2,"station_name":"Sawah Besar","is_transit":false,"transit":false,"station_id":"SW","i_lat":-6.160725,"distance":1149,"time":2},{"station_name":"Manggabesar","distance":906,"i_lat":-6.149769,"i_long":106.82482,"transit":false,"is_transit":false,"line":2,"station_id":"MGB","time":2},{"time":2,"distance":1080,"is_transit":false,"station_name":"Jayakarta","station_id":"JAY","i_long":106.820901,"line":2,"i_lat":-6.141205,"transit":false},{"is_transit":true,"line":2,"i_lat":-6.137569,"distance":1264,"station_name":"Jakarta Kota","time":4,"i_long":106.812439,"station_id":"JAKK","transit":true},{"i_long":106.826365,"station_id":"KPB","station_name":"Kampung Bandan","distance":1364,"i_lat":-6.132549,"time":3,"line":4,"transit":true,"is_transit":true},{"station_name":"Rajawali","station_id":"RJW","i_long":106.836569,"is_transit":false,"line":11,"transit":false,"distance":1444,"time":3,"i_lat":-6.14505},{"station_id":"KMO","transit":false,"line":11,"i_lat":-6.161728,"time":5,"i_long":106.839204,"is_transit":false,"distance":1901,"station_name":"Kemayoran"}]]}