{"data":[[{"i_long":106.508482,"is_transit":false,"time":0,"distance":0,"i_lat":-6.354349,"station_name":"Cilejit","line":3,"transit":false,"station_id":"CJT"},{"line":6,"time":9,"is_transit":false,"station_id":"PRP","transit":false,"station_name":"Parung Panjang","distance":7025,"i_lat":-6.3441410000000005,"i_long":106.568863},{"distance":5968,"line":3,"i_lat":-6.329547,"i_long":106.617853,"is_transit":false,"station_id":"CC","transit":false,"station_name":"Cicayur","time":8},{"station_id":"CSK","i_lat":-6.32484,"i_long":106.640411,"time":4,"is_transit":false,"distance":2519,"transit":false,"station_name":"Cisauk","line":3},{"transit":false,"station_id":"SRP","distance":1784,"is_transit":false,"time":4,"station_name":"Serpong","line":6,"i_lat":-6.319871,"i_long":106.66566}]]}