{"data":[[{"i_lat":-6.354349,"distance":0,"transit":false,"i_long":106.508482,"station_name":"Cilejit","time":0,"is_transit":false,"line":3,"station_id":"CJT"},{"line":6,"station_name":"Parung Panjang","station_id":"PRP","time":9,"transit":false,"is_transit":false,"i_long":106.568863,"distance":7025,"i_lat":-6.3441410000000005},{"i_lat":-6.329547,"i_long":106.617853,"distance":5968,"time":8,"line":3,"transit":false,"station_name":"Cicayur","station_id":"CC","is_transit":false},{"time":4,"i_long":106.640411,"station_id":"CSK","line":3,"i_lat":-6.32484,"is_transit":false,"distance":2519,"transit":false,"station_name":"Cisauk"},{"is_transit":false,"line":6,"i_long":106.66566,"transit":false,"station_name":"Serpong","time":4,"i_lat":-6.319871,"distance":1784,"station_id":"SRP"},{"i_long":106.675475,"i_lat":-6.314823,"transit":false,"is_transit":false,"station_name":"Rawa Buntu","distance":2413,"time":4,"station_id":"RU","line":6},{"is_transit":false,"line":6,"station_id":"SDM","i_lat":-6.296963,"station_name":"Sudimara","transit":false,"time":6,"distance":4566,"i_long":106.712277},{"station_name":"Jurangmangu","transit":false,"station_id":"JMU","time":4,"distance":1994,"i_lat":-6.288927,"i_long":106.728916,"line":6,"is_transit":false},{"i_long":106.74273,"distance":2179,"time":3,"is_transit":false,"line":6,"station_name":"Pondokranji","station_id":"PDJ","transit":false,"i_lat":-6.276362},{"i_lat":-6.237242,"i_long":106.780334,"line":6,"station_id":"KBY","is_transit":false,"station_name":"Kebayoran","time":8,"distance":6218,"transit":false},{"transit":false,"is_transit":false,"time":7,"i_lat":-6.207404,"station_id":"PLM","i_long":106.79689,"line":6,"station_name":"Palmerah","distance":3737},{"time":6,"station_id":"THB","distance":3191,"i_lat":-6.185545,"is_transit":true,"i_long":106.811091,"line":1,"transit":true,"station_name":"Tanah Abang"},{"i_lat":-6.20132,"line":1,"time":5,"station_name":"Karet","is_transit":false,"station_id":"KAT","distance":2029,"i_long":106.816351,"transit":false},{"transit":false,"station_name":"Sudirman Baru","i_long":106.819881,"line":1,"distance":471,"time":1,"station_id":"SUDB","i_lat":-6.201433,"is_transit":false},{"is_transit":false,"i_long":106.822649,"station_name":"Sudirman","time":1,"i_lat":-6.202263,"transit":false,"distance":280,"line":1,"station_id":"SUD"},{"station_name":"Manggarai","is_transit":false,"i_lat":-6.209883,"line":2,"station_id":"MRI","transit":false,"time":4,"distance":3186,"i_long":106.84912},{"station_id":"MTR","is_transit":false,"station_name":"Matraman","time":2,"i_lat":-6.212485,"i_long":106.858896,"line":1,"distance":1275,"transit":false},{"station_name":"Jatinegara","is_transit":false,"transit":false,"i_long":106.86807400000001,"line":1,"station_id":"JNG","i_lat":-6.215091,"time":8,"distance":1377},{"station_id":"KLD","line":1,"i_lat":-6.2135,"is_transit":false,"distance":3395,"i_long":106.899548,"station_name":"Klender","time":3,"transit":false},{"is_transit":false,"transit":false,"distance":3100,"line":1,"time":2,"i_long":106.922662,"station_name":"Buaran","station_id":"BUA","i_lat":-6.215568},{"i_long":106.939679,"is_transit":false,"station_id":"KLDB","transit":false,"distance":1305,"station_name":"Klenderbaru","time":1,"line":1,"i_lat":-6.217455},{"transit":false,"station_name":"Cakung","time":8,"line":1,"i_long":106.951283,"distance":1385,"is_transit":false,"station_id":"CUK","i_lat":-6.219053},{"time":3,"station_name":"Kranji","distance":3097,"is_transit":false,"i_long":106.977657,"station_id":"KRI","transit":false,"i_lat":-6.224515,"line":1},{"station_name":"Bekasi","i_long":106.997013,"transit":false,"is_transit":false,"station_id":"BKS","distance":2520,"i_lat":-6.236616,"time":4,"line":1}],[{"is_transit":false,"distance":0,"i_long":106.508482,"line":3,"station_name":"Cilejit","i_lat":-6.354349,"station_id":"CJT","time":0,"transit":false},{"line":6,"i_long":106.568863,"distance":7025,"station_id":"PRP","station_name":"Parung Panjang","time":9,"transit":false,"is_transit":false,"i_lat":-6.3441410000000005},{"station_id":"CC","is_transit":false,"time":8,"line":3,"station_name":"Cicayur","transit":false,"distance":5968,"i_lat":-6.329547,"i_long":106.617853},{"transit":false,"time":4,"is_transit":false,"i_lat":-6.32484,"i_long":106.640411,"station_id":"CSK","distance":2519,"line":3,"station_name":"Cisauk"},{"transit":false,"i_lat":-6.319871,"time":4,"line":6,"i_long":106.66566,"station_id":"SRP","distance":1784,"station_name":"Serpong","is_transit":false},{"transit":false,"station_name":"Rawa Buntu","is_transit":false,"i_lat":-6.314823,"time":4,"line":6,"station_id":"RU","i_long":106.675475,"distance":2413},{"transit":false,"station_id":"SDM","is_transit":false,"distance":4566,"time":6,"line":6,"station_name":"Sudimara","i_lat":-6.296963,"i_long":106.712277},{"distance":1994,"is_transit":false,"transit":false,"i_long":106.728916,"time":4,"station_id":"JMU","line":6,"station_name":"Jurangmangu","i_lat":-6.288927},{"time":3,"transit":false,"is_transit":false,"i_lat":-6.276362,"station_id":"PDJ","i_long":106.74273,"line":6,"distance":2179,"station_name":"Pondokranji"},{"station_id":"KBY","is_transit":false,"station_name":"Kebayoran","time":8,"line":6,"transit":false,"distance":6218,"i_lat":-6.237242,"i_long":106.780334},{"is_transit":false,"distance":3737,"i_lat":-6.207404,"time":7,"line":6,"station_name":"Palmerah","i_long":106.79689,"station_id":"PLM","transit":false},{"is_transit":true,"station_id":"THB","time":6,"distance":3191,"transit":true,"i_lat":-6.185545,"line":1,"station_name":"Tanah Abang","i_long":106.811091},{"time":8,"is_transit":false,"i_lat":-6.155215,"station_id":"DU","transit":false,"i_long":106.800832,"station_name":"Duri","distance":3632,"line":1},{"i_long":106.79867,"station_name":"Angke","line":1,"i_lat":-6.144674,"distance":1230,"station_id":"AK","is_transit":false,"transit":false,"time":4},{"station_id":"KPB","is_transit":true,"transit":true,"time":9,"distance":4102,"line":4,"i_lat":-6.132549,"i_long":106.826365,"station_name":"Kampung Bandan"},{"transit":false,"i_long":106.836569,"is_transit":false,"distance":1444,"station_name":"Rajawali","station_id":"RJW","i_lat":-6.14505,"line":11,"time":3},{"line":11,"is_transit":false,"station_name":"Kemayoran","station_id":"KMO","transit":false,"i_lat":-6.161728,"i_long":106.839204,"distance":1901,"time":5},{"distance":1436,"time":4,"transit":false,"i_lat":-6.174784,"station_id":"PSE","station_name":"Pasar Senen","is_transit":false,"i_long":106.84368,"line":11},{"i_long":106.850107,"transit":false,"line":11,"station_id":"GST","time":8,"i_lat":-6.185975,"station_name":"Gang Sentiong","distance":1567,"is_transit":false},{"distance":973,"i_lat":-6.193792,"is_transit":false,"time":1,"line":11,"transit":false,"station_id":"KMT","i_long":106.855437,"station_name":"Kramat"},{"line":11,"i_lat":-6.209188,"distance":1829,"time":2,"station_id":"POK","i_long":106.861737,"station_name":"Pondok Jati","is_transit":false,"transit":false},{"i_lat":-6.215091,"transit":true,"station_name":"Jatinegara","distance":1236,"is_transit":true,"time":9,"i_long":106.86807400000001,"line":1,"station_id":"JNG"},{"distance":3395,"line":1,"i_lat":-6.2135,"station_id":"KLD","time":3,"station_name":"Klender","transit":false,"is_transit":false,"i_long":106.899548},{"distance":3100,"line":1,"transit":false,"station_name":"Buaran","time":2,"is_transit":false,"i_lat":-6.215568,"station_id":"BUA","i_long":106.922662},{"is_transit":false,"distance":1305,"i_lat":-6.217455,"line":1,"station_name":"Klenderbaru","i_long":106.939679,"time":1,"station_id":"KLDB","transit":false},{"i_lat":-6.219053,"i_long":106.951283,"line":1,"station_id":"CUK","time":8,"distance":1385,"station_name":"Cakung","transit":false,"is_transit":false},{"station_id":"KRI","distance":3097,"line":1,"i_long":106.977657,"i_lat":-6.224515,"is_transit":false,"time":3,"transit":false,"station_name":"Kranji"},{"distance":2520,"line":1,"station_name":"Bekasi","station_id":"BKS","is_transit":false,"time":4,"i_lat":-6.236616,"i_long":106.997013,"transit":false}],[{"i_lat":-6.354349,"is_transit":false,"i_long":106.508482,"station_name":"Cilejit","time":0,"line":3,"station_id":"CJT","transit":false,"distance":0},{"time":9,"distance":7025,"is_transit":false,"transit":false,"station_name":"Parung Panjang","i_lat":-6.3441410000000005,"station_id":"PRP","i_long":106.568863,"line":6},{"distance":5968,"station_id":"CC","time":8,"i_long":106.617853,"line":3,"transit":false,"is_transit":false,"station_name":"Cicayur","i_lat":-6.329547},{"i_lat":-6.32484,"time":4,"line":3,"distance":2519,"transit":false,"is_transit":false,"station_id":"CSK","i_long":106.640411,"station_name":"Cisauk"},{"transit":false,"station_id":"SRP","time":4,"i_long":106.66566,"station_name":"Serpong","is_transit":false,"i_lat":-6.319871,"distance":1784,"line":6},{"line":6,"station_name":"Rawa Buntu","transit":false,"is_transit":false,"i_lat":-6.314823,"i_long":106.675475,"station_id":"RU","distance":2413,"time":4},{"transit":false,"i_lat":-6.296963,"station_id":"SDM","i_long":106.712277,"distance":4566,"line":6,"is_transit":false,"time":6,"station_name":"Sudimara"},{"line":6,"i_lat":-6.288927,"i_long":106.728916,"transit":false,"station_id":"JMU","distance":1994,"station_name":"Jurangmangu","is_transit":false,"time":4},{"line":6,"transit":false,"i_lat":-6.276362,"station_name":"Pondokranji","is_transit":false,"station_id":"PDJ","i_long":106.74273,"time":3,"distance":2179},{"i_lat":-6.237242,"station_name":"Kebayoran","is_transit":false,"transit":false,"distance":6218,"time":8,"line":6,"i_long":106.780334,"station_id":"KBY"},{"line":6,"station_name":"Palmerah","is_transit":false,"transit":false,"station_id":"PLM","time":7,"i_lat":-6.207404,"distance":3737,"i_long":106.79689},{"i_long":106.811091,"line":1,"time":6,"is_transit":true,"distance":3191,"transit":true,"station_id":"THB","i_lat":-6.185545,"station_name":"Tanah Abang"},{"is_transit":false,"i_lat":-6.155215,"time":8,"station_name":"Duri","i_long":106.800832,"distance":3632,"station_id":"DU","line":1,"transit":false},{"station_id":"AK","i_long":106.79867,"is_transit":false,"distance":1230,"i_lat":-6.144674,"transit":false,"station_name":"Angke","time":4,"line":1},{"is_transit":true,"station_name":"Kampung Bandan","time":9,"i_lat":-6.132549,"distance":4102,"transit":true,"station_id":"KPB","i_long":106.826365,"line":4},{"line":2,"is_transit":true,"transit":true,"station_id":"JAKK","i_long":106.812439,"station_name":"Jakarta Kota","time":3,"distance":1364,"i_lat":-6.137569},{"station_name":"Jayakarta","distance":1264,"time":4,"i_long":106.820901,"transit":false,"is_transit":false,"i_lat":-6.141205,"station_id":"JAY","line":2},{"i_lat":-6.149769,"transit":false,"time":2,"station_id":"MGB","distance":1080,"station_name":"Manggabesar","line":2,"is_transit":false,"i_long":106.82482},{"is_transit":false,"time":2,"distance":906,"i_long":106.827103,"station_name":"Sawah Besar","i_lat":-6.160725,"line":2,"station_id":"SW","transit":false},{"station_id":"JUA","time":2,"i_long":106.828284,"station_name":"Juanda","line":2,"transit":false,"distance":1149,"i_lat":-6.166716,"is_transit":false},{"i_lat":-6.186295,"i_long":106.832183,"station_name":"Gondangdia","time":4,"distance":2015,"line":2,"transit":false,"is_transit":false,"station_id":"GDD"},{"i_lat":-6.198556,"line":2,"transit":false,"station_name":"Cikini","is_transit":false,"time":3,"distance":1750,"station_id":"CKI","i_long":106.840169},{"station_name":"Manggarai","i_lat":-6.209883,"transit":true,"station_id":"MRI","time":4,"distance":1590,"line":2,"i_long":106.84912,"is_transit":true},{"station_name":"Matraman","is_transit":false,"i_lat":-6.212485,"distance":1275,"i_long":106.858896,"line":1,"station_id":"MTR","time":2,"transit":false},{"i_lat":-6.215091,"line":1,"distance":1377,"time":8,"transit":false,"station_name":"Jatinegara","station_id":"JNG","is_transit":false,"i_long":106.86807400000001},{"station_id":"KLD","transit":false,"station_name":"Klender","time":3,"distance":3395,"line":1,"i_long":106.899548,"is_transit":false,"i_lat":-6.2135},{"line":1,"transit":false,"station_name":"Buaran","time":2,"distance":3100,"station_id":"BUA","i_lat":-6.215568,"is_transit":false,"i_long":106.922662},{"distance":1305,"i_long":106.939679,"transit":false,"is_transit":false,"time":1,"line":1,"station_id":"KLDB","i_lat":-6.217455,"station_name":"Klenderbaru"},{"transit":false,"time":8,"station_id":"CUK","distance":1385,"station_name":"Cakung","is_transit":false,"i_long":106.951283,"i_lat":-6.219053,"line":1},{"transit":false,"station_name":"Kranji","line":1,"is_transit":false,"distance":3097,"i_lat":-6.224515,"station_id":"KRI","time":3,"i_long":106.977657},{"station_id":"BKS","i_lat":-6.236616,"time":4,"i_long":106.997013,"station_name":"Bekasi","distance":2520,"is_transit":false,"transit":false,"line":1}],[{"time":0,"station_name":"Cilejit","i_lat":-6.354349,"transit":false,"distance":0,"is_transit":false,"i_long":106.508482,"line":3,"station_id":"CJT"},{"time":9,"distance":7025,"i_long":106.568863,"station_id":"PRP","transit":false,"i_lat":-6.3441410000000005,"is_transit":false,"line":6,"station_name":"Parung Panjang"},{"distance":5968,"i_lat":-6.329547,"line":3,"transit":false,"i_long":106.617853,"is_transit":false,"station_id":"CC","time":8,"station_name":"Cicayur"},{"i_lat":-6.32484,"i_long":106.640411,"line":3,"station_id":"CSK","transit":false,"station_name":"Cisauk","is_transit":false,"time":4,"distance":2519},{"time":4,"distance":1784,"is_transit":false,"i_long":106.66566,"line":6,"i_lat":-6.319871,"transit":false,"station_id":"SRP","station_name":"Serpong"},{"station_name":"Rawa Buntu","i_lat":-6.314823,"is_transit":false,"i_long":106.675475,"time":4,"distance":2413,"transit":false,"station_id":"RU","line":6},{"is_transit":false,"station_id":"SDM","time":6,"i_long":106.712277,"i_lat":-6.296963,"line":6,"station_name":"Sudimara","transit":false,"distance":4566},{"station_name":"Jurangmangu","i_long":106.728916,"i_lat":-6.288927,"transit":false,"station_id":"JMU","distance":1994,"time":4,"is_transit":false,"line":6},{"station_id":"PDJ","distance":2179,"i_long":106.74273,"station_name":"Pondokranji","line":6,"time":3,"is_transit":false,"transit":false,"i_lat":-6.276362},{"transit":false,"is_transit":false,"station_id":"KBY","i_lat":-6.237242,"distance":6218,"time":8,"station_name":"Kebayoran","line":6,"i_long":106.780334},{"transit":false,"time":7,"i_long":106.79689,"station_id":"PLM","station_name":"Palmerah","distance":3737,"is_transit":false,"i_lat":-6.207404,"line":6},{"is_transit":true,"i_lat":-6.185545,"station_id":"THB","line":1,"time":6,"distance":3191,"i_long":106.811091,"transit":true,"station_name":"Tanah Abang"},{"line":1,"i_long":106.816351,"distance":2029,"station_name":"Karet","station_id":"KAT","time":5,"transit":false,"is_transit":false,"i_lat":-6.20132},{"transit":false,"distance":471,"i_lat":-6.201433,"i_long":106.819881,"station_name":"Sudirman Baru","time":1,"station_id":"SUDB","line":1,"is_transit":false},{"station_id":"SUD","is_transit":false,"i_long":106.822649,"distance":280,"transit":false,"station_name":"Sudirman","time":1,"line":1,"i_lat":-6.202263},{"i_long":106.84912,"distance":3186,"time":4,"line":2,"station_name":"Manggarai","i_lat":-6.209883,"transit":true,"is_transit":true,"station_id":"MRI"},{"time":4,"i_lat":-6.198556,"station_name":"Cikini","is_transit":false,"line":2,"transit":false,"i_long":106.840169,"distance":1590,"station_id":"CKI"},{"line":2,"i_lat":-6.186295,"transit":false,"i_long":106.832183,"is_transit":false,"station_id":"GDD","time":3,"station_name":"Gondangdia","distance":1750},{"is_transit":false,"i_lat":-6.166716,"line":2,"transit":false,"station_name":"Juanda","station_id":"JUA","i_long":106.828284,"time":4,"distance":2015},{"transit":false,"time":2,"is_transit":false,"station_id":"SW","i_lat":-6.160725,"i_long":106.827103,"station_name":"Sawah Besar","distance":1149,"line":2},{"transit":false,"station_name":"Manggabesar","i_lat":-6.149769,"i_long":106.82482,"time":2,"line":2,"is_transit":false,"distance":906,"station_id":"MGB"},{"is_transit":false,"station_name":"Jayakarta","distance":1080,"transit":false,"time":2,"i_long":106.820901,"station_id":"JAY","line":2,"i_lat":-6.141205},{"transit":true,"i_long":106.812439,"is_transit":true,"distance":1264,"station_id":"JAKK","i_lat":-6.137569,"time":4,"line":2,"station_name":"Jakarta Kota"},{"station_id":"KPB","i_lat":-6.132549,"is_transit":true,"distance":1364,"i_long":106.826365,"transit":true,"time":3,"station_name":"Kampung Bandan","line":4},{"i_long":106.836569,"time":3,"is_transit":false,"station_id":"RJW","line":11,"station_name":"Rajawali","distance":1444,"i_lat":-6.14505,"transit":false},{"station_name":"Kemayoran","i_lat":-6.161728,"is_transit":false,"line":11,"distance":1901,"transit":false,"i_long":106.839204,"time":5,"station_id":"KMO"},{"i_lat":-6.174784,"i_long":106.84368,"time":4,"line":11,"station_name":"Pasar Senen","is_transit":false,"transit":false,"distance":1436,"station_id":"PSE"},{"is_transit":false,"i_lat":-6.185975,"station_id":"GST","distance":1567,"line":11,"transit":false,"i_long":106.850107,"station_name":"Gang Sentiong","time":8},{"i_lat":-6.193792,"i_long":106.855437,"station_id":"KMT","is_transit":false,"line":11,"station_name":"Kramat","distance":973,"time":1,"transit":false},{"line":11,"is_transit":false,"i_lat":-6.209188,"station_id":"POK","transit":false,"distance":1829,"i_long":106.861737,"time":2,"station_name":"Pondok Jati"},{"station_name":"Jatinegara","station_id":"JNG","time":9,"is_transit":true,"distance":1236,"line":1,"i_long":106.86807400000001,"i_lat":-6.215091,"transit":true},{"station_id":"KLD","line":1,"distance":3395,"station_name":"Klender","i_lat":-6.2135,"is_transit":false,"transit":false,"time":3,"i_long":106.899548},{"time":2,"station_id":"BUA","is_transit":false,"distance":3100,"i_lat":-6.215568,"station_name":"Buaran","transit":false,"line":1,"i_long":106.922662},{"is_transit":false,"station_name":"Klenderbaru","i_lat":-6.217455,"distance":1305,"transit":false,"line":1,"time":1,"i_long":106.939679,"station_id":"KLDB"},{"is_transit":false,"i_long":106.951283,"line":1,"time":8,"station_name":"Cakung","transit":false,"i_lat":-6.219053,"station_id":"CUK","distance":1385},{"line":1,"station_name":"Kranji","transit":false,"station_id":"KRI","is_transit":false,"time":3,"i_lat":-6.224515,"i_long":106.977657,"distance":3097},{"line":1,"is_transit":false,"station_name":"Bekasi","distance":2520,"time":4,"i_long":106.997013,"station_id":"BKS","i_lat":-6.236616,"transit":false}]]}