{"data":[[{"station_name":"Cilejit","station_id":"CJT","time":0,"i_long":106.508482,"transit":false,"distance":0,"i_lat":-6.354349,"line":3,"is_transit":false},{"i_long":106.568863,"line":6,"is_transit":false,"distance":7025,"transit":false,"station_name":"Parung Panjang","station_id":"PRP","time":9,"i_lat":-6.3441410000000005},{"i_long":106.617853,"line":3,"station_id":"CC","distance":5968,"is_transit":false,"i_lat":-6.329547,"station_name":"Cicayur","transit":false,"time":8},{"distance":2519,"time":4,"i_long":106.640411,"station_id":"CSK","transit":false,"i_lat":-6.32484,"is_transit":false,"station_name":"Cisauk","line":3},{"i_lat":-6.319871,"is_transit":false,"transit":false,"station_name":"Serpong","i_long":106.66566,"distance":1784,"line":6,"station_id":"SRP","time":4},{"station_id":"RU","i_long":106.675475,"line":6,"distance":2413,"is_transit":false,"i_lat":-6.314823,"time":4,"station_name":"Rawa Buntu","transit":false},{"line":6,"station_name":"Sudimara","is_transit":false,"station_id":"SDM","transit":false,"time":6,"i_lat":-6.296963,"distance":4566,"i_long":106.712277},{"line":6,"i_lat":-6.288927,"time":4,"station_name":"Jurangmangu","distance":1994,"station_id":"JMU","is_transit":false,"transit":false,"i_long":106.728916},{"transit":false,"i_lat":-6.276362,"station_id":"PDJ","i_long":106.74273,"line":6,"is_transit":false,"distance":2179,"station_name":"Pondokranji","time":3},{"distance":6218,"line":6,"i_long":106.780334,"station_id":"KBY","is_transit":false,"transit":false,"station_name":"Kebayoran","time":8,"i_lat":-6.237242},{"is_transit":false,"i_long":106.79689,"station_name":"Palmerah","time":7,"i_lat":-6.207404,"transit":false,"distance":3737,"line":6,"station_id":"PLM"},{"time":6,"is_transit":true,"station_name":"Tanah Abang","i_lat":-6.185545,"station_id":"THB","transit":true,"i_long":106.811091,"line":1,"distance":3191},{"i_lat":-6.155215,"time":8,"transit":true,"distance":3632,"i_long":106.800832,"line":1,"station_name":"Duri","is_transit":true,"station_id":"DU"},{"line":5,"transit":false,"distance":1700,"station_id":"GGL","i_lat":-6.162021,"station_name":"Grogol","i_long":106.788277,"time":3,"is_transit":false},{"i_long":106.771379,"station_name":"Pesing","i_lat":-6.161433,"transit":false,"distance":2036,"is_transit":false,"line":5,"time":2,"station_id":"PSG"},{"i_lat":-6.1587309999999995,"time":2,"distance":1614,"station_name":"Taman Kota","i_long":106.756522,"transit":false,"station_id":"TKO","is_transit":false,"line":5},{"i_lat":-6.159876,"station_id":"BOI","line":5,"transit":false,"station_name":"Bojongindah","distance":2334,"time":2,"i_long":106.737035,"is_transit":false},{"transit":false,"i_lat":-6.162758,"line":5,"station_name":"Rawa Buaya","i_long":106.723064,"station_id":"RW","time":4,"is_transit":false,"distance":1152},{"station_id":"KDS","is_transit":false,"station_name":"Kalideres","time":3,"i_long":106.701612,"distance":2504,"line":5,"transit":false,"i_lat":-6.166068}],[{"is_transit":false,"station_id":"CJT","time":0,"i_lat":-6.354349,"line":3,"transit":false,"i_long":106.508482,"station_name":"Cilejit","distance":0},{"time":9,"i_long":106.568863,"station_id":"PRP","is_transit":false,"line":6,"station_name":"Parung Panjang","transit":false,"distance":7025,"i_lat":-6.3441410000000005},{"i_long":106.617853,"line":3,"is_transit":false,"station_id":"CC","distance":5968,"station_name":"Cicayur","transit":false,"time":8,"i_lat":-6.329547},{"distance":2519,"station_id":"CSK","time":4,"i_lat":-6.32484,"line":3,"station_name":"Cisauk","transit":false,"is_transit":false,"i_long":106.640411},{"line":6,"station_id":"SRP","station_name":"Serpong","is_transit":false,"time":4,"i_long":106.66566,"i_lat":-6.319871,"transit":false,"distance":1784},{"station_id":"RU","line":6,"is_transit":false,"station_name":"Rawa Buntu","transit":false,"i_long":106.675475,"i_lat":-6.314823,"time":4,"distance":2413},{"station_name":"Sudimara","i_long":106.712277,"transit":false,"distance":4566,"i_lat":-6.296963,"time":6,"station_id":"SDM","line":6,"is_transit":false},{"transit":false,"distance":1994,"i_lat":-6.288927,"i_long":106.728916,"line":6,"time":4,"station_name":"Jurangmangu","station_id":"JMU","is_transit":false},{"i_lat":-6.276362,"line":6,"i_long":106.74273,"time":3,"transit":false,"distance":2179,"station_id":"PDJ","is_transit":false,"station_name":"Pondokranji"},{"transit":false,"time":8,"distance":6218,"station_name":"Kebayoran","is_transit":false,"i_long":106.780334,"station_id":"KBY","i_lat":-6.237242,"line":6},{"station_id":"PLM","is_transit":false,"i_lat":-6.207404,"distance":3737,"i_long":106.79689,"line":6,"station_name":"Palmerah","time":7,"transit":false},{"i_long":106.811091,"time":6,"transit":true,"distance":3191,"i_lat":-6.185545,"station_name":"Tanah Abang","station_id":"THB","is_transit":true,"line":1},{"transit":false,"i_lat":-6.20132,"line":1,"is_transit":false,"i_long":106.816351,"station_id":"KAT","distance":2029,"station_name":"Karet","time":5},{"transit":false,"station_name":"Sudirman Baru","station_id":"SUDB","time":1,"i_long":106.819881,"line":1,"is_transit":false,"distance":471,"i_lat":-6.201433},{"is_transit":false,"station_id":"SUD","time":1,"i_lat":-6.202263,"distance":280,"line":1,"transit":false,"i_long":106.822649,"station_name":"Sudirman"},{"station_name":"Manggarai","line":2,"i_lat":-6.209883,"transit":true,"time":4,"distance":3186,"i_long":106.84912,"is_transit":true,"station_id":"MRI"},{"is_transit":false,"line":2,"i_long":106.840169,"i_lat":-6.198556,"distance":1590,"time":4,"station_name":"Cikini","station_id":"CKI","transit":false},{"time":3,"station_id":"GDD","line":2,"transit":false,"i_lat":-6.186295,"i_long":106.832183,"distance":1750,"station_name":"Gondangdia","is_transit":false},{"is_transit":false,"line":2,"time":4,"i_lat":-6.166716,"station_id":"JUA","i_long":106.828284,"transit":false,"station_name":"Juanda","distance":2015},{"station_name":"Sawah Besar","station_id":"SW","is_transit":false,"distance":1149,"time":2,"i_lat":-6.160725,"i_long":106.827103,"line":2,"transit":false},{"station_name":"Manggabesar","i_lat":-6.149769,"transit":false,"i_long":106.82482,"station_id":"MGB","distance":906,"line":2,"time":2,"is_transit":false},{"transit":false,"is_transit":false,"station_id":"JAY","i_lat":-6.141205,"station_name":"Jayakarta","time":2,"i_long":106.820901,"line":2,"distance":1080},{"transit":true,"station_id":"JAKK","i_lat":-6.137569,"station_name":"Jakarta Kota","is_transit":true,"distance":1264,"i_long":106.812439,"line":2,"time":4},{"is_transit":true,"station_name":"Kampung Bandan","distance":1364,"i_lat":-6.132549,"station_id":"KPB","time":3,"i_long":106.826365,"line":4,"transit":true},{"line":1,"transit":false,"i_lat":-6.144674,"i_long":106.79867,"distance":4102,"is_transit":false,"station_id":"AK","time":9,"station_name":"Angke"},{"line":1,"transit":true,"distance":1230,"time":4,"i_lat":-6.155215,"station_name":"Duri","station_id":"DU","is_transit":true,"i_long":106.800832},{"station_name":"Grogol","distance":1700,"i_long":106.788277,"time":3,"i_lat":-6.162021,"line":5,"is_transit":false,"station_id":"GGL","transit":false},{"i_lat":-6.161433,"transit":false,"distance":2036,"station_id":"PSG","line":5,"time":2,"is_transit":false,"station_name":"Pesing","i_long":106.771379},{"distance":1614,"station_id":"TKO","is_transit":false,"station_name":"Taman Kota","time":2,"line":5,"i_lat":-6.1587309999999995,"i_long":106.756522,"transit":false},{"line":5,"station_id":"BOI","i_lat":-6.159876,"transit":false,"is_transit":false,"i_long":106.737035,"distance":2334,"station_name":"Bojongindah","time":2},{"station_id":"RW","is_transit":false,"i_long":106.723064,"distance":1152,"transit":false,"station_name":"Rawa Buaya","time":4,"line":5,"i_lat":-6.162758},{"station_id":"KDS","station_name":"Kalideres","time":3,"distance":2504,"is_transit":false,"transit":false,"i_lat":-6.166068,"i_long":106.701612,"line":5}],[{"station_name":"Cilejit","distance":0,"transit":false,"i_lat":-6.354349,"station_id":"CJT","i_long":106.508482,"line":3,"is_transit":false,"time":0},{"i_long":106.568863,"i_lat":-6.3441410000000005,"line":6,"station_name":"Parung Panjang","time":9,"station_id":"PRP","transit":false,"is_transit":false,"distance":7025},{"is_transit":false,"distance":5968,"station_id":"CC","station_name":"Cicayur","line":3,"transit":false,"i_long":106.617853,"i_lat":-6.329547,"time":8},{"line":3,"is_transit":false,"transit":false,"station_id":"CSK","distance":2519,"i_long":106.640411,"i_lat":-6.32484,"station_name":"Cisauk","time":4},{"is_transit":false,"time":4,"line":6,"i_lat":-6.319871,"transit":false,"station_name":"Serpong","distance":1784,"i_long":106.66566,"station_id":"SRP"},{"station_id":"RU","i_long":106.675475,"distance":2413,"station_name":"Rawa Buntu","line":6,"transit":false,"time":4,"i_lat":-6.314823,"is_transit":false},{"i_lat":-6.296963,"i_long":106.712277,"line":6,"station_name":"Sudimara","transit":false,"distance":4566,"time":6,"station_id":"SDM","is_transit":false},{"i_long":106.728916,"station_id":"JMU","distance":1994,"transit":false,"station_name":"Jurangmangu","time":4,"is_transit":false,"i_lat":-6.288927,"line":6},{"i_lat":-6.276362,"distance":2179,"i_long":106.74273,"station_name":"Pondokranji","line":6,"time":3,"is_transit":false,"transit":false,"station_id":"PDJ"},{"is_transit":false,"station_id":"KBY","transit":false,"time":8,"i_lat":-6.237242,"station_name":"Kebayoran","distance":6218,"line":6,"i_long":106.780334},{"transit":false,"is_transit":false,"time":7,"station_id":"PLM","distance":3737,"i_lat":-6.207404,"i_long":106.79689,"station_name":"Palmerah","line":6},{"station_id":"THB","distance":3191,"time":6,"i_long":106.811091,"is_transit":true,"transit":true,"line":1,"i_lat":-6.185545,"station_name":"Tanah Abang"},{"distance":2029,"is_transit":false,"line":1,"transit":false,"station_name":"Karet","i_lat":-6.20132,"i_long":106.816351,"station_id":"KAT","time":5},{"distance":471,"line":1,"i_lat":-6.201433,"station_name":"Sudirman Baru","is_transit":false,"time":1,"i_long":106.819881,"transit":false,"station_id":"SUDB"},{"i_lat":-6.202263,"station_id":"SUD","transit":false,"time":1,"station_name":"Sudirman","distance":280,"is_transit":false,"i_long":106.822649,"line":1},{"i_long":106.84912,"i_lat":-6.209883,"transit":false,"distance":3186,"line":2,"station_id":"MRI","station_name":"Manggarai","time":4,"is_transit":false},{"is_transit":false,"line":1,"transit":false,"i_lat":-6.212485,"distance":1275,"station_id":"MTR","i_long":106.858896,"station_name":"Matraman","time":2},{"station_name":"Jatinegara","is_transit":true,"i_long":106.86807400000001,"station_id":"JNG","time":8,"i_lat":-6.215091,"distance":1377,"line":1,"transit":true},{"i_long":106.861737,"station_name":"Pondok Jati","station_id":"POK","i_lat":-6.209188,"line":11,"transit":false,"is_transit":false,"time":2,"distance":1236},{"station_id":"KMT","station_name":"Kramat","is_transit":false,"transit":false,"distance":1829,"i_lat":-6.193792,"i_long":106.855437,"line":11,"time":2},{"time":1,"is_transit":false,"station_id":"GST","distance":973,"transit":false,"i_lat":-6.185975,"i_long":106.850107,"station_name":"Gang Sentiong","line":11},{"station_name":"Pasar Senen","i_lat":-6.174784,"line":11,"i_long":106.84368,"time":8,"distance":1567,"transit":false,"is_transit":false,"station_id":"PSE"},{"station_name":"Kemayoran","station_id":"KMO","i_long":106.839204,"distance":1436,"transit":false,"is_transit":false,"time":4,"i_lat":-6.161728,"line":11},{"line":11,"station_id":"RJW","i_lat":-6.14505,"i_long":106.836569,"distance":1901,"is_transit":false,"station_name":"Rajawali","time":5,"transit":false},{"transit":true,"station_name":"Kampung Bandan","i_lat":-6.132549,"line":4,"distance":1444,"station_id":"KPB","time":3,"i_long":106.826365,"is_transit":true},{"is_transit":false,"time":9,"station_name":"Angke","transit":false,"station_id":"AK","i_long":106.79867,"i_lat":-6.144674,"distance":4102,"line":1},{"station_name":"Duri","transit":true,"is_transit":true,"time":4,"i_long":106.800832,"line":1,"i_lat":-6.155215,"station_id":"DU","distance":1230},{"time":3,"is_transit":false,"station_name":"Grogol","line":5,"transit":false,"station_id":"GGL","i_long":106.788277,"distance":1700,"i_lat":-6.162021},{"station_name":"Pesing","i_lat":-6.161433,"i_long":106.771379,"distance":2036,"station_id":"PSG","is_transit":false,"line":5,"time":2,"transit":false},{"transit":false,"is_transit":false,"distance":1614,"i_long":106.756522,"line":5,"i_lat":-6.1587309999999995,"station_name":"Taman Kota","time":2,"station_id":"TKO"},{"is_transit":false,"station_id":"BOI","i_long":106.737035,"station_name":"Bojongindah","distance":2334,"time":2,"line":5,"transit":false,"i_lat":-6.159876},{"is_transit":false,"distance":1152,"line":5,"transit":false,"station_id":"RW","station_name":"Rawa Buaya","i_lat":-6.162758,"time":4,"i_long":106.723064},{"is_transit":false,"station_id":"KDS","time":3,"station_name":"Kalideres","distance":2504,"i_long":106.701612,"i_lat":-6.166068,"line":5,"transit":false}]]}