{"data":[[{"distance":0,"transit":false,"station_name":"Cilejit","line":0,"station_id":"CJT","time":0,"is_transit":false,"i_lat":-6.354349,"i_long":106.508482},{"station_name":"Parung Panjang","transit":false,"distance":7025,"i_long":106.568863,"time":9,"station_id":"PRP","i_lat":-6.3441410000000005,"line":6,"is_transit":false},{"is_transit":false,"i_long":106.617853,"distance":5968,"line":0,"station_id":"CC","station_name":"Cicayur","time":8,"transit":false,"i_lat":-6.329547},{"is_transit":false,"station_name":"Cisauk","station_id":"CSK","i_lat":-6.32484,"i_long":106.640411,"transit":false,"line":0,"time":4,"distance":2519},{"station_id":"SRP","station_name":"Serpong","is_transit":false,"time":4,"i_long":106.66566,"distance":1784,"i_lat":-6.319871,"line":6,"transit":false},{"time":4,"i_long":106.675475,"line":6,"i_lat":-6.314823,"is_transit":false,"station_id":"RU","transit":false,"station_name":"Rawa Buntu","distance":2413},{"i_lat":-6.296963,"line":6,"is_transit":false,"station_name":"Sudimara","transit":false,"i_long":106.712277,"time":6,"distance":4566,"station_id":"SDM"},{"station_id":"JMU","is_transit":false,"time":4,"i_lat":-6.288927,"distance":1994,"station_name":"Jurangmangu","transit":false,"i_long":106.728916,"line":6},{"station_id":"PDJ","i_long":106.74273,"i_lat":-6.276362,"time":3,"distance":2179,"transit":false,"station_name":"Pondokranji","line":6,"is_transit":false},{"is_transit":false,"station_id":"KBY","time":8,"distance":6218,"transit":false,"i_lat":-6.237242,"i_long":106.780334,"station_name":"Kebayoran","line":6},{"time":7,"transit":false,"station_id":"PLM","station_name":"Palmerah","is_transit":false,"distance":3737,"i_lat":-6.207404,"line":6,"i_long":106.79689},{"i_long":106.811091,"transit":true,"i_lat":-6.185545,"distance":3191,"station_id":"THB","line":1,"is_transit":true,"station_name":"Tanah Abang","time":6},{"station_id":"KAT","distance":2029,"i_long":106.816351,"time":5,"line":1,"station_name":"Karet","transit":false,"is_transit":false,"i_lat":-6.20132},{"i_lat":-6.201433,"line":1,"station_id":"SUDB","station_name":"Sudirman Baru","transit":false,"distance":471,"i_long":106.819881,"is_transit":false,"time":1},{"is_transit":false,"time":1,"distance":280,"transit":false,"i_long":106.822649,"line":1,"station_id":"SUD","station_name":"Sudirman","i_lat":-6.202263},{"station_id":"MRI","i_lat":-6.209883,"line":0,"i_long":106.84912,"distance":3186,"transit":true,"is_transit":true,"station_name":"Manggarai","time":4},{"station_id":"TEB","station_name":"Tebet","time":4,"line":2,"i_long":106.857948,"transit":false,"distance":2610,"is_transit":false,"i_lat":-6.226659},{"distance":1230,"is_transit":false,"i_lat":-6.242512,"transit":false,"station_id":"CW","time":2,"station_name":"Cawang","i_long":106.856607,"line":0},{"transit":false,"station_id":"DRN","distance":1546,"is_transit":false,"station_name":"Duren Kalibata","line":0,"i_long":106.85449,"i_lat":-6.255332,"time":3},{"i_long":106.851577,"distance":824,"line":2,"station_id":"PSMB","transit":false,"time":2,"is_transit":false,"station_name":"Pasar Minggu Baru","i_lat":-6.263214},{"is_transit":false,"distance":2380,"i_lat":-6.2842400000000005,"time":2,"transit":false,"line":2,"station_id":"PSM","station_name":"Pasar Minggu","i_long":106.843999},{"station_id":"TNT","time":4,"transit":false,"distance":2820,"i_long":106.838896,"line":2,"station_name":"Tanjung Barat","i_lat":-6.3080680000000005,"is_transit":false},{"i_long":106.832616,"time":3,"station_id":"LNA","line":2,"i_lat":-6.330363,"distance":2671,"station_name":"Lenteng Agung","transit":false,"is_transit":false},{"time":2,"i_long":106.834175,"station_name":"Univ. Pancasila","line":2,"station_id":"UP","transit":false,"distance":1029,"i_lat":-6.339291,"is_transit":false},{"i_long":106.831474,"i_lat":-6.360749,"transit":false,"time":3,"distance":2264,"station_id":"UI","station_name":"Univ. Indonesia","line":2,"is_transit":false},{"is_transit":false,"i_lat":-6.369073,"distance":1109,"station_name":"Pondok Cina","i_long":106.831114,"transit":false,"station_id":"POC","line":2,"time":2},{"station_id":"DPB","is_transit":false,"time":4,"i_long":106.819451,"station_name":"Depokbaru","distance":2727,"i_lat":-6.391065,"transit":false,"line":0},{"i_long":106.816926,"is_transit":false,"distance":1584,"station_id":"DP","time":3,"i_lat":-6.405256,"line":0,"station_name":"Depok","transit":false},{"is_transit":true,"i_lat":-6.448811,"i_long":106.800298,"time":6,"line":1,"distance":5084,"transit":false,"station_name":"Citayam","station_id":"CTA"},{"line":0,"is_transit":false,"station_name":"Cibinong","time":10,"transit":false,"distance":6740,"station_id":"CBN","i_lat":-6.46424,"i_long":106.851978}],[{"station_name":"Cilejit","i_long":106.508482,"station_id":"CJT","is_transit":false,"transit":false,"line":0,"i_lat":-6.354349,"distance":0,"time":0},{"distance":7025,"i_long":106.568863,"station_id":"PRP","line":6,"is_transit":false,"time":9,"station_name":"Parung Panjang","transit":false,"i_lat":-6.3441410000000005},{"station_name":"Cicayur","i_long":106.617853,"i_lat":-6.329547,"line":0,"is_transit":false,"station_id":"CC","time":8,"distance":5968,"transit":false},{"transit":false,"i_lat":-6.32484,"distance":2519,"i_long":106.640411,"line":0,"time":4,"station_id":"CSK","is_transit":false,"station_name":"Cisauk"},{"station_name":"Serpong","i_long":106.66566,"distance":1784,"line":6,"station_id":"SRP","time":4,"transit":false,"i_lat":-6.319871,"is_transit":false},{"station_name":"Rawa Buntu","station_id":"RU","i_lat":-6.314823,"i_long":106.675475,"is_transit":false,"time":4,"line":6,"distance":2413,"transit":false},{"transit":false,"time":6,"line":6,"station_name":"Sudimara","i_lat":-6.296963,"is_transit":false,"station_id":"SDM","distance":4566,"i_long":106.712277},{"station_name":"Jurangmangu","distance":1994,"station_id":"JMU","i_lat":-6.288927,"transit":false,"i_long":106.728916,"is_transit":false,"line":6,"time":4},{"is_transit":false,"transit":false,"i_lat":-6.276362,"i_long":106.74273,"time":3,"station_name":"Pondokranji","line":6,"station_id":"PDJ","distance":2179},{"transit":false,"line":6,"time":8,"station_name":"Kebayoran","i_long":106.780334,"station_id":"KBY","i_lat":-6.237242,"distance":6218,"is_transit":false},{"station_id":"PLM","station_name":"Palmerah","is_transit":false,"line":6,"time":7,"transit":false,"distance":3737,"i_lat":-6.207404,"i_long":106.79689},{"distance":3191,"transit":true,"is_transit":true,"station_name":"Tanah Abang","i_lat":-6.185545,"i_long":106.811091,"time":6,"station_id":"THB","line":1},{"time":8,"is_transit":true,"line":1,"station_id":"DU","distance":3632,"station_name":"Duri","transit":true,"i_long":106.800832,"i_lat":-6.155215},{"i_long":106.79867,"line":0,"i_lat":-6.144674,"time":4,"distance":1230,"station_id":"AK","is_transit":false,"transit":false,"station_name":"Angke"},{"time":9,"is_transit":true,"transit":false,"i_lat":-6.132549,"station_name":"Kampung Bandan","line":0,"distance":4102,"station_id":"KPB","i_long":106.826365},{"line":0,"station_id":"JAKK","station_name":"Jakarta Kota","transit":true,"time":3,"i_lat":-6.137569,"distance":1364,"i_long":106.812439,"is_transit":true},{"time":4,"distance":1264,"i_long":106.820901,"transit":false,"station_name":"Jayakarta","station_id":"JAY","line":7,"i_lat":-6.141205,"is_transit":false},{"line":2,"is_transit":false,"station_id":"MGB","distance":1080,"station_name":"Manggabesar","time":2,"i_lat":-6.149769,"i_long":106.82482,"transit":false},{"is_transit":false,"time":2,"i_long":106.827103,"station_id":"SW","line":2,"distance":906,"station_name":"Sawah Besar","i_lat":-6.160725,"transit":false},{"time":2,"distance":1149,"station_name":"Juanda","transit":false,"i_long":106.828284,"i_lat":-6.166716,"line":2,"is_transit":false,"station_id":"JUA"},{"is_transit":false,"i_lat":-6.186295,"transit":false,"station_name":"Gondangdia","distance":2015,"i_long":106.832183,"line":2,"station_id":"GDD","time":4},{"station_name":"Cikini","distance":1750,"i_long":106.840169,"transit":false,"time":3,"is_transit":false,"station_id":"CKI","i_lat":-6.198556,"line":0},{"line":0,"is_transit":true,"station_name":"Manggarai","i_lat":-6.209883,"time":4,"distance":1590,"i_long":106.84912,"station_id":"MRI","transit":true},{"transit":false,"i_lat":-6.226659,"i_long":106.857948,"line":2,"station_name":"Tebet","station_id":"TEB","distance":2610,"is_transit":false,"time":4},{"is_transit":false,"station_id":"CW","station_name":"Cawang","i_lat":-6.242512,"line":0,"time":2,"i_long":106.856607,"transit":false,"distance":1230},{"is_transit":false,"station_id":"DRN","time":3,"distance":1546,"station_name":"Duren Kalibata","transit":false,"i_lat":-6.255332,"i_long":106.85449,"line":0},{"distance":824,"station_id":"PSMB","time":2,"i_lat":-6.263214,"is_transit":false,"station_name":"Pasar Minggu Baru","transit":false,"line":2,"i_long":106.851577},{"time":2,"line":2,"is_transit":false,"i_long":106.843999,"station_name":"Pasar Minggu","distance":2380,"station_id":"PSM","transit":false,"i_lat":-6.2842400000000005},{"distance":2820,"station_id":"TNT","i_long":106.838896,"line":2,"i_lat":-6.3080680000000005,"transit":false,"time":4,"is_transit":false,"station_name":"Tanjung Barat"},{"time":3,"is_transit":false,"i_long":106.832616,"distance":2671,"station_id":"LNA","station_name":"Lenteng Agung","transit":false,"line":2,"i_lat":-6.330363},{"is_transit":false,"time":2,"transit":false,"i_long":106.834175,"i_lat":-6.339291,"station_id":"UP","line":2,"station_name":"Univ. Pancasila","distance":1029},{"station_name":"Univ. Indonesia","distance":2264,"i_long":106.831474,"time":3,"is_transit":false,"transit":false,"i_lat":-6.360749,"station_id":"UI","line":2},{"station_name":"Pondok Cina","transit":false,"time":2,"is_transit":false,"i_long":106.831114,"line":2,"station_id":"POC","i_lat":-6.369073,"distance":1109},{"transit":false,"line":0,"time":4,"station_name":"Depokbaru","is_transit":false,"station_id":"DPB","i_lat":-6.391065,"i_long":106.819451,"distance":2727},{"station_name":"Depok","station_id":"DP","i_long":106.816926,"time":3,"distance":1584,"is_transit":false,"transit":false,"i_lat":-6.405256,"line":0},{"i_long":106.800298,"time":6,"line":1,"station_id":"CTA","distance":5084,"station_name":"Citayam","transit":false,"is_transit":true,"i_lat":-6.448811},{"is_transit":false,"time":10,"i_lat":-6.46424,"station_name":"Cibinong","i_long":106.851978,"distance":6740,"transit":false,"station_id":"CBN","line":0}],[{"time":0,"is_transit":false,"station_name":"Cilejit","line":0,"station_id":"CJT","i_lat":-6.354349,"distance":0,"transit":false,"i_long":106.508482},{"distance":7025,"line":6,"time":9,"station_id":"PRP","station_name":"Parung Panjang","i_long":106.568863,"transit":false,"i_lat":-6.3441410000000005,"is_transit":false},{"line":0,"transit":false,"distance":5968,"station_id":"CC","is_transit":false,"i_long":106.617853,"station_name":"Cicayur","time":8,"i_lat":-6.329547},{"i_long":106.640411,"time":4,"station_id":"CSK","transit":false,"i_lat":-6.32484,"line":0,"distance":2519,"station_name":"Cisauk","is_transit":false},{"i_lat":-6.319871,"is_transit":false,"time":4,"line":6,"station_id":"SRP","distance":1784,"station_name":"Serpong","transit":false,"i_long":106.66566},{"distance":2413,"i_long":106.675475,"transit":false,"station_name":"Rawa Buntu","line":6,"station_id":"RU","time":4,"i_lat":-6.314823,"is_transit":false},{"line":6,"station_id":"SDM","station_name":"Sudimara","time":6,"is_transit":false,"distance":4566,"transit":false,"i_lat":-6.296963,"i_long":106.712277},{"distance":1994,"transit":false,"station_name":"Jurangmangu","time":4,"i_lat":-6.288927,"line":6,"i_long":106.728916,"station_id":"JMU","is_transit":false},{"is_transit":false,"transit":false,"line":6,"station_id":"PDJ","station_name":"Pondokranji","distance":2179,"time":3,"i_lat":-6.276362,"i_long":106.74273},{"is_transit":false,"station_name":"Kebayoran","i_lat":-6.237242,"i_long":106.780334,"line":6,"station_id":"KBY","transit":false,"time":8,"distance":6218},{"i_lat":-6.207404,"i_long":106.79689,"line":6,"station_id":"PLM","is_transit":false,"station_name":"Palmerah","transit":false,"time":7,"distance":3737},{"station_id":"THB","distance":3191,"station_name":"Tanah Abang","line":1,"i_long":106.811091,"transit":true,"i_lat":-6.185545,"time":6,"is_transit":true},{"station_id":"DU","is_transit":true,"time":8,"station_name":"Duri","i_long":106.800832,"i_lat":-6.155215,"line":1,"transit":true,"distance":3632},{"station_id":"AK","station_name":"Angke","time":4,"is_transit":false,"transit":false,"line":0,"distance":1230,"i_lat":-6.144674,"i_long":106.79867},{"line":0,"station_name":"Kampung Bandan","transit":true,"distance":4102,"i_long":106.826365,"i_lat":-6.132549,"station_id":"KPB","is_transit":true,"time":9},{"i_long":106.836569,"station_name":"Rajawali","is_transit":false,"station_id":"RJW","time":3,"transit":false,"line":11,"i_lat":-6.14505,"distance":1444},{"time":5,"distance":1901,"i_lat":-6.161728,"line":11,"station_id":"KMO","transit":false,"i_long":106.839204,"station_name":"Kemayoran","is_transit":false},{"line":11,"i_lat":-6.174784,"distance":1436,"station_id":"PSE","is_transit":false,"time":4,"transit":false,"station_name":"Pasar Senen","i_long":106.84368},{"time":8,"transit":false,"line":11,"station_id":"GST","is_transit":false,"i_lat":-6.185975,"station_name":"Gang Sentiong","i_long":106.850107,"distance":1567},{"is_transit":false,"station_id":"KMT","i_lat":-6.193792,"time":1,"line":11,"station_name":"Kramat","distance":973,"transit":false,"i_long":106.855437},{"time":2,"i_lat":-6.209188,"distance":1829,"i_long":106.861737,"line":11,"is_transit":false,"station_name":"Pondok Jati","station_id":"POK","transit":false},{"i_lat":-6.215091,"station_name":"Jatinegara","line":0,"is_transit":true,"transit":true,"time":9,"distance":1236,"station_id":"JNG","i_long":106.86807400000001},{"station_id":"MTR","distance":1377,"station_name":"Matraman","transit":false,"i_lat":-6.212485,"is_transit":false,"line":1,"time":2,"i_long":106.858896},{"i_long":106.84912,"is_transit":true,"distance":1275,"station_id":"MRI","line":0,"station_name":"Manggarai","time":2,"transit":true,"i_lat":-6.209883},{"time":4,"i_long":106.857948,"station_name":"Tebet","line":2,"i_lat":-6.226659,"distance":2610,"transit":false,"station_id":"TEB","is_transit":false},{"i_long":106.856607,"line":0,"is_transit":false,"distance":1230,"station_id":"CW","station_name":"Cawang","time":2,"transit":false,"i_lat":-6.242512},{"time":3,"line":0,"distance":1546,"station_name":"Duren Kalibata","is_transit":false,"station_id":"DRN","transit":false,"i_long":106.85449,"i_lat":-6.255332},{"station_id":"PSMB","station_name":"Pasar Minggu Baru","transit":false,"is_transit":false,"distance":824,"time":2,"i_lat":-6.263214,"i_long":106.851577,"line":2},{"station_name":"Pasar Minggu","time":2,"i_lat":-6.2842400000000005,"is_transit":false,"station_id":"PSM","i_long":106.843999,"line":2,"distance":2380,"transit":false},{"transit":false,"line":2,"distance":2820,"time":4,"station_name":"Tanjung Barat","i_lat":-6.3080680000000005,"station_id":"TNT","is_transit":false,"i_long":106.838896},{"i_lat":-6.330363,"transit":false,"line":2,"distance":2671,"station_id":"LNA","is_transit":false,"i_long":106.832616,"station_name":"Lenteng Agung","time":3},{"i_long":106.834175,"station_id":"UP","time":2,"station_name":"Univ. Pancasila","line":2,"distance":1029,"transit":false,"i_lat":-6.339291,"is_transit":false},{"station_name":"Univ. Indonesia","station_id":"UI","line":2,"transit":false,"distance":2264,"time":3,"i_lat":-6.360749,"i_long":106.831474,"is_transit":false},{"station_name":"Pondok Cina","station_id":"POC","distance":1109,"i_long":106.831114,"transit":false,"is_transit":false,"line":2,"i_lat":-6.369073,"time":2},{"line":0,"station_name":"Depokbaru","i_lat":-6.391065,"distance":2727,"transit":false,"is_transit":false,"time":4,"i_long":106.819451,"station_id":"DPB"},{"station_name":"Depok","is_transit":false,"transit":false,"i_lat":-6.405256,"i_long":106.816926,"station_id":"DP","time":3,"line":0,"distance":1584},{"station_name":"Citayam","distance":5084,"station_id":"CTA","line":1,"is_transit":true,"time":6,"i_lat":-6.448811,"transit":false,"i_long":106.800298},{"i_long":106.851978,"line":0,"is_transit":false,"time":10,"distance":6740,"station_id":"CBN","transit":false,"i_lat":-6.46424,"station_name":"Cibinong"}]]}