{"data":[[{"distance":0,"i_lat":-6.354349,"is_transit":false,"station_name":"Cilejit","transit":false,"station_id":"CJT","i_long":106.508482,"line":3,"time":0},{"station_id":"PRP","transit":false,"is_transit":false,"i_long":106.568863,"station_name":"Parung Panjang","line":6,"i_lat":-6.3441410000000005,"distance":7025,"time":9},{"time":8,"line":3,"distance":5968,"is_transit":false,"transit":false,"i_long":106.617853,"station_name":"Cicayur","station_id":"CC","i_lat":-6.329547},{"station_name":"Cisauk","i_long":106.640411,"i_lat":-6.32484,"is_transit":false,"transit":false,"distance":2519,"line":3,"time":4,"station_id":"CSK"},{"transit":false,"station_name":"Serpong","is_transit":false,"i_lat":-6.319871,"i_long":106.66566,"time":4,"distance":1784,"station_id":"SRP","line":6}]]}