{"data":[[{"is_transit":false,"station_name":"Cilejit","i_lat":-6.354349,"transit":false,"distance":0,"i_long":106.508482,"station_id":"CJT","time":0,"line":3},{"i_lat":-6.3441410000000005,"i_long":106.568863,"distance":7025,"time":9,"line":6,"station_name":"Parung Panjang","station_id":"PRP","transit":false,"is_transit":false},{"transit":false,"time":8,"station_name":"Cicayur","distance":5968,"is_transit":false,"i_long":106.617853,"line":3,"station_id":"CC","i_lat":-6.329547},{"time":4,"line":3,"station_id":"CSK","transit":false,"is_transit":false,"station_name":"Cisauk","i_long":106.640411,"i_lat":-6.32484,"distance":2519},{"is_transit":false,"distance":1784,"transit":false,"time":4,"line":6,"station_name":"Serpong","station_id":"SRP","i_lat":-6.319871,"i_long":106.66566},{"distance":2413,"line":6,"station_name":"Rawa Buntu","station_id":"RU","is_transit":false,"transit":false,"time":4,"i_long":106.675475,"i_lat":-6.314823},{"i_long":106.712277,"i_lat":-6.296963,"station_name":"Sudimara","station_id":"SDM","distance":4566,"time":6,"line":6,"transit":false,"is_transit":false},{"time":4,"transit":false,"distance":1994,"station_id":"JMU","i_lat":-6.288927,"i_long":106.728916,"station_name":"Jurangmangu","is_transit":false,"line":6},{"time":3,"distance":2179,"i_long":106.74273,"line":6,"transit":false,"is_transit":false,"station_name":"Pondokranji","station_id":"PDJ","i_lat":-6.276362},{"i_long":106.780334,"is_transit":false,"distance":6218,"station_id":"KBY","i_lat":-6.237242,"transit":false,"time":8,"line":6,"station_name":"Kebayoran"},{"time":7,"line":6,"i_lat":-6.207404,"distance":3737,"station_name":"Palmerah","i_long":106.79689,"transit":false,"is_transit":false,"station_id":"PLM"},{"is_transit":true,"line":1,"station_name":"Tanah Abang","distance":3191,"i_lat":-6.185545,"station_id":"THB","i_long":106.811091,"time":6,"transit":true},{"line":1,"transit":false,"distance":2029,"station_id":"KAT","time":5,"i_long":106.816351,"station_name":"Karet","is_transit":false,"i_lat":-6.20132},{"is_transit":false,"line":1,"i_long":106.819881,"distance":471,"station_name":"Sudirman Baru","time":1,"transit":false,"i_lat":-6.201433,"station_id":"SUDB"},{"distance":280,"is_transit":false,"time":1,"station_name":"Sudirman","i_lat":-6.202263,"i_long":106.822649,"transit":false,"station_id":"SUD","line":1},{"i_long":106.84912,"distance":3186,"line":2,"is_transit":true,"station_name":"Manggarai","transit":true,"station_id":"MRI","time":4,"i_lat":-6.209883},{"station_id":"TEB","i_long":106.857948,"station_name":"Tebet","transit":false,"i_lat":-6.226659,"time":4,"is_transit":false,"distance":2610,"line":2},{"time":2,"line":2,"transit":false,"distance":1230,"is_transit":false,"station_name":"Cawang","station_id":"CW","i_lat":-6.242512,"i_long":106.856607},{"line":2,"transit":false,"time":3,"is_transit":false,"station_name":"Duren Kalibata","distance":1546,"station_id":"DRN","i_lat":-6.255332,"i_long":106.85449},{"i_lat":-6.263214,"transit":false,"station_name":"Pasar Minggu Baru","station_id":"PSMB","time":2,"line":2,"i_long":106.851577,"is_transit":false,"distance":824},{"distance":2380,"transit":false,"station_id":"PSM","station_name":"Pasar Minggu","time":2,"is_transit":false,"i_lat":-6.2842400000000005,"line":2,"i_long":106.843999},{"i_lat":-6.3080680000000005,"distance":2820,"is_transit":false,"line":2,"station_name":"Tanjung Barat","transit":false,"time":4,"station_id":"TNT","i_long":106.838896},{"transit":false,"i_lat":-6.330363,"station_id":"LNA","station_name":"Lenteng Agung","time":3,"i_long":106.832616,"distance":2671,"line":2,"is_transit":false},{"is_transit":false,"i_lat":-6.339291,"station_name":"Univ. Pancasila","i_long":106.834175,"time":2,"station_id":"UP","distance":1029,"line":2,"transit":false},{"time":3,"station_name":"Univ. Indonesia","i_lat":-6.360749,"is_transit":false,"distance":2264,"i_long":106.831474,"transit":false,"station_id":"UI","line":2},{"i_lat":-6.369073,"line":2,"i_long":106.831114,"distance":1109,"station_name":"Pondok Cina","transit":false,"is_transit":false,"station_id":"POC","time":2},{"is_transit":false,"station_id":"DPB","i_long":106.819451,"line":2,"transit":false,"time":4,"i_lat":-6.391065,"distance":2727,"station_name":"Depokbaru"},{"station_id":"DP","line":2,"i_lat":-6.405256,"transit":false,"is_transit":false,"i_long":106.816926,"time":3,"distance":1584,"station_name":"Depok"},{"i_long":106.800298,"time":6,"transit":true,"is_transit":true,"station_name":"Citayam","line":2,"station_id":"CTA","i_lat":-6.448811,"distance":5084},{"station_name":"Pondok Rajeg","transit":false,"distance":0,"is_transit":false,"station_id":"PDRG","time":0,"i_lat":-6.460735,"line":21,"i_long":106.824374},{"station_id":"CBN","time":0,"transit":false,"i_long":106.851978,"station_name":"Cibinong","is_transit":false,"line":21,"i_lat":-6.46424,"distance":0}],[{"i_lat":-6.354349,"station_name":"Cilejit","line":3,"is_transit":false,"station_id":"CJT","time":0,"transit":false,"distance":0,"i_long":106.508482},{"is_transit":false,"station_id":"PRP","time":9,"i_lat":-6.3441410000000005,"transit":false,"i_long":106.568863,"line":6,"distance":7025,"station_name":"Parung Panjang"},{"station_name":"Cicayur","transit":false,"station_id":"CC","time":8,"i_lat":-6.329547,"line":3,"is_transit":false,"i_long":106.617853,"distance":5968},{"station_id":"CSK","transit":false,"i_long":106.640411,"time":4,"i_lat":-6.32484,"distance":2519,"line":3,"station_name":"Cisauk","is_transit":false},{"transit":false,"is_transit":false,"station_name":"Serpong","distance":1784,"line":6,"time":4,"i_lat":-6.319871,"i_long":106.66566,"station_id":"SRP"},{"transit":false,"i_lat":-6.314823,"station_name":"Rawa Buntu","station_id":"RU","time":4,"i_long":106.675475,"is_transit":false,"line":6,"distance":2413},{"i_long":106.712277,"time":6,"station_id":"SDM","i_lat":-6.296963,"distance":4566,"transit":false,"station_name":"Sudimara","line":6,"is_transit":false},{"is_transit":false,"distance":1994,"time":4,"transit":false,"i_long":106.728916,"line":6,"station_name":"Jurangmangu","i_lat":-6.288927,"station_id":"JMU"},{"distance":2179,"station_name":"Pondokranji","transit":false,"station_id":"PDJ","time":3,"is_transit":false,"i_lat":-6.276362,"i_long":106.74273,"line":6},{"is_transit":false,"distance":6218,"line":6,"station_name":"Kebayoran","time":8,"transit":false,"i_long":106.780334,"station_id":"KBY","i_lat":-6.237242},{"i_long":106.79689,"station_id":"PLM","i_lat":-6.207404,"station_name":"Palmerah","distance":3737,"transit":false,"is_transit":false,"time":7,"line":6},{"distance":3191,"i_long":106.811091,"station_name":"Tanah Abang","line":1,"transit":true,"time":6,"is_transit":true,"station_id":"THB","i_lat":-6.185545},{"time":8,"i_long":106.800832,"station_name":"Duri","line":1,"transit":false,"station_id":"DU","is_transit":false,"distance":3632,"i_lat":-6.155215},{"station_name":"Angke","distance":1230,"is_transit":false,"line":1,"time":4,"i_lat":-6.144674,"i_long":106.79867,"transit":false,"station_id":"AK"},{"station_id":"KPB","line":4,"transit":true,"i_lat":-6.132549,"time":9,"station_name":"Kampung Bandan","i_long":106.826365,"is_transit":true,"distance":4102},{"is_transit":true,"station_name":"Jakarta Kota","time":3,"line":2,"i_long":106.812439,"distance":1364,"transit":true,"station_id":"JAKK","i_lat":-6.137569},{"station_name":"Jayakarta","is_transit":false,"distance":1264,"i_lat":-6.141205,"transit":false,"station_id":"JAY","time":4,"i_long":106.820901,"line":2},{"i_lat":-6.149769,"transit":false,"is_transit":false,"line":2,"station_id":"MGB","station_name":"Manggabesar","time":2,"i_long":106.82482,"distance":1080},{"i_long":106.827103,"distance":906,"transit":false,"station_name":"Sawah Besar","is_transit":false,"station_id":"SW","time":2,"line":2,"i_lat":-6.160725},{"i_lat":-6.166716,"station_name":"Juanda","is_transit":false,"time":2,"transit":false,"line":2,"i_long":106.828284,"distance":1149,"station_id":"JUA"},{"is_transit":false,"distance":2015,"station_id":"GDD","i_long":106.832183,"transit":false,"i_lat":-6.186295,"line":2,"station_name":"Gondangdia","time":4},{"i_long":106.840169,"transit":false,"is_transit":false,"i_lat":-6.198556,"distance":1750,"station_name":"Cikini","time":3,"station_id":"CKI","line":2},{"time":4,"is_transit":false,"station_name":"Manggarai","transit":false,"i_lat":-6.209883,"i_long":106.84912,"distance":1590,"line":2,"station_id":"MRI"},{"transit":false,"time":4,"station_name":"Tebet","station_id":"TEB","distance":2610,"is_transit":false,"i_long":106.857948,"line":2,"i_lat":-6.226659},{"time":2,"i_long":106.856607,"line":2,"station_name":"Cawang","distance":1230,"i_lat":-6.242512,"transit":false,"station_id":"CW","is_transit":false},{"i_long":106.85449,"i_lat":-6.255332,"transit":false,"station_id":"DRN","distance":1546,"time":3,"is_transit":false,"line":2,"station_name":"Duren Kalibata"},{"line":2,"is_transit":false,"station_name":"Pasar Minggu Baru","i_lat":-6.263214,"time":2,"distance":824,"transit":false,"i_long":106.851577,"station_id":"PSMB"},{"i_lat":-6.2842400000000005,"i_long":106.843999,"station_name":"Pasar Minggu","transit":false,"time":2,"line":2,"station_id":"PSM","is_transit":false,"distance":2380},{"station_id":"TNT","is_transit":false,"i_lat":-6.3080680000000005,"i_long":106.838896,"transit":false,"station_name":"Tanjung Barat","distance":2820,"time":4,"line":2},{"distance":2671,"time":3,"i_lat":-6.330363,"line":2,"is_transit":false,"station_id":"LNA","i_long":106.832616,"transit":false,"station_name":"Lenteng Agung"},{"distance":1029,"station_name":"Univ. Pancasila","is_transit":false,"station_id":"UP","time":2,"i_long":106.834175,"transit":false,"i_lat":-6.339291,"line":2},{"i_lat":-6.360749,"transit":false,"line":2,"time":3,"station_name":"Univ. Indonesia","station_id":"UI","i_long":106.831474,"distance":2264,"is_transit":false},{"transit":false,"is_transit":false,"i_lat":-6.369073,"time":2,"i_long":106.831114,"line":2,"distance":1109,"station_name":"Pondok Cina","station_id":"POC"},{"line":2,"station_id":"DPB","station_name":"Depokbaru","transit":false,"distance":2727,"i_lat":-6.391065,"is_transit":false,"i_long":106.819451,"time":4},{"time":3,"i_long":106.816926,"station_id":"DP","distance":1584,"line":2,"i_lat":-6.405256,"station_name":"Depok","transit":false,"is_transit":false},{"time":6,"station_id":"CTA","station_name":"Citayam","i_lat":-6.448811,"i_long":106.800298,"distance":5084,"line":2,"is_transit":true,"transit":true},{"i_lat":-6.460735,"station_name":"Pondok Rajeg","transit":false,"is_transit":false,"line":21,"station_id":"PDRG","distance":0,"i_long":106.824374,"time":0},{"is_transit":false,"station_id":"CBN","distance":0,"i_long":106.851978,"line":21,"i_lat":-6.46424,"transit":false,"time":0,"station_name":"Cibinong"}],[{"station_id":"CJT","is_transit":false,"i_long":106.508482,"i_lat":-6.354349,"station_name":"Cilejit","line":3,"distance":0,"time":0,"transit":false},{"i_lat":-6.3441410000000005,"transit":false,"line":6,"time":9,"station_id":"PRP","station_name":"Parung Panjang","is_transit":false,"distance":7025,"i_long":106.568863},{"is_transit":false,"i_long":106.617853,"i_lat":-6.329547,"distance":5968,"time":8,"station_name":"Cicayur","line":3,"transit":false,"station_id":"CC"},{"station_name":"Cisauk","i_lat":-6.32484,"transit":false,"distance":2519,"is_transit":false,"time":4,"i_long":106.640411,"station_id":"CSK","line":3},{"station_id":"SRP","time":4,"is_transit":false,"i_lat":-6.319871,"i_long":106.66566,"distance":1784,"transit":false,"line":6,"station_name":"Serpong"},{"transit":false,"station_name":"Rawa Buntu","line":6,"is_transit":false,"time":4,"i_long":106.675475,"station_id":"RU","i_lat":-6.314823,"distance":2413},{"is_transit":false,"distance":4566,"line":6,"time":6,"i_lat":-6.296963,"station_id":"SDM","i_long":106.712277,"station_name":"Sudimara","transit":false},{"is_transit":false,"i_lat":-6.288927,"distance":1994,"line":6,"transit":false,"station_id":"JMU","time":4,"i_long":106.728916,"station_name":"Jurangmangu"},{"distance":2179,"i_long":106.74273,"station_name":"Pondokranji","line":6,"time":3,"is_transit":false,"i_lat":-6.276362,"station_id":"PDJ","transit":false},{"distance":6218,"station_id":"KBY","time":8,"i_long":106.780334,"station_name":"Kebayoran","i_lat":-6.237242,"line":6,"is_transit":false,"transit":false},{"station_id":"PLM","i_long":106.79689,"line":6,"time":7,"transit":false,"station_name":"Palmerah","is_transit":false,"distance":3737,"i_lat":-6.207404},{"i_long":106.811091,"distance":3191,"station_id":"THB","i_lat":-6.185545,"station_name":"Tanah Abang","line":1,"is_transit":true,"transit":true,"time":6},{"transit":false,"station_name":"Duri","time":8,"i_lat":-6.155215,"station_id":"DU","line":1,"i_long":106.800832,"is_transit":false,"distance":3632},{"distance":1230,"station_name":"Angke","i_long":106.79867,"time":4,"line":1,"transit":false,"station_id":"AK","is_transit":false,"i_lat":-6.144674},{"station_id":"KPB","transit":true,"i_long":106.826365,"distance":4102,"is_transit":true,"time":9,"i_lat":-6.132549,"station_name":"Kampung Bandan","line":4},{"distance":1444,"transit":false,"i_lat":-6.14505,"time":3,"line":11,"station_id":"RJW","is_transit":false,"i_long":106.836569,"station_name":"Rajawali"},{"i_long":106.839204,"i_lat":-6.161728,"is_transit":false,"time":5,"line":11,"station_name":"Kemayoran","transit":false,"distance":1901,"station_id":"KMO"},{"i_long":106.84368,"distance":1436,"line":11,"station_id":"PSE","station_name":"Pasar Senen","transit":false,"is_transit":false,"time":4,"i_lat":-6.174784},{"time":8,"transit":false,"is_transit":false,"station_id":"GST","distance":1567,"line":11,"station_name":"Gang Sentiong","i_lat":-6.185975,"i_long":106.850107},{"i_lat":-6.193792,"station_id":"KMT","time":1,"line":11,"station_name":"Kramat","i_long":106.855437,"transit":false,"is_transit":false,"distance":973},{"distance":1829,"station_name":"Pondok Jati","i_long":106.861737,"transit":false,"station_id":"POK","time":2,"line":11,"i_lat":-6.209188,"is_transit":false},{"time":9,"i_lat":-6.215091,"transit":true,"station_name":"Jatinegara","is_transit":true,"i_long":106.86807400000001,"station_id":"JNG","line":1,"distance":1236},{"is_transit":false,"line":1,"station_name":"Matraman","i_lat":-6.212485,"distance":1377,"transit":false,"station_id":"MTR","time":2,"i_long":106.858896},{"line":2,"transit":true,"is_transit":true,"time":2,"i_lat":-6.209883,"i_long":106.84912,"station_name":"Manggarai","distance":1275,"station_id":"MRI"},{"station_name":"Tebet","transit":false,"line":2,"i_lat":-6.226659,"is_transit":false,"station_id":"TEB","distance":2610,"time":4,"i_long":106.857948},{"line":2,"station_id":"CW","i_long":106.856607,"transit":false,"station_name":"Cawang","is_transit":false,"time":2,"i_lat":-6.242512,"distance":1230},{"i_lat":-6.255332,"station_id":"DRN","is_transit":false,"distance":1546,"time":3,"line":2,"transit":false,"i_long":106.85449,"station_name":"Duren Kalibata"},{"station_name":"Pasar Minggu Baru","i_long":106.851577,"time":2,"station_id":"PSMB","i_lat":-6.263214,"is_transit":false,"line":2,"distance":824,"transit":false},{"station_name":"Pasar Minggu","i_lat":-6.2842400000000005,"station_id":"PSM","is_transit":false,"i_long":106.843999,"line":2,"distance":2380,"transit":false,"time":2},{"line":2,"time":4,"station_name":"Tanjung Barat","distance":2820,"is_transit":false,"transit":false,"station_id":"TNT","i_lat":-6.3080680000000005,"i_long":106.838896},{"time":3,"is_transit":false,"i_lat":-6.330363,"station_id":"LNA","transit":false,"i_long":106.832616,"station_name":"Lenteng Agung","distance":2671,"line":2},{"station_name":"Univ. Pancasila","line":2,"is_transit":false,"station_id":"UP","distance":1029,"time":2,"transit":false,"i_lat":-6.339291,"i_long":106.834175},{"station_name":"Univ. Indonesia","transit":false,"is_transit":false,"i_long":106.831474,"line":2,"distance":2264,"i_lat":-6.360749,"time":3,"station_id":"UI"},{"is_transit":false,"time":2,"distance":1109,"transit":false,"line":2,"station_id":"POC","i_lat":-6.369073,"i_long":106.831114,"station_name":"Pondok Cina"},{"distance":2727,"station_name":"Depokbaru","is_transit":false,"station_id":"DPB","time":4,"transit":false,"line":2,"i_lat":-6.391065,"i_long":106.819451},{"time":3,"transit":false,"distance":1584,"i_lat":-6.405256,"station_id":"DP","i_long":106.816926,"is_transit":false,"station_name":"Depok","line":2},{"i_long":106.800298,"line":2,"station_id":"CTA","distance":5084,"is_transit":true,"transit":true,"station_name":"Citayam","time":6,"i_lat":-6.448811},{"station_id":"PDRG","time":0,"i_long":106.824374,"line":21,"i_lat":-6.460735,"transit":false,"is_transit":false,"station_name":"Pondok Rajeg","distance":0},{"distance":0,"i_lat":-6.46424,"is_transit":false,"i_long":106.851978,"station_id":"CBN","time":0,"line":21,"station_name":"Cibinong","transit":false}]]}