{"data":[[{"transit":false,"station_name":"Cilejit","i_lat":-6.354349,"time":0,"line":3,"is_transit":false,"distance":0,"station_id":"CJT","i_long":106.508482},{"i_lat":-6.3441410000000005,"i_long":106.568863,"is_transit":false,"station_name":"Parung Panjang","time":9,"station_id":"PRP","line":6,"transit":false,"distance":7025},{"line":3,"station_id":"CC","transit":false,"distance":5968,"i_long":106.617853,"is_transit":false,"i_lat":-6.329547,"time":8,"station_name":"Cicayur"},{"station_id":"CSK","station_name":"Cisauk","distance":2519,"transit":false,"line":3,"i_long":106.640411,"time":4,"is_transit":false,"i_lat":-6.32484},{"station_id":"SRP","line":6,"i_lat":-6.319871,"i_long":106.66566,"distance":1784,"station_name":"Serpong","time":4,"transit":false,"is_transit":false},{"line":6,"i_long":106.675475,"distance":2413,"station_name":"Rawa Buntu","time":4,"station_id":"RU","is_transit":false,"transit":false,"i_lat":-6.314823},{"station_name":"Sudimara","time":6,"distance":4566,"i_long":106.712277,"is_transit":false,"transit":false,"i_lat":-6.296963,"line":6,"station_id":"SDM"},{"distance":1994,"station_name":"Jurangmangu","line":6,"station_id":"JMU","transit":false,"i_long":106.728916,"i_lat":-6.288927,"time":4,"is_transit":false},{"i_long":106.74273,"i_lat":-6.276362,"station_name":"Pondokranji","time":3,"transit":false,"line":6,"is_transit":false,"distance":2179,"station_id":"PDJ"},{"distance":6218,"line":6,"i_long":106.780334,"is_transit":false,"station_id":"KBY","transit":false,"station_name":"Kebayoran","time":8,"i_lat":-6.237242},{"station_name":"Palmerah","time":7,"i_lat":-6.207404,"distance":3737,"i_long":106.79689,"station_id":"PLM","line":6,"is_transit":false,"transit":false},{"station_name":"Tanah Abang","is_transit":true,"station_id":"THB","i_long":106.811091,"transit":true,"line":1,"i_lat":-6.185545,"time":6,"distance":3191},{"line":1,"transit":false,"station_name":"Karet","i_long":106.816351,"time":5,"station_id":"KAT","is_transit":false,"distance":2029,"i_lat":-6.20132},{"is_transit":false,"transit":false,"line":1,"i_long":106.819881,"station_id":"SUDB","distance":471,"station_name":"Sudirman Baru","time":1,"i_lat":-6.201433},{"transit":false,"distance":280,"station_name":"Sudirman","is_transit":false,"time":1,"station_id":"SUD","i_lat":-6.202263,"i_long":106.822649,"line":1},{"station_id":"MRI","line":2,"is_transit":true,"station_name":"Manggarai","distance":3186,"i_lat":-6.209883,"time":4,"i_long":106.84912,"transit":true},{"transit":false,"station_id":"TEB","i_long":106.857948,"line":2,"is_transit":false,"i_lat":-6.226659,"time":4,"distance":2610,"station_name":"Tebet"},{"i_long":106.856607,"line":2,"transit":false,"station_name":"Cawang","is_transit":false,"i_lat":-6.242512,"time":2,"distance":1230,"station_id":"CW"},{"time":3,"distance":1546,"station_name":"Duren Kalibata","station_id":"DRN","transit":false,"i_long":106.85449,"i_lat":-6.255332,"line":2,"is_transit":false},{"time":2,"distance":824,"is_transit":false,"i_lat":-6.263214,"station_id":"PSMB","station_name":"Pasar Minggu Baru","i_long":106.851577,"line":2,"transit":false},{"i_lat":-6.2842400000000005,"distance":2380,"station_name":"Pasar Minggu","line":2,"station_id":"PSM","is_transit":false,"i_long":106.843999,"time":2,"transit":false},{"i_long":106.838896,"transit":false,"line":2,"distance":2820,"station_name":"Tanjung Barat","is_transit":false,"station_id":"TNT","time":4,"i_lat":-6.3080680000000005},{"i_lat":-6.330363,"i_long":106.832616,"distance":2671,"station_name":"Lenteng Agung","station_id":"LNA","time":3,"line":2,"transit":false,"is_transit":false},{"i_long":106.834175,"transit":false,"time":2,"i_lat":-6.339291,"station_id":"UP","station_name":"Univ. Pancasila","distance":1029,"line":2,"is_transit":false},{"is_transit":false,"station_name":"Univ. Indonesia","line":2,"i_long":106.831474,"station_id":"UI","distance":2264,"transit":false,"i_lat":-6.360749,"time":3},{"time":2,"transit":false,"is_transit":false,"distance":1109,"station_name":"Pondok Cina","i_lat":-6.369073,"i_long":106.831114,"station_id":"POC","line":2},{"station_id":"DPB","is_transit":false,"distance":2727,"station_name":"Depokbaru","transit":false,"i_lat":-6.391065,"i_long":106.819451,"line":2,"time":4},{"distance":1584,"transit":false,"i_long":106.816926,"station_id":"DP","is_transit":false,"time":3,"station_name":"Depok","i_lat":-6.405256,"line":2},{"transit":true,"i_lat":-6.448811,"line":2,"station_id":"CTA","i_long":106.800298,"time":6,"distance":5084,"is_transit":true,"station_name":"Citayam"},{"station_name":"Pondok Rajeg","station_id":"PDRG","transit":false,"i_lat":-6.460735,"time":0,"line":21,"i_long":106.824374,"distance":0,"is_transit":false},{"line":21,"time":0,"station_id":"CBN","i_lat":-6.46424,"distance":0,"is_transit":false,"transit":false,"station_name":"Cibinong","i_long":106.851978}],[{"station_id":"CJT","time":0,"station_name":"Cilejit","i_lat":-6.354349,"i_long":106.508482,"transit":false,"distance":0,"is_transit":false,"line":3},{"station_id":"PRP","distance":7025,"is_transit":false,"i_lat":-6.3441410000000005,"line":6,"time":9,"transit":false,"i_long":106.568863,"station_name":"Parung Panjang"},{"i_long":106.617853,"line":3,"time":8,"station_name":"Cicayur","transit":false,"i_lat":-6.329547,"distance":5968,"is_transit":false,"station_id":"CC"},{"station_name":"Cisauk","i_lat":-6.32484,"distance":2519,"time":4,"station_id":"CSK","transit":false,"i_long":106.640411,"line":3,"is_transit":false},{"time":4,"station_name":"Serpong","distance":1784,"i_lat":-6.319871,"i_long":106.66566,"station_id":"SRP","line":6,"transit":false,"is_transit":false},{"line":6,"i_long":106.675475,"is_transit":false,"distance":2413,"time":4,"transit":false,"station_name":"Rawa Buntu","station_id":"RU","i_lat":-6.314823},{"distance":4566,"station_name":"Sudimara","i_lat":-6.296963,"transit":false,"station_id":"SDM","line":6,"time":6,"i_long":106.712277,"is_transit":false},{"station_id":"JMU","distance":1994,"station_name":"Jurangmangu","i_lat":-6.288927,"is_transit":false,"i_long":106.728916,"line":6,"transit":false,"time":4},{"is_transit":false,"distance":2179,"i_lat":-6.276362,"i_long":106.74273,"transit":false,"station_name":"Pondokranji","line":6,"station_id":"PDJ","time":3},{"distance":6218,"station_name":"Kebayoran","i_long":106.780334,"i_lat":-6.237242,"station_id":"KBY","transit":false,"is_transit":false,"line":6,"time":8},{"distance":3737,"station_name":"Palmerah","is_transit":false,"i_long":106.79689,"station_id":"PLM","time":7,"line":6,"transit":false,"i_lat":-6.207404},{"time":6,"i_lat":-6.185545,"station_name":"Tanah Abang","is_transit":true,"i_long":106.811091,"distance":3191,"transit":true,"station_id":"THB","line":1},{"station_name":"Duri","transit":false,"line":1,"i_long":106.800832,"i_lat":-6.155215,"time":8,"is_transit":false,"station_id":"DU","distance":3632},{"is_transit":false,"line":1,"station_name":"Angke","i_long":106.79867,"distance":1230,"time":4,"station_id":"AK","transit":false,"i_lat":-6.144674},{"station_name":"Kampung Bandan","station_id":"KPB","line":4,"i_long":106.826365,"is_transit":true,"distance":4102,"i_lat":-6.132549,"time":9,"transit":true},{"is_transit":true,"distance":1364,"i_long":106.812439,"time":3,"station_name":"Jakarta Kota","i_lat":-6.137569,"station_id":"JAKK","transit":true,"line":2},{"transit":false,"station_id":"JAY","distance":1264,"is_transit":false,"time":4,"line":2,"i_lat":-6.141205,"station_name":"Jayakarta","i_long":106.820901},{"is_transit":false,"time":2,"station_name":"Manggabesar","station_id":"MGB","i_lat":-6.149769,"i_long":106.82482,"line":2,"distance":1080,"transit":false},{"line":2,"i_long":106.827103,"distance":906,"i_lat":-6.160725,"is_transit":false,"time":2,"station_id":"SW","transit":false,"station_name":"Sawah Besar"},{"station_id":"JUA","line":2,"i_lat":-6.166716,"station_name":"Juanda","distance":1149,"time":2,"is_transit":false,"transit":false,"i_long":106.828284},{"line":2,"transit":false,"i_long":106.832183,"station_name":"Gondangdia","distance":2015,"is_transit":false,"time":4,"i_lat":-6.186295,"station_id":"GDD"},{"station_name":"Cikini","station_id":"CKI","distance":1750,"i_long":106.840169,"time":3,"i_lat":-6.198556,"line":2,"transit":false,"is_transit":false},{"station_name":"Manggarai","line":2,"station_id":"MRI","time":4,"i_lat":-6.209883,"distance":1590,"i_long":106.84912,"is_transit":false,"transit":false},{"distance":2610,"transit":false,"station_id":"TEB","is_transit":false,"i_lat":-6.226659,"i_long":106.857948,"station_name":"Tebet","line":2,"time":4},{"time":2,"distance":1230,"line":2,"is_transit":false,"i_lat":-6.242512,"i_long":106.856607,"transit":false,"station_id":"CW","station_name":"Cawang"},{"distance":1546,"time":3,"station_name":"Duren Kalibata","i_long":106.85449,"transit":false,"is_transit":false,"station_id":"DRN","i_lat":-6.255332,"line":2},{"is_transit":false,"transit":false,"i_lat":-6.263214,"station_id":"PSMB","i_long":106.851577,"distance":824,"line":2,"time":2,"station_name":"Pasar Minggu Baru"},{"distance":2380,"station_name":"Pasar Minggu","time":2,"transit":false,"is_transit":false,"i_lat":-6.2842400000000005,"i_long":106.843999,"line":2,"station_id":"PSM"},{"is_transit":false,"i_lat":-6.3080680000000005,"i_long":106.838896,"distance":2820,"station_name":"Tanjung Barat","transit":false,"line":2,"station_id":"TNT","time":4},{"station_name":"Lenteng Agung","is_transit":false,"i_long":106.832616,"station_id":"LNA","time":3,"distance":2671,"i_lat":-6.330363,"line":2,"transit":false},{"is_transit":false,"station_id":"UP","transit":false,"i_lat":-6.339291,"distance":1029,"station_name":"Univ. Pancasila","time":2,"i_long":106.834175,"line":2},{"is_transit":false,"line":2,"station_name":"Univ. Indonesia","distance":2264,"i_lat":-6.360749,"station_id":"UI","time":3,"i_long":106.831474,"transit":false},{"is_transit":false,"i_lat":-6.369073,"line":2,"transit":false,"time":2,"distance":1109,"station_id":"POC","i_long":106.831114,"station_name":"Pondok Cina"},{"line":2,"time":4,"transit":false,"station_name":"Depokbaru","i_lat":-6.391065,"i_long":106.819451,"station_id":"DPB","distance":2727,"is_transit":false},{"i_lat":-6.405256,"line":2,"station_id":"DP","station_name":"Depok","time":3,"distance":1584,"transit":false,"is_transit":false,"i_long":106.816926},{"station_name":"Citayam","i_long":106.800298,"time":6,"station_id":"CTA","line":2,"i_lat":-6.448811,"distance":5084,"is_transit":true,"transit":true},{"transit":false,"line":21,"distance":0,"station_name":"Pondok Rajeg","station_id":"PDRG","i_lat":-6.460735,"i_long":106.824374,"time":0,"is_transit":false},{"distance":0,"is_transit":false,"i_lat":-6.46424,"i_long":106.851978,"station_id":"CBN","transit":false,"station_name":"Cibinong","line":21,"time":0}],[{"station_id":"CJT","distance":0,"is_transit":false,"station_name":"Cilejit","time":0,"i_lat":-6.354349,"i_long":106.508482,"line":3,"transit":false},{"station_id":"PRP","distance":7025,"is_transit":false,"i_long":106.568863,"time":9,"transit":false,"line":6,"station_name":"Parung Panjang","i_lat":-6.3441410000000005},{"i_lat":-6.329547,"transit":false,"is_transit":false,"distance":5968,"i_long":106.617853,"line":3,"station_id":"CC","station_name":"Cicayur","time":8},{"is_transit":false,"station_id":"CSK","line":3,"transit":false,"time":4,"i_lat":-6.32484,"distance":2519,"station_name":"Cisauk","i_long":106.640411},{"distance":1784,"transit":false,"station_id":"SRP","time":4,"station_name":"Serpong","is_transit":false,"i_lat":-6.319871,"i_long":106.66566,"line":6},{"line":6,"time":4,"transit":false,"distance":2413,"station_id":"RU","station_name":"Rawa Buntu","i_lat":-6.314823,"is_transit":false,"i_long":106.675475},{"i_long":106.712277,"line":6,"i_lat":-6.296963,"station_name":"Sudimara","distance":4566,"time":6,"station_id":"SDM","transit":false,"is_transit":false},{"i_long":106.728916,"transit":false,"line":6,"station_id":"JMU","distance":1994,"station_name":"Jurangmangu","i_lat":-6.288927,"time":4,"is_transit":false},{"distance":2179,"station_name":"Pondokranji","transit":false,"station_id":"PDJ","time":3,"i_lat":-6.276362,"i_long":106.74273,"line":6,"is_transit":false},{"distance":6218,"station_name":"Kebayoran","i_lat":-6.237242,"i_long":106.780334,"line":6,"station_id":"KBY","transit":false,"time":8,"is_transit":false},{"station_id":"PLM","station_name":"Palmerah","i_long":106.79689,"is_transit":false,"distance":3737,"transit":false,"line":6,"time":7,"i_lat":-6.207404},{"is_transit":true,"i_long":106.811091,"time":6,"transit":true,"station_name":"Tanah Abang","i_lat":-6.185545,"line":1,"distance":3191,"station_id":"THB"},{"station_name":"Duri","line":1,"station_id":"DU","distance":3632,"i_long":106.800832,"transit":false,"i_lat":-6.155215,"is_transit":false,"time":8},{"i_long":106.79867,"line":1,"transit":false,"station_name":"Angke","is_transit":false,"station_id":"AK","i_lat":-6.144674,"time":4,"distance":1230},{"station_id":"KPB","transit":true,"station_name":"Kampung Bandan","is_transit":true,"distance":4102,"i_long":106.826365,"line":4,"i_lat":-6.132549,"time":9},{"distance":1444,"station_id":"RJW","time":3,"is_transit":false,"station_name":"Rajawali","transit":false,"i_lat":-6.14505,"i_long":106.836569,"line":11},{"transit":false,"i_long":106.839204,"line":11,"time":5,"station_id":"KMO","station_name":"Kemayoran","distance":1901,"is_transit":false,"i_lat":-6.161728},{"is_transit":false,"line":11,"station_id":"PSE","time":4,"i_lat":-6.174784,"i_long":106.84368,"distance":1436,"transit":false,"station_name":"Pasar Senen"},{"distance":1567,"station_name":"Gang Sentiong","station_id":"GST","i_lat":-6.185975,"i_long":106.850107,"is_transit":false,"time":8,"transit":false,"line":11},{"distance":973,"i_lat":-6.193792,"transit":false,"line":11,"time":1,"is_transit":false,"station_id":"KMT","station_name":"Kramat","i_long":106.855437},{"i_long":106.861737,"i_lat":-6.209188,"is_transit":false,"station_id":"POK","distance":1829,"time":2,"line":11,"transit":false,"station_name":"Pondok Jati"},{"is_transit":true,"station_id":"JNG","transit":true,"station_name":"Jatinegara","line":1,"i_lat":-6.215091,"i_long":106.86807400000001,"time":9,"distance":1236},{"transit":false,"station_name":"Matraman","station_id":"MTR","time":2,"distance":1377,"i_lat":-6.212485,"i_long":106.858896,"is_transit":false,"line":1},{"i_long":106.84912,"station_id":"MRI","i_lat":-6.209883,"line":2,"is_transit":true,"distance":1275,"station_name":"Manggarai","time":2,"transit":true},{"is_transit":false,"station_id":"TEB","i_lat":-6.226659,"station_name":"Tebet","i_long":106.857948,"transit":false,"line":2,"distance":2610,"time":4},{"is_transit":false,"i_lat":-6.242512,"i_long":106.856607,"line":2,"station_id":"CW","distance":1230,"time":2,"transit":false,"station_name":"Cawang"},{"i_lat":-6.255332,"distance":1546,"transit":false,"station_name":"Duren Kalibata","is_transit":false,"i_long":106.85449,"line":2,"time":3,"station_id":"DRN"},{"station_name":"Pasar Minggu Baru","is_transit":false,"i_long":106.851577,"time":2,"distance":824,"transit":false,"i_lat":-6.263214,"line":2,"station_id":"PSMB"},{"station_id":"PSM","distance":2380,"is_transit":false,"i_lat":-6.2842400000000005,"i_long":106.843999,"line":2,"transit":false,"time":2,"station_name":"Pasar Minggu"},{"i_long":106.838896,"line":2,"station_id":"TNT","transit":false,"time":4,"station_name":"Tanjung Barat","is_transit":false,"distance":2820,"i_lat":-6.3080680000000005},{"transit":false,"i_lat":-6.330363,"station_id":"LNA","station_name":"Lenteng Agung","is_transit":false,"i_long":106.832616,"time":3,"line":2,"distance":2671},{"station_name":"Univ. Pancasila","time":2,"i_lat":-6.339291,"i_long":106.834175,"station_id":"UP","distance":1029,"line":2,"is_transit":false,"transit":false},{"line":2,"transit":false,"station_name":"Univ. Indonesia","station_id":"UI","i_lat":-6.360749,"i_long":106.831474,"distance":2264,"is_transit":false,"time":3},{"time":2,"line":2,"transit":false,"i_long":106.831114,"station_id":"POC","distance":1109,"station_name":"Pondok Cina","i_lat":-6.369073,"is_transit":false},{"is_transit":false,"distance":2727,"i_lat":-6.391065,"time":4,"station_name":"Depokbaru","transit":false,"station_id":"DPB","i_long":106.819451,"line":2},{"time":3,"is_transit":false,"i_long":106.816926,"station_id":"DP","distance":1584,"line":2,"transit":false,"station_name":"Depok","i_lat":-6.405256},{"line":2,"station_id":"CTA","transit":true,"is_transit":true,"i_lat":-6.448811,"i_long":106.800298,"time":6,"distance":5084,"station_name":"Citayam"},{"is_transit":false,"time":0,"distance":0,"line":21,"transit":false,"station_name":"Pondok Rajeg","i_long":106.824374,"i_lat":-6.460735,"station_id":"PDRG"},{"time":0,"station_name":"Cibinong","line":21,"is_transit":false,"transit":false,"distance":0,"i_long":106.851978,"station_id":"CBN","i_lat":-6.46424}]]}