{"data":[[{"transit":false,"i_long":106.508482,"time":0,"is_transit":false,"line":3,"i_lat":-6.354349,"station_name":"Cilejit","station_id":"CJT","distance":0},{"line":6,"distance":7025,"is_transit":false,"time":9,"transit":false,"i_lat":-6.3441410000000005,"i_long":106.568863,"station_id":"PRP","station_name":"Parung Panjang"},{"is_transit":false,"line":3,"station_id":"CC","i_lat":-6.329547,"i_long":106.617853,"station_name":"Cicayur","time":8,"transit":false,"distance":5968},{"station_name":"Cisauk","i_long":106.640411,"is_transit":false,"line":3,"transit":false,"time":4,"distance":2519,"i_lat":-6.32484,"station_id":"CSK"},{"station_id":"SRP","station_name":"Serpong","is_transit":false,"i_long":106.66566,"i_lat":-6.319871,"line":6,"time":4,"distance":1784,"transit":false},{"distance":2413,"station_name":"Rawa Buntu","transit":false,"i_long":106.675475,"station_id":"RU","line":6,"i_lat":-6.314823,"is_transit":false,"time":4},{"is_transit":false,"time":6,"line":6,"distance":4566,"station_name":"Sudimara","station_id":"SDM","transit":false,"i_lat":-6.296963,"i_long":106.712277},{"i_long":106.728916,"distance":1994,"station_id":"JMU","is_transit":false,"i_lat":-6.288927,"line":6,"station_name":"Jurangmangu","time":4,"transit":false},{"i_lat":-6.276362,"station_name":"Pondokranji","is_transit":false,"transit":false,"distance":2179,"i_long":106.74273,"line":6,"time":3,"station_id":"PDJ"},{"transit":false,"station_id":"KBY","i_lat":-6.237242,"distance":6218,"station_name":"Kebayoran","time":8,"i_long":106.780334,"is_transit":false,"line":6},{"time":7,"line":6,"station_name":"Palmerah","i_lat":-6.207404,"i_long":106.79689,"distance":3737,"station_id":"PLM","transit":false,"is_transit":false},{"i_lat":-6.185545,"station_id":"THB","is_transit":true,"i_long":106.811091,"station_name":"Tanah Abang","line":1,"distance":3191,"time":6,"transit":true},{"station_name":"Karet","distance":2029,"i_lat":-6.20132,"is_transit":false,"transit":false,"station_id":"KAT","time":5,"i_long":106.816351,"line":1},{"i_long":106.819881,"station_id":"SUDB","station_name":"Sudirman Baru","transit":false,"distance":471,"i_lat":-6.201433,"line":1,"time":1,"is_transit":false},{"is_transit":false,"line":1,"station_name":"Sudirman","distance":280,"transit":false,"station_id":"SUD","time":1,"i_lat":-6.202263,"i_long":106.822649},{"time":4,"i_long":106.84912,"station_id":"MRI","line":2,"station_name":"Manggarai","distance":3186,"transit":true,"i_lat":-6.209883,"is_transit":true},{"distance":2610,"station_name":"Tebet","i_long":106.857948,"station_id":"TEB","time":4,"line":2,"is_transit":false,"transit":false,"i_lat":-6.226659},{"i_lat":-6.242512,"transit":false,"is_transit":false,"i_long":106.856607,"station_name":"Cawang","station_id":"CW","time":2,"line":2,"distance":1230},{"i_long":106.85449,"transit":false,"time":3,"station_name":"Duren Kalibata","i_lat":-6.255332,"station_id":"DRN","is_transit":false,"distance":1546,"line":2},{"time":2,"station_id":"PSMB","is_transit":false,"i_lat":-6.263214,"transit":false,"line":2,"distance":824,"station_name":"Pasar Minggu Baru","i_long":106.851577},{"station_id":"PSM","is_transit":false,"i_lat":-6.2842400000000005,"time":2,"transit":false,"station_name":"Pasar Minggu","distance":2380,"i_long":106.843999,"line":2},{"is_transit":false,"station_name":"Tanjung Barat","station_id":"TNT","distance":2820,"line":2,"i_long":106.838896,"time":4,"i_lat":-6.3080680000000005,"transit":false},{"station_id":"LNA","transit":false,"time":3,"distance":2671,"station_name":"Lenteng Agung","i_lat":-6.330363,"i_long":106.832616,"is_transit":false,"line":2},{"i_lat":-6.339291,"station_id":"UP","station_name":"Univ. Pancasila","i_long":106.834175,"time":2,"transit":false,"distance":1029,"line":2,"is_transit":false},{"time":3,"i_lat":-6.360749,"is_transit":false,"distance":2264,"transit":false,"i_long":106.831474,"station_id":"UI","line":2,"station_name":"Univ. Indonesia"},{"distance":1109,"station_id":"POC","station_name":"Pondok Cina","transit":false,"time":2,"i_long":106.831114,"i_lat":-6.369073,"is_transit":false,"line":2},{"i_long":106.819451,"station_name":"Depokbaru","station_id":"DPB","is_transit":false,"transit":false,"i_lat":-6.391065,"distance":2727,"time":4,"line":2},{"is_transit":false,"distance":1584,"i_long":106.816926,"station_name":"Depok","time":3,"transit":false,"station_id":"DP","i_lat":-6.405256,"line":2},{"distance":5084,"is_transit":true,"time":6,"station_id":"CTA","i_lat":-6.448811,"line":2,"transit":true,"i_long":106.800298,"station_name":"Citayam"},{"distance":0,"station_name":"Pondok Rajeg","transit":false,"time":0,"station_id":"PDRG","i_lat":-6.460735,"i_long":106.824374,"line":21,"is_transit":false}],[{"is_transit":false,"i_lat":-6.354349,"station_id":"CJT","transit":false,"distance":0,"station_name":"Cilejit","time":0,"i_long":106.508482,"line":3},{"station_id":"PRP","time":9,"distance":7025,"i_lat":-6.3441410000000005,"line":6,"i_long":106.568863,"transit":false,"station_name":"Parung Panjang","is_transit":false},{"time":8,"station_id":"CC","distance":5968,"station_name":"Cicayur","transit":false,"i_lat":-6.329547,"i_long":106.617853,"line":3,"is_transit":false},{"station_id":"CSK","distance":2519,"i_lat":-6.32484,"station_name":"Cisauk","i_long":106.640411,"is_transit":false,"time":4,"line":3,"transit":false},{"i_long":106.66566,"distance":1784,"line":6,"station_name":"Serpong","transit":false,"time":4,"i_lat":-6.319871,"station_id":"SRP","is_transit":false},{"distance":2413,"time":4,"line":6,"station_id":"RU","transit":false,"i_lat":-6.314823,"i_long":106.675475,"is_transit":false,"station_name":"Rawa Buntu"},{"transit":false,"time":6,"station_id":"SDM","is_transit":false,"station_name":"Sudimara","i_lat":-6.296963,"i_long":106.712277,"line":6,"distance":4566},{"line":6,"i_lat":-6.288927,"is_transit":false,"station_name":"Jurangmangu","station_id":"JMU","transit":false,"i_long":106.728916,"time":4,"distance":1994},{"line":6,"time":3,"i_lat":-6.276362,"transit":false,"i_long":106.74273,"station_id":"PDJ","station_name":"Pondokranji","is_transit":false,"distance":2179},{"station_name":"Kebayoran","distance":6218,"station_id":"KBY","transit":false,"i_lat":-6.237242,"line":6,"i_long":106.780334,"is_transit":false,"time":8},{"station_name":"Palmerah","distance":3737,"line":6,"station_id":"PLM","is_transit":false,"i_long":106.79689,"i_lat":-6.207404,"time":7,"transit":false},{"transit":true,"distance":3191,"line":1,"time":6,"station_name":"Tanah Abang","is_transit":true,"station_id":"THB","i_lat":-6.185545,"i_long":106.811091},{"station_name":"Duri","station_id":"DU","time":8,"i_lat":-6.155215,"line":1,"is_transit":false,"distance":3632,"i_long":106.800832,"transit":false},{"time":4,"i_lat":-6.144674,"station_name":"Angke","station_id":"AK","is_transit":false,"i_long":106.79867,"distance":1230,"transit":false,"line":1},{"station_name":"Kampung Bandan","i_lat":-6.132549,"is_transit":true,"distance":4102,"i_long":106.826365,"transit":true,"station_id":"KPB","time":9,"line":4},{"time":3,"station_id":"JAKK","i_lat":-6.137569,"i_long":106.812439,"is_transit":true,"distance":1364,"transit":true,"line":2,"station_name":"Jakarta Kota"},{"transit":false,"line":2,"distance":1264,"is_transit":false,"i_long":106.820901,"time":4,"i_lat":-6.141205,"station_id":"JAY","station_name":"Jayakarta"},{"transit":false,"station_name":"Manggabesar","time":2,"is_transit":false,"line":2,"distance":1080,"i_lat":-6.149769,"i_long":106.82482,"station_id":"MGB"},{"line":2,"transit":false,"is_transit":false,"time":2,"distance":906,"i_long":106.827103,"station_name":"Sawah Besar","station_id":"SW","i_lat":-6.160725},{"transit":false,"line":2,"station_id":"JUA","time":2,"station_name":"Juanda","is_transit":false,"i_lat":-6.166716,"i_long":106.828284,"distance":1149},{"i_long":106.832183,"i_lat":-6.186295,"distance":2015,"station_name":"Gondangdia","line":2,"time":4,"transit":false,"station_id":"GDD","is_transit":false},{"distance":1750,"line":2,"station_name":"Cikini","is_transit":false,"time":3,"transit":false,"station_id":"CKI","i_long":106.840169,"i_lat":-6.198556},{"line":2,"distance":1590,"transit":false,"is_transit":false,"station_name":"Manggarai","station_id":"MRI","time":4,"i_long":106.84912,"i_lat":-6.209883},{"line":2,"i_long":106.857948,"time":4,"is_transit":false,"transit":false,"station_id":"TEB","station_name":"Tebet","i_lat":-6.226659,"distance":2610},{"i_long":106.856607,"station_name":"Cawang","time":2,"station_id":"CW","transit":false,"i_lat":-6.242512,"line":2,"is_transit":false,"distance":1230},{"line":2,"station_name":"Duren Kalibata","transit":false,"distance":1546,"i_lat":-6.255332,"i_long":106.85449,"station_id":"DRN","is_transit":false,"time":3},{"is_transit":false,"station_id":"PSMB","line":2,"distance":824,"i_lat":-6.263214,"i_long":106.851577,"station_name":"Pasar Minggu Baru","time":2,"transit":false},{"is_transit":false,"station_id":"PSM","i_long":106.843999,"line":2,"distance":2380,"i_lat":-6.2842400000000005,"transit":false,"time":2,"station_name":"Pasar Minggu"},{"station_name":"Tanjung Barat","is_transit":false,"i_long":106.838896,"transit":false,"station_id":"TNT","distance":2820,"line":2,"i_lat":-6.3080680000000005,"time":4},{"station_id":"LNA","is_transit":false,"distance":2671,"station_name":"Lenteng Agung","i_long":106.832616,"transit":false,"time":3,"i_lat":-6.330363,"line":2},{"transit":false,"station_name":"Univ. Pancasila","time":2,"station_id":"UP","is_transit":false,"line":2,"i_long":106.834175,"distance":1029,"i_lat":-6.339291},{"station_name":"Univ. Indonesia","i_lat":-6.360749,"time":3,"i_long":106.831474,"is_transit":false,"line":2,"transit":false,"station_id":"UI","distance":2264},{"i_long":106.831114,"is_transit":false,"line":2,"station_name":"Pondok Cina","time":2,"transit":false,"station_id":"POC","i_lat":-6.369073,"distance":1109},{"i_long":106.819451,"distance":2727,"i_lat":-6.391065,"station_id":"DPB","is_transit":false,"transit":false,"time":4,"line":2,"station_name":"Depokbaru"},{"i_lat":-6.405256,"i_long":106.816926,"station_id":"DP","time":3,"transit":false,"distance":1584,"line":2,"station_name":"Depok","is_transit":false},{"distance":5084,"station_name":"Citayam","i_long":106.800298,"i_lat":-6.448811,"time":6,"line":2,"station_id":"CTA","is_transit":true,"transit":true},{"transit":false,"is_transit":false,"i_lat":-6.460735,"distance":0,"i_long":106.824374,"station_name":"Pondok Rajeg","time":0,"station_id":"PDRG","line":21}],[{"distance":0,"i_long":106.508482,"is_transit":false,"transit":false,"time":0,"line":3,"station_id":"CJT","station_name":"Cilejit","i_lat":-6.354349},{"i_lat":-6.3441410000000005,"station_name":"Parung Panjang","distance":7025,"time":9,"transit":false,"is_transit":false,"station_id":"PRP","i_long":106.568863,"line":6},{"station_id":"CC","i_long":106.617853,"station_name":"Cicayur","time":8,"distance":5968,"i_lat":-6.329547,"line":3,"is_transit":false,"transit":false},{"i_long":106.640411,"line":3,"is_transit":false,"transit":false,"i_lat":-6.32484,"station_name":"Cisauk","station_id":"CSK","time":4,"distance":2519},{"station_id":"SRP","time":4,"i_long":106.66566,"distance":1784,"line":6,"i_lat":-6.319871,"transit":false,"is_transit":false,"station_name":"Serpong"},{"distance":2413,"i_lat":-6.314823,"transit":false,"i_long":106.675475,"is_transit":false,"station_id":"RU","time":4,"line":6,"station_name":"Rawa Buntu"},{"i_lat":-6.296963,"distance":4566,"i_long":106.712277,"line":6,"station_name":"Sudimara","time":6,"transit":false,"station_id":"SDM","is_transit":false},{"time":4,"i_long":106.728916,"distance":1994,"line":6,"i_lat":-6.288927,"station_id":"JMU","station_name":"Jurangmangu","transit":false,"is_transit":false},{"station_id":"PDJ","i_long":106.74273,"station_name":"Pondokranji","time":3,"line":6,"i_lat":-6.276362,"transit":false,"distance":2179,"is_transit":false},{"i_long":106.780334,"time":8,"distance":6218,"station_name":"Kebayoran","station_id":"KBY","transit":false,"is_transit":false,"i_lat":-6.237242,"line":6},{"is_transit":false,"station_name":"Palmerah","station_id":"PLM","transit":false,"distance":3737,"i_lat":-6.207404,"line":6,"i_long":106.79689,"time":7},{"station_name":"Tanah Abang","i_long":106.811091,"line":1,"distance":3191,"is_transit":true,"transit":true,"time":6,"station_id":"THB","i_lat":-6.185545},{"line":1,"is_transit":false,"time":8,"station_id":"DU","distance":3632,"i_long":106.800832,"station_name":"Duri","i_lat":-6.155215,"transit":false},{"station_id":"AK","time":4,"station_name":"Angke","distance":1230,"is_transit":false,"i_lat":-6.144674,"line":1,"transit":false,"i_long":106.79867},{"distance":4102,"transit":true,"station_name":"Kampung Bandan","i_lat":-6.132549,"time":9,"station_id":"KPB","i_long":106.826365,"is_transit":true,"line":4},{"is_transit":false,"line":11,"station_name":"Rajawali","transit":false,"distance":1444,"station_id":"RJW","time":3,"i_lat":-6.14505,"i_long":106.836569},{"station_id":"KMO","i_lat":-6.161728,"line":11,"is_transit":false,"transit":false,"distance":1901,"station_name":"Kemayoran","i_long":106.839204,"time":5},{"distance":1436,"station_name":"Pasar Senen","i_lat":-6.174784,"i_long":106.84368,"is_transit":false,"transit":false,"time":4,"line":11,"station_id":"PSE"},{"distance":1567,"station_id":"GST","i_long":106.850107,"transit":false,"station_name":"Gang Sentiong","i_lat":-6.185975,"line":11,"time":8,"is_transit":false},{"transit":false,"line":11,"time":1,"station_id":"KMT","i_lat":-6.193792,"is_transit":false,"distance":973,"i_long":106.855437,"station_name":"Kramat"},{"is_transit":false,"transit":false,"i_long":106.861737,"station_name":"Pondok Jati","time":2,"line":11,"station_id":"POK","i_lat":-6.209188,"distance":1829},{"distance":1236,"i_lat":-6.215091,"is_transit":true,"i_long":106.86807400000001,"station_id":"JNG","time":9,"station_name":"Jatinegara","line":1,"transit":true},{"is_transit":false,"i_long":106.858896,"station_id":"MTR","station_name":"Matraman","distance":1377,"line":1,"transit":false,"time":2,"i_lat":-6.212485},{"is_transit":true,"i_lat":-6.209883,"i_long":106.84912,"transit":true,"line":2,"distance":1275,"station_id":"MRI","time":2,"station_name":"Manggarai"},{"station_name":"Tebet","time":4,"i_lat":-6.226659,"line":2,"station_id":"TEB","transit":false,"distance":2610,"i_long":106.857948,"is_transit":false},{"i_long":106.856607,"station_id":"CW","is_transit":false,"transit":false,"time":2,"i_lat":-6.242512,"line":2,"distance":1230,"station_name":"Cawang"},{"line":2,"i_long":106.85449,"transit":false,"distance":1546,"station_name":"Duren Kalibata","is_transit":false,"time":3,"station_id":"DRN","i_lat":-6.255332},{"i_long":106.851577,"is_transit":false,"line":2,"station_name":"Pasar Minggu Baru","i_lat":-6.263214,"distance":824,"time":2,"transit":false,"station_id":"PSMB"},{"is_transit":false,"transit":false,"station_id":"PSM","i_long":106.843999,"line":2,"station_name":"Pasar Minggu","time":2,"i_lat":-6.2842400000000005,"distance":2380},{"station_id":"TNT","distance":2820,"i_long":106.838896,"transit":false,"is_transit":false,"station_name":"Tanjung Barat","time":4,"i_lat":-6.3080680000000005,"line":2},{"station_id":"LNA","i_long":106.832616,"is_transit":false,"time":3,"distance":2671,"i_lat":-6.330363,"station_name":"Lenteng Agung","transit":false,"line":2},{"i_lat":-6.339291,"i_long":106.834175,"station_id":"UP","transit":false,"is_transit":false,"time":2,"line":2,"station_name":"Univ. Pancasila","distance":1029},{"i_long":106.831474,"i_lat":-6.360749,"station_id":"UI","line":2,"distance":2264,"transit":false,"is_transit":false,"station_name":"Univ. Indonesia","time":3},{"station_id":"POC","i_lat":-6.369073,"distance":1109,"line":2,"transit":false,"i_long":106.831114,"is_transit":false,"station_name":"Pondok Cina","time":2},{"i_long":106.819451,"time":4,"station_name":"Depokbaru","station_id":"DPB","is_transit":false,"distance":2727,"i_lat":-6.391065,"transit":false,"line":2},{"line":2,"distance":1584,"i_lat":-6.405256,"station_id":"DP","station_name":"Depok","time":3,"is_transit":false,"transit":false,"i_long":106.816926},{"transit":true,"station_name":"Citayam","distance":5084,"line":2,"is_transit":true,"time":6,"station_id":"CTA","i_long":106.800298,"i_lat":-6.448811},{"i_long":106.824374,"time":0,"i_lat":-6.460735,"station_id":"PDRG","station_name":"Pondok Rajeg","distance":0,"transit":false,"is_transit":false,"line":21}]]}