{"data":[[{"distance":0,"time":0,"i_long":106.508482,"transit":false,"line":3,"i_lat":-6.354349,"station_name":"Cilejit","station_id":"CJT","is_transit":false},{"distance":7025,"is_transit":false,"i_lat":-6.3441410000000005,"line":6,"station_id":"PRP","station_name":"Parung Panjang","i_long":106.568863,"time":9,"transit":false},{"transit":false,"i_lat":-6.329547,"station_id":"CC","is_transit":false,"station_name":"Cicayur","distance":5968,"i_long":106.617853,"time":8,"line":3},{"station_name":"Cisauk","i_long":106.640411,"distance":2519,"is_transit":false,"line":3,"transit":false,"station_id":"CSK","time":4,"i_lat":-6.32484},{"i_long":106.66566,"is_transit":false,"station_id":"SRP","transit":false,"time":4,"i_lat":-6.319871,"distance":1784,"line":6,"station_name":"Serpong"},{"distance":2413,"time":4,"line":6,"is_transit":false,"station_name":"Rawa Buntu","i_lat":-6.314823,"transit":false,"station_id":"RU","i_long":106.675475},{"distance":4566,"is_transit":false,"station_name":"Sudimara","transit":false,"time":6,"line":6,"station_id":"SDM","i_lat":-6.296963,"i_long":106.712277},{"is_transit":false,"i_lat":-6.288927,"station_id":"JMU","i_long":106.728916,"station_name":"Jurangmangu","transit":false,"line":6,"distance":1994,"time":4},{"i_long":106.74273,"station_id":"PDJ","transit":false,"i_lat":-6.276362,"line":6,"is_transit":false,"distance":2179,"station_name":"Pondokranji","time":3}]]}