{"data":[[{"i_lat":-6.354349,"station_name":"Cilejit","time":0,"distance":0,"line":3,"transit":false,"i_long":106.508482,"station_id":"CJT","is_transit":false},{"i_long":106.568863,"time":9,"distance":7025,"station_name":"Parung Panjang","i_lat":-6.3441410000000005,"station_id":"PRP","line":6,"transit":false,"is_transit":false},{"line":3,"is_transit":false,"time":8,"station_id":"CC","i_lat":-6.329547,"station_name":"Cicayur","transit":false,"i_long":106.617853,"distance":5968},{"is_transit":false,"i_long":106.640411,"i_lat":-6.32484,"transit":false,"station_name":"Cisauk","line":3,"distance":2519,"time":4,"station_id":"CSK"},{"station_name":"Serpong","time":4,"transit":false,"distance":1784,"is_transit":false,"i_long":106.66566,"station_id":"SRP","i_lat":-6.319871,"line":6},{"i_long":106.675475,"station_name":"Rawa Buntu","time":4,"is_transit":false,"transit":false,"line":6,"station_id":"RU","i_lat":-6.314823,"distance":2413},{"station_id":"SDM","distance":4566,"station_name":"Sudimara","time":6,"transit":false,"is_transit":false,"line":6,"i_lat":-6.296963,"i_long":106.712277},{"line":6,"station_name":"Jurangmangu","i_lat":-6.288927,"transit":false,"i_long":106.728916,"station_id":"JMU","distance":1994,"is_transit":false,"time":4},{"distance":2179,"i_long":106.74273,"transit":false,"i_lat":-6.276362,"line":6,"is_transit":false,"station_name":"Pondokranji","time":3,"station_id":"PDJ"},{"line":6,"is_transit":false,"station_name":"Kebayoran","station_id":"KBY","distance":6218,"time":8,"transit":false,"i_long":106.780334,"i_lat":-6.237242},{"station_name":"Palmerah","distance":3737,"is_transit":false,"station_id":"PLM","i_lat":-6.207404,"line":6,"i_long":106.79689,"transit":false,"time":7},{"i_long":106.811091,"transit":true,"line":1,"is_transit":true,"i_lat":-6.185545,"time":6,"station_name":"Tanah Abang","distance":3191,"station_id":"THB"},{"time":5,"distance":2029,"station_id":"KAT","line":1,"i_long":106.816351,"i_lat":-6.20132,"transit":false,"is_transit":false,"station_name":"Karet"},{"i_lat":-6.201433,"time":1,"station_name":"Sudirman Baru","distance":471,"transit":false,"i_long":106.819881,"line":1,"station_id":"SUDB","is_transit":false},{"i_lat":-6.202263,"transit":false,"station_id":"SUD","is_transit":false,"station_name":"Sudirman","time":1,"distance":280,"line":1,"i_long":106.822649},{"station_name":"Manggarai","is_transit":true,"i_long":106.84912,"station_id":"MRI","transit":true,"i_lat":-6.209883,"time":4,"line":2,"distance":3186},{"station_id":"TEB","time":4,"i_long":106.857948,"line":2,"station_name":"Tebet","transit":false,"distance":2610,"is_transit":false,"i_lat":-6.226659},{"is_transit":false,"distance":1230,"time":2,"line":2,"i_long":106.856607,"station_name":"Cawang","transit":false,"station_id":"CW","i_lat":-6.242512},{"is_transit":false,"distance":1546,"i_long":106.85449,"line":2,"time":3,"transit":false,"station_name":"Duren Kalibata","i_lat":-6.255332,"station_id":"DRN"},{"station_name":"Pasar Minggu Baru","i_lat":-6.263214,"distance":824,"time":2,"i_long":106.851577,"line":2,"station_id":"PSMB","is_transit":false,"transit":false},{"is_transit":false,"line":2,"i_long":106.843999,"time":2,"distance":2380,"station_id":"PSM","transit":false,"station_name":"Pasar Minggu","i_lat":-6.2842400000000005},{"station_name":"Tanjung Barat","time":4,"is_transit":false,"distance":2820,"line":2,"transit":false,"station_id":"TNT","i_long":106.838896,"i_lat":-6.3080680000000005},{"time":3,"station_id":"LNA","station_name":"Lenteng Agung","transit":false,"is_transit":false,"line":2,"i_lat":-6.330363,"i_long":106.832616,"distance":2671}],[{"station_name":"Cilejit","transit":false,"i_long":106.508482,"time":0,"i_lat":-6.354349,"distance":0,"is_transit":false,"station_id":"CJT","line":3},{"station_name":"Parung Panjang","distance":7025,"station_id":"PRP","transit":false,"is_transit":false,"i_long":106.568863,"time":9,"i_lat":-6.3441410000000005,"line":6},{"is_transit":false,"station_name":"Cicayur","time":8,"i_long":106.617853,"distance":5968,"line":3,"station_id":"CC","transit":false,"i_lat":-6.329547},{"transit":false,"line":3,"station_name":"Cisauk","distance":2519,"time":4,"station_id":"CSK","i_long":106.640411,"i_lat":-6.32484,"is_transit":false},{"i_lat":-6.319871,"i_long":106.66566,"distance":1784,"line":6,"is_transit":false,"time":4,"station_name":"Serpong","transit":false,"station_id":"SRP"},{"distance":2413,"time":4,"i_long":106.675475,"line":6,"station_name":"Rawa Buntu","station_id":"RU","is_transit":false,"transit":false,"i_lat":-6.314823},{"is_transit":false,"line":6,"transit":false,"i_lat":-6.296963,"station_name":"Sudimara","time":6,"station_id":"SDM","i_long":106.712277,"distance":4566},{"is_transit":false,"station_name":"Jurangmangu","station_id":"JMU","line":6,"distance":1994,"transit":false,"i_lat":-6.288927,"time":4,"i_long":106.728916},{"i_lat":-6.276362,"i_long":106.74273,"distance":2179,"station_id":"PDJ","is_transit":false,"time":3,"station_name":"Pondokranji","transit":false,"line":6},{"line":6,"transit":false,"i_lat":-6.237242,"i_long":106.780334,"station_name":"Kebayoran","distance":6218,"time":8,"station_id":"KBY","is_transit":false},{"line":6,"is_transit":false,"station_name":"Palmerah","distance":3737,"i_lat":-6.207404,"i_long":106.79689,"time":7,"transit":false,"station_id":"PLM"},{"station_name":"Tanah Abang","time":6,"station_id":"THB","distance":3191,"i_lat":-6.185545,"is_transit":true,"transit":true,"i_long":106.811091,"line":1},{"transit":false,"station_id":"DU","i_lat":-6.155215,"line":1,"is_transit":false,"time":8,"station_name":"Duri","i_long":106.800832,"distance":3632},{"time":4,"is_transit":false,"line":1,"transit":false,"station_id":"AK","i_long":106.79867,"station_name":"Angke","distance":1230,"i_lat":-6.144674},{"time":9,"i_lat":-6.132549,"transit":true,"is_transit":true,"line":4,"station_name":"Kampung Bandan","distance":4102,"station_id":"KPB","i_long":106.826365},{"i_lat":-6.137569,"transit":true,"is_transit":true,"line":2,"station_name":"Jakarta Kota","time":3,"distance":1364,"i_long":106.812439,"station_id":"JAKK"},{"transit":false,"station_id":"JAY","time":4,"i_lat":-6.141205,"line":2,"station_name":"Jayakarta","distance":1264,"i_long":106.820901,"is_transit":false},{"time":2,"i_lat":-6.149769,"station_name":"Manggabesar","i_long":106.82482,"line":2,"transit":false,"is_transit":false,"distance":1080,"station_id":"MGB"},{"station_name":"Sawah Besar","line":2,"i_lat":-6.160725,"time":2,"i_long":106.827103,"station_id":"SW","distance":906,"transit":false,"is_transit":false},{"transit":false,"distance":1149,"station_name":"Juanda","time":2,"i_long":106.828284,"is_transit":false,"line":2,"station_id":"JUA","i_lat":-6.166716},{"station_id":"GDD","station_name":"Gondangdia","distance":2015,"i_lat":-6.186295,"line":2,"i_long":106.832183,"time":4,"transit":false,"is_transit":false},{"distance":1750,"is_transit":false,"i_lat":-6.198556,"station_id":"CKI","time":3,"transit":false,"line":2,"station_name":"Cikini","i_long":106.840169},{"i_long":106.84912,"transit":false,"station_id":"MRI","i_lat":-6.209883,"line":2,"station_name":"Manggarai","time":4,"distance":1590,"is_transit":false},{"transit":false,"station_id":"TEB","i_lat":-6.226659,"time":4,"i_long":106.857948,"is_transit":false,"distance":2610,"line":2,"station_name":"Tebet"},{"i_long":106.856607,"distance":1230,"transit":false,"is_transit":false,"i_lat":-6.242512,"line":2,"station_name":"Cawang","time":2,"station_id":"CW"},{"is_transit":false,"line":2,"distance":1546,"i_lat":-6.255332,"time":3,"transit":false,"station_id":"DRN","i_long":106.85449,"station_name":"Duren Kalibata"},{"distance":824,"station_name":"Pasar Minggu Baru","time":2,"transit":false,"station_id":"PSMB","line":2,"i_long":106.851577,"is_transit":false,"i_lat":-6.263214},{"distance":2380,"station_id":"PSM","station_name":"Pasar Minggu","i_long":106.843999,"transit":false,"is_transit":false,"i_lat":-6.2842400000000005,"time":2,"line":2},{"transit":false,"i_lat":-6.3080680000000005,"time":4,"i_long":106.838896,"line":2,"station_id":"TNT","station_name":"Tanjung Barat","distance":2820,"is_transit":false},{"i_lat":-6.330363,"i_long":106.832616,"line":2,"time":3,"is_transit":false,"transit":false,"station_name":"Lenteng Agung","distance":2671,"station_id":"LNA"}],[{"distance":0,"station_name":"Cilejit","transit":false,"station_id":"CJT","time":0,"is_transit":false,"i_long":106.508482,"i_lat":-6.354349,"line":3},{"i_lat":-6.3441410000000005,"line":6,"i_long":106.568863,"time":9,"station_id":"PRP","station_name":"Parung Panjang","distance":7025,"transit":false,"is_transit":false},{"time":8,"distance":5968,"i_lat":-6.329547,"station_name":"Cicayur","transit":false,"is_transit":false,"line":3,"station_id":"CC","i_long":106.617853},{"i_long":106.640411,"line":3,"station_name":"Cisauk","transit":false,"time":4,"station_id":"CSK","i_lat":-6.32484,"is_transit":false,"distance":2519},{"distance":1784,"transit":false,"line":6,"station_name":"Serpong","station_id":"SRP","i_long":106.66566,"is_transit":false,"time":4,"i_lat":-6.319871},{"time":4,"i_lat":-6.314823,"is_transit":false,"transit":false,"station_id":"RU","i_long":106.675475,"distance":2413,"line":6,"station_name":"Rawa Buntu"},{"line":6,"i_lat":-6.296963,"transit":false,"is_transit":false,"station_name":"Sudimara","distance":4566,"station_id":"SDM","time":6,"i_long":106.712277},{"is_transit":false,"i_long":106.728916,"station_name":"Jurangmangu","station_id":"JMU","line":6,"distance":1994,"time":4,"transit":false,"i_lat":-6.288927},{"station_id":"PDJ","i_lat":-6.276362,"is_transit":false,"line":6,"station_name":"Pondokranji","time":3,"distance":2179,"i_long":106.74273,"transit":false},{"distance":6218,"i_lat":-6.237242,"station_id":"KBY","station_name":"Kebayoran","line":6,"time":8,"is_transit":false,"transit":false,"i_long":106.780334},{"is_transit":false,"station_name":"Palmerah","distance":3737,"line":6,"i_lat":-6.207404,"time":7,"station_id":"PLM","transit":false,"i_long":106.79689},{"station_name":"Tanah Abang","is_transit":true,"i_lat":-6.185545,"time":6,"line":1,"distance":3191,"station_id":"THB","transit":true,"i_long":106.811091},{"i_lat":-6.155215,"station_id":"DU","is_transit":false,"time":8,"transit":false,"station_name":"Duri","i_long":106.800832,"line":1,"distance":3632},{"distance":1230,"i_lat":-6.144674,"station_name":"Angke","transit":false,"station_id":"AK","i_long":106.79867,"line":1,"is_transit":false,"time":4},{"is_transit":true,"i_long":106.826365,"i_lat":-6.132549,"line":4,"distance":4102,"station_id":"KPB","transit":true,"station_name":"Kampung Bandan","time":9},{"i_long":106.836569,"distance":1444,"is_transit":false,"transit":false,"station_id":"RJW","station_name":"Rajawali","time":3,"i_lat":-6.14505,"line":11},{"time":5,"i_long":106.839204,"is_transit":false,"line":11,"station_id":"KMO","i_lat":-6.161728,"transit":false,"distance":1901,"station_name":"Kemayoran"},{"distance":1436,"station_id":"PSE","i_lat":-6.174784,"time":4,"is_transit":false,"i_long":106.84368,"line":11,"transit":false,"station_name":"Pasar Senen"},{"station_name":"Gang Sentiong","distance":1567,"is_transit":false,"i_lat":-6.185975,"time":8,"i_long":106.850107,"station_id":"GST","line":11,"transit":false},{"line":11,"transit":false,"i_long":106.855437,"i_lat":-6.193792,"station_name":"Kramat","is_transit":false,"distance":973,"station_id":"KMT","time":1},{"station_name":"Pondok Jati","time":2,"distance":1829,"is_transit":false,"station_id":"POK","i_lat":-6.209188,"transit":false,"line":11,"i_long":106.861737},{"time":9,"i_lat":-6.215091,"i_long":106.86807400000001,"line":1,"station_name":"Jatinegara","station_id":"JNG","is_transit":true,"distance":1236,"transit":true},{"i_long":106.858896,"is_transit":false,"i_lat":-6.212485,"distance":1377,"station_id":"MTR","station_name":"Matraman","transit":false,"line":1,"time":2},{"is_transit":true,"transit":true,"station_id":"MRI","station_name":"Manggarai","i_lat":-6.209883,"line":2,"distance":1275,"time":2,"i_long":106.84912},{"time":4,"distance":2610,"line":2,"transit":false,"i_lat":-6.226659,"station_name":"Tebet","is_transit":false,"i_long":106.857948,"station_id":"TEB"},{"i_lat":-6.242512,"i_long":106.856607,"line":2,"station_name":"Cawang","transit":false,"is_transit":false,"station_id":"CW","time":2,"distance":1230},{"time":3,"line":2,"is_transit":false,"station_name":"Duren Kalibata","station_id":"DRN","i_lat":-6.255332,"i_long":106.85449,"distance":1546,"transit":false},{"station_name":"Pasar Minggu Baru","i_long":106.851577,"transit":false,"distance":824,"i_lat":-6.263214,"line":2,"time":2,"station_id":"PSMB","is_transit":false},{"station_id":"PSM","is_transit":false,"line":2,"station_name":"Pasar Minggu","time":2,"i_lat":-6.2842400000000005,"distance":2380,"transit":false,"i_long":106.843999},{"is_transit":false,"i_lat":-6.3080680000000005,"line":2,"distance":2820,"time":4,"station_id":"TNT","i_long":106.838896,"station_name":"Tanjung Barat","transit":false},{"distance":2671,"station_name":"Lenteng Agung","i_long":106.832616,"i_lat":-6.330363,"station_id":"LNA","is_transit":false,"transit":false,"time":3,"line":2}]]}