{"data":[[{"transit":false,"station_id":"CJT","station_name":"Cilejit","line":0,"i_lat":-6.354349,"i_long":106.508482,"is_transit":false,"time":0,"distance":0},{"is_transit":false,"line":6,"station_id":"PRP","station_name":"Parung Panjang","transit":false,"i_long":106.568863,"time":9,"distance":7025,"i_lat":-6.3441410000000005},{"station_id":"CC","i_lat":-6.329547,"line":0,"station_name":"Cicayur","transit":false,"i_long":106.617853,"distance":5968,"time":8,"is_transit":false},{"i_lat":-6.32484,"i_long":106.640411,"distance":2519,"line":0,"station_id":"CSK","transit":false,"is_transit":false,"time":4,"station_name":"Cisauk"},{"station_id":"SRP","i_lat":-6.319871,"time":4,"distance":1784,"transit":false,"i_long":106.66566,"line":6,"station_name":"Serpong","is_transit":false},{"distance":2413,"time":4,"station_name":"Rawa Buntu","transit":false,"i_lat":-6.314823,"i_long":106.675475,"line":6,"is_transit":false,"station_id":"RU"},{"line":6,"station_name":"Sudimara","transit":false,"time":6,"i_lat":-6.296963,"is_transit":false,"distance":4566,"i_long":106.712277,"station_id":"SDM"},{"i_long":106.728916,"station_id":"JMU","i_lat":-6.288927,"line":6,"time":4,"distance":1994,"transit":false,"is_transit":false,"station_name":"Jurangmangu"},{"i_long":106.74273,"line":6,"distance":2179,"is_transit":false,"station_name":"Pondokranji","transit":false,"station_id":"PDJ","i_lat":-6.276362,"time":3},{"station_name":"Kebayoran","is_transit":false,"station_id":"KBY","distance":6218,"transit":false,"line":6,"i_lat":-6.237242,"time":8,"i_long":106.780334},{"distance":3737,"transit":false,"i_lat":-6.207404,"i_long":106.79689,"line":6,"is_transit":false,"time":7,"station_name":"Palmerah","station_id":"PLM"},{"is_transit":true,"station_id":"THB","time":6,"distance":3191,"i_lat":-6.185545,"line":1,"station_name":"Tanah Abang","transit":true,"i_long":106.811091},{"transit":false,"station_id":"KAT","is_transit":false,"i_lat":-6.20132,"line":1,"distance":2029,"station_name":"Karet","time":5,"i_long":106.816351},{"station_name":"Sudirman Baru","distance":471,"line":1,"time":1,"station_id":"SUDB","transit":false,"i_lat":-6.201433,"is_transit":false,"i_long":106.819881},{"distance":280,"transit":false,"is_transit":false,"station_id":"SUD","station_name":"Sudirman","i_long":106.822649,"line":1,"i_lat":-6.202263,"time":1},{"is_transit":true,"distance":3186,"station_name":"Manggarai","i_lat":-6.209883,"time":4,"station_id":"MRI","i_long":106.84912,"line":0,"transit":true},{"station_id":"TEB","is_transit":false,"station_name":"Tebet","i_lat":-6.226659,"distance":2610,"transit":false,"i_long":106.857948,"time":4,"line":2},{"transit":false,"i_long":106.856607,"i_lat":-6.242512,"time":2,"distance":1230,"station_id":"CW","station_name":"Cawang","is_transit":false,"line":0},{"is_transit":false,"distance":1546,"transit":false,"i_lat":-6.255332,"time":3,"i_long":106.85449,"line":0,"station_id":"DRN","station_name":"Duren Kalibata"},{"line":2,"i_lat":-6.263214,"is_transit":false,"distance":824,"transit":false,"time":2,"station_id":"PSMB","i_long":106.851577,"station_name":"Pasar Minggu Baru"},{"i_lat":-6.2842400000000005,"i_long":106.843999,"station_id":"PSM","is_transit":false,"distance":2380,"transit":false,"station_name":"Pasar Minggu","line":2,"time":2},{"line":2,"time":4,"station_id":"TNT","distance":2820,"i_lat":-6.3080680000000005,"is_transit":false,"transit":false,"i_long":106.838896,"station_name":"Tanjung Barat"},{"i_lat":-6.330363,"time":3,"station_name":"Lenteng Agung","distance":2671,"i_long":106.832616,"is_transit":false,"line":2,"transit":false,"station_id":"LNA"}],[{"i_lat":-6.354349,"station_id":"CJT","is_transit":false,"i_long":106.508482,"transit":false,"time":0,"distance":0,"station_name":"Cilejit","line":0},{"is_transit":false,"time":9,"i_long":106.568863,"distance":7025,"station_name":"Parung Panjang","transit":false,"i_lat":-6.3441410000000005,"line":6,"station_id":"PRP"},{"station_name":"Cicayur","transit":false,"station_id":"CC","is_transit":false,"time":8,"line":0,"i_lat":-6.329547,"i_long":106.617853,"distance":5968},{"distance":2519,"line":0,"time":4,"i_lat":-6.32484,"is_transit":false,"station_id":"CSK","i_long":106.640411,"station_name":"Cisauk","transit":false},{"i_lat":-6.319871,"distance":1784,"transit":false,"line":6,"i_long":106.66566,"station_id":"SRP","time":4,"station_name":"Serpong","is_transit":false},{"transit":false,"i_long":106.675475,"station_id":"RU","is_transit":false,"i_lat":-6.314823,"distance":2413,"line":6,"time":4,"station_name":"Rawa Buntu"},{"station_id":"SDM","line":6,"i_lat":-6.296963,"transit":false,"is_transit":false,"time":6,"distance":4566,"station_name":"Sudimara","i_long":106.712277},{"is_transit":false,"i_lat":-6.288927,"time":4,"i_long":106.728916,"line":6,"station_id":"JMU","distance":1994,"station_name":"Jurangmangu","transit":false},{"i_long":106.74273,"is_transit":false,"transit":false,"time":3,"station_id":"PDJ","line":6,"station_name":"Pondokranji","i_lat":-6.276362,"distance":2179},{"station_id":"KBY","station_name":"Kebayoran","i_long":106.780334,"distance":6218,"line":6,"is_transit":false,"i_lat":-6.237242,"time":8,"transit":false},{"is_transit":false,"i_lat":-6.207404,"i_long":106.79689,"distance":3737,"transit":false,"line":6,"time":7,"station_id":"PLM","station_name":"Palmerah"},{"line":1,"transit":true,"station_id":"THB","distance":3191,"time":6,"i_lat":-6.185545,"station_name":"Tanah Abang","i_long":106.811091,"is_transit":true},{"is_transit":true,"station_name":"Duri","line":1,"station_id":"DU","time":8,"transit":true,"distance":3632,"i_long":106.800832,"i_lat":-6.155215},{"i_long":106.79867,"distance":1230,"time":4,"station_id":"AK","transit":false,"station_name":"Angke","line":0,"is_transit":false,"i_lat":-6.144674},{"station_id":"KPB","i_lat":-6.132549,"transit":false,"station_name":"Kampung Bandan","line":0,"is_transit":true,"i_long":106.826365,"time":9,"distance":4102},{"time":3,"transit":true,"is_transit":true,"i_lat":-6.137569,"station_name":"Jakarta Kota","i_long":106.812439,"station_id":"JAKK","line":0,"distance":1364},{"i_lat":-6.141205,"station_id":"JAY","line":7,"time":4,"transit":false,"i_long":106.820901,"is_transit":false,"distance":1264,"station_name":"Jayakarta"},{"station_name":"Manggabesar","is_transit":false,"i_lat":-6.149769,"line":2,"station_id":"MGB","distance":1080,"transit":false,"time":2,"i_long":106.82482},{"line":2,"i_long":106.827103,"time":2,"station_name":"Sawah Besar","is_transit":false,"i_lat":-6.160725,"distance":906,"transit":false,"station_id":"SW"},{"station_id":"JUA","i_long":106.828284,"line":2,"transit":false,"distance":1149,"time":2,"i_lat":-6.166716,"station_name":"Juanda","is_transit":false},{"distance":2015,"time":4,"i_lat":-6.186295,"transit":false,"is_transit":false,"line":2,"station_name":"Gondangdia","i_long":106.832183,"station_id":"GDD"},{"i_lat":-6.198556,"line":0,"is_transit":false,"time":3,"distance":1750,"station_id":"CKI","station_name":"Cikini","transit":false,"i_long":106.840169},{"distance":1590,"line":0,"time":4,"i_lat":-6.209883,"transit":true,"is_transit":true,"i_long":106.84912,"station_id":"MRI","station_name":"Manggarai"},{"is_transit":false,"station_name":"Tebet","distance":2610,"line":2,"time":4,"i_lat":-6.226659,"transit":false,"station_id":"TEB","i_long":106.857948},{"transit":false,"i_long":106.856607,"line":0,"station_id":"CW","distance":1230,"is_transit":false,"station_name":"Cawang","time":2,"i_lat":-6.242512},{"transit":false,"is_transit":false,"i_lat":-6.255332,"i_long":106.85449,"line":0,"distance":1546,"station_id":"DRN","time":3,"station_name":"Duren Kalibata"},{"station_id":"PSMB","distance":824,"station_name":"Pasar Minggu Baru","line":2,"transit":false,"i_lat":-6.263214,"is_transit":false,"time":2,"i_long":106.851577},{"i_long":106.843999,"transit":false,"distance":2380,"is_transit":false,"i_lat":-6.2842400000000005,"station_id":"PSM","station_name":"Pasar Minggu","time":2,"line":2},{"is_transit":false,"station_name":"Tanjung Barat","i_lat":-6.3080680000000005,"i_long":106.838896,"line":2,"transit":false,"time":4,"distance":2820,"station_id":"TNT"},{"station_id":"LNA","is_transit":false,"transit":false,"distance":2671,"line":2,"time":3,"i_lat":-6.330363,"station_name":"Lenteng Agung","i_long":106.832616}],[{"station_name":"Cilejit","i_long":106.508482,"i_lat":-6.354349,"is_transit":false,"transit":false,"line":0,"station_id":"CJT","time":0,"distance":0},{"distance":7025,"i_long":106.568863,"is_transit":false,"i_lat":-6.3441410000000005,"line":6,"time":9,"station_id":"PRP","transit":false,"station_name":"Parung Panjang"},{"distance":5968,"line":0,"i_long":106.617853,"is_transit":false,"i_lat":-6.329547,"station_name":"Cicayur","transit":false,"time":8,"station_id":"CC"},{"distance":2519,"station_name":"Cisauk","is_transit":false,"i_lat":-6.32484,"i_long":106.640411,"time":4,"line":0,"station_id":"CSK","transit":false},{"i_lat":-6.319871,"line":6,"station_id":"SRP","transit":false,"station_name":"Serpong","i_long":106.66566,"is_transit":false,"distance":1784,"time":4},{"time":4,"distance":2413,"i_long":106.675475,"i_lat":-6.314823,"station_id":"RU","line":6,"station_name":"Rawa Buntu","is_transit":false,"transit":false},{"transit":false,"line":6,"distance":4566,"time":6,"station_name":"Sudimara","i_long":106.712277,"i_lat":-6.296963,"station_id":"SDM","is_transit":false},{"i_lat":-6.288927,"transit":false,"line":6,"station_id":"JMU","i_long":106.728916,"time":4,"distance":1994,"station_name":"Jurangmangu","is_transit":false},{"distance":2179,"transit":false,"i_lat":-6.276362,"line":6,"time":3,"station_name":"Pondokranji","station_id":"PDJ","i_long":106.74273,"is_transit":false},{"line":6,"station_name":"Kebayoran","station_id":"KBY","i_lat":-6.237242,"i_long":106.780334,"is_transit":false,"transit":false,"distance":6218,"time":8},{"is_transit":false,"line":6,"i_lat":-6.207404,"distance":3737,"transit":false,"station_id":"PLM","station_name":"Palmerah","time":7,"i_long":106.79689},{"i_long":106.811091,"station_name":"Tanah Abang","transit":true,"i_lat":-6.185545,"time":6,"distance":3191,"station_id":"THB","is_transit":true,"line":1},{"is_transit":true,"station_id":"DU","distance":3632,"station_name":"Duri","i_lat":-6.155215,"i_long":106.800832,"line":1,"transit":true,"time":8},{"distance":1230,"station_id":"AK","transit":false,"i_long":106.79867,"i_lat":-6.144674,"time":4,"line":0,"station_name":"Angke","is_transit":false},{"station_name":"Kampung Bandan","distance":4102,"is_transit":true,"station_id":"KPB","i_lat":-6.132549,"line":0,"time":9,"i_long":106.826365,"transit":true},{"time":3,"i_long":106.836569,"is_transit":false,"distance":1444,"station_name":"Rajawali","station_id":"RJW","line":11,"i_lat":-6.14505,"transit":false},{"i_lat":-6.161728,"line":11,"is_transit":false,"distance":1901,"station_id":"KMO","i_long":106.839204,"time":5,"station_name":"Kemayoran","transit":false},{"distance":1436,"station_id":"PSE","is_transit":false,"i_lat":-6.174784,"i_long":106.84368,"transit":false,"line":11,"station_name":"Pasar Senen","time":4},{"transit":false,"is_transit":false,"distance":1567,"station_name":"Gang Sentiong","i_lat":-6.185975,"i_long":106.850107,"line":11,"station_id":"GST","time":8},{"station_name":"Kramat","is_transit":false,"i_long":106.855437,"distance":973,"time":1,"transit":false,"station_id":"KMT","line":11,"i_lat":-6.193792},{"i_long":106.861737,"station_id":"POK","transit":false,"is_transit":false,"station_name":"Pondok Jati","time":2,"distance":1829,"i_lat":-6.209188,"line":11},{"station_id":"JNG","is_transit":true,"line":0,"i_long":106.86807400000001,"distance":1236,"time":9,"station_name":"Jatinegara","i_lat":-6.215091,"transit":true},{"time":2,"distance":1377,"i_lat":-6.212485,"i_long":106.858896,"station_id":"MTR","transit":false,"line":1,"is_transit":false,"station_name":"Matraman"},{"is_transit":true,"transit":true,"line":0,"i_lat":-6.209883,"i_long":106.84912,"station_id":"MRI","distance":1275,"station_name":"Manggarai","time":2},{"i_long":106.857948,"station_id":"TEB","line":2,"time":4,"station_name":"Tebet","distance":2610,"is_transit":false,"transit":false,"i_lat":-6.226659},{"station_id":"CW","station_name":"Cawang","is_transit":false,"time":2,"i_long":106.856607,"line":0,"distance":1230,"transit":false,"i_lat":-6.242512},{"station_id":"DRN","is_transit":false,"station_name":"Duren Kalibata","i_lat":-6.255332,"line":0,"time":3,"transit":false,"distance":1546,"i_long":106.85449},{"is_transit":false,"distance":824,"i_lat":-6.263214,"i_long":106.851577,"station_name":"Pasar Minggu Baru","station_id":"PSMB","transit":false,"time":2,"line":2},{"distance":2380,"time":2,"i_long":106.843999,"station_id":"PSM","i_lat":-6.2842400000000005,"is_transit":false,"station_name":"Pasar Minggu","transit":false,"line":2},{"is_transit":false,"time":4,"station_id":"TNT","distance":2820,"station_name":"Tanjung Barat","transit":false,"i_lat":-6.3080680000000005,"i_long":106.838896,"line":2},{"time":3,"is_transit":false,"distance":2671,"line":2,"station_name":"Lenteng Agung","station_id":"LNA","i_long":106.832616,"i_lat":-6.330363,"transit":false}]]}