{"data":[[{"time":0,"i_long":106.508482,"station_name":"Cilejit","distance":0,"transit":false,"station_id":"CJT","is_transit":false,"i_lat":-6.354349,"line":3},{"station_id":"PRP","line":6,"station_name":"Parung Panjang","i_long":106.568863,"distance":7025,"transit":false,"i_lat":-6.3441410000000005,"time":9,"is_transit":false},{"i_long":106.617853,"i_lat":-6.329547,"time":8,"line":3,"distance":5968,"transit":false,"station_id":"CC","station_name":"Cicayur","is_transit":false},{"time":4,"line":3,"station_name":"Cisauk","i_lat":-6.32484,"distance":2519,"is_transit":false,"station_id":"CSK","transit":false,"i_long":106.640411},{"transit":false,"distance":1784,"time":4,"i_long":106.66566,"i_lat":-6.319871,"station_name":"Serpong","line":6,"station_id":"SRP","is_transit":false},{"time":4,"i_lat":-6.314823,"line":6,"is_transit":false,"distance":2413,"station_id":"RU","i_long":106.675475,"transit":false,"station_name":"Rawa Buntu"},{"distance":4566,"i_long":106.712277,"i_lat":-6.296963,"time":6,"is_transit":false,"line":6,"station_id":"SDM","station_name":"Sudimara","transit":false},{"station_id":"JMU","is_transit":false,"i_long":106.728916,"distance":1994,"transit":false,"station_name":"Jurangmangu","time":4,"line":6,"i_lat":-6.288927},{"is_transit":false,"time":3,"station_id":"PDJ","station_name":"Pondokranji","i_long":106.74273,"i_lat":-6.276362,"distance":2179,"transit":false,"line":6}]]}