{"data":[[{"transit":false,"station_name":"Cilejit","line":3,"station_id":"CJT","i_long":106.508482,"time":0,"i_lat":-6.354349,"distance":0,"is_transit":false},{"station_name":"Parung Panjang","is_transit":false,"transit":false,"time":9,"i_lat":-6.3441410000000005,"i_long":106.568863,"line":6,"station_id":"PRP","distance":7025},{"is_transit":false,"time":8,"i_long":106.617853,"station_id":"CC","station_name":"Cicayur","i_lat":-6.329547,"distance":5968,"line":3,"transit":false},{"i_long":106.640411,"station_id":"CSK","transit":false,"time":4,"is_transit":false,"i_lat":-6.32484,"distance":2519,"line":3,"station_name":"Cisauk"},{"transit":false,"i_lat":-6.319871,"station_id":"SRP","is_transit":false,"station_name":"Serpong","i_long":106.66566,"time":4,"distance":1784,"line":6},{"i_lat":-6.314823,"i_long":106.675475,"time":4,"distance":2413,"is_transit":false,"line":6,"transit":false,"station_id":"RU","station_name":"Rawa Buntu"},{"transit":false,"station_id":"SDM","distance":4566,"is_transit":false,"i_long":106.712277,"time":6,"i_lat":-6.296963,"line":6,"station_name":"Sudimara"},{"is_transit":false,"line":6,"time":4,"i_long":106.728916,"station_id":"JMU","i_lat":-6.288927,"transit":false,"station_name":"Jurangmangu","distance":1994},{"time":3,"distance":2179,"station_id":"PDJ","transit":false,"station_name":"Pondokranji","line":6,"is_transit":false,"i_long":106.74273,"i_lat":-6.276362},{"station_name":"Kebayoran","time":8,"i_long":106.780334,"i_lat":-6.237242,"station_id":"KBY","distance":6218,"line":6,"transit":false,"is_transit":false},{"distance":3737,"i_lat":-6.207404,"is_transit":false,"station_name":"Palmerah","transit":false,"station_id":"PLM","i_long":106.79689,"line":6,"time":7},{"i_long":106.811091,"transit":true,"distance":3191,"is_transit":true,"station_name":"Tanah Abang","station_id":"THB","i_lat":-6.185545,"time":6,"line":1},{"station_name":"Duri","transit":false,"i_long":106.800832,"line":1,"station_id":"DU","i_lat":-6.155215,"is_transit":false,"time":8,"distance":3632},{"i_long":106.79867,"is_transit":false,"distance":1230,"station_name":"Angke","station_id":"AK","i_lat":-6.144674,"line":1,"transit":false,"time":4},{"station_id":"KPB","line":4,"time":9,"i_long":106.826365,"distance":4102,"i_lat":-6.132549,"is_transit":true,"transit":true,"station_name":"Kampung Bandan"},{"i_lat":-6.137569,"time":3,"line":2,"station_name":"Jakarta Kota","station_id":"JAKK","is_transit":true,"distance":1364,"i_long":106.812439,"transit":true},{"time":4,"station_id":"JAY","transit":false,"station_name":"Jayakarta","i_long":106.820901,"line":2,"i_lat":-6.141205,"distance":1264,"is_transit":false},{"time":2,"i_long":106.82482,"line":2,"station_id":"MGB","transit":false,"is_transit":false,"distance":1080,"i_lat":-6.149769,"station_name":"Manggabesar"},{"i_lat":-6.160725,"station_name":"Sawah Besar","time":2,"distance":906,"line":2,"is_transit":false,"i_long":106.827103,"station_id":"SW","transit":false}],[{"i_long":106.508482,"time":0,"transit":false,"station_id":"CJT","line":3,"is_transit":false,"distance":0,"i_lat":-6.354349,"station_name":"Cilejit"},{"station_id":"PRP","distance":7025,"line":6,"is_transit":false,"station_name":"Parung Panjang","time":9,"transit":false,"i_lat":-6.3441410000000005,"i_long":106.568863},{"distance":5968,"i_long":106.617853,"is_transit":false,"transit":false,"station_id":"CC","i_lat":-6.329547,"line":3,"station_name":"Cicayur","time":8},{"time":4,"station_id":"CSK","is_transit":false,"line":3,"distance":2519,"i_lat":-6.32484,"station_name":"Cisauk","i_long":106.640411,"transit":false},{"distance":1784,"line":6,"transit":false,"time":4,"station_id":"SRP","station_name":"Serpong","i_lat":-6.319871,"i_long":106.66566,"is_transit":false},{"station_id":"RU","i_long":106.675475,"transit":false,"time":4,"i_lat":-6.314823,"is_transit":false,"distance":2413,"line":6,"station_name":"Rawa Buntu"},{"is_transit":false,"station_name":"Sudimara","i_long":106.712277,"transit":false,"distance":4566,"i_lat":-6.296963,"line":6,"station_id":"SDM","time":6},{"distance":1994,"is_transit":false,"line":6,"time":4,"transit":false,"station_name":"Jurangmangu","i_long":106.728916,"station_id":"JMU","i_lat":-6.288927},{"time":3,"distance":2179,"i_lat":-6.276362,"i_long":106.74273,"station_name":"Pondokranji","line":6,"transit":false,"is_transit":false,"station_id":"PDJ"},{"distance":6218,"line":6,"is_transit":false,"station_id":"KBY","time":8,"i_lat":-6.237242,"i_long":106.780334,"transit":false,"station_name":"Kebayoran"},{"time":7,"i_lat":-6.207404,"i_long":106.79689,"line":6,"distance":3737,"transit":false,"station_id":"PLM","station_name":"Palmerah","is_transit":false},{"i_lat":-6.185545,"line":1,"i_long":106.811091,"station_id":"THB","time":6,"distance":3191,"transit":true,"station_name":"Tanah Abang","is_transit":true},{"distance":2029,"station_name":"Karet","i_lat":-6.20132,"transit":false,"line":1,"station_id":"KAT","is_transit":false,"time":5,"i_long":106.816351},{"transit":false,"line":1,"i_long":106.819881,"i_lat":-6.201433,"station_id":"SUDB","distance":471,"is_transit":false,"time":1,"station_name":"Sudirman Baru"},{"transit":false,"is_transit":false,"distance":280,"station_name":"Sudirman","time":1,"i_long":106.822649,"i_lat":-6.202263,"line":1,"station_id":"SUD"},{"station_name":"Manggarai","is_transit":true,"distance":3186,"line":2,"station_id":"MRI","transit":true,"i_lat":-6.209883,"i_long":106.84912,"time":4},{"i_long":106.840169,"distance":1590,"transit":false,"time":4,"station_id":"CKI","line":2,"station_name":"Cikini","i_lat":-6.198556,"is_transit":false},{"line":2,"is_transit":false,"time":3,"transit":false,"distance":1750,"station_name":"Gondangdia","station_id":"GDD","i_long":106.832183,"i_lat":-6.186295},{"distance":2015,"station_name":"Juanda","line":2,"station_id":"JUA","i_lat":-6.166716,"is_transit":false,"i_long":106.828284,"transit":false,"time":4},{"transit":false,"time":2,"i_long":106.827103,"i_lat":-6.160725,"is_transit":false,"station_name":"Sawah Besar","line":2,"station_id":"SW","distance":1149}],[{"line":3,"station_id":"CJT","transit":false,"i_lat":-6.354349,"is_transit":false,"time":0,"distance":0,"i_long":106.508482,"station_name":"Cilejit"},{"i_lat":-6.3441410000000005,"transit":false,"station_name":"Parung Panjang","distance":7025,"time":9,"station_id":"PRP","is_transit":false,"i_long":106.568863,"line":6},{"is_transit":false,"station_name":"Cicayur","i_lat":-6.329547,"i_long":106.617853,"line":3,"distance":5968,"transit":false,"time":8,"station_id":"CC"},{"distance":2519,"i_long":106.640411,"is_transit":false,"time":4,"station_name":"Cisauk","line":3,"station_id":"CSK","i_lat":-6.32484,"transit":false},{"station_name":"Serpong","station_id":"SRP","time":4,"distance":1784,"transit":false,"is_transit":false,"line":6,"i_lat":-6.319871,"i_long":106.66566},{"station_name":"Rawa Buntu","station_id":"RU","i_lat":-6.314823,"i_long":106.675475,"line":6,"distance":2413,"transit":false,"is_transit":false,"time":4},{"station_name":"Sudimara","i_lat":-6.296963,"transit":false,"time":6,"i_long":106.712277,"station_id":"SDM","line":6,"is_transit":false,"distance":4566},{"is_transit":false,"transit":false,"time":4,"i_lat":-6.288927,"distance":1994,"station_id":"JMU","line":6,"station_name":"Jurangmangu","i_long":106.728916},{"time":3,"line":6,"is_transit":false,"transit":false,"distance":2179,"i_lat":-6.276362,"station_id":"PDJ","i_long":106.74273,"station_name":"Pondokranji"},{"station_name":"Kebayoran","line":6,"transit":false,"time":8,"i_long":106.780334,"is_transit":false,"distance":6218,"station_id":"KBY","i_lat":-6.237242},{"line":6,"transit":false,"station_name":"Palmerah","is_transit":false,"time":7,"distance":3737,"i_lat":-6.207404,"i_long":106.79689,"station_id":"PLM"},{"station_id":"THB","station_name":"Tanah Abang","i_long":106.811091,"transit":true,"is_transit":true,"i_lat":-6.185545,"time":6,"distance":3191,"line":1},{"distance":3632,"is_transit":false,"transit":false,"i_lat":-6.155215,"station_name":"Duri","time":8,"station_id":"DU","i_long":106.800832,"line":1},{"transit":false,"i_lat":-6.144674,"line":1,"station_name":"Angke","station_id":"AK","time":4,"i_long":106.79867,"is_transit":false,"distance":1230},{"is_transit":true,"station_name":"Kampung Bandan","line":4,"station_id":"KPB","transit":true,"distance":4102,"time":9,"i_lat":-6.132549,"i_long":106.826365},{"station_id":"RJW","i_long":106.836569,"line":11,"transit":false,"station_name":"Rajawali","is_transit":false,"time":3,"distance":1444,"i_lat":-6.14505},{"station_name":"Kemayoran","is_transit":false,"station_id":"KMO","line":11,"time":5,"i_long":106.839204,"transit":false,"i_lat":-6.161728,"distance":1901},{"i_lat":-6.174784,"line":11,"station_name":"Pasar Senen","distance":1436,"station_id":"PSE","i_long":106.84368,"is_transit":false,"time":4,"transit":false},{"transit":false,"station_name":"Gang Sentiong","i_lat":-6.185975,"line":11,"is_transit":false,"distance":1567,"station_id":"GST","i_long":106.850107,"time":8},{"is_transit":false,"distance":973,"i_long":106.855437,"line":11,"transit":false,"station_id":"KMT","time":1,"i_lat":-6.193792,"station_name":"Kramat"},{"station_id":"POK","i_lat":-6.209188,"station_name":"Pondok Jati","i_long":106.861737,"is_transit":false,"transit":false,"line":11,"time":2,"distance":1829},{"station_name":"Jatinegara","transit":true,"station_id":"JNG","i_long":106.86807400000001,"distance":1236,"line":1,"is_transit":true,"time":9,"i_lat":-6.215091},{"station_id":"MTR","time":2,"is_transit":false,"transit":false,"distance":1377,"i_long":106.858896,"line":1,"i_lat":-6.212485,"station_name":"Matraman"},{"station_name":"Manggarai","i_long":106.84912,"time":2,"line":2,"is_transit":true,"distance":1275,"i_lat":-6.209883,"transit":true,"station_id":"MRI"},{"distance":1590,"time":4,"station_name":"Cikini","is_transit":false,"station_id":"CKI","transit":false,"line":2,"i_long":106.840169,"i_lat":-6.198556},{"is_transit":false,"station_id":"GDD","station_name":"Gondangdia","distance":1750,"i_long":106.832183,"transit":false,"time":3,"i_lat":-6.186295,"line":2},{"time":4,"transit":false,"distance":2015,"i_long":106.828284,"line":2,"station_name":"Juanda","is_transit":false,"station_id":"JUA","i_lat":-6.166716},{"station_id":"SW","i_lat":-6.160725,"transit":false,"station_name":"Sawah Besar","line":2,"time":2,"is_transit":false,"distance":1149,"i_long":106.827103}],[{"station_name":"Cilejit","station_id":"CJT","transit":false,"is_transit":false,"distance":0,"i_lat":-6.354349,"i_long":106.508482,"time":0,"line":3},{"distance":7025,"i_lat":-6.3441410000000005,"is_transit":false,"transit":false,"line":6,"station_name":"Parung Panjang","i_long":106.568863,"station_id":"PRP","time":9},{"distance":5968,"i_lat":-6.329547,"transit":false,"is_transit":false,"station_name":"Cicayur","station_id":"CC","time":8,"i_long":106.617853,"line":3},{"i_long":106.640411,"transit":false,"station_name":"Cisauk","is_transit":false,"station_id":"CSK","i_lat":-6.32484,"time":4,"line":3,"distance":2519},{"line":6,"i_lat":-6.319871,"i_long":106.66566,"station_name":"Serpong","distance":1784,"station_id":"SRP","transit":false,"is_transit":false,"time":4},{"time":4,"transit":false,"is_transit":false,"station_id":"RU","distance":2413,"i_long":106.675475,"i_lat":-6.314823,"line":6,"station_name":"Rawa Buntu"},{"time":6,"transit":false,"is_transit":false,"distance":4566,"station_name":"Sudimara","station_id":"SDM","i_long":106.712277,"line":6,"i_lat":-6.296963},{"i_long":106.728916,"station_id":"JMU","line":6,"is_transit":false,"transit":false,"time":4,"i_lat":-6.288927,"distance":1994,"station_name":"Jurangmangu"},{"i_long":106.74273,"i_lat":-6.276362,"line":6,"is_transit":false,"distance":2179,"time":3,"station_id":"PDJ","station_name":"Pondokranji","transit":false},{"i_long":106.780334,"line":6,"transit":false,"station_name":"Kebayoran","time":8,"is_transit":false,"i_lat":-6.237242,"station_id":"KBY","distance":6218},{"is_transit":false,"time":7,"i_lat":-6.207404,"distance":3737,"line":6,"station_id":"PLM","transit":false,"station_name":"Palmerah","i_long":106.79689},{"distance":3191,"station_id":"THB","is_transit":true,"transit":true,"i_lat":-6.185545,"line":1,"station_name":"Tanah Abang","time":6,"i_long":106.811091},{"transit":false,"i_lat":-6.20132,"station_name":"Karet","i_long":106.816351,"distance":2029,"station_id":"KAT","line":1,"is_transit":false,"time":5},{"i_long":106.819881,"station_name":"Sudirman Baru","transit":false,"is_transit":false,"station_id":"SUDB","distance":471,"time":1,"i_lat":-6.201433,"line":1},{"transit":false,"is_transit":false,"i_lat":-6.202263,"distance":280,"station_id":"SUD","station_name":"Sudirman","line":1,"i_long":106.822649,"time":1},{"i_long":106.84912,"transit":false,"station_name":"Manggarai","distance":3186,"is_transit":false,"station_id":"MRI","i_lat":-6.209883,"line":2,"time":4},{"distance":1275,"i_long":106.858896,"station_name":"Matraman","time":2,"station_id":"MTR","i_lat":-6.212485,"transit":false,"is_transit":false,"line":1},{"transit":true,"line":1,"station_name":"Jatinegara","distance":1377,"time":8,"i_lat":-6.215091,"i_long":106.86807400000001,"station_id":"JNG","is_transit":true},{"time":2,"distance":1236,"i_lat":-6.209188,"is_transit":false,"station_name":"Pondok Jati","transit":false,"line":11,"i_long":106.861737,"station_id":"POK"},{"is_transit":false,"distance":1829,"line":11,"time":2,"i_long":106.855437,"station_name":"Kramat","i_lat":-6.193792,"transit":false,"station_id":"KMT"},{"is_transit":false,"station_id":"GST","line":11,"transit":false,"time":1,"i_lat":-6.185975,"i_long":106.850107,"station_name":"Gang Sentiong","distance":973},{"distance":1567,"time":8,"transit":false,"is_transit":false,"i_long":106.84368,"line":11,"i_lat":-6.174784,"station_name":"Pasar Senen","station_id":"PSE"},{"station_name":"Kemayoran","distance":1436,"transit":false,"i_lat":-6.161728,"i_long":106.839204,"is_transit":false,"time":4,"station_id":"KMO","line":11},{"line":11,"time":5,"station_id":"RJW","is_transit":false,"i_lat":-6.14505,"distance":1901,"i_long":106.836569,"station_name":"Rajawali","transit":false},{"distance":1444,"line":4,"time":3,"station_name":"Kampung Bandan","station_id":"KPB","is_transit":true,"i_lat":-6.132549,"i_long":106.826365,"transit":true},{"station_name":"Jakarta Kota","transit":true,"is_transit":true,"distance":1364,"station_id":"JAKK","time":3,"i_long":106.812439,"line":2,"i_lat":-6.137569},{"station_name":"Jayakarta","distance":1264,"i_long":106.820901,"i_lat":-6.141205,"line":2,"station_id":"JAY","time":4,"transit":false,"is_transit":false},{"station_id":"MGB","i_lat":-6.149769,"distance":1080,"transit":false,"station_name":"Manggabesar","line":2,"i_long":106.82482,"is_transit":false,"time":2},{"station_id":"SW","station_name":"Sawah Besar","line":2,"i_long":106.827103,"distance":906,"time":2,"transit":false,"i_lat":-6.160725,"is_transit":false}]]}