{"data":[[{"i_lat":-6.354349,"transit":false,"station_name":"Cilejit","station_id":"CJT","line":3,"time":0,"i_long":106.508482,"is_transit":false,"distance":0},{"time":9,"transit":false,"line":6,"is_transit":false,"station_name":"Parung Panjang","distance":7025,"i_lat":-6.3441410000000005,"i_long":106.568863,"station_id":"PRP"},{"transit":false,"station_id":"CC","i_lat":-6.329547,"i_long":106.617853,"distance":5968,"line":3,"is_transit":false,"station_name":"Cicayur","time":8},{"station_id":"CSK","is_transit":false,"time":4,"distance":2519,"i_lat":-6.32484,"i_long":106.640411,"transit":false,"line":3,"station_name":"Cisauk"},{"transit":false,"line":6,"i_long":106.66566,"i_lat":-6.319871,"station_name":"Serpong","is_transit":false,"distance":1784,"time":4,"station_id":"SRP"},{"station_name":"Rawa Buntu","i_lat":-6.314823,"transit":false,"is_transit":false,"time":4,"line":6,"i_long":106.675475,"distance":2413,"station_id":"RU"},{"transit":false,"i_lat":-6.296963,"distance":4566,"time":6,"is_transit":false,"station_name":"Sudimara","i_long":106.712277,"line":6,"station_id":"SDM"},{"distance":1994,"i_lat":-6.288927,"station_id":"JMU","time":4,"transit":false,"is_transit":false,"line":6,"station_name":"Jurangmangu","i_long":106.728916},{"i_lat":-6.276362,"station_name":"Pondokranji","time":3,"distance":2179,"is_transit":false,"transit":false,"line":6,"station_id":"PDJ","i_long":106.74273},{"distance":6218,"line":6,"i_long":106.780334,"is_transit":false,"station_name":"Kebayoran","transit":false,"i_lat":-6.237242,"station_id":"KBY","time":8},{"distance":3737,"time":7,"line":6,"station_name":"Palmerah","transit":false,"i_long":106.79689,"i_lat":-6.207404,"station_id":"PLM","is_transit":false},{"line":1,"transit":true,"is_transit":true,"station_id":"THB","time":6,"station_name":"Tanah Abang","i_long":106.811091,"i_lat":-6.185545,"distance":3191},{"distance":3632,"transit":true,"station_name":"Duri","is_transit":true,"time":8,"station_id":"DU","i_lat":-6.155215,"line":1,"i_long":106.800832},{"station_name":"Grogol","is_transit":false,"transit":false,"distance":1700,"time":3,"station_id":"GGL","i_lat":-6.162021,"line":5,"i_long":106.788277},{"station_id":"PSG","line":5,"i_lat":-6.161433,"time":2,"distance":2036,"is_transit":false,"station_name":"Pesing","i_long":106.771379,"transit":false},{"station_name":"Taman Kota","time":2,"i_lat":-6.1587309999999995,"i_long":106.756522,"is_transit":false,"station_id":"TKO","transit":false,"distance":1614,"line":5},{"station_name":"Bojongindah","is_transit":false,"i_lat":-6.159876,"i_long":106.737035,"line":5,"time":2,"transit":false,"distance":2334,"station_id":"BOI"},{"time":4,"line":5,"station_name":"Rawa Buaya","distance":1152,"is_transit":false,"station_id":"RW","i_lat":-6.162758,"i_long":106.723064,"transit":false},{"distance":2504,"time":3,"line":5,"i_long":106.701612,"station_name":"Kalideres","station_id":"KDS","i_lat":-6.166068,"transit":false,"is_transit":false},{"station_name":"Poris","is_transit":false,"time":3,"line":5,"distance":2548,"i_long":106.679458,"transit":false,"station_id":"PI","i_lat":-6.169933}],[{"i_long":106.508482,"station_id":"CJT","line":3,"distance":0,"transit":false,"i_lat":-6.354349,"station_name":"Cilejit","time":0,"is_transit":false},{"distance":7025,"line":6,"station_id":"PRP","station_name":"Parung Panjang","time":9,"i_long":106.568863,"i_lat":-6.3441410000000005,"transit":false,"is_transit":false},{"transit":false,"distance":5968,"time":8,"is_transit":false,"station_id":"CC","i_long":106.617853,"line":3,"i_lat":-6.329547,"station_name":"Cicayur"},{"time":4,"is_transit":false,"distance":2519,"station_id":"CSK","station_name":"Cisauk","transit":false,"i_lat":-6.32484,"i_long":106.640411,"line":3},{"station_name":"Serpong","transit":false,"i_long":106.66566,"is_transit":false,"line":6,"i_lat":-6.319871,"station_id":"SRP","time":4,"distance":1784},{"time":4,"i_lat":-6.314823,"i_long":106.675475,"transit":false,"is_transit":false,"station_id":"RU","station_name":"Rawa Buntu","distance":2413,"line":6},{"i_lat":-6.296963,"line":6,"i_long":106.712277,"distance":4566,"transit":false,"is_transit":false,"station_name":"Sudimara","time":6,"station_id":"SDM"},{"i_long":106.728916,"line":6,"transit":false,"station_id":"JMU","time":4,"station_name":"Jurangmangu","distance":1994,"is_transit":false,"i_lat":-6.288927},{"i_lat":-6.276362,"time":3,"i_long":106.74273,"station_name":"Pondokranji","is_transit":false,"line":6,"distance":2179,"transit":false,"station_id":"PDJ"},{"transit":false,"station_name":"Kebayoran","distance":6218,"time":8,"line":6,"station_id":"KBY","i_long":106.780334,"is_transit":false,"i_lat":-6.237242},{"time":7,"i_lat":-6.207404,"transit":false,"i_long":106.79689,"is_transit":false,"line":6,"station_id":"PLM","distance":3737,"station_name":"Palmerah"},{"time":6,"station_id":"THB","station_name":"Tanah Abang","line":1,"i_lat":-6.185545,"i_long":106.811091,"distance":3191,"is_transit":true,"transit":true},{"station_name":"Karet","is_transit":false,"i_long":106.816351,"time":5,"i_lat":-6.20132,"station_id":"KAT","line":1,"distance":2029,"transit":false},{"time":1,"transit":false,"station_id":"SUDB","station_name":"Sudirman Baru","distance":471,"is_transit":false,"i_lat":-6.201433,"i_long":106.819881,"line":1},{"distance":280,"transit":false,"line":1,"time":1,"is_transit":false,"station_name":"Sudirman","station_id":"SUD","i_lat":-6.202263,"i_long":106.822649},{"time":4,"line":2,"station_name":"Manggarai","is_transit":true,"i_long":106.84912,"distance":3186,"i_lat":-6.209883,"transit":true,"station_id":"MRI"},{"transit":false,"i_lat":-6.198556,"line":2,"station_name":"Cikini","station_id":"CKI","distance":1590,"is_transit":false,"time":4,"i_long":106.840169},{"distance":1750,"line":2,"station_name":"Gondangdia","station_id":"GDD","i_lat":-6.186295,"i_long":106.832183,"is_transit":false,"time":3,"transit":false},{"is_transit":false,"time":4,"transit":false,"station_id":"JUA","distance":2015,"station_name":"Juanda","i_lat":-6.166716,"line":2,"i_long":106.828284},{"i_long":106.827103,"line":2,"is_transit":false,"i_lat":-6.160725,"distance":1149,"time":2,"transit":false,"station_id":"SW","station_name":"Sawah Besar"},{"station_name":"Manggabesar","distance":906,"time":2,"transit":false,"is_transit":false,"i_lat":-6.149769,"line":2,"i_long":106.82482,"station_id":"MGB"},{"distance":1080,"transit":false,"station_id":"JAY","time":2,"station_name":"Jayakarta","is_transit":false,"i_lat":-6.141205,"line":2,"i_long":106.820901},{"i_lat":-6.137569,"is_transit":true,"station_id":"JAKK","distance":1264,"i_long":106.812439,"time":4,"station_name":"Jakarta Kota","transit":true,"line":2},{"station_name":"Kampung Bandan","i_lat":-6.132549,"i_long":106.826365,"line":4,"time":3,"is_transit":true,"distance":1364,"transit":true,"station_id":"KPB"},{"i_lat":-6.144674,"station_id":"AK","i_long":106.79867,"is_transit":false,"transit":false,"time":9,"station_name":"Angke","distance":4102,"line":1},{"time":4,"transit":true,"station_id":"DU","station_name":"Duri","i_lat":-6.155215,"is_transit":true,"i_long":106.800832,"distance":1230,"line":1},{"station_name":"Grogol","time":3,"transit":false,"is_transit":false,"i_long":106.788277,"i_lat":-6.162021,"distance":1700,"station_id":"GGL","line":5},{"is_transit":false,"distance":2036,"station_id":"PSG","station_name":"Pesing","i_lat":-6.161433,"i_long":106.771379,"transit":false,"line":5,"time":2},{"i_long":106.756522,"time":2,"transit":false,"i_lat":-6.1587309999999995,"distance":1614,"line":5,"is_transit":false,"station_name":"Taman Kota","station_id":"TKO"},{"time":2,"i_lat":-6.159876,"is_transit":false,"station_id":"BOI","i_long":106.737035,"distance":2334,"line":5,"station_name":"Bojongindah","transit":false},{"line":5,"i_long":106.723064,"time":4,"is_transit":false,"i_lat":-6.162758,"distance":1152,"transit":false,"station_id":"RW","station_name":"Rawa Buaya"},{"i_lat":-6.166068,"station_name":"Kalideres","time":3,"is_transit":false,"i_long":106.701612,"station_id":"KDS","line":5,"transit":false,"distance":2504},{"station_name":"Poris","time":3,"i_lat":-6.169933,"station_id":"PI","transit":false,"distance":2548,"line":5,"i_long":106.679458,"is_transit":false}],[{"station_id":"CJT","line":3,"i_long":106.508482,"distance":0,"time":0,"transit":false,"station_name":"Cilejit","is_transit":false,"i_lat":-6.354349},{"station_id":"PRP","station_name":"Parung Panjang","i_lat":-6.3441410000000005,"is_transit":false,"line":6,"i_long":106.568863,"distance":7025,"time":9,"transit":false},{"i_lat":-6.329547,"station_name":"Cicayur","is_transit":false,"station_id":"CC","line":3,"transit":false,"i_long":106.617853,"time":8,"distance":5968},{"transit":false,"time":4,"line":3,"distance":2519,"station_name":"Cisauk","station_id":"CSK","i_long":106.640411,"is_transit":false,"i_lat":-6.32484},{"transit":false,"distance":1784,"line":6,"time":4,"station_name":"Serpong","is_transit":false,"i_lat":-6.319871,"i_long":106.66566,"station_id":"SRP"},{"i_lat":-6.314823,"transit":false,"distance":2413,"time":4,"station_name":"Rawa Buntu","i_long":106.675475,"line":6,"station_id":"RU","is_transit":false},{"is_transit":false,"distance":4566,"i_long":106.712277,"line":6,"transit":false,"station_name":"Sudimara","time":6,"i_lat":-6.296963,"station_id":"SDM"},{"line":6,"station_id":"JMU","time":4,"station_name":"Jurangmangu","distance":1994,"i_lat":-6.288927,"i_long":106.728916,"transit":false,"is_transit":false},{"station_id":"PDJ","distance":2179,"is_transit":false,"transit":false,"i_lat":-6.276362,"station_name":"Pondokranji","line":6,"i_long":106.74273,"time":3},{"line":6,"time":8,"station_name":"Kebayoran","is_transit":false,"transit":false,"i_lat":-6.237242,"station_id":"KBY","distance":6218,"i_long":106.780334},{"i_long":106.79689,"is_transit":false,"time":7,"transit":false,"line":6,"station_id":"PLM","station_name":"Palmerah","distance":3737,"i_lat":-6.207404},{"station_id":"THB","station_name":"Tanah Abang","time":6,"is_transit":true,"i_lat":-6.185545,"transit":true,"line":1,"i_long":106.811091,"distance":3191},{"distance":2029,"station_id":"KAT","is_transit":false,"station_name":"Karet","i_lat":-6.20132,"line":1,"time":5,"transit":false,"i_long":106.816351},{"time":1,"transit":false,"is_transit":false,"station_id":"SUDB","line":1,"station_name":"Sudirman Baru","i_lat":-6.201433,"i_long":106.819881,"distance":471},{"station_name":"Sudirman","i_lat":-6.202263,"is_transit":false,"distance":280,"line":1,"time":1,"station_id":"SUD","i_long":106.822649,"transit":false},{"time":4,"transit":false,"station_name":"Manggarai","i_lat":-6.209883,"is_transit":false,"station_id":"MRI","line":2,"i_long":106.84912,"distance":3186},{"i_lat":-6.212485,"transit":false,"time":2,"line":1,"i_long":106.858896,"is_transit":false,"station_id":"MTR","distance":1275,"station_name":"Matraman"},{"line":1,"transit":true,"station_name":"Jatinegara","i_long":106.86807400000001,"is_transit":true,"time":8,"distance":1377,"i_lat":-6.215091,"station_id":"JNG"},{"time":2,"station_name":"Pondok Jati","line":11,"is_transit":false,"station_id":"POK","i_long":106.861737,"i_lat":-6.209188,"distance":1236,"transit":false},{"time":2,"is_transit":false,"station_name":"Kramat","i_lat":-6.193792,"i_long":106.855437,"line":11,"station_id":"KMT","distance":1829,"transit":false},{"i_long":106.850107,"i_lat":-6.185975,"is_transit":false,"time":1,"station_id":"GST","distance":973,"transit":false,"line":11,"station_name":"Gang Sentiong"},{"line":11,"station_name":"Pasar Senen","i_lat":-6.174784,"is_transit":false,"transit":false,"distance":1567,"i_long":106.84368,"time":8,"station_id":"PSE"},{"is_transit":false,"distance":1436,"station_id":"KMO","i_long":106.839204,"i_lat":-6.161728,"transit":false,"station_name":"Kemayoran","line":11,"time":4},{"is_transit":false,"station_id":"RJW","distance":1901,"station_name":"Rajawali","transit":false,"i_long":106.836569,"time":5,"i_lat":-6.14505,"line":11},{"distance":1444,"transit":true,"station_name":"Kampung Bandan","i_lat":-6.132549,"i_long":106.826365,"line":4,"is_transit":true,"station_id":"KPB","time":3},{"distance":4102,"i_long":106.79867,"time":9,"line":1,"transit":false,"is_transit":false,"station_id":"AK","station_name":"Angke","i_lat":-6.144674},{"time":4,"i_long":106.800832,"distance":1230,"is_transit":true,"station_name":"Duri","line":1,"station_id":"DU","transit":true,"i_lat":-6.155215},{"time":3,"is_transit":false,"distance":1700,"station_name":"Grogol","line":5,"station_id":"GGL","i_lat":-6.162021,"i_long":106.788277,"transit":false},{"station_id":"PSG","is_transit":false,"station_name":"Pesing","transit":false,"time":2,"distance":2036,"i_lat":-6.161433,"i_long":106.771379,"line":5},{"transit":false,"time":2,"i_long":106.756522,"is_transit":false,"distance":1614,"station_id":"TKO","i_lat":-6.1587309999999995,"station_name":"Taman Kota","line":5},{"distance":2334,"station_name":"Bojongindah","line":5,"time":2,"i_lat":-6.159876,"transit":false,"is_transit":false,"station_id":"BOI","i_long":106.737035},{"station_id":"RW","distance":1152,"transit":false,"station_name":"Rawa Buaya","i_lat":-6.162758,"is_transit":false,"time":4,"i_long":106.723064,"line":5},{"time":3,"i_lat":-6.166068,"i_long":106.701612,"station_id":"KDS","transit":false,"distance":2504,"station_name":"Kalideres","line":5,"is_transit":false},{"i_lat":-6.169933,"i_long":106.679458,"station_name":"Poris","station_id":"PI","is_transit":false,"transit":false,"line":5,"time":3,"distance":2548}]]}