{"data":[[{"is_transit":false,"time":0,"distance":0,"station_id":"CJT","i_lat":-6.354349,"line":0,"i_long":106.508482,"station_name":"Cilejit","transit":false},{"i_lat":-6.3441410000000005,"is_transit":false,"station_id":"PRP","station_name":"Parung Panjang","i_long":106.568863,"line":6,"distance":7025,"time":9,"transit":false},{"i_lat":-6.329547,"station_id":"CC","is_transit":false,"distance":5968,"station_name":"Cicayur","i_long":106.617853,"line":0,"transit":false,"time":8},{"station_name":"Cisauk","time":4,"station_id":"CSK","distance":2519,"transit":false,"line":0,"is_transit":false,"i_lat":-6.32484,"i_long":106.640411},{"station_name":"Serpong","i_lat":-6.319871,"is_transit":false,"transit":false,"station_id":"SRP","i_long":106.66566,"line":6,"distance":1784,"time":4},{"i_long":106.675475,"station_name":"Rawa Buntu","is_transit":false,"time":4,"distance":2413,"station_id":"RU","i_lat":-6.314823,"transit":false,"line":6},{"i_lat":-6.296963,"line":6,"station_id":"SDM","is_transit":false,"station_name":"Sudimara","i_long":106.712277,"time":6,"distance":4566,"transit":false},{"station_id":"JMU","distance":1994,"station_name":"Jurangmangu","transit":false,"i_lat":-6.288927,"line":6,"time":4,"i_long":106.728916,"is_transit":false},{"station_name":"Pondokranji","station_id":"PDJ","transit":false,"time":3,"i_lat":-6.276362,"i_long":106.74273,"is_transit":false,"line":6,"distance":2179},{"station_name":"Kebayoran","is_transit":false,"time":8,"transit":false,"station_id":"KBY","i_long":106.780334,"i_lat":-6.237242,"line":6,"distance":6218},{"station_name":"Palmerah","i_lat":-6.207404,"transit":false,"distance":3737,"time":7,"is_transit":false,"i_long":106.79689,"station_id":"PLM","line":6},{"time":6,"line":1,"i_long":106.811091,"station_id":"THB","is_transit":true,"i_lat":-6.185545,"distance":3191,"station_name":"Tanah Abang","transit":true},{"is_transit":false,"station_name":"Karet","station_id":"KAT","i_lat":-6.20132,"transit":false,"i_long":106.816351,"time":5,"distance":2029,"line":1},{"i_lat":-6.201433,"i_long":106.819881,"station_name":"Sudirman Baru","line":1,"station_id":"SUDB","time":1,"distance":471,"is_transit":false,"transit":false},{"line":1,"is_transit":false,"station_id":"SUD","transit":false,"station_name":"Sudirman","i_long":106.822649,"distance":280,"time":1,"i_lat":-6.202263},{"time":4,"station_name":"Manggarai","distance":3186,"line":0,"is_transit":true,"i_long":106.84912,"i_lat":-6.209883,"station_id":"MRI","transit":false},{"station_id":"MTR","i_long":106.858896,"transit":false,"station_name":"Matraman","is_transit":false,"time":2,"i_lat":-6.212485,"line":1,"distance":1275},{"transit":false,"station_name":"Jatinegara","i_lat":-6.215091,"time":8,"line":0,"distance":1377,"i_long":106.86807400000001,"is_transit":true,"station_id":"JNG"},{"station_name":"Klender","time":3,"i_long":106.899548,"line":1,"transit":false,"station_id":"KLD","is_transit":false,"distance":3395,"i_lat":-6.2135},{"transit":false,"i_long":106.922662,"line":0,"distance":3100,"time":2,"is_transit":false,"station_id":"BUA","station_name":"Buaran","i_lat":-6.215568},{"is_transit":false,"i_lat":-6.217455,"transit":false,"station_name":"Klenderbaru","i_long":106.939679,"line":1,"station_id":"KLDB","time":1,"distance":1305},{"is_transit":false,"distance":1385,"i_long":106.951283,"station_id":"CUK","i_lat":-6.219053,"time":8,"station_name":"Cakung","transit":false,"line":0},{"is_transit":false,"station_name":"Kranji","line":1,"time":3,"station_id":"KRI","distance":3097,"i_lat":-6.224515,"transit":false,"i_long":106.977657},{"i_long":106.997013,"station_id":"BKS","station_name":"Bekasi","distance":2520,"is_transit":false,"transit":false,"line":0,"i_lat":-6.236616,"time":4}],[{"line":0,"distance":0,"is_transit":false,"transit":false,"station_id":"CJT","i_long":106.508482,"station_name":"Cilejit","time":0,"i_lat":-6.354349},{"i_long":106.568863,"is_transit":false,"station_id":"PRP","distance":7025,"station_name":"Parung Panjang","time":9,"i_lat":-6.3441410000000005,"transit":false,"line":6},{"i_lat":-6.329547,"i_long":106.617853,"is_transit":false,"station_id":"CC","line":0,"station_name":"Cicayur","time":8,"distance":5968,"transit":false},{"i_long":106.640411,"line":0,"time":4,"station_name":"Cisauk","transit":false,"i_lat":-6.32484,"station_id":"CSK","is_transit":false,"distance":2519},{"distance":1784,"i_long":106.66566,"line":6,"is_transit":false,"transit":false,"station_name":"Serpong","station_id":"SRP","time":4,"i_lat":-6.319871},{"station_id":"RU","line":6,"time":4,"station_name":"Rawa Buntu","transit":false,"is_transit":false,"i_long":106.675475,"i_lat":-6.314823,"distance":2413},{"i_long":106.712277,"line":6,"i_lat":-6.296963,"station_name":"Sudimara","transit":false,"station_id":"SDM","is_transit":false,"distance":4566,"time":6},{"station_name":"Jurangmangu","i_lat":-6.288927,"station_id":"JMU","time":4,"is_transit":false,"i_long":106.728916,"distance":1994,"transit":false,"line":6},{"i_lat":-6.276362,"time":3,"transit":false,"is_transit":false,"station_name":"Pondokranji","line":6,"station_id":"PDJ","distance":2179,"i_long":106.74273},{"station_name":"Kebayoran","transit":false,"station_id":"KBY","is_transit":false,"distance":6218,"time":8,"line":6,"i_long":106.780334,"i_lat":-6.237242},{"distance":3737,"transit":false,"station_id":"PLM","time":7,"line":6,"i_long":106.79689,"i_lat":-6.207404,"is_transit":false,"station_name":"Palmerah"},{"transit":true,"line":1,"i_lat":-6.185545,"station_id":"THB","station_name":"Tanah Abang","time":6,"is_transit":true,"distance":3191,"i_long":106.811091},{"i_long":106.800832,"is_transit":true,"line":1,"station_id":"DU","station_name":"Duri","time":8,"distance":3632,"transit":true,"i_lat":-6.155215},{"time":4,"transit":false,"line":0,"is_transit":false,"distance":1230,"i_lat":-6.144674,"i_long":106.79867,"station_id":"AK","station_name":"Angke"},{"line":0,"i_lat":-6.132549,"is_transit":true,"transit":true,"station_name":"Kampung Bandan","distance":4102,"time":9,"i_long":106.826365,"station_id":"KPB"},{"station_id":"RJW","i_lat":-6.14505,"i_long":106.836569,"time":3,"line":11,"transit":false,"is_transit":false,"distance":1444,"station_name":"Rajawali"},{"station_id":"KMO","distance":1901,"i_long":106.839204,"transit":false,"line":11,"is_transit":false,"i_lat":-6.161728,"time":5,"station_name":"Kemayoran"},{"time":4,"is_transit":false,"transit":false,"i_long":106.84368,"station_name":"Pasar Senen","i_lat":-6.174784,"line":11,"station_id":"PSE","distance":1436},{"distance":1567,"is_transit":false,"time":8,"transit":false,"station_name":"Gang Sentiong","i_lat":-6.185975,"i_long":106.850107,"station_id":"GST","line":11},{"i_lat":-6.193792,"station_id":"KMT","line":11,"i_long":106.855437,"distance":973,"station_name":"Kramat","is_transit":false,"transit":false,"time":1},{"time":2,"station_name":"Pondok Jati","transit":false,"is_transit":false,"distance":1829,"i_lat":-6.209188,"station_id":"POK","line":11,"i_long":106.861737},{"station_id":"JNG","line":0,"is_transit":true,"time":9,"distance":1236,"station_name":"Jatinegara","transit":true,"i_lat":-6.215091,"i_long":106.86807400000001},{"i_lat":-6.2135,"transit":false,"line":1,"station_id":"KLD","time":3,"station_name":"Klender","i_long":106.899548,"is_transit":false,"distance":3395},{"station_name":"Buaran","i_lat":-6.215568,"station_id":"BUA","distance":3100,"i_long":106.922662,"line":0,"transit":false,"time":2,"is_transit":false},{"i_lat":-6.217455,"line":1,"time":1,"distance":1305,"station_id":"KLDB","station_name":"Klenderbaru","transit":false,"i_long":106.939679,"is_transit":false},{"distance":1385,"i_long":106.951283,"station_id":"CUK","time":8,"station_name":"Cakung","transit":false,"line":0,"is_transit":false,"i_lat":-6.219053},{"i_long":106.977657,"station_name":"Kranji","transit":false,"is_transit":false,"station_id":"KRI","time":3,"line":1,"i_lat":-6.224515,"distance":3097},{"i_long":106.997013,"station_name":"Bekasi","time":4,"i_lat":-6.236616,"line":0,"is_transit":false,"transit":false,"station_id":"BKS","distance":2520}],[{"station_name":"Cilejit","distance":0,"line":0,"transit":false,"i_long":106.508482,"is_transit":false,"i_lat":-6.354349,"station_id":"CJT","time":0},{"time":9,"i_lat":-6.3441410000000005,"station_id":"PRP","distance":7025,"i_long":106.568863,"is_transit":false,"line":6,"transit":false,"station_name":"Parung Panjang"},{"station_name":"Cicayur","distance":5968,"time":8,"i_long":106.617853,"i_lat":-6.329547,"line":0,"station_id":"CC","is_transit":false,"transit":false},{"distance":2519,"i_long":106.640411,"line":0,"transit":false,"station_id":"CSK","i_lat":-6.32484,"time":4,"is_transit":false,"station_name":"Cisauk"},{"time":4,"is_transit":false,"i_long":106.66566,"station_name":"Serpong","distance":1784,"line":6,"transit":false,"station_id":"SRP","i_lat":-6.319871},{"transit":false,"is_transit":false,"time":4,"line":6,"station_id":"RU","distance":2413,"station_name":"Rawa Buntu","i_long":106.675475,"i_lat":-6.314823},{"i_lat":-6.296963,"station_id":"SDM","transit":false,"i_long":106.712277,"station_name":"Sudimara","line":6,"is_transit":false,"time":6,"distance":4566},{"is_transit":false,"time":4,"i_long":106.728916,"distance":1994,"station_name":"Jurangmangu","line":6,"station_id":"JMU","transit":false,"i_lat":-6.288927},{"is_transit":false,"line":6,"distance":2179,"i_lat":-6.276362,"transit":false,"i_long":106.74273,"station_id":"PDJ","time":3,"station_name":"Pondokranji"},{"station_id":"KBY","time":8,"station_name":"Kebayoran","line":6,"is_transit":false,"i_lat":-6.237242,"i_long":106.780334,"distance":6218,"transit":false},{"station_id":"PLM","station_name":"Palmerah","line":6,"transit":false,"is_transit":false,"i_lat":-6.207404,"i_long":106.79689,"time":7,"distance":3737},{"distance":3191,"transit":true,"is_transit":true,"station_id":"THB","i_long":106.811091,"line":1,"station_name":"Tanah Abang","time":6,"i_lat":-6.185545},{"is_transit":true,"distance":3632,"station_id":"DU","i_long":106.800832,"transit":true,"i_lat":-6.155215,"station_name":"Duri","time":8,"line":1},{"is_transit":false,"station_name":"Angke","transit":false,"i_lat":-6.144674,"line":0,"distance":1230,"station_id":"AK","time":4,"i_long":106.79867},{"time":9,"line":0,"transit":false,"station_name":"Kampung Bandan","i_lat":-6.132549,"station_id":"KPB","is_transit":true,"i_long":106.826365,"distance":4102},{"line":0,"is_transit":true,"i_lat":-6.137569,"station_id":"JAKK","transit":true,"time":3,"i_long":106.812439,"distance":1364,"station_name":"Jakarta Kota"},{"is_transit":false,"station_id":"JAY","time":4,"station_name":"Jayakarta","line":7,"transit":false,"i_lat":-6.141205,"distance":1264,"i_long":106.820901},{"is_transit":false,"i_lat":-6.149769,"line":2,"station_id":"MGB","transit":false,"i_long":106.82482,"time":2,"distance":1080,"station_name":"Manggabesar"},{"line":2,"station_name":"Sawah Besar","distance":906,"i_long":106.827103,"station_id":"SW","transit":false,"i_lat":-6.160725,"is_transit":false,"time":2},{"is_transit":false,"distance":1149,"time":2,"i_lat":-6.166716,"line":2,"station_name":"Juanda","i_long":106.828284,"station_id":"JUA","transit":false},{"i_lat":-6.186295,"is_transit":false,"distance":2015,"station_id":"GDD","station_name":"Gondangdia","time":4,"line":2,"i_long":106.832183,"transit":false},{"i_long":106.840169,"line":0,"is_transit":false,"i_lat":-6.198556,"station_name":"Cikini","distance":1750,"station_id":"CKI","time":3,"transit":false},{"is_transit":true,"time":4,"i_lat":-6.209883,"station_id":"MRI","i_long":106.84912,"transit":true,"station_name":"Manggarai","distance":1590,"line":0},{"transit":false,"is_transit":false,"i_lat":-6.212485,"line":1,"time":2,"distance":1275,"station_id":"MTR","i_long":106.858896,"station_name":"Matraman"},{"i_lat":-6.215091,"station_id":"JNG","distance":1377,"transit":false,"time":8,"i_long":106.86807400000001,"station_name":"Jatinegara","line":0,"is_transit":true},{"distance":3395,"is_transit":false,"i_long":106.899548,"line":1,"time":3,"station_name":"Klender","station_id":"KLD","i_lat":-6.2135,"transit":false},{"i_lat":-6.215568,"is_transit":false,"time":2,"distance":3100,"transit":false,"i_long":106.922662,"station_id":"BUA","station_name":"Buaran","line":0},{"station_name":"Klenderbaru","time":1,"transit":false,"i_lat":-6.217455,"i_long":106.939679,"station_id":"KLDB","distance":1305,"line":1,"is_transit":false},{"is_transit":false,"distance":1385,"line":0,"i_long":106.951283,"station_id":"CUK","transit":false,"time":8,"station_name":"Cakung","i_lat":-6.219053},{"is_transit":false,"distance":3097,"transit":false,"i_lat":-6.224515,"station_id":"KRI","station_name":"Kranji","i_long":106.977657,"line":1,"time":3},{"time":4,"transit":false,"is_transit":false,"i_lat":-6.236616,"station_name":"Bekasi","station_id":"BKS","i_long":106.997013,"line":0,"distance":2520}],[{"station_name":"Cilejit","is_transit":false,"time":0,"distance":0,"i_long":106.508482,"transit":false,"station_id":"CJT","i_lat":-6.354349,"line":0},{"time":9,"i_long":106.568863,"i_lat":-6.3441410000000005,"station_name":"Parung Panjang","station_id":"PRP","transit":false,"line":6,"is_transit":false,"distance":7025},{"station_name":"Cicayur","station_id":"CC","time":8,"transit":false,"i_lat":-6.329547,"i_long":106.617853,"line":0,"distance":5968,"is_transit":false},{"station_name":"Cisauk","is_transit":false,"transit":false,"i_lat":-6.32484,"i_long":106.640411,"time":4,"station_id":"CSK","distance":2519,"line":0},{"station_name":"Serpong","time":4,"transit":false,"i_long":106.66566,"line":6,"station_id":"SRP","is_transit":false,"distance":1784,"i_lat":-6.319871},{"is_transit":false,"transit":false,"line":6,"station_name":"Rawa Buntu","time":4,"distance":2413,"i_lat":-6.314823,"station_id":"RU","i_long":106.675475},{"time":6,"i_lat":-6.296963,"transit":false,"i_long":106.712277,"station_name":"Sudimara","is_transit":false,"distance":4566,"station_id":"SDM","line":6},{"distance":1994,"transit":false,"i_lat":-6.288927,"station_name":"Jurangmangu","is_transit":false,"line":6,"i_long":106.728916,"station_id":"JMU","time":4},{"time":3,"transit":false,"distance":2179,"i_long":106.74273,"is_transit":false,"line":6,"station_id":"PDJ","station_name":"Pondokranji","i_lat":-6.276362},{"is_transit":false,"station_id":"KBY","i_lat":-6.237242,"time":8,"distance":6218,"station_name":"Kebayoran","i_long":106.780334,"line":6,"transit":false},{"station_name":"Palmerah","station_id":"PLM","transit":false,"distance":3737,"is_transit":false,"i_lat":-6.207404,"i_long":106.79689,"time":7,"line":6},{"line":1,"distance":3191,"i_long":106.811091,"station_id":"THB","station_name":"Tanah Abang","is_transit":true,"transit":true,"i_lat":-6.185545,"time":6},{"line":1,"station_id":"KAT","is_transit":false,"i_long":106.816351,"transit":false,"time":5,"station_name":"Karet","i_lat":-6.20132,"distance":2029},{"is_transit":false,"i_long":106.819881,"time":1,"transit":false,"station_id":"SUDB","line":1,"i_lat":-6.201433,"distance":471,"station_name":"Sudirman Baru"},{"i_long":106.822649,"line":1,"transit":false,"i_lat":-6.202263,"station_id":"SUD","is_transit":false,"distance":280,"station_name":"Sudirman","time":1},{"is_transit":true,"transit":true,"i_lat":-6.209883,"station_id":"MRI","time":4,"station_name":"Manggarai","distance":3186,"line":0,"i_long":106.84912},{"i_lat":-6.198556,"line":0,"distance":1590,"transit":false,"time":4,"station_id":"CKI","is_transit":false,"i_long":106.840169,"station_name":"Cikini"},{"station_id":"GDD","is_transit":false,"time":3,"distance":1750,"line":2,"i_lat":-6.186295,"i_long":106.832183,"station_name":"Gondangdia","transit":false},{"is_transit":false,"i_long":106.828284,"station_id":"JUA","i_lat":-6.166716,"transit":false,"line":2,"time":4,"station_name":"Juanda","distance":2015},{"is_transit":false,"distance":1149,"time":2,"station_name":"Sawah Besar","station_id":"SW","i_lat":-6.160725,"i_long":106.827103,"line":2,"transit":false},{"station_id":"MGB","is_transit":false,"time":2,"transit":false,"line":2,"distance":906,"station_name":"Manggabesar","i_lat":-6.149769,"i_long":106.82482},{"transit":false,"time":2,"distance":1080,"is_transit":false,"station_name":"Jayakarta","line":7,"i_long":106.820901,"i_lat":-6.141205,"station_id":"JAY"},{"transit":true,"line":0,"distance":1264,"time":4,"i_long":106.812439,"i_lat":-6.137569,"station_id":"JAKK","is_transit":true,"station_name":"Jakarta Kota"},{"station_id":"KPB","time":3,"transit":true,"line":0,"distance":1364,"i_long":106.826365,"station_name":"Kampung Bandan","is_transit":true,"i_lat":-6.132549},{"is_transit":false,"time":3,"i_long":106.836569,"i_lat":-6.14505,"line":11,"transit":false,"distance":1444,"station_id":"RJW","station_name":"Rajawali"},{"station_name":"Kemayoran","is_transit":false,"i_lat":-6.161728,"transit":false,"i_long":106.839204,"line":11,"time":5,"distance":1901,"station_id":"KMO"},{"line":11,"is_transit":false,"station_id":"PSE","transit":false,"station_name":"Pasar Senen","i_long":106.84368,"i_lat":-6.174784,"time":4,"distance":1436},{"station_name":"Gang Sentiong","i_long":106.850107,"distance":1567,"station_id":"GST","time":8,"transit":false,"is_transit":false,"i_lat":-6.185975,"line":11},{"station_id":"KMT","i_lat":-6.193792,"distance":973,"station_name":"Kramat","transit":false,"is_transit":false,"time":1,"i_long":106.855437,"line":11},{"is_transit":false,"i_lat":-6.209188,"transit":false,"i_long":106.861737,"station_name":"Pondok Jati","distance":1829,"time":2,"line":11,"station_id":"POK"},{"line":0,"station_id":"JNG","i_lat":-6.215091,"is_transit":true,"time":9,"i_long":106.86807400000001,"transit":true,"distance":1236,"station_name":"Jatinegara"},{"is_transit":false,"station_name":"Klender","i_lat":-6.2135,"i_long":106.899548,"distance":3395,"line":1,"time":3,"transit":false,"station_id":"KLD"},{"time":2,"distance":3100,"i_long":106.922662,"line":0,"station_id":"BUA","is_transit":false,"station_name":"Buaran","transit":false,"i_lat":-6.215568},{"station_id":"KLDB","transit":false,"i_long":106.939679,"distance":1305,"is_transit":false,"line":1,"i_lat":-6.217455,"time":1,"station_name":"Klenderbaru"},{"station_id":"CUK","line":0,"is_transit":false,"time":8,"i_lat":-6.219053,"station_name":"Cakung","transit":false,"i_long":106.951283,"distance":1385},{"time":3,"distance":3097,"i_long":106.977657,"transit":false,"station_id":"KRI","station_name":"Kranji","i_lat":-6.224515,"line":1,"is_transit":false},{"i_lat":-6.236616,"station_name":"Bekasi","i_long":106.997013,"distance":2520,"station_id":"BKS","time":4,"transit":false,"line":0,"is_transit":false}]]}