{"data":[[{"station_id":"CJT","is_transit":false,"station_name":"Cilejit","time":0,"i_long":106.508482,"transit":false,"distance":0,"line":0,"i_lat":-6.354349},{"station_id":"PRP","transit":false,"station_name":"Parung Panjang","distance":7025,"time":9,"line":6,"is_transit":false,"i_long":106.568863,"i_lat":-6.3441410000000005},{"station_id":"CC","transit":false,"is_transit":false,"i_long":106.617853,"line":0,"station_name":"Cicayur","i_lat":-6.329547,"time":8,"distance":5968},{"station_name":"Cisauk","transit":false,"line":0,"time":4,"distance":2519,"is_transit":false,"i_lat":-6.32484,"i_long":106.640411,"station_id":"CSK"},{"time":4,"transit":false,"distance":1784,"i_lat":-6.319871,"line":6,"is_transit":false,"station_id":"SRP","station_name":"Serpong","i_long":106.66566},{"time":4,"is_transit":false,"station_name":"Rawa Buntu","distance":2413,"transit":false,"i_lat":-6.314823,"line":6,"i_long":106.675475,"station_id":"RU"},{"i_lat":-6.296963,"i_long":106.712277,"distance":4566,"transit":false,"station_id":"SDM","line":6,"time":6,"is_transit":false,"station_name":"Sudimara"},{"is_transit":false,"station_name":"Jurangmangu","transit":false,"i_lat":-6.288927,"distance":1994,"time":4,"station_id":"JMU","line":6,"i_long":106.728916},{"transit":false,"is_transit":false,"station_id":"PDJ","station_name":"Pondokranji","time":3,"distance":2179,"i_long":106.74273,"i_lat":-6.276362,"line":6},{"i_long":106.780334,"station_id":"KBY","transit":false,"is_transit":false,"time":8,"distance":6218,"line":6,"station_name":"Kebayoran","i_lat":-6.237242},{"station_id":"PLM","i_long":106.79689,"time":7,"distance":3737,"i_lat":-6.207404,"transit":false,"line":6,"station_name":"Palmerah","is_transit":false},{"time":6,"i_lat":-6.185545,"station_name":"Tanah Abang","is_transit":true,"distance":3191,"i_long":106.811091,"line":1,"station_id":"THB","transit":true},{"time":8,"i_lat":-6.155215,"station_name":"Duri","station_id":"DU","transit":true,"i_long":106.800832,"distance":3632,"line":1,"is_transit":true},{"distance":1230,"station_id":"AK","i_lat":-6.144674,"is_transit":false,"time":4,"i_long":106.79867,"station_name":"Angke","transit":false,"line":0},{"is_transit":true,"distance":4102,"transit":true,"time":9,"station_id":"KPB","i_long":106.826365,"i_lat":-6.132549,"line":0,"station_name":"Kampung Bandan"},{"station_id":"RJW","distance":1444,"station_name":"Rajawali","i_lat":-6.14505,"is_transit":false,"time":3,"line":11,"transit":false,"i_long":106.836569},{"distance":1901,"i_lat":-6.161728,"line":11,"station_id":"KMO","is_transit":false,"time":5,"transit":false,"i_long":106.839204,"station_name":"Kemayoran"},{"transit":false,"is_transit":false,"time":4,"station_name":"Pasar Senen","i_long":106.84368,"i_lat":-6.174784,"distance":1436,"station_id":"PSE","line":11},{"transit":false,"i_long":106.850107,"distance":1567,"time":8,"station_id":"GST","is_transit":false,"station_name":"Gang Sentiong","line":11,"i_lat":-6.185975}],[{"transit":false,"i_long":106.508482,"station_id":"CJT","distance":0,"i_lat":-6.354349,"is_transit":false,"station_name":"Cilejit","line":0,"time":0},{"transit":false,"station_id":"PRP","time":9,"is_transit":false,"station_name":"Parung Panjang","distance":7025,"i_lat":-6.3441410000000005,"i_long":106.568863,"line":6},{"i_lat":-6.329547,"is_transit":false,"station_id":"CC","distance":5968,"transit":false,"station_name":"Cicayur","line":0,"i_long":106.617853,"time":8},{"is_transit":false,"transit":false,"station_id":"CSK","time":4,"line":0,"station_name":"Cisauk","distance":2519,"i_long":106.640411,"i_lat":-6.32484},{"line":6,"i_lat":-6.319871,"station_id":"SRP","i_long":106.66566,"is_transit":false,"time":4,"station_name":"Serpong","transit":false,"distance":1784},{"line":6,"is_transit":false,"station_name":"Rawa Buntu","station_id":"RU","distance":2413,"time":4,"transit":false,"i_lat":-6.314823,"i_long":106.675475},{"station_name":"Sudimara","i_lat":-6.296963,"transit":false,"time":6,"i_long":106.712277,"line":6,"is_transit":false,"distance":4566,"station_id":"SDM"},{"i_lat":-6.288927,"distance":1994,"time":4,"i_long":106.728916,"transit":false,"station_id":"JMU","is_transit":false,"line":6,"station_name":"Jurangmangu"},{"is_transit":false,"distance":2179,"transit":false,"i_long":106.74273,"station_id":"PDJ","time":3,"station_name":"Pondokranji","i_lat":-6.276362,"line":6},{"i_long":106.780334,"line":6,"is_transit":false,"i_lat":-6.237242,"station_name":"Kebayoran","distance":6218,"transit":false,"station_id":"KBY","time":8},{"station_name":"Palmerah","distance":3737,"is_transit":false,"time":7,"line":6,"i_lat":-6.207404,"station_id":"PLM","i_long":106.79689,"transit":false},{"i_long":106.811091,"i_lat":-6.185545,"station_id":"THB","station_name":"Tanah Abang","line":1,"time":6,"transit":true,"is_transit":true,"distance":3191},{"station_name":"Karet","is_transit":false,"station_id":"KAT","distance":2029,"i_lat":-6.20132,"transit":false,"time":5,"i_long":106.816351,"line":1},{"time":1,"station_id":"SUDB","station_name":"Sudirman Baru","i_lat":-6.201433,"i_long":106.819881,"transit":false,"is_transit":false,"line":1,"distance":471},{"is_transit":false,"line":1,"time":1,"transit":false,"station_name":"Sudirman","distance":280,"station_id":"SUD","i_lat":-6.202263,"i_long":106.822649},{"line":0,"i_lat":-6.209883,"station_name":"Manggarai","distance":3186,"transit":false,"is_transit":true,"time":4,"station_id":"MRI","i_long":106.84912},{"is_transit":false,"station_id":"MTR","i_lat":-6.212485,"transit":false,"time":2,"line":1,"station_name":"Matraman","distance":1275,"i_long":106.858896},{"i_long":106.86807400000001,"transit":true,"station_name":"Jatinegara","distance":1377,"is_transit":true,"time":8,"i_lat":-6.215091,"station_id":"JNG","line":0},{"distance":1236,"time":2,"station_name":"Pondok Jati","i_long":106.861737,"line":11,"i_lat":-6.209188,"transit":false,"station_id":"POK","is_transit":false},{"transit":false,"station_name":"Kramat","time":2,"line":11,"station_id":"KMT","i_long":106.855437,"distance":1829,"is_transit":false,"i_lat":-6.193792},{"is_transit":false,"station_id":"GST","distance":973,"i_long":106.850107,"transit":false,"i_lat":-6.185975,"time":1,"station_name":"Gang Sentiong","line":11}],[{"time":0,"line":0,"station_id":"CJT","i_lat":-6.354349,"is_transit":false,"distance":0,"station_name":"Cilejit","transit":false,"i_long":106.508482},{"time":9,"i_long":106.568863,"transit":false,"station_id":"PRP","line":6,"station_name":"Parung Panjang","distance":7025,"is_transit":false,"i_lat":-6.3441410000000005},{"is_transit":false,"transit":false,"i_long":106.617853,"i_lat":-6.329547,"line":0,"station_id":"CC","time":8,"distance":5968,"station_name":"Cicayur"},{"time":4,"station_name":"Cisauk","transit":false,"station_id":"CSK","i_long":106.640411,"distance":2519,"i_lat":-6.32484,"is_transit":false,"line":0},{"i_long":106.66566,"station_name":"Serpong","station_id":"SRP","time":4,"is_transit":false,"distance":1784,"i_lat":-6.319871,"transit":false,"line":6},{"transit":false,"station_name":"Rawa Buntu","is_transit":false,"i_long":106.675475,"station_id":"RU","distance":2413,"line":6,"i_lat":-6.314823,"time":4},{"station_id":"SDM","line":6,"is_transit":false,"transit":false,"distance":4566,"i_long":106.712277,"station_name":"Sudimara","i_lat":-6.296963,"time":6},{"station_name":"Jurangmangu","line":6,"is_transit":false,"time":4,"i_long":106.728916,"station_id":"JMU","i_lat":-6.288927,"transit":false,"distance":1994},{"line":6,"i_lat":-6.276362,"transit":false,"i_long":106.74273,"station_id":"PDJ","distance":2179,"station_name":"Pondokranji","time":3,"is_transit":false},{"line":6,"time":8,"is_transit":false,"transit":false,"distance":6218,"station_name":"Kebayoran","i_lat":-6.237242,"i_long":106.780334,"station_id":"KBY"},{"transit":false,"i_long":106.79689,"distance":3737,"time":7,"i_lat":-6.207404,"station_id":"PLM","is_transit":false,"station_name":"Palmerah","line":6},{"transit":true,"station_id":"THB","line":1,"is_transit":true,"time":6,"i_lat":-6.185545,"i_long":106.811091,"distance":3191,"station_name":"Tanah Abang"},{"station_name":"Duri","line":1,"transit":true,"time":8,"i_lat":-6.155215,"distance":3632,"station_id":"DU","is_transit":true,"i_long":106.800832},{"i_lat":-6.144674,"station_name":"Angke","distance":1230,"i_long":106.79867,"is_transit":false,"station_id":"AK","transit":false,"line":0,"time":4},{"i_long":106.826365,"distance":4102,"is_transit":true,"line":0,"time":9,"station_name":"Kampung Bandan","transit":false,"station_id":"KPB","i_lat":-6.132549},{"is_transit":true,"i_long":106.812439,"i_lat":-6.137569,"transit":true,"station_id":"JAKK","station_name":"Jakarta Kota","distance":1364,"time":3,"line":0},{"distance":1264,"is_transit":false,"station_id":"JAY","station_name":"Jayakarta","i_lat":-6.141205,"line":7,"transit":false,"time":4,"i_long":106.820901},{"transit":false,"i_long":106.82482,"line":2,"station_id":"MGB","is_transit":false,"station_name":"Manggabesar","i_lat":-6.149769,"time":2,"distance":1080},{"station_id":"SW","is_transit":false,"distance":906,"transit":false,"i_lat":-6.160725,"time":2,"i_long":106.827103,"station_name":"Sawah Besar","line":2},{"station_id":"JUA","distance":1149,"i_long":106.828284,"is_transit":false,"line":2,"transit":false,"i_lat":-6.166716,"station_name":"Juanda","time":2},{"station_name":"Gondangdia","i_lat":-6.186295,"transit":false,"distance":2015,"i_long":106.832183,"is_transit":false,"station_id":"GDD","time":4,"line":2},{"time":3,"is_transit":false,"transit":false,"distance":1750,"station_name":"Cikini","i_long":106.840169,"i_lat":-6.198556,"station_id":"CKI","line":0},{"line":0,"distance":1590,"station_name":"Manggarai","is_transit":true,"i_long":106.84912,"transit":true,"station_id":"MRI","i_lat":-6.209883,"time":4},{"i_lat":-6.212485,"is_transit":false,"i_long":106.858896,"station_id":"MTR","time":2,"station_name":"Matraman","distance":1275,"transit":false,"line":1},{"is_transit":true,"station_id":"JNG","station_name":"Jatinegara","i_lat":-6.215091,"transit":true,"distance":1377,"time":8,"i_long":106.86807400000001,"line":0},{"transit":false,"station_id":"POK","distance":1236,"i_long":106.861737,"is_transit":false,"station_name":"Pondok Jati","line":11,"i_lat":-6.209188,"time":2},{"time":2,"is_transit":false,"station_name":"Kramat","station_id":"KMT","transit":false,"i_lat":-6.193792,"line":11,"i_long":106.855437,"distance":1829},{"station_name":"Gang Sentiong","is_transit":false,"transit":false,"station_id":"GST","time":1,"line":11,"i_long":106.850107,"i_lat":-6.185975,"distance":973}],[{"transit":false,"time":0,"i_lat":-6.354349,"station_id":"CJT","is_transit":false,"i_long":106.508482,"distance":0,"station_name":"Cilejit","line":0},{"line":6,"transit":false,"is_transit":false,"i_long":106.568863,"station_id":"PRP","distance":7025,"station_name":"Parung Panjang","time":9,"i_lat":-6.3441410000000005},{"i_long":106.617853,"station_id":"CC","transit":false,"i_lat":-6.329547,"time":8,"station_name":"Cicayur","is_transit":false,"distance":5968,"line":0},{"line":0,"time":4,"is_transit":false,"station_name":"Cisauk","station_id":"CSK","transit":false,"i_lat":-6.32484,"distance":2519,"i_long":106.640411},{"time":4,"transit":false,"is_transit":false,"station_id":"SRP","i_long":106.66566,"distance":1784,"station_name":"Serpong","i_lat":-6.319871,"line":6},{"time":4,"is_transit":false,"station_id":"RU","i_lat":-6.314823,"transit":false,"i_long":106.675475,"station_name":"Rawa Buntu","distance":2413,"line":6},{"station_id":"SDM","is_transit":false,"time":6,"station_name":"Sudimara","line":6,"distance":4566,"i_lat":-6.296963,"i_long":106.712277,"transit":false},{"station_name":"Jurangmangu","time":4,"line":6,"i_lat":-6.288927,"transit":false,"station_id":"JMU","distance":1994,"is_transit":false,"i_long":106.728916},{"time":3,"station_name":"Pondokranji","distance":2179,"i_lat":-6.276362,"i_long":106.74273,"station_id":"PDJ","line":6,"transit":false,"is_transit":false},{"transit":false,"i_long":106.780334,"station_name":"Kebayoran","station_id":"KBY","is_transit":false,"time":8,"line":6,"i_lat":-6.237242,"distance":6218},{"line":6,"is_transit":false,"station_id":"PLM","station_name":"Palmerah","distance":3737,"transit":false,"i_long":106.79689,"time":7,"i_lat":-6.207404},{"i_lat":-6.185545,"station_name":"Tanah Abang","transit":true,"i_long":106.811091,"is_transit":true,"station_id":"THB","distance":3191,"line":1,"time":6},{"i_lat":-6.20132,"i_long":106.816351,"line":1,"is_transit":false,"time":5,"station_id":"KAT","transit":false,"distance":2029,"station_name":"Karet"},{"transit":false,"i_lat":-6.201433,"time":1,"station_name":"Sudirman Baru","station_id":"SUDB","is_transit":false,"distance":471,"i_long":106.819881,"line":1},{"is_transit":false,"time":1,"station_id":"SUD","station_name":"Sudirman","i_long":106.822649,"distance":280,"i_lat":-6.202263,"transit":false,"line":1},{"time":4,"station_id":"MRI","i_lat":-6.209883,"transit":true,"i_long":106.84912,"line":0,"station_name":"Manggarai","distance":3186,"is_transit":true},{"station_id":"CKI","i_lat":-6.198556,"is_transit":false,"time":4,"line":0,"station_name":"Cikini","distance":1590,"transit":false,"i_long":106.840169},{"time":3,"i_lat":-6.186295,"is_transit":false,"station_id":"GDD","line":2,"transit":false,"distance":1750,"i_long":106.832183,"station_name":"Gondangdia"},{"i_long":106.828284,"is_transit":false,"station_id":"JUA","i_lat":-6.166716,"distance":2015,"station_name":"Juanda","line":2,"time":4,"transit":false},{"time":2,"distance":1149,"station_name":"Sawah Besar","is_transit":false,"i_lat":-6.160725,"line":2,"transit":false,"i_long":106.827103,"station_id":"SW"},{"line":2,"station_id":"MGB","transit":false,"distance":906,"time":2,"i_lat":-6.149769,"i_long":106.82482,"is_transit":false,"station_name":"Manggabesar"},{"distance":1080,"transit":false,"i_long":106.820901,"i_lat":-6.141205,"station_name":"Jayakarta","line":7,"time":2,"is_transit":false,"station_id":"JAY"},{"transit":true,"station_name":"Jakarta Kota","time":4,"i_lat":-6.137569,"station_id":"JAKK","is_transit":true,"i_long":106.812439,"line":0,"distance":1264},{"line":0,"i_long":106.826365,"is_transit":true,"station_id":"KPB","i_lat":-6.132549,"time":3,"transit":true,"distance":1364,"station_name":"Kampung Bandan"},{"i_long":106.836569,"line":11,"time":3,"is_transit":false,"station_name":"Rajawali","transit":false,"distance":1444,"i_lat":-6.14505,"station_id":"RJW"},{"line":11,"distance":1901,"time":5,"station_name":"Kemayoran","station_id":"KMO","i_long":106.839204,"transit":false,"i_lat":-6.161728,"is_transit":false},{"station_name":"Pasar Senen","time":4,"is_transit":false,"i_lat":-6.174784,"distance":1436,"transit":false,"station_id":"PSE","i_long":106.84368,"line":11},{"i_long":106.850107,"distance":1567,"i_lat":-6.185975,"time":8,"line":11,"transit":false,"is_transit":false,"station_id":"GST","station_name":"Gang Sentiong"}]]}