{"data":[[{"i_long":106.508482,"line":0,"transit":false,"distance":0,"time":0,"station_id":"CJT","station_name":"Cilejit","is_transit":false,"i_lat":-6.354349},{"transit":false,"time":9,"is_transit":false,"station_name":"Parung Panjang","i_lat":-6.3441410000000005,"i_long":106.568863,"distance":7025,"station_id":"PRP","line":6},{"transit":false,"distance":5968,"line":0,"is_transit":false,"station_id":"CC","i_long":106.617853,"time":8,"i_lat":-6.329547,"station_name":"Cicayur"},{"transit":false,"station_id":"CSK","is_transit":false,"i_long":106.640411,"distance":2519,"time":4,"line":0,"i_lat":-6.32484,"station_name":"Cisauk"},{"time":4,"distance":1784,"transit":false,"i_lat":-6.319871,"station_id":"SRP","line":6,"station_name":"Serpong","is_transit":false,"i_long":106.66566},{"i_long":106.675475,"is_transit":false,"transit":false,"i_lat":-6.314823,"time":4,"distance":2413,"station_name":"Rawa Buntu","line":6,"station_id":"RU"},{"time":6,"station_name":"Sudimara","i_long":106.712277,"is_transit":false,"line":6,"distance":4566,"station_id":"SDM","transit":false,"i_lat":-6.296963},{"i_long":106.728916,"distance":1994,"station_name":"Jurangmangu","station_id":"JMU","line":6,"i_lat":-6.288927,"time":4,"is_transit":false,"transit":false},{"transit":false,"time":3,"line":6,"station_name":"Pondokranji","station_id":"PDJ","i_long":106.74273,"distance":2179,"i_lat":-6.276362,"is_transit":false},{"station_name":"Kebayoran","station_id":"KBY","i_long":106.780334,"is_transit":false,"transit":false,"distance":6218,"time":8,"i_lat":-6.237242,"line":6},{"time":7,"i_lat":-6.207404,"transit":false,"line":6,"is_transit":false,"station_name":"Palmerah","station_id":"PLM","i_long":106.79689,"distance":3737},{"time":6,"station_name":"Tanah Abang","distance":3191,"is_transit":true,"station_id":"THB","i_long":106.811091,"line":1,"i_lat":-6.185545,"transit":true},{"i_lat":-6.155215,"time":8,"station_name":"Duri","station_id":"DU","is_transit":true,"distance":3632,"transit":true,"i_long":106.800832,"line":1},{"line":0,"i_lat":-6.144674,"i_long":106.79867,"station_name":"Angke","is_transit":false,"station_id":"AK","distance":1230,"time":4,"transit":false},{"time":9,"station_name":"Kampung Bandan","i_long":106.826365,"line":0,"is_transit":true,"i_lat":-6.132549,"distance":4102,"transit":false,"station_id":"KPB"},{"station_id":"JAKK","distance":1364,"i_long":106.812439,"is_transit":true,"station_name":"Jakarta Kota","transit":true,"i_lat":-6.137569,"line":0,"time":3},{"line":7,"station_name":"Jayakarta","transit":false,"time":4,"station_id":"JAY","is_transit":false,"i_lat":-6.141205,"i_long":106.820901,"distance":1264},{"line":2,"time":2,"station_id":"MGB","distance":1080,"i_long":106.82482,"station_name":"Manggabesar","transit":false,"is_transit":false,"i_lat":-6.149769},{"line":2,"i_lat":-6.160725,"station_id":"SW","station_name":"Sawah Besar","time":2,"i_long":106.827103,"transit":false,"is_transit":false,"distance":906}],[{"is_transit":false,"i_long":106.508482,"distance":0,"station_name":"Cilejit","station_id":"CJT","time":0,"i_lat":-6.354349,"transit":false,"line":0},{"station_name":"Parung Panjang","station_id":"PRP","is_transit":false,"time":9,"i_lat":-6.3441410000000005,"line":6,"transit":false,"distance":7025,"i_long":106.568863},{"is_transit":false,"time":8,"i_lat":-6.329547,"station_name":"Cicayur","station_id":"CC","distance":5968,"transit":false,"line":0,"i_long":106.617853},{"transit":false,"line":0,"i_long":106.640411,"time":4,"i_lat":-6.32484,"station_id":"CSK","is_transit":false,"station_name":"Cisauk","distance":2519},{"i_lat":-6.319871,"line":6,"station_id":"SRP","i_long":106.66566,"time":4,"transit":false,"distance":1784,"is_transit":false,"station_name":"Serpong"},{"is_transit":false,"station_id":"RU","transit":false,"time":4,"i_lat":-6.314823,"i_long":106.675475,"station_name":"Rawa Buntu","distance":2413,"line":6},{"distance":4566,"station_id":"SDM","transit":false,"time":6,"is_transit":false,"i_lat":-6.296963,"i_long":106.712277,"line":6,"station_name":"Sudimara"},{"is_transit":false,"distance":1994,"i_lat":-6.288927,"time":4,"line":6,"station_name":"Jurangmangu","station_id":"JMU","transit":false,"i_long":106.728916},{"i_long":106.74273,"station_name":"Pondokranji","line":6,"transit":false,"distance":2179,"is_transit":false,"station_id":"PDJ","time":3,"i_lat":-6.276362},{"time":8,"i_long":106.780334,"is_transit":false,"station_id":"KBY","station_name":"Kebayoran","distance":6218,"i_lat":-6.237242,"transit":false,"line":6},{"is_transit":false,"distance":3737,"station_id":"PLM","time":7,"i_lat":-6.207404,"line":6,"station_name":"Palmerah","i_long":106.79689,"transit":false},{"is_transit":true,"i_long":106.811091,"station_id":"THB","transit":true,"distance":3191,"time":6,"i_lat":-6.185545,"line":1,"station_name":"Tanah Abang"},{"i_long":106.816351,"station_name":"Karet","distance":2029,"line":1,"is_transit":false,"station_id":"KAT","time":5,"i_lat":-6.20132,"transit":false},{"is_transit":false,"transit":false,"distance":471,"station_id":"SUDB","line":1,"i_long":106.819881,"time":1,"i_lat":-6.201433,"station_name":"Sudirman Baru"},{"line":1,"station_id":"SUD","i_lat":-6.202263,"is_transit":false,"transit":false,"station_name":"Sudirman","i_long":106.822649,"distance":280,"time":1},{"distance":3186,"station_name":"Manggarai","transit":true,"is_transit":true,"station_id":"MRI","line":0,"i_long":106.84912,"time":4,"i_lat":-6.209883},{"time":4,"distance":1590,"i_lat":-6.198556,"transit":false,"station_id":"CKI","station_name":"Cikini","is_transit":false,"i_long":106.840169,"line":0},{"is_transit":false,"distance":1750,"i_lat":-6.186295,"i_long":106.832183,"transit":false,"line":2,"time":3,"station_id":"GDD","station_name":"Gondangdia"},{"distance":2015,"line":2,"station_id":"JUA","is_transit":false,"time":4,"transit":false,"i_long":106.828284,"i_lat":-6.166716,"station_name":"Juanda"},{"i_long":106.827103,"i_lat":-6.160725,"station_name":"Sawah Besar","transit":false,"line":2,"is_transit":false,"distance":1149,"station_id":"SW","time":2}],[{"station_name":"Cilejit","time":0,"station_id":"CJT","line":0,"i_lat":-6.354349,"i_long":106.508482,"transit":false,"distance":0,"is_transit":false},{"line":6,"station_id":"PRP","i_lat":-6.3441410000000005,"i_long":106.568863,"time":9,"is_transit":false,"distance":7025,"station_name":"Parung Panjang","transit":false},{"station_id":"CC","transit":false,"time":8,"i_lat":-6.329547,"line":0,"is_transit":false,"station_name":"Cicayur","distance":5968,"i_long":106.617853},{"is_transit":false,"station_name":"Cisauk","i_lat":-6.32484,"i_long":106.640411,"time":4,"distance":2519,"line":0,"transit":false,"station_id":"CSK"},{"station_id":"SRP","transit":false,"is_transit":false,"line":6,"station_name":"Serpong","time":4,"distance":1784,"i_long":106.66566,"i_lat":-6.319871},{"distance":2413,"time":4,"i_lat":-6.314823,"station_name":"Rawa Buntu","transit":false,"line":6,"is_transit":false,"i_long":106.675475,"station_id":"RU"},{"is_transit":false,"distance":4566,"station_id":"SDM","transit":false,"station_name":"Sudimara","i_lat":-6.296963,"line":6,"time":6,"i_long":106.712277},{"i_long":106.728916,"time":4,"transit":false,"is_transit":false,"station_id":"JMU","line":6,"distance":1994,"i_lat":-6.288927,"station_name":"Jurangmangu"},{"transit":false,"station_name":"Pondokranji","station_id":"PDJ","distance":2179,"i_lat":-6.276362,"line":6,"i_long":106.74273,"is_transit":false,"time":3},{"distance":6218,"transit":false,"time":8,"i_lat":-6.237242,"is_transit":false,"line":6,"station_name":"Kebayoran","station_id":"KBY","i_long":106.780334},{"distance":3737,"i_long":106.79689,"transit":false,"time":7,"is_transit":false,"station_name":"Palmerah","i_lat":-6.207404,"station_id":"PLM","line":6},{"i_long":106.811091,"time":6,"station_name":"Tanah Abang","transit":true,"line":1,"distance":3191,"station_id":"THB","is_transit":true,"i_lat":-6.185545},{"time":8,"transit":true,"i_long":106.800832,"distance":3632,"station_name":"Duri","is_transit":true,"i_lat":-6.155215,"line":1,"station_id":"DU"},{"line":0,"transit":false,"distance":1230,"station_id":"AK","station_name":"Angke","i_long":106.79867,"is_transit":false,"time":4,"i_lat":-6.144674},{"time":9,"station_id":"KPB","i_long":106.826365,"is_transit":true,"distance":4102,"transit":true,"i_lat":-6.132549,"station_name":"Kampung Bandan","line":0},{"time":3,"i_long":106.836569,"is_transit":false,"distance":1444,"transit":false,"line":11,"station_name":"Rajawali","station_id":"RJW","i_lat":-6.14505},{"i_lat":-6.161728,"is_transit":false,"station_id":"KMO","station_name":"Kemayoran","distance":1901,"time":5,"i_long":106.839204,"line":11,"transit":false},{"station_id":"PSE","time":4,"distance":1436,"station_name":"Pasar Senen","i_long":106.84368,"i_lat":-6.174784,"line":11,"is_transit":false,"transit":false},{"distance":1567,"i_lat":-6.185975,"i_long":106.850107,"transit":false,"is_transit":false,"line":11,"time":8,"station_id":"GST","station_name":"Gang Sentiong"},{"station_id":"KMT","transit":false,"time":1,"is_transit":false,"distance":973,"i_long":106.855437,"line":11,"i_lat":-6.193792,"station_name":"Kramat"},{"station_id":"POK","distance":1829,"i_long":106.861737,"transit":false,"i_lat":-6.209188,"is_transit":false,"time":2,"line":11,"station_name":"Pondok Jati"},{"is_transit":true,"i_long":106.86807400000001,"time":9,"transit":true,"distance":1236,"station_name":"Jatinegara","line":0,"station_id":"JNG","i_lat":-6.215091},{"i_lat":-6.212485,"line":1,"is_transit":false,"distance":1377,"transit":false,"station_name":"Matraman","i_long":106.858896,"station_id":"MTR","time":2},{"i_lat":-6.209883,"is_transit":true,"i_long":106.84912,"line":0,"station_id":"MRI","station_name":"Manggarai","distance":1275,"time":2,"transit":true},{"i_lat":-6.198556,"transit":false,"station_name":"Cikini","station_id":"CKI","is_transit":false,"i_long":106.840169,"time":4,"distance":1590,"line":0},{"i_long":106.832183,"distance":1750,"transit":false,"station_name":"Gondangdia","is_transit":false,"line":2,"time":3,"i_lat":-6.186295,"station_id":"GDD"},{"i_long":106.828284,"is_transit":false,"time":4,"line":2,"station_id":"JUA","transit":false,"station_name":"Juanda","i_lat":-6.166716,"distance":2015},{"is_transit":false,"station_name":"Sawah Besar","i_long":106.827103,"station_id":"SW","distance":1149,"time":2,"line":2,"i_lat":-6.160725,"transit":false}],[{"i_lat":-6.354349,"is_transit":false,"station_name":"Cilejit","i_long":106.508482,"station_id":"CJT","transit":false,"time":0,"line":0,"distance":0},{"transit":false,"is_transit":false,"station_name":"Parung Panjang","distance":7025,"i_long":106.568863,"time":9,"i_lat":-6.3441410000000005,"line":6,"station_id":"PRP"},{"distance":5968,"station_name":"Cicayur","transit":false,"is_transit":false,"i_lat":-6.329547,"time":8,"i_long":106.617853,"station_id":"CC","line":0},{"distance":2519,"i_lat":-6.32484,"line":0,"time":4,"transit":false,"i_long":106.640411,"station_id":"CSK","station_name":"Cisauk","is_transit":false},{"station_id":"SRP","station_name":"Serpong","distance":1784,"i_lat":-6.319871,"is_transit":false,"time":4,"transit":false,"i_long":106.66566,"line":6},{"i_long":106.675475,"station_id":"RU","station_name":"Rawa Buntu","time":4,"is_transit":false,"i_lat":-6.314823,"line":6,"distance":2413,"transit":false},{"distance":4566,"station_id":"SDM","time":6,"is_transit":false,"station_name":"Sudimara","i_long":106.712277,"line":6,"i_lat":-6.296963,"transit":false},{"transit":false,"is_transit":false,"station_name":"Jurangmangu","line":6,"i_lat":-6.288927,"time":4,"distance":1994,"i_long":106.728916,"station_id":"JMU"},{"time":3,"i_lat":-6.276362,"station_name":"Pondokranji","is_transit":false,"i_long":106.74273,"distance":2179,"station_id":"PDJ","line":6,"transit":false},{"i_long":106.780334,"is_transit":false,"transit":false,"station_id":"KBY","time":8,"line":6,"distance":6218,"i_lat":-6.237242,"station_name":"Kebayoran"},{"time":7,"station_name":"Palmerah","i_lat":-6.207404,"is_transit":false,"transit":false,"i_long":106.79689,"line":6,"distance":3737,"station_id":"PLM"},{"is_transit":true,"distance":3191,"i_lat":-6.185545,"i_long":106.811091,"line":1,"time":6,"station_id":"THB","transit":true,"station_name":"Tanah Abang"},{"distance":2029,"i_long":106.816351,"transit":false,"time":5,"station_name":"Karet","station_id":"KAT","i_lat":-6.20132,"line":1,"is_transit":false},{"distance":471,"line":1,"time":1,"i_long":106.819881,"transit":false,"station_id":"SUDB","is_transit":false,"station_name":"Sudirman Baru","i_lat":-6.201433},{"is_transit":false,"transit":false,"station_name":"Sudirman","i_long":106.822649,"distance":280,"line":1,"time":1,"i_lat":-6.202263,"station_id":"SUD"},{"line":0,"is_transit":true,"i_long":106.84912,"transit":false,"station_name":"Manggarai","i_lat":-6.209883,"distance":3186,"station_id":"MRI","time":4},{"i_lat":-6.212485,"station_id":"MTR","time":2,"distance":1275,"station_name":"Matraman","i_long":106.858896,"transit":false,"line":1,"is_transit":false},{"station_name":"Jatinegara","i_lat":-6.215091,"is_transit":true,"station_id":"JNG","transit":true,"time":8,"line":0,"i_long":106.86807400000001,"distance":1377},{"transit":false,"station_id":"POK","line":11,"i_long":106.861737,"is_transit":false,"time":2,"station_name":"Pondok Jati","i_lat":-6.209188,"distance":1236},{"transit":false,"time":2,"station_name":"Kramat","is_transit":false,"station_id":"KMT","i_lat":-6.193792,"i_long":106.855437,"line":11,"distance":1829},{"distance":973,"line":11,"station_id":"GST","transit":false,"is_transit":false,"i_lat":-6.185975,"i_long":106.850107,"time":1,"station_name":"Gang Sentiong"},{"station_name":"Pasar Senen","transit":false,"i_lat":-6.174784,"time":8,"is_transit":false,"station_id":"PSE","distance":1567,"i_long":106.84368,"line":11},{"is_transit":false,"distance":1436,"line":11,"station_name":"Kemayoran","station_id":"KMO","transit":false,"time":4,"i_lat":-6.161728,"i_long":106.839204},{"station_id":"RJW","is_transit":false,"time":5,"i_lat":-6.14505,"station_name":"Rajawali","distance":1901,"i_long":106.836569,"line":11,"transit":false},{"i_long":106.826365,"i_lat":-6.132549,"line":0,"is_transit":true,"distance":1444,"station_id":"KPB","transit":true,"time":3,"station_name":"Kampung Bandan"},{"is_transit":true,"station_id":"JAKK","transit":true,"station_name":"Jakarta Kota","time":3,"distance":1364,"i_lat":-6.137569,"line":0,"i_long":106.812439},{"station_id":"JAY","station_name":"Jayakarta","distance":1264,"i_long":106.820901,"i_lat":-6.141205,"transit":false,"line":7,"time":4,"is_transit":false},{"i_long":106.82482,"is_transit":false,"distance":1080,"line":2,"transit":false,"time":2,"station_name":"Manggabesar","station_id":"MGB","i_lat":-6.149769},{"station_id":"SW","is_transit":false,"distance":906,"i_lat":-6.160725,"station_name":"Sawah Besar","i_long":106.827103,"time":2,"transit":false,"line":2}]]}