{"data":[[{"time":0,"line":3,"i_lat":-6.354349,"distance":0,"is_transit":false,"station_id":"CJT","transit":false,"station_name":"Cilejit","i_long":106.508482},{"is_transit":false,"time":9,"i_long":106.568863,"station_name":"Parung Panjang","line":6,"transit":false,"station_id":"PRP","distance":7025,"i_lat":-6.3441410000000005},{"is_transit":false,"station_id":"CC","transit":false,"i_long":106.617853,"distance":5968,"line":3,"station_name":"Cicayur","time":8,"i_lat":-6.329547},{"distance":2519,"transit":false,"i_long":106.640411,"line":3,"i_lat":-6.32484,"is_transit":false,"time":4,"station_id":"CSK","station_name":"Cisauk"},{"i_lat":-6.319871,"time":4,"distance":1784,"station_id":"SRP","is_transit":false,"transit":false,"station_name":"Serpong","line":6,"i_long":106.66566},{"time":4,"station_name":"Rawa Buntu","i_long":106.675475,"line":6,"station_id":"RU","transit":false,"distance":2413,"is_transit":false,"i_lat":-6.314823},{"distance":4566,"i_long":106.712277,"time":6,"line":6,"is_transit":false,"transit":false,"station_id":"SDM","i_lat":-6.296963,"station_name":"Sudimara"},{"line":6,"i_lat":-6.288927,"station_id":"JMU","transit":false,"is_transit":false,"station_name":"Jurangmangu","time":4,"distance":1994,"i_long":106.728916},{"station_name":"Pondokranji","i_long":106.74273,"transit":false,"line":6,"time":3,"distance":2179,"station_id":"PDJ","is_transit":false,"i_lat":-6.276362},{"i_lat":-6.237242,"time":8,"is_transit":false,"i_long":106.780334,"line":6,"station_id":"KBY","transit":false,"distance":6218,"station_name":"Kebayoran"},{"i_long":106.79689,"transit":false,"is_transit":false,"i_lat":-6.207404,"station_id":"PLM","station_name":"Palmerah","time":7,"distance":3737,"line":6},{"station_id":"THB","i_long":106.811091,"line":1,"i_lat":-6.185545,"distance":3191,"time":6,"station_name":"Tanah Abang","is_transit":true,"transit":true},{"station_id":"DU","is_transit":false,"time":8,"transit":false,"line":1,"distance":3632,"station_name":"Duri","i_lat":-6.155215,"i_long":106.800832},{"transit":false,"distance":1230,"line":1,"i_lat":-6.144674,"time":4,"station_name":"Angke","station_id":"AK","is_transit":false,"i_long":106.79867},{"i_lat":-6.132549,"i_long":106.826365,"is_transit":true,"station_name":"Kampung Bandan","distance":4102,"transit":true,"station_id":"KPB","line":4,"time":9},{"i_long":106.836569,"station_name":"Rajawali","distance":1444,"is_transit":false,"transit":false,"i_lat":-6.14505,"time":3,"station_id":"RJW","line":11}],[{"is_transit":false,"distance":0,"transit":false,"i_long":106.508482,"station_name":"Cilejit","station_id":"CJT","time":0,"i_lat":-6.354349,"line":3},{"i_lat":-6.3441410000000005,"i_long":106.568863,"station_id":"PRP","station_name":"Parung Panjang","transit":false,"line":6,"is_transit":false,"time":9,"distance":7025},{"station_id":"CC","i_lat":-6.329547,"transit":false,"time":8,"distance":5968,"is_transit":false,"station_name":"Cicayur","i_long":106.617853,"line":3},{"station_id":"CSK","station_name":"Cisauk","is_transit":false,"transit":false,"line":3,"i_lat":-6.32484,"i_long":106.640411,"time":4,"distance":2519},{"distance":1784,"transit":false,"line":6,"station_name":"Serpong","i_lat":-6.319871,"station_id":"SRP","time":4,"is_transit":false,"i_long":106.66566},{"distance":2413,"line":6,"time":4,"station_id":"RU","i_lat":-6.314823,"i_long":106.675475,"station_name":"Rawa Buntu","is_transit":false,"transit":false},{"time":6,"i_lat":-6.296963,"transit":false,"line":6,"is_transit":false,"i_long":106.712277,"distance":4566,"station_id":"SDM","station_name":"Sudimara"},{"time":4,"i_long":106.728916,"distance":1994,"station_name":"Jurangmangu","line":6,"station_id":"JMU","is_transit":false,"transit":false,"i_lat":-6.288927},{"i_long":106.74273,"line":6,"distance":2179,"station_name":"Pondokranji","transit":false,"is_transit":false,"i_lat":-6.276362,"station_id":"PDJ","time":3},{"i_long":106.780334,"line":6,"distance":6218,"transit":false,"time":8,"station_name":"Kebayoran","i_lat":-6.237242,"station_id":"KBY","is_transit":false},{"line":6,"station_id":"PLM","distance":3737,"i_lat":-6.207404,"transit":false,"station_name":"Palmerah","time":7,"is_transit":false,"i_long":106.79689},{"i_lat":-6.185545,"transit":true,"time":6,"distance":3191,"station_id":"THB","line":1,"is_transit":true,"station_name":"Tanah Abang","i_long":106.811091},{"time":5,"distance":2029,"transit":false,"station_name":"Karet","i_long":106.816351,"line":1,"is_transit":false,"station_id":"KAT","i_lat":-6.20132},{"station_name":"Sudirman Baru","transit":false,"line":1,"time":1,"station_id":"SUDB","i_lat":-6.201433,"distance":471,"is_transit":false,"i_long":106.819881},{"time":1,"is_transit":false,"line":1,"i_lat":-6.202263,"transit":false,"i_long":106.822649,"station_name":"Sudirman","distance":280,"station_id":"SUD"},{"transit":false,"line":2,"station_id":"MRI","distance":3186,"i_lat":-6.209883,"i_long":106.84912,"time":4,"station_name":"Manggarai","is_transit":false},{"i_long":106.858896,"transit":false,"distance":1275,"is_transit":false,"time":2,"line":1,"i_lat":-6.212485,"station_id":"MTR","station_name":"Matraman"},{"station_name":"Jatinegara","i_long":106.86807400000001,"is_transit":true,"time":8,"transit":true,"line":1,"i_lat":-6.215091,"station_id":"JNG","distance":1377},{"i_long":106.861737,"line":11,"transit":false,"i_lat":-6.209188,"station_name":"Pondok Jati","station_id":"POK","is_transit":false,"time":2,"distance":1236},{"is_transit":false,"station_name":"Kramat","distance":1829,"i_lat":-6.193792,"transit":false,"i_long":106.855437,"time":2,"station_id":"KMT","line":11},{"is_transit":false,"station_id":"GST","time":1,"transit":false,"station_name":"Gang Sentiong","i_lat":-6.185975,"i_long":106.850107,"distance":973,"line":11},{"distance":1567,"is_transit":false,"i_long":106.84368,"transit":false,"station_name":"Pasar Senen","station_id":"PSE","time":8,"i_lat":-6.174784,"line":11},{"i_long":106.839204,"distance":1436,"i_lat":-6.161728,"station_id":"KMO","is_transit":false,"station_name":"Kemayoran","time":4,"transit":false,"line":11},{"distance":1901,"line":11,"is_transit":false,"i_long":106.836569,"i_lat":-6.14505,"time":5,"transit":false,"station_id":"RJW","station_name":"Rajawali"}],[{"i_long":106.508482,"time":0,"station_name":"Cilejit","distance":0,"i_lat":-6.354349,"transit":false,"line":3,"is_transit":false,"station_id":"CJT"},{"is_transit":false,"time":9,"transit":false,"station_name":"Parung Panjang","station_id":"PRP","i_lat":-6.3441410000000005,"i_long":106.568863,"distance":7025,"line":6},{"station_name":"Cicayur","i_lat":-6.329547,"transit":false,"line":3,"time":8,"distance":5968,"is_transit":false,"station_id":"CC","i_long":106.617853},{"i_lat":-6.32484,"time":4,"distance":2519,"i_long":106.640411,"is_transit":false,"station_id":"CSK","station_name":"Cisauk","transit":false,"line":3},{"station_name":"Serpong","time":4,"transit":false,"is_transit":false,"station_id":"SRP","i_lat":-6.319871,"line":6,"distance":1784,"i_long":106.66566},{"distance":2413,"i_long":106.675475,"transit":false,"time":4,"station_name":"Rawa Buntu","station_id":"RU","i_lat":-6.314823,"line":6,"is_transit":false},{"station_id":"SDM","line":6,"station_name":"Sudimara","transit":false,"distance":4566,"is_transit":false,"time":6,"i_long":106.712277,"i_lat":-6.296963},{"station_id":"JMU","i_long":106.728916,"is_transit":false,"i_lat":-6.288927,"line":6,"time":4,"transit":false,"station_name":"Jurangmangu","distance":1994},{"station_name":"Pondokranji","station_id":"PDJ","time":3,"transit":false,"i_lat":-6.276362,"distance":2179,"i_long":106.74273,"is_transit":false,"line":6},{"i_lat":-6.237242,"i_long":106.780334,"line":6,"time":8,"transit":false,"is_transit":false,"station_name":"Kebayoran","station_id":"KBY","distance":6218},{"distance":3737,"is_transit":false,"station_id":"PLM","time":7,"transit":false,"i_lat":-6.207404,"i_long":106.79689,"line":6,"station_name":"Palmerah"},{"transit":true,"i_lat":-6.185545,"station_name":"Tanah Abang","is_transit":true,"time":6,"i_long":106.811091,"station_id":"THB","line":1,"distance":3191},{"station_name":"Karet","transit":false,"distance":2029,"time":5,"i_long":106.816351,"station_id":"KAT","line":1,"i_lat":-6.20132,"is_transit":false},{"time":1,"i_lat":-6.201433,"line":1,"distance":471,"station_name":"Sudirman Baru","transit":false,"station_id":"SUDB","is_transit":false,"i_long":106.819881},{"line":1,"distance":280,"i_lat":-6.202263,"station_name":"Sudirman","station_id":"SUD","time":1,"is_transit":false,"transit":false,"i_long":106.822649},{"distance":3186,"station_name":"Manggarai","time":4,"transit":true,"i_lat":-6.209883,"i_long":106.84912,"station_id":"MRI","is_transit":true,"line":2},{"station_id":"CKI","time":4,"transit":false,"line":2,"i_lat":-6.198556,"is_transit":false,"distance":1590,"i_long":106.840169,"station_name":"Cikini"},{"station_id":"GDD","distance":1750,"i_lat":-6.186295,"station_name":"Gondangdia","is_transit":false,"transit":false,"i_long":106.832183,"time":3,"line":2},{"is_transit":false,"station_id":"JUA","i_lat":-6.166716,"station_name":"Juanda","i_long":106.828284,"distance":2015,"transit":false,"time":4,"line":2},{"i_long":106.827103,"distance":1149,"station_id":"SW","time":2,"transit":false,"line":2,"i_lat":-6.160725,"is_transit":false,"station_name":"Sawah Besar"},{"i_long":106.82482,"time":2,"i_lat":-6.149769,"transit":false,"is_transit":false,"station_name":"Manggabesar","station_id":"MGB","line":2,"distance":906},{"line":2,"station_id":"JAY","station_name":"Jayakarta","transit":false,"time":2,"is_transit":false,"distance":1080,"i_long":106.820901,"i_lat":-6.141205},{"is_transit":true,"time":4,"i_lat":-6.137569,"i_long":106.812439,"line":2,"station_id":"JAKK","distance":1264,"transit":true,"station_name":"Jakarta Kota"},{"transit":true,"i_long":106.826365,"line":4,"station_id":"KPB","is_transit":true,"time":3,"distance":1364,"station_name":"Kampung Bandan","i_lat":-6.132549},{"transit":false,"i_lat":-6.14505,"distance":1444,"station_name":"Rajawali","line":11,"i_long":106.836569,"time":3,"station_id":"RJW","is_transit":false}],[{"i_long":106.508482,"line":3,"transit":false,"time":0,"distance":0,"station_id":"CJT","is_transit":false,"station_name":"Cilejit","i_lat":-6.354349},{"line":6,"time":9,"i_long":106.568863,"is_transit":false,"station_name":"Parung Panjang","station_id":"PRP","distance":7025,"transit":false,"i_lat":-6.3441410000000005},{"station_name":"Cicayur","distance":5968,"i_lat":-6.329547,"i_long":106.617853,"station_id":"CC","is_transit":false,"time":8,"transit":false,"line":3},{"station_name":"Cisauk","i_lat":-6.32484,"i_long":106.640411,"station_id":"CSK","distance":2519,"line":3,"is_transit":false,"transit":false,"time":4},{"is_transit":false,"time":4,"i_lat":-6.319871,"station_id":"SRP","line":6,"i_long":106.66566,"station_name":"Serpong","distance":1784,"transit":false},{"time":4,"transit":false,"station_id":"RU","station_name":"Rawa Buntu","line":6,"i_lat":-6.314823,"i_long":106.675475,"is_transit":false,"distance":2413},{"transit":false,"station_name":"Sudimara","is_transit":false,"line":6,"station_id":"SDM","distance":4566,"time":6,"i_lat":-6.296963,"i_long":106.712277},{"transit":false,"station_id":"JMU","distance":1994,"line":6,"i_lat":-6.288927,"is_transit":false,"station_name":"Jurangmangu","time":4,"i_long":106.728916},{"station_id":"PDJ","time":3,"i_long":106.74273,"station_name":"Pondokranji","is_transit":false,"i_lat":-6.276362,"transit":false,"line":6,"distance":2179},{"is_transit":false,"station_name":"Kebayoran","time":8,"transit":false,"i_long":106.780334,"distance":6218,"i_lat":-6.237242,"line":6,"station_id":"KBY"},{"line":6,"time":7,"i_long":106.79689,"station_name":"Palmerah","distance":3737,"is_transit":false,"transit":false,"i_lat":-6.207404,"station_id":"PLM"},{"distance":3191,"transit":true,"i_lat":-6.185545,"i_long":106.811091,"line":1,"station_id":"THB","station_name":"Tanah Abang","is_transit":true,"time":6},{"distance":3632,"i_long":106.800832,"station_id":"DU","transit":false,"i_lat":-6.155215,"is_transit":false,"time":8,"line":1,"station_name":"Duri"},{"station_name":"Angke","time":4,"station_id":"AK","transit":false,"i_lat":-6.144674,"line":1,"i_long":106.79867,"is_transit":false,"distance":1230},{"station_id":"KPB","is_transit":true,"time":9,"distance":4102,"transit":true,"i_long":106.826365,"i_lat":-6.132549,"station_name":"Kampung Bandan","line":4},{"time":3,"transit":true,"is_transit":true,"station_id":"JAKK","station_name":"Jakarta Kota","distance":1364,"i_lat":-6.137569,"i_long":106.812439,"line":2},{"i_long":106.820901,"distance":1264,"time":4,"is_transit":false,"line":2,"i_lat":-6.141205,"station_name":"Jayakarta","transit":false,"station_id":"JAY"},{"is_transit":false,"i_lat":-6.149769,"line":2,"transit":false,"station_name":"Manggabesar","i_long":106.82482,"station_id":"MGB","distance":1080,"time":2},{"is_transit":false,"line":2,"i_long":106.827103,"station_id":"SW","distance":906,"station_name":"Sawah Besar","time":2,"i_lat":-6.160725,"transit":false},{"station_name":"Juanda","i_lat":-6.166716,"i_long":106.828284,"transit":false,"time":2,"distance":1149,"station_id":"JUA","is_transit":false,"line":2},{"station_name":"Gondangdia","i_lat":-6.186295,"i_long":106.832183,"line":2,"station_id":"GDD","time":4,"distance":2015,"transit":false,"is_transit":false},{"time":3,"i_lat":-6.198556,"is_transit":false,"line":2,"station_name":"Cikini","station_id":"CKI","transit":false,"distance":1750,"i_long":106.840169},{"i_lat":-6.209883,"station_name":"Manggarai","line":2,"i_long":106.84912,"distance":1590,"time":4,"transit":true,"station_id":"MRI","is_transit":true},{"station_id":"MTR","i_long":106.858896,"is_transit":false,"transit":false,"line":1,"station_name":"Matraman","time":2,"distance":1275,"i_lat":-6.212485},{"i_long":106.86807400000001,"distance":1377,"line":1,"transit":true,"time":8,"i_lat":-6.215091,"is_transit":true,"station_name":"Jatinegara","station_id":"JNG"},{"station_name":"Pondok Jati","transit":false,"is_transit":false,"station_id":"POK","time":2,"line":11,"i_long":106.861737,"distance":1236,"i_lat":-6.209188},{"i_lat":-6.193792,"line":11,"transit":false,"distance":1829,"i_long":106.855437,"station_name":"Kramat","is_transit":false,"station_id":"KMT","time":2},{"i_long":106.850107,"is_transit":false,"line":11,"station_id":"GST","transit":false,"station_name":"Gang Sentiong","i_lat":-6.185975,"time":1,"distance":973},{"station_id":"PSE","time":8,"transit":false,"distance":1567,"i_long":106.84368,"is_transit":false,"i_lat":-6.174784,"station_name":"Pasar Senen","line":11},{"is_transit":false,"line":11,"i_lat":-6.161728,"station_id":"KMO","time":4,"distance":1436,"station_name":"Kemayoran","transit":false,"i_long":106.839204},{"station_id":"RJW","i_lat":-6.14505,"i_long":106.836569,"line":11,"is_transit":false,"time":5,"distance":1901,"station_name":"Rajawali","transit":false}]]}