{"data":[[{"i_long":106.508482,"station_name":"Cilejit","line":3,"distance":0,"is_transit":false,"time":0,"station_id":"CJT","i_lat":-6.354349,"transit":false},{"is_transit":false,"distance":7025,"i_long":106.568863,"transit":false,"i_lat":-6.3441410000000005,"station_id":"PRP","time":9,"station_name":"Parung Panjang","line":6},{"is_transit":false,"i_long":106.617853,"station_id":"CC","line":3,"i_lat":-6.329547,"transit":false,"station_name":"Cicayur","distance":5968,"time":8},{"i_lat":-6.32484,"station_id":"CSK","i_long":106.640411,"time":4,"line":3,"station_name":"Cisauk","distance":2519,"transit":false,"is_transit":false},{"distance":1784,"station_id":"SRP","time":4,"i_long":106.66566,"i_lat":-6.319871,"line":6,"station_name":"Serpong","is_transit":false,"transit":false},{"i_long":106.675475,"station_id":"RU","i_lat":-6.314823,"station_name":"Rawa Buntu","time":4,"distance":2413,"line":6,"is_transit":false,"transit":false},{"station_name":"Sudimara","is_transit":false,"distance":4566,"i_long":106.712277,"line":6,"station_id":"SDM","time":6,"i_lat":-6.296963,"transit":false}]]}