{"data":[[{"i_long":106.508482,"distance":0,"time":0,"transit":false,"is_transit":false,"station_id":"CJT","station_name":"Cilejit","i_lat":-6.354349,"line":3},{"i_long":106.568863,"distance":7025,"transit":false,"is_transit":false,"station_name":"Parung Panjang","line":6,"station_id":"PRP","time":9,"i_lat":-6.3441410000000005},{"i_long":106.617853,"line":3,"distance":5968,"station_name":"Cicayur","i_lat":-6.329547,"transit":false,"station_id":"CC","time":8,"is_transit":false},{"i_long":106.640411,"station_name":"Cisauk","station_id":"CSK","time":4,"is_transit":false,"line":3,"distance":2519,"transit":false,"i_lat":-6.32484},{"i_long":106.66566,"station_name":"Serpong","distance":1784,"station_id":"SRP","i_lat":-6.319871,"line":6,"transit":false,"time":4,"is_transit":false},{"distance":2413,"station_name":"Rawa Buntu","station_id":"RU","is_transit":false,"i_lat":-6.314823,"transit":false,"i_long":106.675475,"line":6,"time":4},{"time":6,"station_name":"Sudimara","distance":4566,"i_lat":-6.296963,"line":6,"is_transit":false,"i_long":106.712277,"transit":false,"station_id":"SDM"},{"distance":1994,"station_id":"JMU","line":6,"i_long":106.728916,"transit":false,"i_lat":-6.288927,"time":4,"is_transit":false,"station_name":"Jurangmangu"},{"station_name":"Pondokranji","transit":false,"station_id":"PDJ","time":3,"distance":2179,"is_transit":false,"i_long":106.74273,"line":6,"i_lat":-6.276362},{"i_long":106.780334,"time":8,"line":6,"station_id":"KBY","station_name":"Kebayoran","i_lat":-6.237242,"transit":false,"is_transit":false,"distance":6218},{"line":6,"distance":3737,"station_id":"PLM","transit":false,"time":7,"is_transit":false,"station_name":"Palmerah","i_lat":-6.207404,"i_long":106.79689},{"station_id":"THB","station_name":"Tanah Abang","i_lat":-6.185545,"i_long":106.811091,"time":6,"distance":3191,"transit":true,"is_transit":true,"line":1},{"distance":3632,"station_name":"Duri","line":1,"time":8,"i_lat":-6.155215,"i_long":106.800832,"is_transit":false,"transit":false,"station_id":"DU"},{"line":1,"is_transit":false,"i_lat":-6.144674,"distance":1230,"transit":false,"station_id":"AK","station_name":"Angke","i_long":106.79867,"time":4},{"transit":true,"station_id":"KPB","distance":4102,"station_name":"Kampung Bandan","is_transit":true,"i_lat":-6.132549,"time":9,"i_long":106.826365,"line":4},{"i_lat":-6.14505,"i_long":106.836569,"line":11,"distance":1444,"transit":false,"station_name":"Rajawali","time":3,"station_id":"RJW","is_transit":false}],[{"i_lat":-6.354349,"distance":0,"is_transit":false,"station_id":"CJT","line":3,"time":0,"station_name":"Cilejit","i_long":106.508482,"transit":false},{"i_long":106.568863,"transit":false,"station_id":"PRP","time":9,"station_name":"Parung Panjang","distance":7025,"is_transit":false,"line":6,"i_lat":-6.3441410000000005},{"time":8,"station_id":"CC","i_lat":-6.329547,"transit":false,"is_transit":false,"distance":5968,"i_long":106.617853,"line":3,"station_name":"Cicayur"},{"station_name":"Cisauk","is_transit":false,"distance":2519,"time":4,"i_long":106.640411,"i_lat":-6.32484,"station_id":"CSK","line":3,"transit":false},{"station_name":"Serpong","time":4,"i_lat":-6.319871,"line":6,"station_id":"SRP","is_transit":false,"distance":1784,"transit":false,"i_long":106.66566},{"station_id":"RU","line":6,"station_name":"Rawa Buntu","i_lat":-6.314823,"time":4,"transit":false,"is_transit":false,"i_long":106.675475,"distance":2413},{"transit":false,"station_name":"Sudimara","station_id":"SDM","distance":4566,"i_long":106.712277,"i_lat":-6.296963,"time":6,"line":6,"is_transit":false},{"i_lat":-6.288927,"station_name":"Jurangmangu","is_transit":false,"transit":false,"station_id":"JMU","i_long":106.728916,"line":6,"time":4,"distance":1994},{"distance":2179,"transit":false,"i_long":106.74273,"is_transit":false,"line":6,"time":3,"station_id":"PDJ","station_name":"Pondokranji","i_lat":-6.276362},{"transit":false,"station_name":"Kebayoran","i_lat":-6.237242,"time":8,"station_id":"KBY","distance":6218,"i_long":106.780334,"is_transit":false,"line":6},{"station_name":"Palmerah","i_lat":-6.207404,"station_id":"PLM","line":6,"is_transit":false,"transit":false,"distance":3737,"time":7,"i_long":106.79689},{"time":6,"i_long":106.811091,"transit":true,"i_lat":-6.185545,"station_name":"Tanah Abang","is_transit":true,"station_id":"THB","distance":3191,"line":1},{"station_name":"Karet","station_id":"KAT","i_long":106.816351,"line":1,"i_lat":-6.20132,"distance":2029,"time":5,"transit":false,"is_transit":false},{"transit":false,"distance":471,"station_id":"SUDB","i_long":106.819881,"station_name":"Sudirman Baru","i_lat":-6.201433,"line":1,"is_transit":false,"time":1},{"i_lat":-6.202263,"i_long":106.822649,"is_transit":false,"time":1,"line":1,"station_name":"Sudirman","transit":false,"station_id":"SUD","distance":280},{"i_lat":-6.209883,"station_id":"MRI","line":2,"i_long":106.84912,"transit":false,"distance":3186,"time":4,"is_transit":false,"station_name":"Manggarai"},{"transit":false,"is_transit":false,"line":1,"time":2,"i_lat":-6.212485,"i_long":106.858896,"station_id":"MTR","distance":1275,"station_name":"Matraman"},{"i_lat":-6.215091,"transit":true,"station_id":"JNG","i_long":106.86807400000001,"is_transit":true,"line":1,"station_name":"Jatinegara","time":8,"distance":1377},{"is_transit":false,"station_name":"Pondok Jati","distance":1236,"time":2,"transit":false,"i_lat":-6.209188,"i_long":106.861737,"line":11,"station_id":"POK"},{"time":2,"i_lat":-6.193792,"transit":false,"i_long":106.855437,"is_transit":false,"station_name":"Kramat","line":11,"station_id":"KMT","distance":1829},{"is_transit":false,"station_id":"GST","time":1,"station_name":"Gang Sentiong","transit":false,"i_lat":-6.185975,"i_long":106.850107,"distance":973,"line":11},{"i_long":106.84368,"distance":1567,"transit":false,"station_name":"Pasar Senen","line":11,"time":8,"i_lat":-6.174784,"station_id":"PSE","is_transit":false},{"i_lat":-6.161728,"station_name":"Kemayoran","station_id":"KMO","time":4,"distance":1436,"is_transit":false,"i_long":106.839204,"line":11,"transit":false},{"i_lat":-6.14505,"i_long":106.836569,"transit":false,"line":11,"distance":1901,"is_transit":false,"station_id":"RJW","station_name":"Rajawali","time":5}],[{"station_name":"Cilejit","time":0,"i_lat":-6.354349,"station_id":"CJT","distance":0,"line":3,"is_transit":false,"transit":false,"i_long":106.508482},{"is_transit":false,"i_long":106.568863,"line":6,"time":9,"i_lat":-6.3441410000000005,"station_name":"Parung Panjang","transit":false,"distance":7025,"station_id":"PRP"},{"time":8,"station_name":"Cicayur","station_id":"CC","i_lat":-6.329547,"line":3,"transit":false,"is_transit":false,"distance":5968,"i_long":106.617853},{"transit":false,"i_lat":-6.32484,"is_transit":false,"distance":2519,"station_id":"CSK","i_long":106.640411,"line":3,"time":4,"station_name":"Cisauk"},{"time":4,"distance":1784,"is_transit":false,"i_lat":-6.319871,"station_name":"Serpong","station_id":"SRP","line":6,"i_long":106.66566,"transit":false},{"line":6,"is_transit":false,"station_id":"RU","i_long":106.675475,"distance":2413,"time":4,"station_name":"Rawa Buntu","i_lat":-6.314823,"transit":false},{"transit":false,"station_id":"SDM","i_lat":-6.296963,"i_long":106.712277,"line":6,"is_transit":false,"distance":4566,"time":6,"station_name":"Sudimara"},{"line":6,"station_id":"JMU","time":4,"is_transit":false,"i_lat":-6.288927,"distance":1994,"i_long":106.728916,"station_name":"Jurangmangu","transit":false},{"i_lat":-6.276362,"is_transit":false,"time":3,"station_id":"PDJ","transit":false,"station_name":"Pondokranji","i_long":106.74273,"distance":2179,"line":6},{"transit":false,"is_transit":false,"station_id":"KBY","line":6,"station_name":"Kebayoran","time":8,"distance":6218,"i_lat":-6.237242,"i_long":106.780334},{"distance":3737,"i_long":106.79689,"i_lat":-6.207404,"transit":false,"station_id":"PLM","time":7,"line":6,"is_transit":false,"station_name":"Palmerah"},{"i_lat":-6.185545,"time":6,"distance":3191,"is_transit":true,"transit":true,"i_long":106.811091,"line":1,"station_name":"Tanah Abang","station_id":"THB"},{"station_id":"KAT","time":5,"distance":2029,"station_name":"Karet","i_long":106.816351,"transit":false,"is_transit":false,"line":1,"i_lat":-6.20132},{"station_name":"Sudirman Baru","station_id":"SUDB","line":1,"transit":false,"i_lat":-6.201433,"time":1,"i_long":106.819881,"distance":471,"is_transit":false},{"line":1,"i_long":106.822649,"station_name":"Sudirman","i_lat":-6.202263,"transit":false,"time":1,"distance":280,"station_id":"SUD","is_transit":false},{"time":4,"i_lat":-6.209883,"line":2,"is_transit":true,"distance":3186,"transit":true,"station_name":"Manggarai","i_long":106.84912,"station_id":"MRI"},{"i_long":106.840169,"line":2,"distance":1590,"transit":false,"is_transit":false,"station_id":"CKI","station_name":"Cikini","time":4,"i_lat":-6.198556},{"line":2,"station_id":"GDD","time":3,"i_lat":-6.186295,"is_transit":false,"distance":1750,"i_long":106.832183,"station_name":"Gondangdia","transit":false},{"station_name":"Juanda","i_lat":-6.166716,"line":2,"station_id":"JUA","distance":2015,"i_long":106.828284,"time":4,"transit":false,"is_transit":false},{"is_transit":false,"station_name":"Sawah Besar","transit":false,"time":2,"distance":1149,"line":2,"i_lat":-6.160725,"i_long":106.827103,"station_id":"SW"},{"line":2,"i_long":106.82482,"time":2,"station_name":"Manggabesar","distance":906,"station_id":"MGB","transit":false,"is_transit":false,"i_lat":-6.149769},{"station_name":"Jayakarta","station_id":"JAY","line":2,"i_lat":-6.141205,"i_long":106.820901,"transit":false,"is_transit":false,"distance":1080,"time":2},{"line":2,"station_id":"JAKK","time":4,"is_transit":true,"station_name":"Jakarta Kota","transit":true,"i_lat":-6.137569,"i_long":106.812439,"distance":1264},{"station_id":"KPB","distance":1364,"i_lat":-6.132549,"transit":true,"is_transit":true,"i_long":106.826365,"line":4,"time":3,"station_name":"Kampung Bandan"},{"i_lat":-6.14505,"is_transit":false,"station_name":"Rajawali","i_long":106.836569,"time":3,"line":11,"station_id":"RJW","transit":false,"distance":1444}],[{"station_id":"CJT","distance":0,"line":3,"station_name":"Cilejit","transit":false,"is_transit":false,"i_long":106.508482,"time":0,"i_lat":-6.354349},{"station_name":"Parung Panjang","i_long":106.568863,"transit":false,"time":9,"is_transit":false,"i_lat":-6.3441410000000005,"station_id":"PRP","line":6,"distance":7025},{"distance":5968,"station_id":"CC","time":8,"i_long":106.617853,"transit":false,"line":3,"i_lat":-6.329547,"station_name":"Cicayur","is_transit":false},{"i_long":106.640411,"transit":false,"i_lat":-6.32484,"station_name":"Cisauk","line":3,"is_transit":false,"distance":2519,"time":4,"station_id":"CSK"},{"distance":1784,"i_lat":-6.319871,"line":6,"time":4,"transit":false,"station_id":"SRP","i_long":106.66566,"station_name":"Serpong","is_transit":false},{"transit":false,"is_transit":false,"i_long":106.675475,"distance":2413,"line":6,"i_lat":-6.314823,"time":4,"station_name":"Rawa Buntu","station_id":"RU"},{"transit":false,"i_long":106.712277,"time":6,"distance":4566,"is_transit":false,"station_id":"SDM","station_name":"Sudimara","i_lat":-6.296963,"line":6},{"station_id":"JMU","station_name":"Jurangmangu","is_transit":false,"distance":1994,"i_lat":-6.288927,"transit":false,"time":4,"i_long":106.728916,"line":6},{"distance":2179,"station_id":"PDJ","i_lat":-6.276362,"i_long":106.74273,"transit":false,"time":3,"station_name":"Pondokranji","line":6,"is_transit":false},{"i_long":106.780334,"station_name":"Kebayoran","distance":6218,"time":8,"is_transit":false,"station_id":"KBY","line":6,"transit":false,"i_lat":-6.237242},{"line":6,"i_long":106.79689,"time":7,"transit":false,"i_lat":-6.207404,"is_transit":false,"station_name":"Palmerah","distance":3737,"station_id":"PLM"},{"distance":3191,"i_lat":-6.185545,"line":1,"is_transit":true,"station_name":"Tanah Abang","i_long":106.811091,"time":6,"station_id":"THB","transit":true},{"station_id":"DU","line":1,"distance":3632,"station_name":"Duri","i_lat":-6.155215,"transit":false,"time":8,"is_transit":false,"i_long":106.800832},{"transit":false,"is_transit":false,"distance":1230,"time":4,"station_id":"AK","i_lat":-6.144674,"line":1,"i_long":106.79867,"station_name":"Angke"},{"station_name":"Kampung Bandan","line":4,"is_transit":true,"i_lat":-6.132549,"i_long":106.826365,"time":9,"station_id":"KPB","transit":true,"distance":4102},{"distance":1364,"station_id":"JAKK","is_transit":true,"transit":true,"line":2,"time":3,"i_lat":-6.137569,"station_name":"Jakarta Kota","i_long":106.812439},{"line":2,"station_id":"JAY","is_transit":false,"i_long":106.820901,"time":4,"transit":false,"i_lat":-6.141205,"distance":1264,"station_name":"Jayakarta"},{"station_name":"Manggabesar","i_long":106.82482,"transit":false,"i_lat":-6.149769,"time":2,"station_id":"MGB","distance":1080,"line":2,"is_transit":false},{"i_lat":-6.160725,"line":2,"time":2,"transit":false,"station_id":"SW","station_name":"Sawah Besar","is_transit":false,"i_long":106.827103,"distance":906},{"is_transit":false,"station_name":"Juanda","time":2,"i_long":106.828284,"line":2,"transit":false,"station_id":"JUA","i_lat":-6.166716,"distance":1149},{"station_id":"GDD","time":4,"station_name":"Gondangdia","i_long":106.832183,"line":2,"i_lat":-6.186295,"is_transit":false,"transit":false,"distance":2015},{"station_id":"CKI","transit":false,"station_name":"Cikini","i_lat":-6.198556,"distance":1750,"is_transit":false,"i_long":106.840169,"line":2,"time":3},{"station_id":"MRI","line":2,"station_name":"Manggarai","transit":true,"i_lat":-6.209883,"time":4,"is_transit":true,"distance":1590,"i_long":106.84912},{"i_long":106.858896,"distance":1275,"is_transit":false,"station_id":"MTR","time":2,"station_name":"Matraman","line":1,"i_lat":-6.212485,"transit":false},{"distance":1377,"i_long":106.86807400000001,"station_id":"JNG","line":1,"station_name":"Jatinegara","is_transit":true,"time":8,"transit":true,"i_lat":-6.215091},{"station_id":"POK","i_lat":-6.209188,"time":2,"station_name":"Pondok Jati","i_long":106.861737,"line":11,"transit":false,"is_transit":false,"distance":1236},{"station_name":"Kramat","transit":false,"station_id":"KMT","i_lat":-6.193792,"time":2,"line":11,"i_long":106.855437,"is_transit":false,"distance":1829},{"time":1,"line":11,"transit":false,"distance":973,"i_long":106.850107,"station_name":"Gang Sentiong","is_transit":false,"i_lat":-6.185975,"station_id":"GST"},{"time":8,"distance":1567,"line":11,"is_transit":false,"station_id":"PSE","i_lat":-6.174784,"transit":false,"i_long":106.84368,"station_name":"Pasar Senen"},{"time":4,"distance":1436,"i_lat":-6.161728,"line":11,"is_transit":false,"station_name":"Kemayoran","i_long":106.839204,"transit":false,"station_id":"KMO"},{"i_long":106.836569,"i_lat":-6.14505,"time":5,"transit":false,"station_name":"Rajawali","is_transit":false,"distance":1901,"line":11,"station_id":"RJW"}]]}