{"data":[[{"is_transit":false,"line":3,"i_lat":-6.354349,"time":0,"transit":false,"station_id":"CJT","station_name":"Cilejit","i_long":106.508482,"distance":0},{"transit":false,"time":9,"station_name":"Parung Panjang","distance":7025,"is_transit":false,"station_id":"PRP","i_long":106.568863,"i_lat":-6.3441410000000005,"line":6},{"distance":5968,"time":8,"i_long":106.617853,"station_id":"CC","is_transit":false,"transit":false,"i_lat":-6.329547,"station_name":"Cicayur","line":3},{"i_lat":-6.32484,"transit":false,"station_id":"CSK","station_name":"Cisauk","is_transit":false,"line":3,"i_long":106.640411,"time":4,"distance":2519},{"time":4,"i_long":106.66566,"station_name":"Serpong","is_transit":false,"station_id":"SRP","i_lat":-6.319871,"distance":1784,"transit":false,"line":6},{"i_long":106.675475,"is_transit":false,"station_name":"Rawa Buntu","time":4,"transit":false,"i_lat":-6.314823,"station_id":"RU","distance":2413,"line":6},{"time":6,"line":6,"is_transit":false,"station_id":"SDM","distance":4566,"station_name":"Sudimara","i_lat":-6.296963,"transit":false,"i_long":106.712277},{"station_name":"Jurangmangu","transit":false,"i_lat":-6.288927,"distance":1994,"is_transit":false,"station_id":"JMU","time":4,"i_long":106.728916,"line":6},{"i_lat":-6.276362,"distance":2179,"station_id":"PDJ","time":3,"is_transit":false,"station_name":"Pondokranji","transit":false,"i_long":106.74273,"line":6},{"is_transit":false,"i_long":106.780334,"distance":6218,"station_name":"Kebayoran","transit":false,"i_lat":-6.237242,"line":6,"station_id":"KBY","time":8},{"i_long":106.79689,"station_name":"Palmerah","time":7,"is_transit":false,"distance":3737,"station_id":"PLM","transit":false,"line":6,"i_lat":-6.207404},{"is_transit":true,"station_id":"THB","transit":true,"i_long":106.811091,"station_name":"Tanah Abang","i_lat":-6.185545,"distance":3191,"line":1,"time":6},{"station_id":"KAT","time":5,"transit":false,"line":1,"i_lat":-6.20132,"is_transit":false,"station_name":"Karet","distance":2029,"i_long":106.816351},{"is_transit":false,"distance":471,"station_id":"SUDB","i_lat":-6.201433,"transit":false,"i_long":106.819881,"station_name":"Sudirman Baru","time":1,"line":1},{"i_long":106.822649,"time":1,"distance":280,"station_name":"Sudirman","is_transit":false,"station_id":"SUD","i_lat":-6.202263,"transit":false,"line":1},{"line":2,"station_name":"Manggarai","station_id":"MRI","distance":3186,"time":4,"i_lat":-6.209883,"is_transit":true,"i_long":106.84912,"transit":true},{"is_transit":false,"transit":false,"time":4,"distance":2610,"i_long":106.857948,"station_name":"Tebet","station_id":"TEB","i_lat":-6.226659,"line":2},{"transit":false,"i_lat":-6.242512,"time":2,"distance":1230,"is_transit":false,"i_long":106.856607,"line":2,"station_name":"Cawang","station_id":"CW"},{"time":3,"distance":1546,"transit":false,"i_long":106.85449,"line":2,"i_lat":-6.255332,"is_transit":false,"station_name":"Duren Kalibata","station_id":"DRN"},{"station_name":"Pasar Minggu Baru","time":2,"is_transit":false,"station_id":"PSMB","i_long":106.851577,"line":2,"i_lat":-6.263214,"distance":824,"transit":false},{"station_name":"Pasar Minggu","station_id":"PSM","distance":2380,"i_lat":-6.2842400000000005,"is_transit":false,"line":2,"i_long":106.843999,"time":2,"transit":false},{"line":2,"time":4,"i_long":106.838896,"is_transit":false,"station_id":"TNT","transit":false,"distance":2820,"station_name":"Tanjung Barat","i_lat":-6.3080680000000005},{"station_id":"LNA","transit":false,"i_long":106.832616,"is_transit":false,"i_lat":-6.330363,"distance":2671,"station_name":"Lenteng Agung","line":2,"time":3},{"station_name":"Univ. Pancasila","is_transit":false,"line":2,"station_id":"UP","time":2,"distance":1029,"i_long":106.834175,"transit":false,"i_lat":-6.339291},{"transit":false,"line":2,"station_name":"Univ. Indonesia","is_transit":false,"station_id":"UI","i_lat":-6.360749,"i_long":106.831474,"distance":2264,"time":3},{"i_long":106.831114,"distance":1109,"line":2,"station_name":"Pondok Cina","time":2,"station_id":"POC","transit":false,"i_lat":-6.369073,"is_transit":false},{"distance":2727,"i_long":106.819451,"time":4,"line":2,"station_name":"Depokbaru","transit":false,"station_id":"DPB","is_transit":false,"i_lat":-6.391065},{"i_lat":-6.405256,"station_name":"Depok","distance":1584,"i_long":106.816926,"station_id":"DP","time":3,"transit":false,"line":2,"is_transit":false},{"station_name":"Citayam","i_lat":-6.448811,"distance":5084,"i_long":106.800298,"transit":true,"is_transit":true,"time":6,"line":2,"station_id":"CTA"},{"line":21,"distance":0,"station_name":"Pondok Rajeg","station_id":"PDRG","is_transit":false,"i_lat":-6.460735,"transit":false,"time":0,"i_long":106.824374},{"is_transit":false,"distance":0,"station_name":"Cibinong","i_lat":-6.46424,"time":0,"station_id":"CBN","line":21,"transit":false,"i_long":106.851978}],[{"time":0,"station_name":"Cilejit","is_transit":false,"station_id":"CJT","transit":false,"line":3,"distance":0,"i_lat":-6.354349,"i_long":106.508482},{"transit":false,"distance":7025,"station_name":"Parung Panjang","time":9,"i_long":106.568863,"station_id":"PRP","i_lat":-6.3441410000000005,"is_transit":false,"line":6},{"i_lat":-6.329547,"transit":false,"is_transit":false,"station_id":"CC","i_long":106.617853,"line":3,"time":8,"station_name":"Cicayur","distance":5968},{"line":3,"station_id":"CSK","distance":2519,"time":4,"is_transit":false,"i_lat":-6.32484,"transit":false,"station_name":"Cisauk","i_long":106.640411},{"station_name":"Serpong","line":6,"is_transit":false,"station_id":"SRP","distance":1784,"time":4,"transit":false,"i_long":106.66566,"i_lat":-6.319871},{"i_lat":-6.314823,"time":4,"is_transit":false,"line":6,"station_id":"RU","transit":false,"distance":2413,"station_name":"Rawa Buntu","i_long":106.675475},{"is_transit":false,"time":6,"station_id":"SDM","distance":4566,"transit":false,"i_lat":-6.296963,"i_long":106.712277,"line":6,"station_name":"Sudimara"},{"time":4,"is_transit":false,"station_id":"JMU","transit":false,"line":6,"distance":1994,"i_long":106.728916,"i_lat":-6.288927,"station_name":"Jurangmangu"},{"station_id":"PDJ","transit":false,"i_lat":-6.276362,"line":6,"time":3,"i_long":106.74273,"distance":2179,"station_name":"Pondokranji","is_transit":false},{"station_id":"KBY","i_long":106.780334,"i_lat":-6.237242,"station_name":"Kebayoran","line":6,"distance":6218,"is_transit":false,"transit":false,"time":8},{"time":7,"is_transit":false,"station_id":"PLM","transit":false,"i_lat":-6.207404,"distance":3737,"i_long":106.79689,"line":6,"station_name":"Palmerah"},{"distance":3191,"station_id":"THB","station_name":"Tanah Abang","transit":true,"i_lat":-6.185545,"time":6,"is_transit":true,"i_long":106.811091,"line":1},{"station_name":"Duri","time":8,"distance":3632,"station_id":"DU","is_transit":false,"transit":false,"i_lat":-6.155215,"i_long":106.800832,"line":1},{"time":4,"i_lat":-6.144674,"distance":1230,"is_transit":false,"i_long":106.79867,"line":1,"transit":false,"station_id":"AK","station_name":"Angke"},{"station_name":"Kampung Bandan","distance":4102,"station_id":"KPB","i_lat":-6.132549,"transit":true,"i_long":106.826365,"time":9,"line":4,"is_transit":true},{"i_long":106.812439,"transit":true,"distance":1364,"is_transit":true,"time":3,"station_name":"Jakarta Kota","station_id":"JAKK","i_lat":-6.137569,"line":2},{"transit":false,"station_name":"Jayakarta","time":4,"station_id":"JAY","i_long":106.820901,"line":2,"distance":1264,"i_lat":-6.141205,"is_transit":false},{"is_transit":false,"station_name":"Manggabesar","time":2,"distance":1080,"line":2,"i_lat":-6.149769,"i_long":106.82482,"station_id":"MGB","transit":false},{"transit":false,"time":2,"i_lat":-6.160725,"distance":906,"station_id":"SW","is_transit":false,"station_name":"Sawah Besar","line":2,"i_long":106.827103},{"distance":1149,"is_transit":false,"i_long":106.828284,"station_name":"Juanda","transit":false,"line":2,"time":2,"station_id":"JUA","i_lat":-6.166716},{"i_long":106.832183,"is_transit":false,"line":2,"distance":2015,"i_lat":-6.186295,"transit":false,"time":4,"station_id":"GDD","station_name":"Gondangdia"},{"i_lat":-6.198556,"station_name":"Cikini","transit":false,"is_transit":false,"time":3,"station_id":"CKI","distance":1750,"line":2,"i_long":106.840169},{"i_long":106.84912,"distance":1590,"station_name":"Manggarai","is_transit":false,"line":2,"i_lat":-6.209883,"transit":false,"time":4,"station_id":"MRI"},{"transit":false,"station_name":"Tebet","line":2,"time":4,"i_lat":-6.226659,"is_transit":false,"i_long":106.857948,"station_id":"TEB","distance":2610},{"station_id":"CW","i_lat":-6.242512,"time":2,"i_long":106.856607,"transit":false,"line":2,"is_transit":false,"distance":1230,"station_name":"Cawang"},{"is_transit":false,"line":2,"transit":false,"station_name":"Duren Kalibata","time":3,"station_id":"DRN","i_lat":-6.255332,"distance":1546,"i_long":106.85449},{"is_transit":false,"station_name":"Pasar Minggu Baru","transit":false,"station_id":"PSMB","i_long":106.851577,"distance":824,"line":2,"time":2,"i_lat":-6.263214},{"is_transit":false,"line":2,"distance":2380,"time":2,"station_name":"Pasar Minggu","station_id":"PSM","i_lat":-6.2842400000000005,"i_long":106.843999,"transit":false},{"transit":false,"i_long":106.838896,"time":4,"distance":2820,"station_id":"TNT","line":2,"station_name":"Tanjung Barat","i_lat":-6.3080680000000005,"is_transit":false},{"is_transit":false,"station_name":"Lenteng Agung","transit":false,"i_long":106.832616,"time":3,"station_id":"LNA","line":2,"i_lat":-6.330363,"distance":2671},{"station_name":"Univ. Pancasila","i_lat":-6.339291,"distance":1029,"transit":false,"station_id":"UP","is_transit":false,"line":2,"i_long":106.834175,"time":2},{"time":3,"station_id":"UI","transit":false,"is_transit":false,"station_name":"Univ. Indonesia","distance":2264,"i_lat":-6.360749,"line":2,"i_long":106.831474},{"i_long":106.831114,"time":2,"distance":1109,"station_id":"POC","i_lat":-6.369073,"line":2,"station_name":"Pondok Cina","is_transit":false,"transit":false},{"i_lat":-6.391065,"transit":false,"distance":2727,"i_long":106.819451,"station_name":"Depokbaru","station_id":"DPB","time":4,"line":2,"is_transit":false},{"i_lat":-6.405256,"distance":1584,"i_long":106.816926,"time":3,"line":2,"transit":false,"is_transit":false,"station_name":"Depok","station_id":"DP"},{"station_name":"Citayam","time":6,"i_lat":-6.448811,"station_id":"CTA","line":2,"is_transit":true,"transit":true,"distance":5084,"i_long":106.800298},{"station_id":"PDRG","time":0,"distance":0,"transit":false,"is_transit":false,"i_long":106.824374,"i_lat":-6.460735,"line":21,"station_name":"Pondok Rajeg"},{"time":0,"line":21,"distance":0,"transit":false,"station_name":"Cibinong","station_id":"CBN","i_lat":-6.46424,"is_transit":false,"i_long":106.851978}],[{"is_transit":false,"station_name":"Cilejit","distance":0,"line":3,"transit":false,"i_lat":-6.354349,"time":0,"station_id":"CJT","i_long":106.508482},{"is_transit":false,"line":6,"station_id":"PRP","transit":false,"distance":7025,"i_lat":-6.3441410000000005,"time":9,"station_name":"Parung Panjang","i_long":106.568863},{"is_transit":false,"i_long":106.617853,"transit":false,"i_lat":-6.329547,"time":8,"station_name":"Cicayur","station_id":"CC","distance":5968,"line":3},{"time":4,"is_transit":false,"distance":2519,"i_long":106.640411,"station_name":"Cisauk","transit":false,"i_lat":-6.32484,"line":3,"station_id":"CSK"},{"distance":1784,"time":4,"station_id":"SRP","i_long":106.66566,"i_lat":-6.319871,"is_transit":false,"transit":false,"station_name":"Serpong","line":6},{"station_name":"Rawa Buntu","i_lat":-6.314823,"i_long":106.675475,"station_id":"RU","transit":false,"line":6,"is_transit":false,"time":4,"distance":2413},{"transit":false,"line":6,"time":6,"distance":4566,"i_long":106.712277,"i_lat":-6.296963,"is_transit":false,"station_id":"SDM","station_name":"Sudimara"},{"transit":false,"line":6,"time":4,"station_id":"JMU","i_lat":-6.288927,"i_long":106.728916,"station_name":"Jurangmangu","is_transit":false,"distance":1994},{"transit":false,"line":6,"time":3,"station_id":"PDJ","i_lat":-6.276362,"i_long":106.74273,"is_transit":false,"station_name":"Pondokranji","distance":2179},{"station_id":"KBY","is_transit":false,"distance":6218,"station_name":"Kebayoran","time":8,"i_lat":-6.237242,"transit":false,"i_long":106.780334,"line":6},{"time":7,"station_name":"Palmerah","line":6,"i_long":106.79689,"transit":false,"i_lat":-6.207404,"station_id":"PLM","distance":3737,"is_transit":false},{"i_long":106.811091,"distance":3191,"line":1,"station_name":"Tanah Abang","time":6,"transit":true,"is_transit":true,"station_id":"THB","i_lat":-6.185545},{"station_id":"DU","i_long":106.800832,"is_transit":false,"i_lat":-6.155215,"station_name":"Duri","time":8,"transit":false,"distance":3632,"line":1},{"distance":1230,"station_name":"Angke","transit":false,"line":1,"i_long":106.79867,"is_transit":false,"station_id":"AK","time":4,"i_lat":-6.144674},{"distance":4102,"i_lat":-6.132549,"line":4,"is_transit":true,"time":9,"station_id":"KPB","station_name":"Kampung Bandan","i_long":106.826365,"transit":true},{"station_id":"RJW","time":3,"i_lat":-6.14505,"station_name":"Rajawali","is_transit":false,"transit":false,"distance":1444,"i_long":106.836569,"line":11},{"time":5,"transit":false,"line":11,"distance":1901,"station_id":"KMO","station_name":"Kemayoran","is_transit":false,"i_lat":-6.161728,"i_long":106.839204},{"i_long":106.84368,"is_transit":false,"time":4,"station_id":"PSE","station_name":"Pasar Senen","line":11,"i_lat":-6.174784,"distance":1436,"transit":false},{"i_long":106.850107,"line":11,"transit":false,"distance":1567,"time":8,"station_id":"GST","is_transit":false,"station_name":"Gang Sentiong","i_lat":-6.185975},{"station_name":"Kramat","distance":973,"time":1,"is_transit":false,"i_long":106.855437,"transit":false,"i_lat":-6.193792,"line":11,"station_id":"KMT"},{"line":11,"station_id":"POK","i_lat":-6.209188,"time":2,"i_long":106.861737,"distance":1829,"station_name":"Pondok Jati","transit":false,"is_transit":false},{"i_long":106.86807400000001,"station_id":"JNG","time":9,"distance":1236,"is_transit":true,"station_name":"Jatinegara","i_lat":-6.215091,"transit":true,"line":1},{"time":2,"distance":1377,"i_long":106.858896,"transit":false,"station_name":"Matraman","line":1,"station_id":"MTR","i_lat":-6.212485,"is_transit":false},{"time":2,"line":2,"distance":1275,"station_id":"MRI","i_long":106.84912,"i_lat":-6.209883,"station_name":"Manggarai","transit":true,"is_transit":true},{"time":4,"i_lat":-6.226659,"distance":2610,"station_name":"Tebet","station_id":"TEB","line":2,"transit":false,"i_long":106.857948,"is_transit":false},{"is_transit":false,"i_long":106.856607,"station_name":"Cawang","time":2,"distance":1230,"transit":false,"station_id":"CW","i_lat":-6.242512,"line":2},{"transit":false,"time":3,"distance":1546,"station_id":"DRN","i_long":106.85449,"i_lat":-6.255332,"is_transit":false,"line":2,"station_name":"Duren Kalibata"},{"station_id":"PSMB","distance":824,"i_lat":-6.263214,"line":2,"is_transit":false,"station_name":"Pasar Minggu Baru","i_long":106.851577,"time":2,"transit":false},{"station_id":"PSM","i_lat":-6.2842400000000005,"is_transit":false,"i_long":106.843999,"transit":false,"line":2,"time":2,"station_name":"Pasar Minggu","distance":2380},{"i_lat":-6.3080680000000005,"distance":2820,"is_transit":false,"i_long":106.838896,"station_id":"TNT","line":2,"transit":false,"time":4,"station_name":"Tanjung Barat"},{"transit":false,"station_id":"LNA","is_transit":false,"line":2,"i_lat":-6.330363,"station_name":"Lenteng Agung","i_long":106.832616,"time":3,"distance":2671},{"distance":1029,"is_transit":false,"transit":false,"station_id":"UP","i_lat":-6.339291,"line":2,"station_name":"Univ. Pancasila","time":2,"i_long":106.834175},{"station_name":"Univ. Indonesia","i_long":106.831474,"transit":false,"station_id":"UI","line":2,"time":3,"is_transit":false,"distance":2264,"i_lat":-6.360749},{"line":2,"station_id":"POC","station_name":"Pondok Cina","time":2,"distance":1109,"transit":false,"i_lat":-6.369073,"is_transit":false,"i_long":106.831114},{"i_lat":-6.391065,"i_long":106.819451,"line":2,"is_transit":false,"time":4,"transit":false,"station_name":"Depokbaru","station_id":"DPB","distance":2727},{"distance":1584,"transit":false,"is_transit":false,"i_lat":-6.405256,"i_long":106.816926,"station_id":"DP","time":3,"station_name":"Depok","line":2},{"is_transit":true,"time":6,"i_long":106.800298,"line":2,"transit":true,"station_name":"Citayam","station_id":"CTA","i_lat":-6.448811,"distance":5084},{"line":21,"i_lat":-6.460735,"station_id":"PDRG","station_name":"Pondok Rajeg","transit":false,"i_long":106.824374,"distance":0,"is_transit":false,"time":0},{"is_transit":false,"station_name":"Cibinong","line":21,"distance":0,"time":0,"i_lat":-6.46424,"station_id":"CBN","transit":false,"i_long":106.851978}]]}