{"data":[[{"is_transit":false,"station_name":"Cilejit","time":0,"i_long":106.508482,"station_id":"CJT","distance":0,"i_lat":-6.354349,"transit":false,"line":3},{"i_long":106.568863,"i_lat":-6.3441410000000005,"line":6,"is_transit":false,"transit":false,"station_name":"Parung Panjang","station_id":"PRP","time":9,"distance":7025},{"station_id":"CC","is_transit":false,"i_lat":-6.329547,"i_long":106.617853,"station_name":"Cicayur","distance":5968,"time":8,"transit":false,"line":3},{"i_lat":-6.32484,"i_long":106.640411,"transit":false,"distance":2519,"line":3,"is_transit":false,"station_name":"Cisauk","station_id":"CSK","time":4},{"transit":false,"is_transit":false,"time":4,"distance":1784,"i_lat":-6.319871,"line":6,"i_long":106.66566,"station_id":"SRP","station_name":"Serpong"},{"i_lat":-6.314823,"i_long":106.675475,"time":4,"station_name":"Rawa Buntu","station_id":"RU","distance":2413,"line":6,"is_transit":false,"transit":false},{"is_transit":false,"station_id":"SDM","line":6,"transit":false,"i_lat":-6.296963,"time":6,"distance":4566,"i_long":106.712277,"station_name":"Sudimara"},{"line":6,"time":4,"station_name":"Jurangmangu","is_transit":false,"transit":false,"distance":1994,"i_long":106.728916,"i_lat":-6.288927,"station_id":"JMU"},{"i_long":106.74273,"station_id":"PDJ","station_name":"Pondokranji","time":3,"distance":2179,"i_lat":-6.276362,"transit":false,"is_transit":false,"line":6},{"i_lat":-6.237242,"station_name":"Kebayoran","line":6,"i_long":106.780334,"station_id":"KBY","transit":false,"is_transit":false,"distance":6218,"time":8},{"station_name":"Palmerah","transit":false,"line":6,"station_id":"PLM","i_lat":-6.207404,"distance":3737,"time":7,"is_transit":false,"i_long":106.79689},{"station_id":"THB","time":6,"i_lat":-6.185545,"i_long":106.811091,"line":1,"distance":3191,"transit":true,"station_name":"Tanah Abang","is_transit":true},{"line":1,"station_name":"Duri","is_transit":false,"time":8,"station_id":"DU","transit":false,"distance":3632,"i_lat":-6.155215,"i_long":106.800832},{"distance":1230,"station_id":"AK","i_lat":-6.144674,"station_name":"Angke","is_transit":false,"i_long":106.79867,"line":1,"transit":false,"time":4},{"is_transit":true,"transit":true,"line":4,"i_lat":-6.132549,"station_name":"Kampung Bandan","time":9,"distance":4102,"i_long":106.826365,"station_id":"KPB"},{"i_long":106.836569,"distance":1444,"station_name":"Rajawali","time":3,"transit":false,"is_transit":false,"station_id":"RJW","i_lat":-6.14505,"line":11},{"transit":false,"station_name":"Kemayoran","station_id":"KMO","is_transit":false,"distance":1901,"i_lat":-6.161728,"i_long":106.839204,"line":11,"time":5},{"transit":false,"station_name":"Pasar Senen","i_long":106.84368,"i_lat":-6.174784,"distance":1436,"station_id":"PSE","line":11,"is_transit":false,"time":4},{"i_lat":-6.185975,"time":8,"transit":false,"distance":1567,"station_id":"GST","i_long":106.850107,"line":11,"station_name":"Gang Sentiong","is_transit":false}],[{"transit":false,"time":0,"station_name":"Cilejit","is_transit":false,"i_lat":-6.354349,"i_long":106.508482,"station_id":"CJT","line":3,"distance":0},{"i_lat":-6.3441410000000005,"is_transit":false,"station_name":"Parung Panjang","time":9,"distance":7025,"transit":false,"line":6,"station_id":"PRP","i_long":106.568863},{"transit":false,"station_name":"Cicayur","time":8,"distance":5968,"i_lat":-6.329547,"i_long":106.617853,"line":3,"is_transit":false,"station_id":"CC"},{"distance":2519,"time":4,"line":3,"station_id":"CSK","i_lat":-6.32484,"i_long":106.640411,"is_transit":false,"station_name":"Cisauk","transit":false},{"time":4,"i_lat":-6.319871,"line":6,"station_id":"SRP","i_long":106.66566,"station_name":"Serpong","transit":false,"is_transit":false,"distance":1784},{"transit":false,"station_id":"RU","is_transit":false,"i_long":106.675475,"station_name":"Rawa Buntu","time":4,"i_lat":-6.314823,"distance":2413,"line":6},{"station_id":"SDM","is_transit":false,"transit":false,"station_name":"Sudimara","distance":4566,"line":6,"i_long":106.712277,"i_lat":-6.296963,"time":6},{"distance":1994,"i_long":106.728916,"line":6,"time":4,"is_transit":false,"station_id":"JMU","i_lat":-6.288927,"station_name":"Jurangmangu","transit":false},{"i_long":106.74273,"line":6,"station_name":"Pondokranji","transit":false,"time":3,"distance":2179,"station_id":"PDJ","is_transit":false,"i_lat":-6.276362},{"i_long":106.780334,"time":8,"station_name":"Kebayoran","line":6,"i_lat":-6.237242,"distance":6218,"is_transit":false,"station_id":"KBY","transit":false},{"time":7,"i_lat":-6.207404,"i_long":106.79689,"is_transit":false,"distance":3737,"station_name":"Palmerah","line":6,"transit":false,"station_id":"PLM"},{"distance":3191,"station_id":"THB","i_long":106.811091,"is_transit":true,"time":6,"station_name":"Tanah Abang","i_lat":-6.185545,"line":1,"transit":true},{"i_lat":-6.20132,"station_name":"Karet","station_id":"KAT","transit":false,"is_transit":false,"time":5,"line":1,"i_long":106.816351,"distance":2029},{"station_name":"Sudirman Baru","station_id":"SUDB","i_lat":-6.201433,"i_long":106.819881,"is_transit":false,"line":1,"distance":471,"time":1,"transit":false},{"station_name":"Sudirman","i_lat":-6.202263,"distance":280,"is_transit":false,"line":1,"transit":false,"station_id":"SUD","i_long":106.822649,"time":1},{"station_name":"Manggarai","i_lat":-6.209883,"i_long":106.84912,"time":4,"distance":3186,"station_id":"MRI","is_transit":false,"transit":false,"line":2},{"station_name":"Matraman","line":1,"is_transit":false,"transit":false,"time":2,"station_id":"MTR","i_long":106.858896,"i_lat":-6.212485,"distance":1275},{"i_long":106.86807400000001,"station_name":"Jatinegara","line":1,"distance":1377,"is_transit":true,"time":8,"station_id":"JNG","i_lat":-6.215091,"transit":true},{"is_transit":false,"distance":1236,"i_long":106.861737,"transit":false,"i_lat":-6.209188,"station_id":"POK","time":2,"station_name":"Pondok Jati","line":11},{"is_transit":false,"i_long":106.855437,"station_id":"KMT","line":11,"i_lat":-6.193792,"transit":false,"station_name":"Kramat","distance":1829,"time":2},{"i_lat":-6.185975,"station_id":"GST","i_long":106.850107,"time":1,"line":11,"station_name":"Gang Sentiong","distance":973,"transit":false,"is_transit":false}],[{"distance":0,"station_id":"CJT","time":0,"i_long":106.508482,"i_lat":-6.354349,"line":3,"station_name":"Cilejit","is_transit":false,"transit":false},{"i_long":106.568863,"station_id":"PRP","i_lat":-6.3441410000000005,"station_name":"Parung Panjang","time":9,"distance":7025,"line":6,"is_transit":false,"transit":false},{"station_name":"Cicayur","is_transit":false,"distance":5968,"i_long":106.617853,"line":3,"station_id":"CC","time":8,"i_lat":-6.329547,"transit":false},{"station_id":"CSK","i_lat":-6.32484,"i_long":106.640411,"line":3,"time":4,"station_name":"Cisauk","distance":2519,"is_transit":false,"transit":false},{"time":4,"i_long":106.66566,"is_transit":false,"station_name":"Serpong","transit":false,"station_id":"SRP","i_lat":-6.319871,"line":6,"distance":1784},{"station_id":"RU","i_lat":-6.314823,"is_transit":false,"time":4,"i_long":106.675475,"transit":false,"line":6,"station_name":"Rawa Buntu","distance":2413},{"is_transit":false,"transit":false,"i_long":106.712277,"station_name":"Sudimara","time":6,"line":6,"i_lat":-6.296963,"station_id":"SDM","distance":4566},{"transit":false,"i_lat":-6.288927,"time":4,"is_transit":false,"station_name":"Jurangmangu","station_id":"JMU","line":6,"i_long":106.728916,"distance":1994},{"time":3,"is_transit":false,"i_long":106.74273,"distance":2179,"i_lat":-6.276362,"transit":false,"station_id":"PDJ","line":6,"station_name":"Pondokranji"},{"is_transit":false,"i_lat":-6.237242,"time":8,"station_name":"Kebayoran","transit":false,"station_id":"KBY","distance":6218,"i_long":106.780334,"line":6},{"time":7,"is_transit":false,"distance":3737,"station_id":"PLM","i_long":106.79689,"line":6,"station_name":"Palmerah","transit":false,"i_lat":-6.207404},{"station_name":"Tanah Abang","station_id":"THB","time":6,"transit":true,"distance":3191,"i_lat":-6.185545,"i_long":106.811091,"is_transit":true,"line":1},{"station_id":"DU","transit":false,"distance":3632,"time":8,"i_long":106.800832,"line":1,"station_name":"Duri","i_lat":-6.155215,"is_transit":false},{"time":4,"distance":1230,"i_lat":-6.144674,"line":1,"station_name":"Angke","transit":false,"is_transit":false,"i_long":106.79867,"station_id":"AK"},{"line":4,"station_name":"Kampung Bandan","station_id":"KPB","is_transit":true,"time":9,"transit":true,"i_long":106.826365,"distance":4102,"i_lat":-6.132549},{"station_id":"JAKK","distance":1364,"i_long":106.812439,"transit":true,"time":3,"i_lat":-6.137569,"station_name":"Jakarta Kota","line":2,"is_transit":true},{"is_transit":false,"i_long":106.820901,"station_id":"JAY","line":2,"time":4,"i_lat":-6.141205,"transit":false,"distance":1264,"station_name":"Jayakarta"},{"time":2,"is_transit":false,"i_lat":-6.149769,"i_long":106.82482,"station_name":"Manggabesar","distance":1080,"transit":false,"line":2,"station_id":"MGB"},{"line":2,"transit":false,"station_id":"SW","is_transit":false,"distance":906,"station_name":"Sawah Besar","time":2,"i_lat":-6.160725,"i_long":106.827103},{"line":2,"station_name":"Juanda","time":2,"distance":1149,"i_lat":-6.166716,"i_long":106.828284,"transit":false,"station_id":"JUA","is_transit":false},{"station_name":"Gondangdia","distance":2015,"i_lat":-6.186295,"time":4,"station_id":"GDD","i_long":106.832183,"line":2,"is_transit":false,"transit":false},{"is_transit":false,"time":3,"i_long":106.840169,"station_id":"CKI","transit":false,"distance":1750,"i_lat":-6.198556,"line":2,"station_name":"Cikini"},{"is_transit":true,"distance":1590,"station_name":"Manggarai","time":4,"i_lat":-6.209883,"i_long":106.84912,"transit":true,"station_id":"MRI","line":2},{"time":2,"distance":1275,"station_id":"MTR","line":1,"station_name":"Matraman","transit":false,"i_lat":-6.212485,"is_transit":false,"i_long":106.858896},{"transit":true,"is_transit":true,"i_long":106.86807400000001,"station_id":"JNG","station_name":"Jatinegara","distance":1377,"line":1,"i_lat":-6.215091,"time":8},{"station_id":"POK","distance":1236,"transit":false,"i_lat":-6.209188,"i_long":106.861737,"time":2,"is_transit":false,"line":11,"station_name":"Pondok Jati"},{"is_transit":false,"transit":false,"time":2,"i_lat":-6.193792,"station_id":"KMT","i_long":106.855437,"line":11,"distance":1829,"station_name":"Kramat"},{"is_transit":false,"time":1,"i_long":106.850107,"station_name":"Gang Sentiong","i_lat":-6.185975,"station_id":"GST","distance":973,"transit":false,"line":11}],[{"transit":false,"station_name":"Cilejit","i_long":106.508482,"is_transit":false,"i_lat":-6.354349,"station_id":"CJT","distance":0,"time":0,"line":3},{"station_name":"Parung Panjang","transit":false,"station_id":"PRP","time":9,"i_long":106.568863,"is_transit":false,"line":6,"i_lat":-6.3441410000000005,"distance":7025},{"distance":5968,"transit":false,"station_id":"CC","is_transit":false,"i_lat":-6.329547,"time":8,"i_long":106.617853,"station_name":"Cicayur","line":3},{"i_lat":-6.32484,"distance":2519,"i_long":106.640411,"transit":false,"line":3,"station_name":"Cisauk","time":4,"station_id":"CSK","is_transit":false},{"line":6,"i_lat":-6.319871,"i_long":106.66566,"station_id":"SRP","distance":1784,"is_transit":false,"transit":false,"station_name":"Serpong","time":4},{"line":6,"distance":2413,"i_long":106.675475,"station_id":"RU","is_transit":false,"i_lat":-6.314823,"station_name":"Rawa Buntu","time":4,"transit":false},{"station_name":"Sudimara","is_transit":false,"time":6,"distance":4566,"i_lat":-6.296963,"i_long":106.712277,"station_id":"SDM","line":6,"transit":false},{"i_long":106.728916,"is_transit":false,"distance":1994,"transit":false,"station_name":"Jurangmangu","i_lat":-6.288927,"station_id":"JMU","line":6,"time":4},{"distance":2179,"station_id":"PDJ","i_long":106.74273,"line":6,"time":3,"transit":false,"station_name":"Pondokranji","i_lat":-6.276362,"is_transit":false},{"station_name":"Kebayoran","station_id":"KBY","distance":6218,"time":8,"is_transit":false,"line":6,"transit":false,"i_lat":-6.237242,"i_long":106.780334},{"transit":false,"station_name":"Palmerah","station_id":"PLM","is_transit":false,"distance":3737,"i_lat":-6.207404,"time":7,"i_long":106.79689,"line":6},{"station_name":"Tanah Abang","station_id":"THB","line":1,"is_transit":true,"distance":3191,"i_lat":-6.185545,"time":6,"i_long":106.811091,"transit":true},{"i_lat":-6.20132,"time":5,"transit":false,"line":1,"station_id":"KAT","station_name":"Karet","is_transit":false,"distance":2029,"i_long":106.816351},{"station_name":"Sudirman Baru","time":1,"transit":false,"i_lat":-6.201433,"distance":471,"station_id":"SUDB","is_transit":false,"i_long":106.819881,"line":1},{"line":1,"transit":false,"distance":280,"time":1,"station_name":"Sudirman","i_lat":-6.202263,"station_id":"SUD","is_transit":false,"i_long":106.822649},{"time":4,"is_transit":true,"distance":3186,"line":2,"i_lat":-6.209883,"transit":true,"i_long":106.84912,"station_name":"Manggarai","station_id":"MRI"},{"line":2,"transit":false,"station_name":"Cikini","i_lat":-6.198556,"is_transit":false,"time":4,"i_long":106.840169,"distance":1590,"station_id":"CKI"},{"transit":false,"station_name":"Gondangdia","station_id":"GDD","i_lat":-6.186295,"i_long":106.832183,"time":3,"is_transit":false,"distance":1750,"line":2},{"is_transit":false,"line":2,"transit":false,"station_name":"Juanda","station_id":"JUA","time":4,"i_lat":-6.166716,"distance":2015,"i_long":106.828284},{"line":2,"time":2,"distance":1149,"i_long":106.827103,"i_lat":-6.160725,"station_id":"SW","transit":false,"is_transit":false,"station_name":"Sawah Besar"},{"distance":906,"i_long":106.82482,"line":2,"station_name":"Manggabesar","station_id":"MGB","transit":false,"is_transit":false,"time":2,"i_lat":-6.149769},{"station_id":"JAY","i_lat":-6.141205,"line":2,"is_transit":false,"time":2,"distance":1080,"i_long":106.820901,"station_name":"Jayakarta","transit":false},{"i_lat":-6.137569,"station_id":"JAKK","i_long":106.812439,"time":4,"transit":true,"line":2,"station_name":"Jakarta Kota","is_transit":true,"distance":1264},{"station_id":"KPB","station_name":"Kampung Bandan","i_lat":-6.132549,"i_long":106.826365,"distance":1364,"transit":true,"is_transit":true,"time":3,"line":4},{"is_transit":false,"time":3,"station_id":"RJW","i_long":106.836569,"i_lat":-6.14505,"distance":1444,"line":11,"transit":false,"station_name":"Rajawali"},{"station_id":"KMO","is_transit":false,"time":5,"line":11,"i_long":106.839204,"transit":false,"station_name":"Kemayoran","i_lat":-6.161728,"distance":1901},{"time":4,"station_id":"PSE","transit":false,"distance":1436,"i_lat":-6.174784,"is_transit":false,"i_long":106.84368,"station_name":"Pasar Senen","line":11},{"distance":1567,"i_lat":-6.185975,"is_transit":false,"station_name":"Gang Sentiong","time":8,"line":11,"i_long":106.850107,"station_id":"GST","transit":false}]]}