{"data":[[{"line":3,"is_transit":false,"station_name":"Cilejit","time":0,"i_lat":-6.354349,"station_id":"CJT","transit":false,"distance":0,"i_long":106.508482},{"i_long":106.568863,"time":9,"line":6,"distance":7025,"station_name":"Parung Panjang","transit":false,"i_lat":-6.3441410000000005,"is_transit":false,"station_id":"PRP"},{"distance":5968,"i_lat":-6.329547,"station_name":"Cicayur","station_id":"CC","is_transit":false,"i_long":106.617853,"transit":false,"time":8,"line":3},{"transit":false,"station_name":"Cisauk","i_lat":-6.32484,"line":3,"time":4,"distance":2519,"station_id":"CSK","is_transit":false,"i_long":106.640411},{"station_name":"Serpong","is_transit":false,"line":6,"time":4,"i_lat":-6.319871,"i_long":106.66566,"transit":false,"distance":1784,"station_id":"SRP"},{"is_transit":false,"distance":2413,"transit":false,"time":4,"station_name":"Rawa Buntu","i_long":106.675475,"line":6,"i_lat":-6.314823,"station_id":"RU"},{"station_id":"SDM","line":6,"time":6,"i_lat":-6.296963,"transit":false,"is_transit":false,"i_long":106.712277,"station_name":"Sudimara","distance":4566},{"time":4,"line":6,"distance":1994,"i_lat":-6.288927,"i_long":106.728916,"station_name":"Jurangmangu","transit":false,"station_id":"JMU","is_transit":false},{"i_long":106.74273,"line":6,"distance":2179,"is_transit":false,"transit":false,"station_id":"PDJ","station_name":"Pondokranji","time":3,"i_lat":-6.276362},{"transit":false,"is_transit":false,"station_id":"KBY","station_name":"Kebayoran","i_lat":-6.237242,"time":8,"distance":6218,"i_long":106.780334,"line":6},{"is_transit":false,"time":7,"i_long":106.79689,"line":6,"station_id":"PLM","station_name":"Palmerah","i_lat":-6.207404,"transit":false,"distance":3737},{"station_name":"Tanah Abang","is_transit":true,"time":6,"i_lat":-6.185545,"line":1,"i_long":106.811091,"transit":true,"station_id":"THB","distance":3191},{"time":8,"distance":3632,"station_name":"Duri","transit":true,"station_id":"DU","is_transit":true,"line":1,"i_long":106.800832,"i_lat":-6.155215},{"i_long":106.788277,"is_transit":false,"transit":false,"station_name":"Grogol","time":3,"line":5,"station_id":"GGL","i_lat":-6.162021,"distance":1700},{"line":5,"i_lat":-6.161433,"i_long":106.771379,"is_transit":false,"transit":false,"station_id":"PSG","station_name":"Pesing","time":2,"distance":2036},{"time":2,"station_id":"TKO","distance":1614,"i_lat":-6.1587309999999995,"station_name":"Taman Kota","is_transit":false,"i_long":106.756522,"line":5,"transit":false},{"station_name":"Bojongindah","i_lat":-6.159876,"time":2,"station_id":"BOI","i_long":106.737035,"line":5,"transit":false,"distance":2334,"is_transit":false},{"transit":false,"station_id":"RW","station_name":"Rawa Buaya","is_transit":false,"time":4,"distance":1152,"line":5,"i_lat":-6.162758,"i_long":106.723064},{"transit":false,"i_long":106.701612,"distance":2504,"i_lat":-6.166068,"station_id":"KDS","line":5,"is_transit":false,"time":3,"station_name":"Kalideres"},{"station_id":"PI","line":5,"is_transit":false,"transit":false,"station_name":"Poris","i_lat":-6.169933,"distance":2548,"time":3,"i_long":106.679458}],[{"station_id":"CJT","time":0,"transit":false,"i_long":106.508482,"line":3,"i_lat":-6.354349,"distance":0,"is_transit":false,"station_name":"Cilejit"},{"time":9,"transit":false,"distance":7025,"i_lat":-6.3441410000000005,"is_transit":false,"station_name":"Parung Panjang","i_long":106.568863,"line":6,"station_id":"PRP"},{"time":8,"line":3,"distance":5968,"station_id":"CC","station_name":"Cicayur","i_long":106.617853,"transit":false,"i_lat":-6.329547,"is_transit":false},{"line":3,"is_transit":false,"station_name":"Cisauk","i_lat":-6.32484,"i_long":106.640411,"time":4,"distance":2519,"station_id":"CSK","transit":false},{"line":6,"time":4,"distance":1784,"station_id":"SRP","i_long":106.66566,"i_lat":-6.319871,"is_transit":false,"station_name":"Serpong","transit":false},{"station_id":"RU","line":6,"is_transit":false,"i_lat":-6.314823,"distance":2413,"transit":false,"station_name":"Rawa Buntu","time":4,"i_long":106.675475},{"i_long":106.712277,"line":6,"station_id":"SDM","is_transit":false,"time":6,"i_lat":-6.296963,"transit":false,"station_name":"Sudimara","distance":4566},{"i_long":106.728916,"i_lat":-6.288927,"station_id":"JMU","station_name":"Jurangmangu","time":4,"distance":1994,"line":6,"transit":false,"is_transit":false},{"station_id":"PDJ","station_name":"Pondokranji","is_transit":false,"line":6,"transit":false,"i_long":106.74273,"time":3,"distance":2179,"i_lat":-6.276362},{"transit":false,"i_long":106.780334,"station_id":"KBY","time":8,"is_transit":false,"line":6,"station_name":"Kebayoran","i_lat":-6.237242,"distance":6218},{"time":7,"station_id":"PLM","is_transit":false,"i_lat":-6.207404,"distance":3737,"line":6,"station_name":"Palmerah","i_long":106.79689,"transit":false},{"line":1,"is_transit":true,"station_id":"THB","i_lat":-6.185545,"i_long":106.811091,"time":6,"transit":true,"station_name":"Tanah Abang","distance":3191},{"line":1,"transit":false,"station_name":"Karet","is_transit":false,"station_id":"KAT","i_lat":-6.20132,"i_long":106.816351,"time":5,"distance":2029},{"transit":false,"time":1,"distance":471,"station_name":"Sudirman Baru","i_lat":-6.201433,"is_transit":false,"i_long":106.819881,"station_id":"SUDB","line":1},{"is_transit":false,"time":1,"i_lat":-6.202263,"i_long":106.822649,"station_id":"SUD","line":1,"transit":false,"distance":280,"station_name":"Sudirman"},{"is_transit":true,"distance":3186,"time":4,"i_lat":-6.209883,"line":2,"transit":true,"station_id":"MRI","i_long":106.84912,"station_name":"Manggarai"},{"i_lat":-6.198556,"transit":false,"i_long":106.840169,"line":2,"station_name":"Cikini","is_transit":false,"station_id":"CKI","time":4,"distance":1590},{"i_lat":-6.186295,"line":2,"station_id":"GDD","transit":false,"i_long":106.832183,"station_name":"Gondangdia","is_transit":false,"time":3,"distance":1750},{"distance":2015,"i_long":106.828284,"i_lat":-6.166716,"transit":false,"station_id":"JUA","station_name":"Juanda","time":4,"line":2,"is_transit":false},{"distance":1149,"station_id":"SW","is_transit":false,"i_lat":-6.160725,"transit":false,"time":2,"station_name":"Sawah Besar","i_long":106.827103,"line":2},{"line":2,"time":2,"station_name":"Manggabesar","station_id":"MGB","i_long":106.82482,"distance":906,"transit":false,"i_lat":-6.149769,"is_transit":false},{"transit":false,"distance":1080,"station_name":"Jayakarta","i_lat":-6.141205,"is_transit":false,"i_long":106.820901,"station_id":"JAY","line":2,"time":2},{"i_lat":-6.137569,"i_long":106.812439,"transit":true,"station_id":"JAKK","is_transit":true,"time":4,"distance":1264,"station_name":"Jakarta Kota","line":2},{"time":3,"line":4,"station_name":"Kampung Bandan","station_id":"KPB","i_lat":-6.132549,"transit":true,"is_transit":true,"distance":1364,"i_long":106.826365},{"distance":4102,"time":9,"station_id":"AK","is_transit":false,"line":1,"transit":false,"station_name":"Angke","i_lat":-6.144674,"i_long":106.79867},{"transit":true,"station_name":"Duri","line":1,"i_long":106.800832,"distance":1230,"time":4,"is_transit":true,"i_lat":-6.155215,"station_id":"DU"},{"transit":false,"time":3,"station_id":"GGL","line":5,"i_lat":-6.162021,"station_name":"Grogol","is_transit":false,"distance":1700,"i_long":106.788277},{"i_long":106.771379,"station_id":"PSG","line":5,"time":2,"transit":false,"distance":2036,"station_name":"Pesing","i_lat":-6.161433,"is_transit":false},{"station_name":"Taman Kota","is_transit":false,"distance":1614,"i_lat":-6.1587309999999995,"line":5,"i_long":106.756522,"station_id":"TKO","time":2,"transit":false},{"i_lat":-6.159876,"station_name":"Bojongindah","station_id":"BOI","distance":2334,"transit":false,"time":2,"i_long":106.737035,"line":5,"is_transit":false},{"time":4,"i_lat":-6.162758,"station_id":"RW","is_transit":false,"transit":false,"station_name":"Rawa Buaya","distance":1152,"i_long":106.723064,"line":5},{"distance":2504,"i_long":106.701612,"station_name":"Kalideres","i_lat":-6.166068,"line":5,"station_id":"KDS","is_transit":false,"time":3,"transit":false},{"is_transit":false,"time":3,"i_lat":-6.169933,"station_id":"PI","i_long":106.679458,"line":5,"station_name":"Poris","distance":2548,"transit":false}],[{"station_id":"CJT","is_transit":false,"i_long":106.508482,"distance":0,"transit":false,"station_name":"Cilejit","time":0,"line":3,"i_lat":-6.354349},{"i_long":106.568863,"distance":7025,"time":9,"line":6,"station_name":"Parung Panjang","i_lat":-6.3441410000000005,"transit":false,"is_transit":false,"station_id":"PRP"},{"time":8,"i_lat":-6.329547,"station_name":"Cicayur","is_transit":false,"line":3,"transit":false,"i_long":106.617853,"distance":5968,"station_id":"CC"},{"station_name":"Cisauk","is_transit":false,"distance":2519,"line":3,"station_id":"CSK","i_long":106.640411,"time":4,"i_lat":-6.32484,"transit":false},{"line":6,"transit":false,"station_name":"Serpong","station_id":"SRP","time":4,"distance":1784,"i_lat":-6.319871,"i_long":106.66566,"is_transit":false},{"station_id":"RU","is_transit":false,"time":4,"distance":2413,"i_lat":-6.314823,"i_long":106.675475,"station_name":"Rawa Buntu","line":6,"transit":false},{"i_long":106.712277,"line":6,"is_transit":false,"i_lat":-6.296963,"distance":4566,"station_id":"SDM","transit":false,"time":6,"station_name":"Sudimara"},{"i_lat":-6.288927,"station_name":"Jurangmangu","i_long":106.728916,"station_id":"JMU","is_transit":false,"time":4,"line":6,"distance":1994,"transit":false},{"line":6,"i_lat":-6.276362,"is_transit":false,"time":3,"i_long":106.74273,"transit":false,"station_name":"Pondokranji","distance":2179,"station_id":"PDJ"},{"station_id":"KBY","line":6,"i_long":106.780334,"is_transit":false,"time":8,"distance":6218,"i_lat":-6.237242,"station_name":"Kebayoran","transit":false},{"station_name":"Palmerah","i_long":106.79689,"is_transit":false,"transit":false,"station_id":"PLM","time":7,"distance":3737,"i_lat":-6.207404,"line":6},{"i_long":106.811091,"i_lat":-6.185545,"station_name":"Tanah Abang","station_id":"THB","time":6,"is_transit":true,"distance":3191,"line":1,"transit":true},{"station_id":"KAT","is_transit":false,"transit":false,"i_lat":-6.20132,"station_name":"Karet","i_long":106.816351,"line":1,"time":5,"distance":2029},{"station_name":"Sudirman Baru","station_id":"SUDB","distance":471,"time":1,"i_lat":-6.201433,"i_long":106.819881,"is_transit":false,"line":1,"transit":false},{"is_transit":false,"i_long":106.822649,"time":1,"line":1,"transit":false,"station_id":"SUD","distance":280,"station_name":"Sudirman","i_lat":-6.202263},{"transit":false,"station_name":"Manggarai","station_id":"MRI","i_lat":-6.209883,"i_long":106.84912,"time":4,"is_transit":false,"distance":3186,"line":2},{"is_transit":false,"line":1,"transit":false,"station_name":"Matraman","station_id":"MTR","time":2,"i_lat":-6.212485,"distance":1275,"i_long":106.858896},{"line":1,"time":8,"distance":1377,"i_long":106.86807400000001,"i_lat":-6.215091,"station_id":"JNG","transit":true,"is_transit":true,"station_name":"Jatinegara"},{"distance":1236,"i_long":106.861737,"line":11,"station_name":"Pondok Jati","station_id":"POK","transit":false,"is_transit":false,"time":2,"i_lat":-6.209188},{"station_id":"KMT","i_lat":-6.193792,"line":11,"is_transit":false,"time":2,"distance":1829,"i_long":106.855437,"station_name":"Kramat","transit":false},{"i_lat":-6.185975,"station_id":"GST","i_long":106.850107,"time":1,"transit":false,"line":11,"station_name":"Gang Sentiong","is_transit":false,"distance":973},{"station_id":"PSE","station_name":"Pasar Senen","i_lat":-6.174784,"i_long":106.84368,"distance":1567,"transit":false,"is_transit":false,"time":8,"line":11},{"is_transit":false,"time":4,"station_id":"KMO","i_long":106.839204,"i_lat":-6.161728,"distance":1436,"line":11,"transit":false,"station_name":"Kemayoran"},{"station_id":"RJW","is_transit":false,"time":5,"line":11,"i_long":106.836569,"transit":false,"station_name":"Rajawali","i_lat":-6.14505,"distance":1901},{"time":3,"station_id":"KPB","transit":true,"distance":1444,"i_lat":-6.132549,"is_transit":true,"i_long":106.826365,"station_name":"Kampung Bandan","line":4},{"distance":4102,"i_lat":-6.144674,"is_transit":false,"station_name":"Angke","time":9,"line":1,"i_long":106.79867,"station_id":"AK","transit":false},{"time":4,"station_name":"Duri","is_transit":true,"transit":true,"station_id":"DU","distance":1230,"i_long":106.800832,"i_lat":-6.155215,"line":1},{"time":3,"transit":false,"station_name":"Grogol","line":5,"station_id":"GGL","is_transit":false,"i_lat":-6.162021,"i_long":106.788277,"distance":1700},{"i_lat":-6.161433,"station_id":"PSG","time":2,"transit":false,"is_transit":false,"i_long":106.771379,"distance":2036,"station_name":"Pesing","line":5},{"line":5,"station_id":"TKO","time":2,"i_lat":-6.1587309999999995,"transit":false,"distance":1614,"station_name":"Taman Kota","i_long":106.756522,"is_transit":false},{"time":2,"is_transit":false,"distance":2334,"i_lat":-6.159876,"station_id":"BOI","i_long":106.737035,"line":5,"station_name":"Bojongindah","transit":false},{"distance":1152,"i_long":106.723064,"station_id":"RW","line":5,"transit":false,"is_transit":false,"time":4,"i_lat":-6.162758,"station_name":"Rawa Buaya"},{"i_long":106.701612,"transit":false,"time":3,"line":5,"i_lat":-6.166068,"distance":2504,"station_id":"KDS","station_name":"Kalideres","is_transit":false},{"time":3,"station_name":"Poris","station_id":"PI","is_transit":false,"i_lat":-6.169933,"i_long":106.679458,"distance":2548,"transit":false,"line":5}]]}