{"data":[[{"is_transit":false,"line":3,"time":0,"transit":false,"distance":0,"i_long":106.508482,"station_name":"Cilejit","station_id":"CJT","i_lat":-6.354349},{"time":9,"transit":false,"is_transit":false,"station_id":"PRP","line":6,"station_name":"Parung Panjang","distance":7025,"i_lat":-6.3441410000000005,"i_long":106.568863},{"distance":5968,"transit":false,"station_name":"Cicayur","station_id":"CC","line":3,"is_transit":false,"i_long":106.617853,"i_lat":-6.329547,"time":8},{"i_long":106.640411,"line":3,"transit":false,"time":4,"distance":2519,"station_id":"CSK","is_transit":false,"i_lat":-6.32484,"station_name":"Cisauk"},{"i_long":106.66566,"line":6,"is_transit":false,"distance":1784,"station_id":"SRP","transit":false,"time":4,"station_name":"Serpong","i_lat":-6.319871},{"time":4,"transit":false,"i_lat":-6.314823,"distance":2413,"i_long":106.675475,"line":6,"station_id":"RU","station_name":"Rawa Buntu","is_transit":false},{"i_long":106.712277,"distance":4566,"i_lat":-6.296963,"time":6,"transit":false,"line":6,"is_transit":false,"station_id":"SDM","station_name":"Sudimara"},{"transit":false,"station_id":"JMU","station_name":"Jurangmangu","line":6,"distance":1994,"i_long":106.728916,"is_transit":false,"time":4,"i_lat":-6.288927},{"time":3,"station_id":"PDJ","is_transit":false,"i_lat":-6.276362,"transit":false,"distance":2179,"i_long":106.74273,"line":6,"station_name":"Pondokranji"},{"is_transit":false,"distance":6218,"transit":false,"line":6,"i_lat":-6.237242,"time":8,"i_long":106.780334,"station_id":"KBY","station_name":"Kebayoran"},{"i_lat":-6.207404,"is_transit":false,"station_name":"Palmerah","transit":false,"station_id":"PLM","distance":3737,"line":6,"i_long":106.79689,"time":7},{"distance":3191,"transit":true,"i_lat":-6.185545,"i_long":106.811091,"time":6,"station_id":"THB","station_name":"Tanah Abang","is_transit":true,"line":1},{"transit":false,"distance":3632,"station_name":"Duri","is_transit":false,"i_lat":-6.155215,"i_long":106.800832,"line":1,"station_id":"DU","time":8},{"i_long":106.79867,"i_lat":-6.144674,"station_id":"AK","transit":false,"line":1,"time":4,"distance":1230,"station_name":"Angke","is_transit":false},{"i_lat":-6.132549,"station_id":"KPB","time":9,"transit":true,"i_long":106.826365,"station_name":"Kampung Bandan","distance":4102,"is_transit":true,"line":4},{"time":4,"is_transit":false,"line":4,"distance":2185,"station_id":"AC","transit":false,"i_lat":-6.128023,"i_long":106.84464,"station_name":"Ancol"},{"station_name":"Tanjung Priuk","transit":false,"i_lat":-6.1109480000000005,"line":4,"time":9,"station_id":"TPK","is_transit":false,"distance":4566,"i_long":106.880089}],[{"distance":0,"line":3,"time":0,"i_long":106.508482,"transit":false,"i_lat":-6.354349,"station_id":"CJT","station_name":"Cilejit","is_transit":false},{"i_long":106.568863,"is_transit":false,"transit":false,"time":9,"distance":7025,"line":6,"station_id":"PRP","i_lat":-6.3441410000000005,"station_name":"Parung Panjang"},{"i_long":106.617853,"transit":false,"i_lat":-6.329547,"station_id":"CC","time":8,"station_name":"Cicayur","distance":5968,"line":3,"is_transit":false},{"i_long":106.640411,"distance":2519,"station_id":"CSK","transit":false,"time":4,"line":3,"is_transit":false,"station_name":"Cisauk","i_lat":-6.32484},{"station_name":"Serpong","station_id":"SRP","i_long":106.66566,"transit":false,"is_transit":false,"time":4,"i_lat":-6.319871,"line":6,"distance":1784},{"station_id":"RU","time":4,"transit":false,"line":6,"i_long":106.675475,"distance":2413,"is_transit":false,"i_lat":-6.314823,"station_name":"Rawa Buntu"},{"i_lat":-6.296963,"station_name":"Sudimara","transit":false,"is_transit":false,"time":6,"distance":4566,"station_id":"SDM","i_long":106.712277,"line":6},{"station_id":"JMU","distance":1994,"i_long":106.728916,"is_transit":false,"station_name":"Jurangmangu","transit":false,"time":4,"line":6,"i_lat":-6.288927},{"station_name":"Pondokranji","distance":2179,"i_lat":-6.276362,"line":6,"transit":false,"time":3,"i_long":106.74273,"station_id":"PDJ","is_transit":false},{"station_name":"Kebayoran","transit":false,"time":8,"i_lat":-6.237242,"i_long":106.780334,"distance":6218,"line":6,"is_transit":false,"station_id":"KBY"},{"distance":3737,"station_id":"PLM","line":6,"station_name":"Palmerah","transit":false,"i_lat":-6.207404,"i_long":106.79689,"is_transit":false,"time":7},{"is_transit":true,"station_id":"THB","distance":3191,"i_lat":-6.185545,"i_long":106.811091,"time":6,"transit":true,"station_name":"Tanah Abang","line":1},{"station_name":"Karet","i_long":106.816351,"station_id":"KAT","line":1,"time":5,"is_transit":false,"transit":false,"distance":2029,"i_lat":-6.20132},{"station_name":"Sudirman Baru","distance":471,"i_long":106.819881,"station_id":"SUDB","i_lat":-6.201433,"line":1,"is_transit":false,"transit":false,"time":1},{"i_lat":-6.202263,"is_transit":false,"time":1,"line":1,"station_id":"SUD","transit":false,"i_long":106.822649,"station_name":"Sudirman","distance":280},{"station_name":"Manggarai","i_lat":-6.209883,"time":4,"is_transit":true,"station_id":"MRI","distance":3186,"i_long":106.84912,"line":2,"transit":true},{"i_lat":-6.198556,"transit":false,"distance":1590,"station_name":"Cikini","time":4,"line":2,"is_transit":false,"i_long":106.840169,"station_id":"CKI"},{"i_long":106.832183,"line":2,"distance":1750,"is_transit":false,"transit":false,"i_lat":-6.186295,"station_id":"GDD","time":3,"station_name":"Gondangdia"},{"i_lat":-6.166716,"station_name":"Juanda","transit":false,"is_transit":false,"station_id":"JUA","distance":2015,"time":4,"i_long":106.828284,"line":2},{"station_name":"Sawah Besar","is_transit":false,"station_id":"SW","distance":1149,"i_long":106.827103,"line":2,"i_lat":-6.160725,"time":2,"transit":false},{"i_long":106.82482,"i_lat":-6.149769,"is_transit":false,"transit":false,"station_id":"MGB","station_name":"Manggabesar","time":2,"line":2,"distance":906},{"distance":1080,"i_lat":-6.141205,"station_name":"Jayakarta","line":2,"transit":false,"time":2,"is_transit":false,"i_long":106.820901,"station_id":"JAY"},{"distance":1264,"i_long":106.812439,"station_id":"JAKK","transit":true,"time":4,"is_transit":true,"station_name":"Jakarta Kota","i_lat":-6.137569,"line":2},{"time":3,"line":4,"station_id":"KPB","i_lat":-6.132549,"i_long":106.826365,"station_name":"Kampung Bandan","is_transit":true,"transit":true,"distance":1364},{"i_long":106.84464,"station_name":"Ancol","time":4,"i_lat":-6.128023,"line":4,"distance":2185,"station_id":"AC","transit":false,"is_transit":false},{"distance":4566,"is_transit":false,"station_name":"Tanjung Priuk","station_id":"TPK","transit":false,"i_long":106.880089,"line":4,"time":9,"i_lat":-6.1109480000000005}],[{"is_transit":false,"distance":0,"i_lat":-6.354349,"station_name":"Cilejit","transit":false,"station_id":"CJT","time":0,"i_long":106.508482,"line":3},{"is_transit":false,"station_name":"Parung Panjang","transit":false,"station_id":"PRP","i_lat":-6.3441410000000005,"i_long":106.568863,"line":6,"time":9,"distance":7025},{"i_lat":-6.329547,"station_name":"Cicayur","is_transit":false,"i_long":106.617853,"line":3,"transit":false,"station_id":"CC","distance":5968,"time":8},{"distance":2519,"station_name":"Cisauk","time":4,"i_long":106.640411,"is_transit":false,"line":3,"i_lat":-6.32484,"transit":false,"station_id":"CSK"},{"time":4,"i_long":106.66566,"transit":false,"station_name":"Serpong","distance":1784,"line":6,"is_transit":false,"station_id":"SRP","i_lat":-6.319871},{"line":6,"i_lat":-6.314823,"time":4,"i_long":106.675475,"transit":false,"station_id":"RU","station_name":"Rawa Buntu","is_transit":false,"distance":2413},{"time":6,"transit":false,"i_long":106.712277,"is_transit":false,"distance":4566,"station_name":"Sudimara","i_lat":-6.296963,"station_id":"SDM","line":6},{"is_transit":false,"station_name":"Jurangmangu","i_lat":-6.288927,"distance":1994,"transit":false,"line":6,"time":4,"station_id":"JMU","i_long":106.728916},{"i_long":106.74273,"station_id":"PDJ","station_name":"Pondokranji","line":6,"time":3,"is_transit":false,"distance":2179,"i_lat":-6.276362,"transit":false},{"i_long":106.780334,"line":6,"station_id":"KBY","station_name":"Kebayoran","i_lat":-6.237242,"transit":false,"time":8,"distance":6218,"is_transit":false},{"station_name":"Palmerah","time":7,"transit":false,"station_id":"PLM","i_lat":-6.207404,"is_transit":false,"line":6,"i_long":106.79689,"distance":3737},{"line":1,"i_lat":-6.185545,"station_name":"Tanah Abang","is_transit":true,"transit":true,"station_id":"THB","time":6,"i_long":106.811091,"distance":3191},{"i_long":106.816351,"station_name":"Karet","line":1,"is_transit":false,"transit":false,"station_id":"KAT","time":5,"i_lat":-6.20132,"distance":2029},{"i_long":106.819881,"station_name":"Sudirman Baru","i_lat":-6.201433,"line":1,"transit":false,"is_transit":false,"station_id":"SUDB","time":1,"distance":471},{"transit":false,"distance":280,"line":1,"station_id":"SUD","is_transit":false,"time":1,"i_long":106.822649,"i_lat":-6.202263,"station_name":"Sudirman"},{"line":2,"transit":false,"distance":3186,"station_name":"Manggarai","is_transit":false,"station_id":"MRI","time":4,"i_long":106.84912,"i_lat":-6.209883},{"i_lat":-6.212485,"station_name":"Matraman","is_transit":false,"distance":1275,"i_long":106.858896,"transit":false,"station_id":"MTR","time":2,"line":1},{"is_transit":true,"station_id":"JNG","time":8,"station_name":"Jatinegara","i_lat":-6.215091,"transit":true,"line":1,"distance":1377,"i_long":106.86807400000001},{"distance":1236,"transit":false,"i_long":106.861737,"station_name":"Pondok Jati","time":2,"i_lat":-6.209188,"station_id":"POK","is_transit":false,"line":11},{"i_lat":-6.193792,"distance":1829,"station_id":"KMT","is_transit":false,"i_long":106.855437,"station_name":"Kramat","transit":false,"time":2,"line":11},{"station_name":"Gang Sentiong","i_lat":-6.185975,"i_long":106.850107,"is_transit":false,"station_id":"GST","time":1,"transit":false,"line":11,"distance":973},{"station_name":"Pasar Senen","time":8,"i_long":106.84368,"station_id":"PSE","is_transit":false,"distance":1567,"transit":false,"i_lat":-6.174784,"line":11},{"distance":1436,"i_long":106.839204,"is_transit":false,"station_name":"Kemayoran","i_lat":-6.161728,"line":11,"station_id":"KMO","transit":false,"time":4},{"i_long":106.836569,"line":11,"is_transit":false,"time":5,"i_lat":-6.14505,"station_name":"Rajawali","transit":false,"distance":1901,"station_id":"RJW"},{"i_long":106.826365,"line":4,"station_name":"Kampung Bandan","distance":1444,"i_lat":-6.132549,"transit":true,"is_transit":true,"station_id":"KPB","time":3},{"distance":2185,"is_transit":false,"station_id":"AC","i_lat":-6.128023,"i_long":106.84464,"line":4,"station_name":"Ancol","time":4,"transit":false},{"i_long":106.880089,"line":4,"i_lat":-6.1109480000000005,"distance":4566,"transit":false,"is_transit":false,"station_name":"Tanjung Priuk","station_id":"TPK","time":9}]]}