{"data":[[{"time":0,"i_long":106.508482,"i_lat":-6.354349,"line":3,"station_name":"Cilejit","is_transit":false,"distance":0,"station_id":"CJT","transit":false},{"station_name":"Parung Panjang","line":6,"distance":7025,"i_lat":-6.3441410000000005,"is_transit":false,"time":9,"station_id":"PRP","transit":false,"i_long":106.568863},{"line":3,"distance":5968,"station_id":"CC","station_name":"Cicayur","is_transit":false,"transit":false,"i_lat":-6.329547,"i_long":106.617853,"time":8},{"transit":false,"station_id":"CSK","station_name":"Cisauk","is_transit":false,"line":3,"time":4,"distance":2519,"i_lat":-6.32484,"i_long":106.640411},{"is_transit":false,"i_lat":-6.319871,"time":4,"transit":false,"station_name":"Serpong","station_id":"SRP","line":6,"distance":1784,"i_long":106.66566},{"station_id":"RU","line":6,"i_lat":-6.314823,"is_transit":false,"station_name":"Rawa Buntu","distance":2413,"i_long":106.675475,"transit":false,"time":4},{"i_lat":-6.296963,"transit":false,"is_transit":false,"line":6,"i_long":106.712277,"distance":4566,"station_name":"Sudimara","time":6,"station_id":"SDM"},{"time":4,"is_transit":false,"i_long":106.728916,"transit":false,"i_lat":-6.288927,"station_id":"JMU","line":6,"distance":1994,"station_name":"Jurangmangu"},{"station_id":"PDJ","is_transit":false,"distance":2179,"station_name":"Pondokranji","i_lat":-6.276362,"i_long":106.74273,"time":3,"line":6,"transit":false},{"station_id":"KBY","distance":6218,"station_name":"Kebayoran","time":8,"is_transit":false,"i_lat":-6.237242,"line":6,"i_long":106.780334,"transit":false},{"time":7,"station_id":"PLM","station_name":"Palmerah","transit":false,"i_long":106.79689,"is_transit":false,"line":6,"i_lat":-6.207404,"distance":3737},{"i_lat":-6.185545,"distance":3191,"line":1,"i_long":106.811091,"station_id":"THB","time":6,"station_name":"Tanah Abang","is_transit":true,"transit":true},{"transit":false,"i_long":106.800832,"station_id":"DU","station_name":"Duri","is_transit":false,"distance":3632,"i_lat":-6.155215,"line":1,"time":8},{"station_name":"Angke","transit":false,"station_id":"AK","distance":1230,"time":4,"i_lat":-6.144674,"line":1,"i_long":106.79867,"is_transit":false},{"time":9,"station_id":"KPB","i_lat":-6.132549,"line":4,"transit":true,"i_long":106.826365,"station_name":"Kampung Bandan","distance":4102,"is_transit":true},{"i_lat":-6.128023,"station_name":"Ancol","time":4,"i_long":106.84464,"station_id":"AC","is_transit":false,"distance":2185,"line":4,"transit":false},{"i_long":106.880089,"station_id":"TPK","transit":false,"time":9,"distance":4566,"is_transit":false,"station_name":"Tanjung Priuk","line":4,"i_lat":-6.1109480000000005}],[{"station_id":"CJT","is_transit":false,"i_long":106.508482,"i_lat":-6.354349,"station_name":"Cilejit","line":3,"time":0,"distance":0,"transit":false},{"i_lat":-6.3441410000000005,"transit":false,"line":6,"time":9,"station_id":"PRP","station_name":"Parung Panjang","is_transit":false,"distance":7025,"i_long":106.568863},{"is_transit":false,"i_long":106.617853,"i_lat":-6.329547,"distance":5968,"time":8,"station_name":"Cicayur","line":3,"transit":false,"station_id":"CC"},{"station_name":"Cisauk","i_lat":-6.32484,"transit":false,"distance":2519,"time":4,"is_transit":false,"i_long":106.640411,"station_id":"CSK","line":3},{"station_id":"SRP","time":4,"is_transit":false,"i_lat":-6.319871,"i_long":106.66566,"transit":false,"distance":1784,"line":6,"station_name":"Serpong"},{"transit":false,"station_name":"Rawa Buntu","line":6,"is_transit":false,"time":4,"i_long":106.675475,"station_id":"RU","i_lat":-6.314823,"distance":2413},{"transit":false,"distance":4566,"line":6,"time":6,"i_lat":-6.296963,"station_id":"SDM","i_long":106.712277,"station_name":"Sudimara","is_transit":false},{"is_transit":false,"i_lat":-6.288927,"distance":1994,"line":6,"transit":false,"station_id":"JMU","time":4,"i_long":106.728916,"station_name":"Jurangmangu"},{"distance":2179,"i_long":106.74273,"station_name":"Pondokranji","line":6,"time":3,"is_transit":false,"i_lat":-6.276362,"station_id":"PDJ","transit":false},{"time":8,"station_id":"KBY","distance":6218,"i_long":106.780334,"station_name":"Kebayoran","i_lat":-6.237242,"line":6,"is_transit":false,"transit":false},{"station_id":"PLM","i_long":106.79689,"line":6,"time":7,"transit":false,"station_name":"Palmerah","is_transit":false,"distance":3737,"i_lat":-6.207404},{"i_long":106.811091,"distance":3191,"station_id":"THB","i_lat":-6.185545,"station_name":"Tanah Abang","line":1,"is_transit":true,"transit":true,"time":6},{"time":5,"station_name":"Karet","transit":false,"i_lat":-6.20132,"station_id":"KAT","line":1,"i_long":106.816351,"is_transit":false,"distance":2029},{"distance":471,"station_name":"Sudirman Baru","i_long":106.819881,"time":1,"line":1,"transit":false,"station_id":"SUDB","is_transit":false,"i_lat":-6.201433},{"station_id":"SUD","transit":false,"i_long":106.822649,"is_transit":false,"time":1,"distance":280,"i_lat":-6.202263,"station_name":"Sudirman","line":1},{"distance":3186,"transit":true,"i_lat":-6.209883,"time":4,"line":2,"station_id":"MRI","is_transit":true,"i_long":106.84912,"station_name":"Manggarai"},{"i_long":106.840169,"i_lat":-6.198556,"is_transit":false,"time":4,"line":2,"station_name":"Cikini","transit":false,"station_id":"CKI","distance":1590},{"distance":1750,"transit":false,"i_lat":-6.186295,"station_id":"GDD","is_transit":false,"i_long":106.832183,"station_name":"Gondangdia","line":2,"time":3},{"line":2,"time":4,"i_lat":-6.166716,"i_long":106.828284,"transit":false,"distance":2015,"station_id":"JUA","station_name":"Juanda","is_transit":false},{"station_id":"SW","i_long":106.827103,"transit":false,"is_transit":false,"time":2,"i_lat":-6.160725,"line":2,"station_name":"Sawah Besar","distance":1149},{"i_lat":-6.149769,"is_transit":false,"time":2,"i_long":106.82482,"station_name":"Manggabesar","transit":false,"distance":906,"station_id":"MGB","line":2},{"time":2,"station_id":"JAY","station_name":"Jayakarta","distance":1080,"i_lat":-6.141205,"line":2,"i_long":106.820901,"is_transit":false,"transit":false},{"station_id":"JAKK","i_lat":-6.137569,"station_name":"Jakarta Kota","transit":true,"i_long":106.812439,"line":2,"distance":1264,"time":4,"is_transit":true},{"distance":1364,"i_long":106.826365,"transit":true,"i_lat":-6.132549,"station_id":"KPB","time":3,"station_name":"Kampung Bandan","line":4,"is_transit":true},{"station_name":"Ancol","time":4,"is_transit":false,"transit":false,"distance":2185,"i_lat":-6.128023,"i_long":106.84464,"line":4,"station_id":"AC"},{"station_name":"Tanjung Priuk","is_transit":false,"transit":false,"station_id":"TPK","time":9,"distance":4566,"i_long":106.880089,"line":4,"i_lat":-6.1109480000000005}],[{"transit":false,"station_id":"CJT","time":0,"i_lat":-6.354349,"i_long":106.508482,"station_name":"Cilejit","is_transit":false,"distance":0,"line":3},{"distance":7025,"i_long":106.568863,"transit":false,"is_transit":false,"station_id":"PRP","line":6,"station_name":"Parung Panjang","i_lat":-6.3441410000000005,"time":9},{"distance":5968,"station_id":"CC","station_name":"Cicayur","line":3,"i_long":106.617853,"is_transit":false,"transit":false,"i_lat":-6.329547,"time":8},{"i_lat":-6.32484,"time":4,"station_id":"CSK","line":3,"transit":false,"is_transit":false,"distance":2519,"i_long":106.640411,"station_name":"Cisauk"},{"is_transit":false,"transit":false,"time":4,"station_id":"SRP","i_long":106.66566,"station_name":"Serpong","distance":1784,"line":6,"i_lat":-6.319871},{"transit":false,"distance":2413,"i_lat":-6.314823,"i_long":106.675475,"is_transit":false,"station_name":"Rawa Buntu","line":6,"time":4,"station_id":"RU"},{"transit":false,"time":6,"distance":4566,"i_lat":-6.296963,"is_transit":false,"station_id":"SDM","station_name":"Sudimara","i_long":106.712277,"line":6},{"i_lat":-6.288927,"transit":false,"line":6,"station_name":"Jurangmangu","is_transit":false,"station_id":"JMU","i_long":106.728916,"time":4,"distance":1994},{"time":3,"i_long":106.74273,"distance":2179,"station_name":"Pondokranji","station_id":"PDJ","line":6,"i_lat":-6.276362,"is_transit":false,"transit":false},{"distance":6218,"station_id":"KBY","i_long":106.780334,"transit":false,"station_name":"Kebayoran","line":6,"time":8,"i_lat":-6.237242,"is_transit":false},{"i_long":106.79689,"time":7,"is_transit":false,"distance":3737,"transit":false,"station_name":"Palmerah","i_lat":-6.207404,"line":6,"station_id":"PLM"},{"distance":3191,"i_long":106.811091,"is_transit":true,"i_lat":-6.185545,"time":6,"station_id":"THB","station_name":"Tanah Abang","transit":true,"line":1},{"is_transit":false,"distance":2029,"station_id":"KAT","i_lat":-6.20132,"transit":false,"i_long":106.816351,"station_name":"Karet","time":5,"line":1},{"is_transit":false,"station_name":"Sudirman Baru","time":1,"line":1,"distance":471,"station_id":"SUDB","i_lat":-6.201433,"i_long":106.819881,"transit":false},{"i_long":106.822649,"time":1,"station_name":"Sudirman","is_transit":false,"station_id":"SUD","i_lat":-6.202263,"transit":false,"distance":280,"line":1},{"time":4,"station_id":"MRI","is_transit":false,"distance":3186,"line":2,"station_name":"Manggarai","i_long":106.84912,"transit":false,"i_lat":-6.209883},{"is_transit":false,"i_lat":-6.212485,"distance":1275,"line":1,"i_long":106.858896,"time":2,"station_name":"Matraman","transit":false,"station_id":"MTR"},{"line":1,"is_transit":true,"distance":1377,"time":8,"station_name":"Jatinegara","transit":true,"i_lat":-6.215091,"i_long":106.86807400000001,"station_id":"JNG"},{"distance":1236,"time":2,"i_long":106.861737,"station_name":"Pondok Jati","transit":false,"i_lat":-6.209188,"is_transit":false,"line":11,"station_id":"POK"},{"i_long":106.855437,"transit":false,"distance":1829,"time":2,"i_lat":-6.193792,"station_id":"KMT","station_name":"Kramat","line":11,"is_transit":false},{"i_lat":-6.185975,"i_long":106.850107,"station_id":"GST","distance":973,"transit":false,"station_name":"Gang Sentiong","time":1,"line":11,"is_transit":false},{"station_name":"Pasar Senen","time":8,"line":11,"station_id":"PSE","transit":false,"distance":1567,"is_transit":false,"i_lat":-6.174784,"i_long":106.84368},{"distance":1436,"station_name":"Kemayoran","station_id":"KMO","transit":false,"is_transit":false,"time":4,"i_lat":-6.161728,"i_long":106.839204,"line":11},{"i_lat":-6.14505,"transit":false,"is_transit":false,"station_id":"RJW","station_name":"Rajawali","line":11,"time":5,"i_long":106.836569,"distance":1901},{"distance":1444,"i_lat":-6.132549,"line":4,"i_long":106.826365,"station_name":"Kampung Bandan","station_id":"KPB","is_transit":true,"time":3,"transit":true},{"station_name":"Ancol","i_lat":-6.128023,"is_transit":false,"transit":false,"distance":2185,"i_long":106.84464,"time":4,"station_id":"AC","line":4},{"station_id":"TPK","transit":false,"distance":4566,"i_lat":-6.1109480000000005,"line":4,"i_long":106.880089,"time":9,"is_transit":false,"station_name":"Tanjung Priuk"}]]}