{"data":[[{"transit":false,"is_transit":false,"time":0,"i_long":106.508482,"line":0,"station_name":"Cilejit","distance":0,"i_lat":-6.354349,"station_id":"CJT"},{"is_transit":false,"station_name":"Parung Panjang","time":9,"distance":7025,"station_id":"PRP","i_lat":-6.3441410000000005,"transit":false,"i_long":106.568863,"line":6},{"is_transit":false,"station_id":"CC","i_lat":-6.329547,"i_long":106.617853,"station_name":"Cicayur","transit":false,"time":8,"distance":5968,"line":0},{"i_long":106.640411,"station_id":"CSK","line":0,"transit":false,"station_name":"Cisauk","time":4,"distance":2519,"i_lat":-6.32484,"is_transit":false},{"time":4,"station_id":"SRP","station_name":"Serpong","line":6,"i_lat":-6.319871,"distance":1784,"transit":false,"i_long":106.66566,"is_transit":false},{"station_name":"Rawa Buntu","station_id":"RU","i_long":106.675475,"time":4,"i_lat":-6.314823,"is_transit":false,"line":6,"transit":false,"distance":2413},{"time":6,"is_transit":false,"transit":false,"station_name":"Sudimara","i_long":106.712277,"distance":4566,"station_id":"SDM","i_lat":-6.296963,"line":6},{"transit":false,"is_transit":false,"i_long":106.728916,"i_lat":-6.288927,"time":4,"line":6,"station_name":"Jurangmangu","station_id":"JMU","distance":1994},{"transit":false,"i_lat":-6.276362,"is_transit":false,"distance":2179,"station_name":"Pondokranji","line":6,"i_long":106.74273,"station_id":"PDJ","time":3},{"i_lat":-6.237242,"time":8,"station_name":"Kebayoran","line":6,"station_id":"KBY","transit":false,"is_transit":false,"i_long":106.780334,"distance":6218},{"line":6,"station_name":"Palmerah","is_transit":false,"distance":3737,"i_lat":-6.207404,"i_long":106.79689,"transit":false,"station_id":"PLM","time":7},{"distance":3191,"station_name":"Tanah Abang","i_lat":-6.185545,"i_long":106.811091,"is_transit":true,"transit":true,"time":6,"station_id":"THB","line":1},{"is_transit":true,"station_id":"DU","i_long":106.800832,"transit":true,"time":8,"line":1,"station_name":"Duri","i_lat":-6.155215,"distance":3632},{"i_long":106.788277,"is_transit":false,"station_name":"Grogol","transit":false,"distance":1700,"line":5,"time":3,"i_lat":-6.162021,"station_id":"GGL"},{"time":2,"station_id":"PSG","i_lat":-6.161433,"i_long":106.771379,"is_transit":false,"line":5,"transit":false,"station_name":"Pesing","distance":2036},{"distance":1614,"i_long":106.756522,"is_transit":false,"station_id":"TKO","line":5,"transit":false,"time":2,"i_lat":-6.1587309999999995,"station_name":"Taman Kota"},{"station_name":"Bojongindah","time":2,"i_lat":-6.159876,"is_transit":false,"i_long":106.737035,"station_id":"BOI","distance":2334,"line":0,"transit":false},{"i_lat":-6.162758,"time":4,"is_transit":false,"transit":false,"station_id":"RW","i_long":106.723064,"station_name":"Rawa Buaya","distance":1152,"line":5},{"transit":false,"station_id":"KDS","i_long":106.701612,"is_transit":false,"i_lat":-6.166068,"station_name":"Kalideres","line":5,"distance":2504,"time":3},{"time":3,"transit":false,"is_transit":false,"i_lat":-6.169933,"station_name":"Poris","line":5,"station_id":"PI","i_long":106.679458,"distance":2548}],[{"is_transit":false,"station_id":"CJT","distance":0,"time":0,"transit":false,"i_lat":-6.354349,"station_name":"Cilejit","line":0,"i_long":106.508482},{"i_long":106.568863,"distance":7025,"transit":false,"station_id":"PRP","time":9,"station_name":"Parung Panjang","i_lat":-6.3441410000000005,"line":6,"is_transit":false},{"station_id":"CC","i_long":106.617853,"line":0,"distance":5968,"transit":false,"is_transit":false,"station_name":"Cicayur","time":8,"i_lat":-6.329547},{"i_lat":-6.32484,"line":0,"transit":false,"i_long":106.640411,"time":4,"is_transit":false,"station_name":"Cisauk","distance":2519,"station_id":"CSK"},{"i_lat":-6.319871,"distance":1784,"is_transit":false,"station_name":"Serpong","time":4,"station_id":"SRP","line":6,"transit":false,"i_long":106.66566},{"i_long":106.675475,"is_transit":false,"distance":2413,"station_id":"RU","line":6,"i_lat":-6.314823,"transit":false,"station_name":"Rawa Buntu","time":4},{"distance":4566,"i_long":106.712277,"time":6,"station_name":"Sudimara","station_id":"SDM","i_lat":-6.296963,"line":6,"transit":false,"is_transit":false},{"station_name":"Jurangmangu","station_id":"JMU","i_lat":-6.288927,"is_transit":false,"distance":1994,"transit":false,"i_long":106.728916,"time":4,"line":6},{"time":3,"is_transit":false,"distance":2179,"i_lat":-6.276362,"station_id":"PDJ","line":6,"station_name":"Pondokranji","transit":false,"i_long":106.74273},{"station_id":"KBY","station_name":"Kebayoran","i_lat":-6.237242,"i_long":106.780334,"distance":6218,"time":8,"is_transit":false,"transit":false,"line":6},{"i_long":106.79689,"station_name":"Palmerah","transit":false,"distance":3737,"i_lat":-6.207404,"line":6,"time":7,"station_id":"PLM","is_transit":false},{"transit":true,"i_long":106.811091,"is_transit":true,"station_name":"Tanah Abang","distance":3191,"time":6,"i_lat":-6.185545,"line":1,"station_id":"THB"},{"station_id":"KAT","i_lat":-6.20132,"is_transit":false,"transit":false,"distance":2029,"station_name":"Karet","time":5,"line":1,"i_long":106.816351},{"transit":false,"i_lat":-6.201433,"line":1,"i_long":106.819881,"distance":471,"time":1,"station_id":"SUDB","station_name":"Sudirman Baru","is_transit":false},{"time":1,"distance":280,"station_id":"SUD","i_lat":-6.202263,"station_name":"Sudirman","i_long":106.822649,"transit":false,"line":1,"is_transit":false},{"line":0,"time":4,"distance":3186,"transit":true,"i_lat":-6.209883,"is_transit":true,"station_name":"Manggarai","station_id":"MRI","i_long":106.84912},{"station_name":"Cikini","time":4,"i_long":106.840169,"distance":1590,"transit":false,"i_lat":-6.198556,"line":0,"is_transit":false,"station_id":"CKI"},{"i_long":106.832183,"station_name":"Gondangdia","transit":false,"is_transit":false,"i_lat":-6.186295,"line":2,"station_id":"GDD","time":3,"distance":1750},{"station_name":"Juanda","is_transit":false,"transit":false,"station_id":"JUA","line":2,"time":4,"i_lat":-6.166716,"i_long":106.828284,"distance":2015},{"distance":1149,"station_name":"Sawah Besar","i_long":106.827103,"station_id":"SW","time":2,"line":2,"i_lat":-6.160725,"is_transit":false,"transit":false},{"i_long":106.82482,"i_lat":-6.149769,"is_transit":false,"distance":906,"station_name":"Manggabesar","transit":false,"line":2,"station_id":"MGB","time":2},{"station_name":"Jayakarta","time":2,"transit":false,"line":7,"i_long":106.820901,"i_lat":-6.141205,"station_id":"JAY","distance":1080,"is_transit":false},{"i_lat":-6.137569,"transit":true,"time":4,"station_name":"Jakarta Kota","distance":1264,"i_long":106.812439,"line":0,"is_transit":true,"station_id":"JAKK"},{"station_id":"KPB","i_lat":-6.132549,"time":3,"distance":1364,"station_name":"Kampung Bandan","is_transit":true,"i_long":106.826365,"transit":false,"line":0},{"i_lat":-6.144674,"transit":false,"time":9,"line":0,"distance":4102,"is_transit":false,"station_name":"Angke","station_id":"AK","i_long":106.79867},{"line":1,"time":4,"i_lat":-6.155215,"i_long":106.800832,"is_transit":true,"distance":1230,"station_name":"Duri","station_id":"DU","transit":true},{"station_id":"GGL","is_transit":false,"line":5,"i_lat":-6.162021,"transit":false,"distance":1700,"station_name":"Grogol","time":3,"i_long":106.788277},{"i_lat":-6.161433,"is_transit":false,"i_long":106.771379,"time":2,"line":5,"distance":2036,"station_id":"PSG","station_name":"Pesing","transit":false},{"time":2,"station_id":"TKO","is_transit":false,"distance":1614,"station_name":"Taman Kota","i_lat":-6.1587309999999995,"line":5,"transit":false,"i_long":106.756522},{"transit":false,"i_lat":-6.159876,"is_transit":false,"i_long":106.737035,"time":2,"distance":2334,"station_id":"BOI","line":0,"station_name":"Bojongindah"},{"time":4,"i_long":106.723064,"line":5,"station_id":"RW","i_lat":-6.162758,"distance":1152,"is_transit":false,"transit":false,"station_name":"Rawa Buaya"},{"transit":false,"line":5,"station_name":"Kalideres","is_transit":false,"i_long":106.701612,"time":3,"station_id":"KDS","distance":2504,"i_lat":-6.166068},{"distance":2548,"i_long":106.679458,"line":5,"time":3,"transit":false,"station_id":"PI","is_transit":false,"station_name":"Poris","i_lat":-6.169933}],[{"is_transit":false,"distance":0,"line":0,"time":0,"i_lat":-6.354349,"i_long":106.508482,"station_name":"Cilejit","transit":false,"station_id":"CJT"},{"station_id":"PRP","is_transit":false,"transit":false,"i_long":106.568863,"i_lat":-6.3441410000000005,"station_name":"Parung Panjang","time":9,"line":6,"distance":7025},{"transit":false,"i_lat":-6.329547,"station_name":"Cicayur","distance":5968,"i_long":106.617853,"station_id":"CC","is_transit":false,"line":0,"time":8},{"station_id":"CSK","time":4,"is_transit":false,"distance":2519,"station_name":"Cisauk","line":0,"transit":false,"i_long":106.640411,"i_lat":-6.32484},{"i_lat":-6.319871,"station_id":"SRP","station_name":"Serpong","i_long":106.66566,"line":6,"distance":1784,"time":4,"is_transit":false,"transit":false},{"time":4,"transit":false,"station_name":"Rawa Buntu","station_id":"RU","line":6,"is_transit":false,"distance":2413,"i_lat":-6.314823,"i_long":106.675475},{"distance":4566,"i_long":106.712277,"i_lat":-6.296963,"station_name":"Sudimara","time":6,"station_id":"SDM","transit":false,"line":6,"is_transit":false},{"station_name":"Jurangmangu","is_transit":false,"distance":1994,"time":4,"transit":false,"i_lat":-6.288927,"line":6,"station_id":"JMU","i_long":106.728916},{"is_transit":false,"i_lat":-6.276362,"line":6,"station_name":"Pondokranji","station_id":"PDJ","i_long":106.74273,"distance":2179,"transit":false,"time":3},{"time":8,"transit":false,"i_long":106.780334,"line":6,"station_id":"KBY","i_lat":-6.237242,"is_transit":false,"distance":6218,"station_name":"Kebayoran"},{"i_lat":-6.207404,"transit":false,"distance":3737,"i_long":106.79689,"line":6,"station_id":"PLM","is_transit":false,"station_name":"Palmerah","time":7},{"i_lat":-6.185545,"time":6,"line":1,"transit":true,"is_transit":true,"station_id":"THB","i_long":106.811091,"station_name":"Tanah Abang","distance":3191},{"station_id":"KAT","i_lat":-6.20132,"station_name":"Karet","is_transit":false,"time":5,"transit":false,"i_long":106.816351,"line":1,"distance":2029},{"time":1,"line":1,"i_long":106.819881,"transit":false,"station_id":"SUDB","distance":471,"is_transit":false,"station_name":"Sudirman Baru","i_lat":-6.201433},{"is_transit":false,"line":1,"i_lat":-6.202263,"time":1,"distance":280,"transit":false,"station_name":"Sudirman","i_long":106.822649,"station_id":"SUD"},{"transit":false,"station_name":"Manggarai","time":4,"i_lat":-6.209883,"i_long":106.84912,"is_transit":true,"line":0,"station_id":"MRI","distance":3186},{"is_transit":false,"distance":1275,"line":1,"time":2,"transit":false,"i_lat":-6.212485,"i_long":106.858896,"station_id":"MTR","station_name":"Matraman"},{"line":0,"i_long":106.86807400000001,"time":8,"i_lat":-6.215091,"transit":true,"station_name":"Jatinegara","is_transit":true,"station_id":"JNG","distance":1377},{"line":11,"transit":false,"distance":1236,"station_name":"Pondok Jati","station_id":"POK","time":2,"is_transit":false,"i_lat":-6.209188,"i_long":106.861737},{"i_long":106.855437,"station_name":"Kramat","is_transit":false,"transit":false,"distance":1829,"i_lat":-6.193792,"line":11,"time":2,"station_id":"KMT"},{"transit":false,"distance":973,"i_lat":-6.185975,"is_transit":false,"time":1,"i_long":106.850107,"line":11,"station_id":"GST","station_name":"Gang Sentiong"},{"is_transit":false,"distance":1567,"time":8,"i_long":106.84368,"station_name":"Pasar Senen","transit":false,"line":11,"i_lat":-6.174784,"station_id":"PSE"},{"station_id":"KMO","time":4,"distance":1436,"is_transit":false,"i_lat":-6.161728,"line":11,"station_name":"Kemayoran","transit":false,"i_long":106.839204},{"station_id":"RJW","i_long":106.836569,"transit":false,"is_transit":false,"i_lat":-6.14505,"line":11,"station_name":"Rajawali","time":5,"distance":1901},{"station_name":"Kampung Bandan","time":3,"distance":1444,"station_id":"KPB","i_long":106.826365,"line":0,"is_transit":true,"i_lat":-6.132549,"transit":true},{"is_transit":false,"time":9,"station_name":"Angke","transit":false,"distance":4102,"station_id":"AK","i_long":106.79867,"i_lat":-6.144674,"line":0},{"transit":true,"station_id":"DU","distance":1230,"line":1,"time":4,"i_lat":-6.155215,"i_long":106.800832,"station_name":"Duri","is_transit":true},{"time":3,"distance":1700,"station_name":"Grogol","is_transit":false,"station_id":"GGL","i_lat":-6.162021,"i_long":106.788277,"line":5,"transit":false},{"i_long":106.771379,"time":2,"station_id":"PSG","line":5,"transit":false,"station_name":"Pesing","is_transit":false,"i_lat":-6.161433,"distance":2036},{"line":5,"is_transit":false,"i_lat":-6.1587309999999995,"i_long":106.756522,"distance":1614,"time":2,"station_id":"TKO","station_name":"Taman Kota","transit":false},{"distance":2334,"time":2,"line":0,"is_transit":false,"transit":false,"station_name":"Bojongindah","i_lat":-6.159876,"station_id":"BOI","i_long":106.737035},{"transit":false,"is_transit":false,"line":5,"station_name":"Rawa Buaya","time":4,"i_long":106.723064,"i_lat":-6.162758,"distance":1152,"station_id":"RW"},{"station_name":"Kalideres","time":3,"transit":false,"i_long":106.701612,"station_id":"KDS","is_transit":false,"i_lat":-6.166068,"distance":2504,"line":5},{"is_transit":false,"time":3,"distance":2548,"station_id":"PI","station_name":"Poris","line":5,"transit":false,"i_lat":-6.169933,"i_long":106.679458}]]}