{"data":[[{"time":0,"is_transit":false,"station_name":"Cilejit","i_long":106.508482,"line":3,"distance":0,"station_id":"CJT","transit":false,"i_lat":-6.354349},{"time":9,"distance":7025,"i_lat":-6.3441410000000005,"i_long":106.568863,"station_name":"Parung Panjang","line":6,"transit":false,"station_id":"PRP","is_transit":false},{"transit":false,"time":8,"i_long":106.617853,"line":3,"is_transit":false,"distance":5968,"station_id":"CC","station_name":"Cicayur","i_lat":-6.329547},{"is_transit":false,"distance":2519,"station_id":"CSK","i_lat":-6.32484,"line":3,"transit":false,"i_long":106.640411,"station_name":"Cisauk","time":4},{"distance":1784,"transit":false,"station_name":"Serpong","i_long":106.66566,"station_id":"SRP","i_lat":-6.319871,"line":6,"time":4,"is_transit":false},{"time":4,"is_transit":false,"i_lat":-6.314823,"station_name":"Rawa Buntu","station_id":"RU","i_long":106.675475,"distance":2413,"transit":false,"line":6},{"is_transit":false,"time":6,"station_id":"SDM","station_name":"Sudimara","line":6,"distance":4566,"i_lat":-6.296963,"i_long":106.712277,"transit":false},{"transit":false,"station_name":"Jurangmangu","i_long":106.728916,"i_lat":-6.288927,"line":6,"distance":1994,"is_transit":false,"time":4,"station_id":"JMU"},{"is_transit":false,"station_name":"Pondokranji","i_long":106.74273,"i_lat":-6.276362,"transit":false,"time":3,"station_id":"PDJ","line":6,"distance":2179},{"is_transit":false,"i_lat":-6.237242,"line":6,"station_id":"KBY","time":8,"i_long":106.780334,"station_name":"Kebayoran","transit":false,"distance":6218},{"transit":false,"distance":3737,"i_lat":-6.207404,"station_name":"Palmerah","time":7,"is_transit":false,"i_long":106.79689,"line":6,"station_id":"PLM"},{"i_lat":-6.185545,"line":1,"is_transit":true,"transit":true,"station_id":"THB","time":6,"distance":3191,"station_name":"Tanah Abang","i_long":106.811091},{"i_lat":-6.155215,"i_long":106.800832,"is_transit":true,"time":8,"line":1,"distance":3632,"station_id":"DU","station_name":"Duri","transit":true},{"i_lat":-6.162021,"station_name":"Grogol","is_transit":false,"station_id":"GGL","i_long":106.788277,"transit":false,"line":5,"time":3,"distance":1700},{"i_lat":-6.161433,"distance":2036,"is_transit":false,"station_id":"PSG","time":2,"i_long":106.771379,"line":5,"transit":false,"station_name":"Pesing"},{"i_lat":-6.1587309999999995,"is_transit":false,"distance":1614,"station_name":"Taman Kota","station_id":"TKO","time":2,"transit":false,"i_long":106.756522,"line":5},{"is_transit":false,"line":5,"i_lat":-6.159876,"i_long":106.737035,"time":2,"station_id":"BOI","transit":false,"distance":2334,"station_name":"Bojongindah"},{"station_id":"RW","distance":1152,"time":4,"line":5,"is_transit":false,"i_lat":-6.162758,"station_name":"Rawa Buaya","i_long":106.723064,"transit":false},{"time":3,"station_id":"KDS","is_transit":false,"i_lat":-6.166068,"distance":2504,"i_long":106.701612,"line":5,"station_name":"Kalideres","transit":false}],[{"line":3,"is_transit":false,"distance":0,"i_long":106.508482,"station_name":"Cilejit","transit":false,"station_id":"CJT","i_lat":-6.354349,"time":0},{"i_long":106.568863,"station_name":"Parung Panjang","distance":7025,"time":9,"line":6,"i_lat":-6.3441410000000005,"is_transit":false,"station_id":"PRP","transit":false},{"station_name":"Cicayur","i_lat":-6.329547,"line":3,"is_transit":false,"transit":false,"time":8,"station_id":"CC","i_long":106.617853,"distance":5968},{"distance":2519,"station_name":"Cisauk","line":3,"i_long":106.640411,"time":4,"transit":false,"station_id":"CSK","is_transit":false,"i_lat":-6.32484},{"distance":1784,"i_lat":-6.319871,"is_transit":false,"time":4,"station_id":"SRP","transit":false,"station_name":"Serpong","line":6,"i_long":106.66566},{"distance":2413,"station_id":"RU","i_lat":-6.314823,"line":6,"time":4,"station_name":"Rawa Buntu","i_long":106.675475,"is_transit":false,"transit":false},{"distance":4566,"time":6,"i_lat":-6.296963,"transit":false,"line":6,"station_name":"Sudimara","station_id":"SDM","is_transit":false,"i_long":106.712277},{"distance":1994,"line":6,"transit":false,"is_transit":false,"i_lat":-6.288927,"station_id":"JMU","station_name":"Jurangmangu","i_long":106.728916,"time":4},{"time":3,"distance":2179,"station_name":"Pondokranji","station_id":"PDJ","i_lat":-6.276362,"i_long":106.74273,"transit":false,"line":6,"is_transit":false},{"line":6,"station_id":"KBY","transit":false,"is_transit":false,"station_name":"Kebayoran","distance":6218,"i_lat":-6.237242,"time":8,"i_long":106.780334},{"line":6,"transit":false,"i_long":106.79689,"time":7,"station_id":"PLM","station_name":"Palmerah","is_transit":false,"i_lat":-6.207404,"distance":3737},{"line":1,"distance":3191,"i_lat":-6.185545,"is_transit":true,"station_name":"Tanah Abang","time":6,"transit":true,"station_id":"THB","i_long":106.811091},{"line":1,"i_lat":-6.20132,"transit":false,"station_id":"KAT","i_long":106.816351,"is_transit":false,"distance":2029,"time":5,"station_name":"Karet"},{"time":1,"station_id":"SUDB","i_long":106.819881,"transit":false,"line":1,"distance":471,"i_lat":-6.201433,"station_name":"Sudirman Baru","is_transit":false},{"distance":280,"transit":false,"time":1,"station_id":"SUD","i_lat":-6.202263,"is_transit":false,"i_long":106.822649,"line":1,"station_name":"Sudirman"},{"i_long":106.84912,"line":2,"transit":true,"time":4,"station_id":"MRI","is_transit":true,"station_name":"Manggarai","i_lat":-6.209883,"distance":3186},{"station_name":"Cikini","transit":false,"time":4,"station_id":"CKI","distance":1590,"i_lat":-6.198556,"is_transit":false,"line":2,"i_long":106.840169},{"station_name":"Gondangdia","distance":1750,"time":3,"station_id":"GDD","i_long":106.832183,"is_transit":false,"i_lat":-6.186295,"transit":false,"line":2},{"is_transit":false,"i_lat":-6.166716,"station_name":"Juanda","distance":2015,"i_long":106.828284,"transit":false,"time":4,"station_id":"JUA","line":2},{"time":2,"line":2,"station_id":"SW","distance":1149,"station_name":"Sawah Besar","i_lat":-6.160725,"transit":false,"is_transit":false,"i_long":106.827103},{"time":2,"i_lat":-6.149769,"line":2,"station_id":"MGB","station_name":"Manggabesar","i_long":106.82482,"distance":906,"is_transit":false,"transit":false},{"i_lat":-6.141205,"transit":false,"time":2,"i_long":106.820901,"station_id":"JAY","line":2,"is_transit":false,"station_name":"Jayakarta","distance":1080},{"i_long":106.812439,"station_id":"JAKK","is_transit":true,"distance":1264,"time":4,"transit":true,"line":2,"station_name":"Jakarta Kota","i_lat":-6.137569},{"i_long":106.826365,"station_name":"Kampung Bandan","distance":1364,"time":3,"line":4,"station_id":"KPB","transit":true,"is_transit":true,"i_lat":-6.132549},{"station_id":"AK","station_name":"Angke","time":9,"i_lat":-6.144674,"is_transit":false,"line":1,"i_long":106.79867,"transit":false,"distance":4102},{"transit":true,"time":4,"i_lat":-6.155215,"i_long":106.800832,"line":1,"station_name":"Duri","distance":1230,"is_transit":true,"station_id":"DU"},{"station_name":"Grogol","i_lat":-6.162021,"is_transit":false,"transit":false,"i_long":106.788277,"time":3,"station_id":"GGL","line":5,"distance":1700},{"i_long":106.771379,"station_id":"PSG","time":2,"i_lat":-6.161433,"station_name":"Pesing","transit":false,"distance":2036,"line":5,"is_transit":false},{"station_id":"TKO","line":5,"distance":1614,"i_long":106.756522,"station_name":"Taman Kota","is_transit":false,"time":2,"i_lat":-6.1587309999999995,"transit":false},{"line":5,"time":2,"station_name":"Bojongindah","i_long":106.737035,"transit":false,"i_lat":-6.159876,"is_transit":false,"distance":2334,"station_id":"BOI"},{"time":4,"is_transit":false,"line":5,"distance":1152,"i_long":106.723064,"station_id":"RW","i_lat":-6.162758,"transit":false,"station_name":"Rawa Buaya"},{"time":3,"distance":2504,"transit":false,"station_id":"KDS","i_long":106.701612,"is_transit":false,"station_name":"Kalideres","i_lat":-6.166068,"line":5}],[{"station_name":"Cilejit","time":0,"is_transit":false,"distance":0,"station_id":"CJT","i_long":106.508482,"line":3,"i_lat":-6.354349,"transit":false},{"station_name":"Parung Panjang","station_id":"PRP","time":9,"i_long":106.568863,"i_lat":-6.3441410000000005,"line":6,"is_transit":false,"transit":false,"distance":7025},{"distance":5968,"line":3,"is_transit":false,"transit":false,"i_lat":-6.329547,"time":8,"station_name":"Cicayur","station_id":"CC","i_long":106.617853},{"station_name":"Cisauk","transit":false,"time":4,"i_lat":-6.32484,"station_id":"CSK","line":3,"i_long":106.640411,"distance":2519,"is_transit":false},{"line":6,"i_long":106.66566,"i_lat":-6.319871,"distance":1784,"is_transit":false,"station_name":"Serpong","transit":false,"station_id":"SRP","time":4},{"i_lat":-6.314823,"transit":false,"station_id":"RU","i_long":106.675475,"is_transit":false,"line":6,"time":4,"distance":2413,"station_name":"Rawa Buntu"},{"station_name":"Sudimara","station_id":"SDM","distance":4566,"transit":false,"i_lat":-6.296963,"i_long":106.712277,"is_transit":false,"line":6,"time":6},{"station_name":"Jurangmangu","time":4,"i_long":106.728916,"line":6,"distance":1994,"transit":false,"station_id":"JMU","is_transit":false,"i_lat":-6.288927},{"station_name":"Pondokranji","station_id":"PDJ","is_transit":false,"line":6,"time":3,"i_lat":-6.276362,"i_long":106.74273,"transit":false,"distance":2179},{"station_name":"Kebayoran","is_transit":false,"time":8,"line":6,"transit":false,"distance":6218,"station_id":"KBY","i_long":106.780334,"i_lat":-6.237242},{"i_long":106.79689,"line":6,"station_id":"PLM","transit":false,"time":7,"station_name":"Palmerah","i_lat":-6.207404,"is_transit":false,"distance":3737},{"station_name":"Tanah Abang","distance":3191,"line":1,"transit":true,"i_lat":-6.185545,"time":6,"station_id":"THB","is_transit":true,"i_long":106.811091},{"transit":false,"i_lat":-6.20132,"line":1,"distance":2029,"i_long":106.816351,"is_transit":false,"time":5,"station_id":"KAT","station_name":"Karet"},{"is_transit":false,"time":1,"i_long":106.819881,"line":1,"distance":471,"transit":false,"i_lat":-6.201433,"station_name":"Sudirman Baru","station_id":"SUDB"},{"station_id":"SUD","distance":280,"line":1,"is_transit":false,"time":1,"station_name":"Sudirman","transit":false,"i_lat":-6.202263,"i_long":106.822649},{"distance":3186,"station_id":"MRI","i_long":106.84912,"line":2,"i_lat":-6.209883,"station_name":"Manggarai","time":4,"is_transit":false,"transit":false},{"i_lat":-6.212485,"distance":1275,"i_long":106.858896,"station_name":"Matraman","is_transit":false,"line":1,"time":2,"transit":false,"station_id":"MTR"},{"distance":1377,"station_name":"Jatinegara","is_transit":true,"time":8,"station_id":"JNG","i_long":106.86807400000001,"i_lat":-6.215091,"transit":true,"line":1},{"i_lat":-6.209188,"is_transit":false,"transit":false,"station_name":"Pondok Jati","time":2,"distance":1236,"i_long":106.861737,"line":11,"station_id":"POK"},{"i_lat":-6.193792,"is_transit":false,"station_name":"Kramat","station_id":"KMT","line":11,"time":2,"transit":false,"i_long":106.855437,"distance":1829},{"line":11,"is_transit":false,"station_name":"Gang Sentiong","i_lat":-6.185975,"transit":false,"time":1,"station_id":"GST","i_long":106.850107,"distance":973},{"station_name":"Pasar Senen","is_transit":false,"transit":false,"station_id":"PSE","i_long":106.84368,"distance":1567,"line":11,"time":8,"i_lat":-6.174784},{"station_name":"Kemayoran","time":4,"line":11,"i_long":106.839204,"transit":false,"is_transit":false,"station_id":"KMO","i_lat":-6.161728,"distance":1436},{"line":11,"is_transit":false,"transit":false,"station_name":"Rajawali","station_id":"RJW","i_long":106.836569,"time":5,"distance":1901,"i_lat":-6.14505},{"is_transit":true,"time":3,"station_id":"KPB","i_lat":-6.132549,"i_long":106.826365,"line":4,"station_name":"Kampung Bandan","transit":true,"distance":1444},{"station_name":"Angke","distance":4102,"station_id":"AK","line":1,"is_transit":false,"i_long":106.79867,"time":9,"i_lat":-6.144674,"transit":false},{"time":4,"transit":true,"station_name":"Duri","distance":1230,"is_transit":true,"i_lat":-6.155215,"line":1,"station_id":"DU","i_long":106.800832},{"is_transit":false,"time":3,"station_id":"GGL","distance":1700,"i_long":106.788277,"transit":false,"line":5,"i_lat":-6.162021,"station_name":"Grogol"},{"line":5,"distance":2036,"is_transit":false,"transit":false,"station_name":"Pesing","station_id":"PSG","i_lat":-6.161433,"time":2,"i_long":106.771379},{"line":5,"i_long":106.756522,"station_id":"TKO","i_lat":-6.1587309999999995,"station_name":"Taman Kota","is_transit":false,"distance":1614,"transit":false,"time":2},{"distance":2334,"i_long":106.737035,"time":2,"line":5,"transit":false,"station_id":"BOI","is_transit":false,"station_name":"Bojongindah","i_lat":-6.159876},{"station_name":"Rawa Buaya","i_lat":-6.162758,"station_id":"RW","i_long":106.723064,"is_transit":false,"time":4,"line":5,"distance":1152,"transit":false},{"i_lat":-6.166068,"line":5,"is_transit":false,"distance":2504,"time":3,"station_id":"KDS","transit":false,"station_name":"Kalideres","i_long":106.701612}]]}