{"data":[[{"i_long":106.508482,"distance":0,"transit":false,"time":0,"line":3,"station_id":"CJT","i_lat":-6.354349,"station_name":"Cilejit"},{"i_long":106.568863,"distance":7025,"transit":false,"time":9,"line":6,"station_id":"PRP","i_lat":-6.3441410000000005,"station_name":"Parung Panjang"},{"i_long":106.617853,"distance":5968,"transit":false,"time":8,"line":3,"station_id":"CC","i_lat":-6.329547,"station_name":"Cicayur"},{"i_long":106.640411,"distance":2519,"transit":false,"time":4,"line":3,"station_id":"CSK","i_lat":-6.32484,"station_name":"Cisauk"},{"i_long":106.66566,"distance":1784,"transit":false,"time":4,"line":6,"station_id":"SRP","i_lat":-6.319871,"station_name":"Serpong"},{"i_long":106.675475,"distance":2413,"transit":false,"time":4,"line":6,"station_id":"RU","i_lat":-6.314823,"station_name":"Rawa Buntu"},{"i_long":106.712277,"distance":4566,"transit":false,"time":6,"line":6,"station_id":"SDM","i_lat":-6.296963,"station_name":"Sudimara"}]]}