{"data":[[{"i_long":106.508482,"transit":false,"is_transit":false,"station_id":"CJT","i_lat":-6.354349,"line":3,"time":0,"distance":0,"station_name":"Cilejit"},{"i_long":106.568863,"distance":7025,"transit":false,"line":6,"station_id":"PRP","is_transit":false,"time":9,"station_name":"Parung Panjang","i_lat":-6.3441410000000005},{"i_lat":-6.329547,"line":3,"i_long":106.617853,"transit":false,"station_name":"Cicayur","station_id":"CC","time":8,"is_transit":false,"distance":5968},{"station_name":"Cisauk","is_transit":false,"time":4,"station_id":"CSK","line":3,"i_long":106.640411,"distance":2519,"i_lat":-6.32484,"transit":false},{"station_name":"Serpong","distance":1784,"line":6,"i_lat":-6.319871,"time":4,"station_id":"SRP","is_transit":false,"i_long":106.66566,"transit":false}]]}