{"data":[[{"time":0,"station_id":"CJT","i_lat":-6.354349,"station_name":"Cilejit","distance":0,"line":3,"i_long":106.508482,"transit":false,"is_transit":false},{"distance":7025,"station_id":"PRP","i_long":106.568863,"is_transit":false,"time":9,"station_name":"Parung Panjang","i_lat":-6.3441410000000005,"line":6,"transit":false},{"line":3,"i_long":106.617853,"transit":false,"i_lat":-6.329547,"distance":5968,"time":8,"station_name":"Cicayur","is_transit":false,"station_id":"CC"},{"transit":false,"is_transit":false,"i_lat":-6.32484,"distance":2519,"station_name":"Cisauk","time":4,"station_id":"CSK","i_long":106.640411,"line":3},{"distance":1784,"station_id":"SRP","transit":false,"is_transit":false,"line":6,"i_lat":-6.319871,"i_long":106.66566,"time":4,"station_name":"Serpong"},{"i_lat":-6.314823,"time":4,"i_long":106.675475,"distance":2413,"is_transit":false,"transit":false,"line":6,"station_id":"RU","station_name":"Rawa Buntu"},{"station_id":"SDM","distance":4566,"line":6,"station_name":"Sudimara","is_transit":false,"i_lat":-6.296963,"i_long":106.712277,"time":6,"transit":false},{"station_id":"JMU","station_name":"Jurangmangu","i_long":106.728916,"time":4,"distance":1994,"transit":false,"is_transit":false,"line":6,"i_lat":-6.288927},{"is_transit":false,"time":3,"station_id":"PDJ","i_long":106.74273,"station_name":"Pondokranji","line":6,"distance":2179,"transit":false,"i_lat":-6.276362},{"is_transit":false,"time":8,"transit":false,"i_long":106.780334,"line":6,"i_lat":-6.237242,"station_name":"Kebayoran","station_id":"KBY","distance":6218},{"is_transit":false,"time":7,"line":6,"station_name":"Palmerah","i_lat":-6.207404,"station_id":"PLM","transit":false,"distance":3737,"i_long":106.79689},{"transit":true,"line":1,"i_lat":-6.185545,"i_long":106.811091,"time":6,"distance":3191,"station_id":"THB","station_name":"Tanah Abang","is_transit":true},{"time":8,"station_id":"DU","line":1,"is_transit":true,"transit":true,"i_long":106.800832,"station_name":"Duri","distance":3632,"i_lat":-6.155215},{"distance":1700,"is_transit":false,"station_name":"Grogol","line":5,"time":3,"i_lat":-6.162021,"i_long":106.788277,"station_id":"GGL","transit":false},{"i_long":106.771379,"i_lat":-6.161433,"line":5,"station_name":"Pesing","is_transit":false,"transit":false,"time":2,"distance":2036,"station_id":"PSG"},{"is_transit":false,"time":2,"transit":false,"station_id":"TKO","i_lat":-6.1587309999999995,"line":5,"distance":1614,"station_name":"Taman Kota","i_long":106.756522},{"distance":2334,"transit":false,"station_id":"BOI","is_transit":false,"line":5,"i_long":106.737035,"i_lat":-6.159876,"station_name":"Bojongindah","time":2},{"line":5,"i_lat":-6.162758,"distance":1152,"station_name":"Rawa Buaya","station_id":"RW","i_long":106.723064,"transit":false,"time":4,"is_transit":false},{"time":3,"i_lat":-6.166068,"station_id":"KDS","transit":false,"is_transit":false,"distance":2504,"i_long":106.701612,"line":5,"station_name":"Kalideres"},{"station_name":"Poris","is_transit":false,"i_long":106.679458,"i_lat":-6.169933,"line":5,"station_id":"PI","transit":false,"distance":2548,"time":3}],[{"line":3,"station_id":"CJT","i_long":106.508482,"station_name":"Cilejit","distance":0,"transit":false,"is_transit":false,"i_lat":-6.354349,"time":0},{"transit":false,"is_transit":false,"distance":7025,"station_name":"Parung Panjang","i_lat":-6.3441410000000005,"station_id":"PRP","time":9,"line":6,"i_long":106.568863},{"i_long":106.617853,"station_name":"Cicayur","distance":5968,"i_lat":-6.329547,"line":3,"is_transit":false,"time":8,"transit":false,"station_id":"CC"},{"is_transit":false,"time":4,"station_name":"Cisauk","line":3,"transit":false,"i_lat":-6.32484,"i_long":106.640411,"distance":2519,"station_id":"CSK"},{"i_lat":-6.319871,"distance":1784,"is_transit":false,"station_id":"SRP","time":4,"transit":false,"line":6,"station_name":"Serpong","i_long":106.66566},{"distance":2413,"line":6,"is_transit":false,"i_lat":-6.314823,"station_name":"Rawa Buntu","transit":false,"station_id":"RU","time":4,"i_long":106.675475},{"time":6,"transit":false,"station_id":"SDM","is_transit":false,"i_lat":-6.296963,"i_long":106.712277,"distance":4566,"line":6,"station_name":"Sudimara"},{"transit":false,"station_name":"Jurangmangu","line":6,"station_id":"JMU","distance":1994,"is_transit":false,"i_lat":-6.288927,"i_long":106.728916,"time":4},{"is_transit":false,"distance":2179,"line":6,"i_lat":-6.276362,"station_id":"PDJ","station_name":"Pondokranji","transit":false,"time":3,"i_long":106.74273},{"distance":6218,"transit":false,"station_id":"KBY","is_transit":false,"station_name":"Kebayoran","i_lat":-6.237242,"time":8,"i_long":106.780334,"line":6},{"is_transit":false,"time":7,"station_id":"PLM","distance":3737,"i_lat":-6.207404,"i_long":106.79689,"line":6,"transit":false,"station_name":"Palmerah"},{"line":1,"i_lat":-6.185545,"distance":3191,"time":6,"station_name":"Tanah Abang","station_id":"THB","transit":true,"is_transit":true,"i_long":106.811091},{"line":1,"station_name":"Karet","time":5,"transit":false,"i_lat":-6.20132,"is_transit":false,"distance":2029,"i_long":106.816351,"station_id":"KAT"},{"station_name":"Sudirman Baru","time":1,"i_lat":-6.201433,"distance":471,"line":1,"station_id":"SUDB","transit":false,"is_transit":false,"i_long":106.819881},{"i_lat":-6.202263,"station_id":"SUD","time":1,"station_name":"Sudirman","transit":false,"i_long":106.822649,"line":1,"is_transit":false,"distance":280},{"station_name":"Manggarai","time":4,"station_id":"MRI","i_long":106.84912,"transit":true,"is_transit":true,"i_lat":-6.209883,"line":2,"distance":3186},{"station_name":"Cikini","is_transit":false,"distance":1590,"i_long":106.840169,"station_id":"CKI","time":4,"transit":false,"i_lat":-6.198556,"line":2},{"i_lat":-6.186295,"station_id":"GDD","is_transit":false,"time":3,"transit":false,"distance":1750,"i_long":106.832183,"line":2,"station_name":"Gondangdia"},{"station_name":"Juanda","is_transit":false,"line":2,"transit":false,"time":4,"station_id":"JUA","distance":2015,"i_long":106.828284,"i_lat":-6.166716},{"transit":false,"i_long":106.827103,"is_transit":false,"time":2,"station_name":"Sawah Besar","distance":1149,"station_id":"SW","i_lat":-6.160725,"line":2},{"transit":false,"i_long":106.82482,"time":2,"station_id":"MGB","i_lat":-6.149769,"line":2,"distance":906,"station_name":"Manggabesar","is_transit":false},{"time":2,"line":2,"station_id":"JAY","i_lat":-6.141205,"transit":false,"station_name":"Jayakarta","i_long":106.820901,"distance":1080,"is_transit":false},{"station_id":"JAKK","distance":1264,"line":2,"time":4,"i_long":106.812439,"station_name":"Jakarta Kota","transit":true,"i_lat":-6.137569,"is_transit":true},{"distance":1364,"i_long":106.826365,"station_name":"Kampung Bandan","time":3,"line":4,"is_transit":true,"i_lat":-6.132549,"transit":true,"station_id":"KPB"},{"station_name":"Angke","transit":false,"time":9,"distance":4102,"line":1,"station_id":"AK","i_lat":-6.144674,"is_transit":false,"i_long":106.79867},{"station_id":"DU","is_transit":true,"line":1,"distance":1230,"station_name":"Duri","time":4,"i_lat":-6.155215,"i_long":106.800832,"transit":true},{"i_long":106.788277,"station_id":"GGL","time":3,"i_lat":-6.162021,"station_name":"Grogol","line":5,"is_transit":false,"distance":1700,"transit":false},{"line":5,"station_name":"Pesing","is_transit":false,"station_id":"PSG","i_long":106.771379,"i_lat":-6.161433,"time":2,"distance":2036,"transit":false},{"station_name":"Taman Kota","time":2,"transit":false,"is_transit":false,"i_lat":-6.1587309999999995,"distance":1614,"i_long":106.756522,"station_id":"TKO","line":5},{"station_name":"Bojongindah","transit":false,"is_transit":false,"time":2,"distance":2334,"i_lat":-6.159876,"i_long":106.737035,"line":5,"station_id":"BOI"},{"time":4,"is_transit":false,"distance":1152,"transit":false,"station_id":"RW","i_lat":-6.162758,"i_long":106.723064,"line":5,"station_name":"Rawa Buaya"},{"line":5,"transit":false,"is_transit":false,"i_lat":-6.166068,"station_id":"KDS","time":3,"station_name":"Kalideres","i_long":106.701612,"distance":2504},{"station_id":"PI","station_name":"Poris","transit":false,"line":5,"is_transit":false,"time":3,"i_lat":-6.169933,"i_long":106.679458,"distance":2548}],[{"i_lat":-6.354349,"time":0,"line":3,"is_transit":false,"distance":0,"i_long":106.508482,"station_id":"CJT","station_name":"Cilejit","transit":false},{"distance":7025,"line":6,"time":9,"i_long":106.568863,"transit":false,"i_lat":-6.3441410000000005,"station_id":"PRP","station_name":"Parung Panjang","is_transit":false},{"i_long":106.617853,"is_transit":false,"transit":false,"time":8,"distance":5968,"line":3,"station_id":"CC","i_lat":-6.329547,"station_name":"Cicayur"},{"i_long":106.640411,"transit":false,"i_lat":-6.32484,"station_id":"CSK","time":4,"station_name":"Cisauk","distance":2519,"line":3,"is_transit":false},{"i_long":106.66566,"distance":1784,"station_id":"SRP","transit":false,"time":4,"line":6,"station_name":"Serpong","is_transit":false,"i_lat":-6.319871},{"station_name":"Rawa Buntu","station_id":"RU","i_long":106.675475,"transit":false,"is_transit":false,"time":4,"i_lat":-6.314823,"line":6,"distance":2413},{"station_id":"SDM","time":6,"transit":false,"line":6,"i_long":106.712277,"distance":4566,"is_transit":false,"i_lat":-6.296963,"station_name":"Sudimara"},{"i_lat":-6.288927,"station_name":"Jurangmangu","transit":false,"is_transit":false,"time":4,"distance":1994,"station_id":"JMU","i_long":106.728916,"line":6},{"station_id":"PDJ","distance":2179,"i_long":106.74273,"station_name":"Pondokranji","transit":false,"is_transit":false,"time":3,"line":6,"i_lat":-6.276362},{"station_name":"Kebayoran","distance":6218,"i_lat":-6.237242,"line":6,"transit":false,"time":8,"i_long":106.780334,"station_id":"KBY","is_transit":false},{"station_name":"Palmerah","transit":false,"time":7,"i_lat":-6.207404,"i_long":106.79689,"distance":3737,"line":6,"is_transit":false,"station_id":"PLM"},{"distance":3191,"station_id":"THB","line":1,"station_name":"Tanah Abang","transit":true,"i_lat":-6.185545,"i_long":106.811091,"is_transit":true,"time":6},{"station_id":"KAT","is_transit":false,"distance":2029,"i_lat":-6.20132,"i_long":106.816351,"time":5,"transit":false,"station_name":"Karet","line":1},{"station_name":"Sudirman Baru","i_long":106.819881,"station_id":"SUDB","line":1,"time":1,"transit":false,"is_transit":false,"distance":471,"i_lat":-6.201433},{"station_name":"Sudirman","distance":280,"i_long":106.822649,"station_id":"SUD","i_lat":-6.202263,"line":1,"transit":false,"is_transit":false,"time":1},{"i_lat":-6.209883,"is_transit":false,"time":4,"line":2,"station_id":"MRI","transit":false,"i_long":106.84912,"station_name":"Manggarai","distance":3186},{"station_name":"Matraman","i_lat":-6.212485,"time":2,"is_transit":false,"station_id":"MTR","distance":1275,"i_long":106.858896,"line":1,"transit":false},{"i_lat":-6.215091,"transit":true,"distance":1377,"station_name":"Jatinegara","time":8,"line":1,"is_transit":true,"i_long":106.86807400000001,"station_id":"JNG"},{"i_long":106.861737,"time":2,"line":11,"station_name":"Pondok Jati","station_id":"POK","i_lat":-6.209188,"is_transit":false,"distance":1236,"transit":false},{"distance":1829,"line":11,"is_transit":false,"time":2,"i_long":106.855437,"station_id":"KMT","transit":false,"i_lat":-6.193792,"station_name":"Kramat"},{"i_long":106.850107,"station_id":"GST","line":11,"is_transit":false,"station_name":"Gang Sentiong","transit":false,"time":1,"i_lat":-6.185975,"distance":973},{"i_long":106.84368,"distance":1567,"station_name":"Pasar Senen","i_lat":-6.174784,"transit":false,"is_transit":false,"station_id":"PSE","time":8,"line":11},{"line":11,"station_id":"KMO","i_long":106.839204,"time":4,"i_lat":-6.161728,"is_transit":false,"distance":1436,"station_name":"Kemayoran","transit":false},{"station_name":"Rajawali","distance":1901,"station_id":"RJW","is_transit":false,"time":5,"line":11,"i_lat":-6.14505,"transit":false,"i_long":106.836569},{"line":4,"transit":true,"is_transit":true,"distance":1444,"time":3,"i_lat":-6.132549,"station_id":"KPB","i_long":106.826365,"station_name":"Kampung Bandan"},{"transit":false,"distance":4102,"line":1,"station_name":"Angke","station_id":"AK","time":9,"i_long":106.79867,"is_transit":false,"i_lat":-6.144674},{"transit":true,"i_long":106.800832,"is_transit":true,"distance":1230,"i_lat":-6.155215,"station_name":"Duri","station_id":"DU","line":1,"time":4},{"distance":1700,"station_name":"Grogol","i_lat":-6.162021,"is_transit":false,"station_id":"GGL","i_long":106.788277,"transit":false,"time":3,"line":5},{"distance":2036,"is_transit":false,"station_name":"Pesing","transit":false,"line":5,"station_id":"PSG","i_long":106.771379,"i_lat":-6.161433,"time":2},{"line":5,"is_transit":false,"station_name":"Taman Kota","station_id":"TKO","time":2,"distance":1614,"i_long":106.756522,"transit":false,"i_lat":-6.1587309999999995},{"station_id":"BOI","distance":2334,"i_lat":-6.159876,"line":5,"is_transit":false,"i_long":106.737035,"transit":false,"time":2,"station_name":"Bojongindah"},{"line":5,"station_id":"RW","transit":false,"is_transit":false,"time":4,"distance":1152,"station_name":"Rawa Buaya","i_lat":-6.162758,"i_long":106.723064},{"i_long":106.701612,"line":5,"station_id":"KDS","i_lat":-6.166068,"distance":2504,"station_name":"Kalideres","is_transit":false,"transit":false,"time":3},{"time":3,"i_lat":-6.169933,"line":5,"station_name":"Poris","i_long":106.679458,"transit":false,"distance":2548,"station_id":"PI","is_transit":false}]]}