{"data":[[{"station_name":"Cilejit","station_id":"CJT","time":0,"distance":0,"is_transit":false,"transit":false,"i_lat":-6.354349,"line":0,"i_long":106.508482},{"i_long":106.568863,"transit":false,"distance":7025,"line":6,"station_id":"PRP","is_transit":false,"station_name":"Parung Panjang","time":9,"i_lat":-6.3441410000000005},{"time":8,"is_transit":false,"transit":false,"i_lat":-6.329547,"station_id":"CC","line":0,"distance":5968,"i_long":106.617853,"station_name":"Cicayur"},{"i_long":106.640411,"station_name":"Cisauk","transit":false,"is_transit":false,"time":4,"line":0,"station_id":"CSK","distance":2519,"i_lat":-6.32484},{"i_lat":-6.319871,"i_long":106.66566,"station_id":"SRP","transit":false,"line":6,"station_name":"Serpong","is_transit":false,"time":4,"distance":1784},{"i_long":106.675475,"time":4,"station_name":"Rawa Buntu","distance":2413,"is_transit":false,"line":6,"i_lat":-6.314823,"transit":false,"station_id":"RU"},{"station_id":"SDM","time":6,"is_transit":false,"line":6,"distance":4566,"i_lat":-6.296963,"transit":false,"station_name":"Sudimara","i_long":106.712277},{"is_transit":false,"time":4,"station_name":"Jurangmangu","distance":1994,"i_long":106.728916,"line":6,"i_lat":-6.288927,"transit":false,"station_id":"JMU"},{"station_name":"Pondokranji","time":3,"line":6,"is_transit":false,"distance":2179,"transit":false,"i_lat":-6.276362,"i_long":106.74273,"station_id":"PDJ"},{"i_long":106.780334,"i_lat":-6.237242,"station_name":"Kebayoran","line":6,"station_id":"KBY","transit":false,"is_transit":false,"time":8,"distance":6218},{"time":7,"i_lat":-6.207404,"is_transit":false,"distance":3737,"station_name":"Palmerah","station_id":"PLM","transit":false,"i_long":106.79689,"line":6},{"line":1,"i_long":106.811091,"is_transit":true,"distance":3191,"station_name":"Tanah Abang","time":6,"station_id":"THB","transit":true,"i_lat":-6.185545},{"i_long":106.800832,"distance":3632,"is_transit":true,"i_lat":-6.155215,"time":8,"station_name":"Duri","station_id":"DU","transit":true,"line":1},{"i_lat":-6.162021,"is_transit":false,"distance":1700,"station_id":"GGL","transit":false,"time":3,"i_long":106.788277,"line":5,"station_name":"Grogol"},{"line":5,"is_transit":false,"station_id":"PSG","transit":false,"station_name":"Pesing","distance":2036,"time":2,"i_long":106.771379,"i_lat":-6.161433},{"distance":1614,"i_lat":-6.1587309999999995,"station_id":"TKO","i_long":106.756522,"is_transit":false,"line":5,"transit":false,"time":2,"station_name":"Taman Kota"},{"i_long":106.737035,"line":0,"distance":2334,"transit":false,"i_lat":-6.159876,"station_name":"Bojongindah","is_transit":false,"time":2,"station_id":"BOI"},{"distance":1152,"is_transit":false,"transit":false,"time":4,"station_name":"Rawa Buaya","i_lat":-6.162758,"station_id":"RW","i_long":106.723064,"line":5},{"distance":2504,"station_name":"Kalideres","transit":false,"i_lat":-6.166068,"i_long":106.701612,"is_transit":false,"station_id":"KDS","line":5,"time":3}],[{"i_lat":-6.354349,"station_id":"CJT","is_transit":false,"i_long":106.508482,"line":0,"time":0,"transit":false,"distance":0,"station_name":"Cilejit"},{"is_transit":false,"time":9,"i_lat":-6.3441410000000005,"station_id":"PRP","transit":false,"i_long":106.568863,"line":6,"station_name":"Parung Panjang","distance":7025},{"line":0,"station_name":"Cicayur","i_long":106.617853,"is_transit":false,"station_id":"CC","distance":5968,"i_lat":-6.329547,"time":8,"transit":false},{"i_long":106.640411,"station_id":"CSK","transit":false,"station_name":"Cisauk","is_transit":false,"time":4,"i_lat":-6.32484,"distance":2519,"line":0},{"i_long":106.66566,"line":6,"i_lat":-6.319871,"distance":1784,"is_transit":false,"time":4,"station_name":"Serpong","transit":false,"station_id":"SRP"},{"line":6,"is_transit":false,"time":4,"station_id":"RU","distance":2413,"i_lat":-6.314823,"i_long":106.675475,"station_name":"Rawa Buntu","transit":false},{"station_id":"SDM","is_transit":false,"time":6,"transit":false,"i_long":106.712277,"station_name":"Sudimara","distance":4566,"line":6,"i_lat":-6.296963},{"is_transit":false,"i_long":106.728916,"time":4,"transit":false,"distance":1994,"line":6,"station_id":"JMU","station_name":"Jurangmangu","i_lat":-6.288927},{"i_lat":-6.276362,"is_transit":false,"line":6,"i_long":106.74273,"transit":false,"station_id":"PDJ","distance":2179,"station_name":"Pondokranji","time":3},{"station_name":"Kebayoran","station_id":"KBY","distance":6218,"is_transit":false,"i_long":106.780334,"line":6,"time":8,"transit":false,"i_lat":-6.237242},{"station_name":"Palmerah","i_long":106.79689,"station_id":"PLM","i_lat":-6.207404,"time":7,"distance":3737,"is_transit":false,"transit":false,"line":6},{"transit":true,"distance":3191,"line":1,"station_name":"Tanah Abang","i_lat":-6.185545,"time":6,"is_transit":true,"i_long":106.811091,"station_id":"THB"},{"station_id":"KAT","station_name":"Karet","line":1,"transit":false,"distance":2029,"is_transit":false,"time":5,"i_long":106.816351,"i_lat":-6.20132},{"distance":471,"i_long":106.819881,"transit":false,"line":1,"i_lat":-6.201433,"station_name":"Sudirman Baru","is_transit":false,"station_id":"SUDB","time":1},{"line":1,"station_id":"SUD","time":1,"distance":280,"i_lat":-6.202263,"transit":false,"station_name":"Sudirman","i_long":106.822649,"is_transit":false},{"line":0,"distance":3186,"station_name":"Manggarai","i_long":106.84912,"is_transit":true,"transit":true,"i_lat":-6.209883,"time":4,"station_id":"MRI"},{"i_lat":-6.198556,"station_id":"CKI","station_name":"Cikini","transit":false,"is_transit":false,"line":0,"time":4,"i_long":106.840169,"distance":1590},{"station_name":"Gondangdia","time":3,"i_lat":-6.186295,"i_long":106.832183,"station_id":"GDD","transit":false,"distance":1750,"line":2,"is_transit":false},{"distance":2015,"station_name":"Juanda","time":4,"i_lat":-6.166716,"transit":false,"i_long":106.828284,"station_id":"JUA","is_transit":false,"line":2},{"i_lat":-6.160725,"distance":1149,"transit":false,"i_long":106.827103,"time":2,"station_name":"Sawah Besar","line":2,"station_id":"SW","is_transit":false},{"station_id":"MGB","is_transit":false,"station_name":"Manggabesar","transit":false,"i_lat":-6.149769,"i_long":106.82482,"time":2,"line":2,"distance":906},{"line":7,"distance":1080,"station_id":"JAY","transit":false,"i_lat":-6.141205,"is_transit":false,"station_name":"Jayakarta","i_long":106.820901,"time":2},{"station_name":"Jakarta Kota","station_id":"JAKK","transit":true,"time":4,"distance":1264,"line":0,"is_transit":true,"i_lat":-6.137569,"i_long":106.812439},{"line":0,"station_id":"KPB","station_name":"Kampung Bandan","i_lat":-6.132549,"time":3,"is_transit":true,"distance":1364,"transit":false,"i_long":106.826365},{"transit":false,"distance":4102,"i_lat":-6.144674,"line":0,"station_name":"Angke","is_transit":false,"station_id":"AK","i_long":106.79867,"time":9},{"time":4,"station_id":"DU","i_long":106.800832,"station_name":"Duri","distance":1230,"is_transit":true,"i_lat":-6.155215,"transit":true,"line":1},{"i_long":106.788277,"station_name":"Grogol","time":3,"line":5,"distance":1700,"is_transit":false,"transit":false,"station_id":"GGL","i_lat":-6.162021},{"station_name":"Pesing","distance":2036,"i_lat":-6.161433,"station_id":"PSG","transit":false,"line":5,"i_long":106.771379,"is_transit":false,"time":2},{"is_transit":false,"i_lat":-6.1587309999999995,"station_id":"TKO","station_name":"Taman Kota","time":2,"line":5,"i_long":106.756522,"transit":false,"distance":1614},{"transit":false,"station_id":"BOI","is_transit":false,"station_name":"Bojongindah","i_lat":-6.159876,"i_long":106.737035,"time":2,"distance":2334,"line":0},{"station_id":"RW","is_transit":false,"transit":false,"distance":1152,"station_name":"Rawa Buaya","i_long":106.723064,"line":5,"i_lat":-6.162758,"time":4},{"line":5,"is_transit":false,"station_id":"KDS","station_name":"Kalideres","distance":2504,"time":3,"transit":false,"i_lat":-6.166068,"i_long":106.701612}],[{"line":0,"station_name":"Cilejit","station_id":"CJT","is_transit":false,"time":0,"distance":0,"transit":false,"i_lat":-6.354349,"i_long":106.508482},{"time":9,"is_transit":false,"station_name":"Parung Panjang","distance":7025,"i_long":106.568863,"transit":false,"i_lat":-6.3441410000000005,"line":6,"station_id":"PRP"},{"line":0,"i_lat":-6.329547,"distance":5968,"time":8,"i_long":106.617853,"is_transit":false,"station_id":"CC","station_name":"Cicayur","transit":false},{"distance":2519,"station_id":"CSK","is_transit":false,"i_long":106.640411,"transit":false,"station_name":"Cisauk","line":0,"time":4,"i_lat":-6.32484},{"i_lat":-6.319871,"line":6,"station_id":"SRP","station_name":"Serpong","distance":1784,"is_transit":false,"time":4,"i_long":106.66566,"transit":false},{"line":6,"transit":false,"is_transit":false,"time":4,"station_id":"RU","station_name":"Rawa Buntu","distance":2413,"i_lat":-6.314823,"i_long":106.675475},{"station_id":"SDM","time":6,"station_name":"Sudimara","transit":false,"i_lat":-6.296963,"is_transit":false,"i_long":106.712277,"distance":4566,"line":6},{"line":6,"is_transit":false,"i_long":106.728916,"distance":1994,"transit":false,"i_lat":-6.288927,"time":4,"station_name":"Jurangmangu","station_id":"JMU"},{"is_transit":false,"station_id":"PDJ","i_long":106.74273,"station_name":"Pondokranji","i_lat":-6.276362,"line":6,"time":3,"distance":2179,"transit":false},{"is_transit":false,"transit":false,"time":8,"distance":6218,"i_long":106.780334,"line":6,"i_lat":-6.237242,"station_id":"KBY","station_name":"Kebayoran"},{"transit":false,"station_name":"Palmerah","time":7,"i_lat":-6.207404,"i_long":106.79689,"distance":3737,"station_id":"PLM","line":6,"is_transit":false},{"is_transit":true,"time":6,"distance":3191,"station_name":"Tanah Abang","i_long":106.811091,"station_id":"THB","line":1,"transit":true,"i_lat":-6.185545},{"transit":false,"i_long":106.816351,"i_lat":-6.20132,"distance":2029,"time":5,"line":1,"station_id":"KAT","is_transit":false,"station_name":"Karet"},{"i_long":106.819881,"time":1,"distance":471,"i_lat":-6.201433,"is_transit":false,"transit":false,"line":1,"station_id":"SUDB","station_name":"Sudirman Baru"},{"distance":280,"line":1,"station_id":"SUD","station_name":"Sudirman","i_lat":-6.202263,"i_long":106.822649,"is_transit":false,"transit":false,"time":1},{"distance":3186,"line":0,"is_transit":true,"transit":false,"i_lat":-6.209883,"station_name":"Manggarai","station_id":"MRI","i_long":106.84912,"time":4},{"time":2,"distance":1275,"transit":false,"station_name":"Matraman","is_transit":false,"station_id":"MTR","i_lat":-6.212485,"i_long":106.858896,"line":1},{"line":0,"is_transit":true,"distance":1377,"time":8,"transit":true,"i_long":106.86807400000001,"station_id":"JNG","i_lat":-6.215091,"station_name":"Jatinegara"},{"i_lat":-6.209188,"line":11,"time":2,"station_name":"Pondok Jati","is_transit":false,"station_id":"POK","i_long":106.861737,"distance":1236,"transit":false},{"time":2,"i_long":106.855437,"transit":false,"station_name":"Kramat","line":11,"station_id":"KMT","i_lat":-6.193792,"distance":1829,"is_transit":false},{"i_long":106.850107,"station_id":"GST","station_name":"Gang Sentiong","is_transit":false,"transit":false,"i_lat":-6.185975,"distance":973,"line":11,"time":1},{"time":8,"is_transit":false,"i_lat":-6.174784,"transit":false,"distance":1567,"line":11,"station_name":"Pasar Senen","i_long":106.84368,"station_id":"PSE"},{"time":4,"station_id":"KMO","line":11,"station_name":"Kemayoran","is_transit":false,"distance":1436,"transit":false,"i_lat":-6.161728,"i_long":106.839204},{"station_id":"RJW","transit":false,"distance":1901,"i_long":106.836569,"station_name":"Rajawali","time":5,"line":11,"is_transit":false,"i_lat":-6.14505},{"station_id":"KPB","station_name":"Kampung Bandan","line":0,"is_transit":true,"time":3,"i_lat":-6.132549,"distance":1444,"i_long":106.826365,"transit":true},{"transit":false,"i_long":106.79867,"station_id":"AK","i_lat":-6.144674,"distance":4102,"time":9,"is_transit":false,"line":0,"station_name":"Angke"},{"is_transit":true,"transit":true,"time":4,"distance":1230,"line":1,"station_id":"DU","i_lat":-6.155215,"i_long":106.800832,"station_name":"Duri"},{"distance":1700,"i_lat":-6.162021,"i_long":106.788277,"is_transit":false,"line":5,"transit":false,"station_id":"GGL","station_name":"Grogol","time":3},{"line":5,"distance":2036,"i_lat":-6.161433,"station_id":"PSG","time":2,"is_transit":false,"transit":false,"i_long":106.771379,"station_name":"Pesing"},{"line":5,"station_id":"TKO","transit":false,"distance":1614,"station_name":"Taman Kota","time":2,"is_transit":false,"i_lat":-6.1587309999999995,"i_long":106.756522},{"station_id":"BOI","i_long":106.737035,"distance":2334,"is_transit":false,"transit":false,"line":0,"i_lat":-6.159876,"station_name":"Bojongindah","time":2},{"line":5,"station_name":"Rawa Buaya","is_transit":false,"i_lat":-6.162758,"station_id":"RW","time":4,"distance":1152,"transit":false,"i_long":106.723064},{"station_id":"KDS","is_transit":false,"i_long":106.701612,"line":5,"i_lat":-6.166068,"station_name":"Kalideres","time":3,"transit":false,"distance":2504}]]}