{"data":[[{"distance":0,"station_name":"Cilejit","transit":false,"line":0,"i_long":106.508482,"time":0,"station_id":"CJT","i_lat":-6.354349,"is_transit":false},{"station_name":"Parung Panjang","i_lat":-6.3441410000000005,"i_long":106.568863,"station_id":"PRP","is_transit":false,"distance":7025,"transit":false,"line":6,"time":9},{"station_id":"CC","line":0,"station_name":"Cicayur","transit":false,"i_lat":-6.329547,"time":8,"is_transit":false,"i_long":106.617853,"distance":5968},{"station_id":"CSK","is_transit":false,"time":4,"i_lat":-6.32484,"transit":false,"i_long":106.640411,"distance":2519,"line":0,"station_name":"Cisauk"},{"transit":false,"i_long":106.66566,"line":6,"time":4,"station_name":"Serpong","i_lat":-6.319871,"is_transit":false,"station_id":"SRP","distance":1784},{"line":6,"distance":2413,"station_id":"RU","time":4,"transit":false,"i_lat":-6.314823,"i_long":106.675475,"is_transit":false,"station_name":"Rawa Buntu"},{"transit":false,"station_id":"SDM","i_long":106.712277,"time":6,"distance":4566,"line":6,"station_name":"Sudimara","i_lat":-6.296963,"is_transit":false},{"station_name":"Jurangmangu","distance":1994,"i_lat":-6.288927,"station_id":"JMU","i_long":106.728916,"time":4,"line":6,"transit":false,"is_transit":false},{"i_long":106.74273,"is_transit":false,"time":3,"i_lat":-6.276362,"distance":2179,"station_id":"PDJ","transit":false,"line":6,"station_name":"Pondokranji"},{"transit":false,"distance":6218,"station_id":"KBY","station_name":"Kebayoran","i_lat":-6.237242,"line":6,"i_long":106.780334,"is_transit":false,"time":8},{"station_id":"PLM","i_long":106.79689,"time":7,"line":6,"is_transit":false,"distance":3737,"station_name":"Palmerah","i_lat":-6.207404,"transit":false},{"i_long":106.811091,"station_id":"THB","is_transit":true,"time":6,"line":1,"distance":3191,"station_name":"Tanah Abang","transit":true,"i_lat":-6.185545},{"i_lat":-6.155215,"transit":true,"station_id":"DU","i_long":106.800832,"distance":3632,"station_name":"Duri","line":1,"is_transit":true,"time":8},{"i_lat":-6.144674,"station_id":"AK","is_transit":false,"distance":1230,"transit":false,"station_name":"Angke","i_long":106.79867,"line":0,"time":4},{"i_lat":-6.132549,"i_long":106.826365,"line":0,"distance":4102,"station_name":"Kampung Bandan","station_id":"KPB","is_transit":true,"time":9,"transit":true},{"station_id":"RJW","is_transit":false,"station_name":"Rajawali","i_lat":-6.14505,"i_long":106.836569,"time":3,"distance":1444,"line":11,"transit":false}],[{"time":0,"line":0,"is_transit":false,"i_lat":-6.354349,"transit":false,"station_id":"CJT","i_long":106.508482,"distance":0,"station_name":"Cilejit"},{"line":6,"station_name":"Parung Panjang","distance":7025,"transit":false,"station_id":"PRP","is_transit":false,"i_lat":-6.3441410000000005,"i_long":106.568863,"time":9},{"station_id":"CC","i_long":106.617853,"transit":false,"is_transit":false,"distance":5968,"i_lat":-6.329547,"station_name":"Cicayur","time":8,"line":0},{"station_id":"CSK","transit":false,"i_long":106.640411,"is_transit":false,"line":0,"time":4,"distance":2519,"station_name":"Cisauk","i_lat":-6.32484},{"is_transit":false,"i_long":106.66566,"transit":false,"line":6,"station_id":"SRP","distance":1784,"station_name":"Serpong","i_lat":-6.319871,"time":4},{"station_id":"RU","time":4,"distance":2413,"station_name":"Rawa Buntu","transit":false,"line":6,"i_long":106.675475,"is_transit":false,"i_lat":-6.314823},{"is_transit":false,"i_long":106.712277,"line":6,"station_id":"SDM","i_lat":-6.296963,"distance":4566,"transit":false,"time":6,"station_name":"Sudimara"},{"time":4,"i_lat":-6.288927,"station_name":"Jurangmangu","line":6,"station_id":"JMU","is_transit":false,"distance":1994,"i_long":106.728916,"transit":false},{"station_name":"Pondokranji","station_id":"PDJ","is_transit":false,"distance":2179,"i_long":106.74273,"time":3,"line":6,"transit":false,"i_lat":-6.276362},{"is_transit":false,"station_name":"Kebayoran","station_id":"KBY","transit":false,"time":8,"i_long":106.780334,"i_lat":-6.237242,"distance":6218,"line":6},{"station_id":"PLM","time":7,"distance":3737,"is_transit":false,"station_name":"Palmerah","i_lat":-6.207404,"transit":false,"line":6,"i_long":106.79689},{"line":1,"i_lat":-6.185545,"distance":3191,"station_id":"THB","is_transit":true,"time":6,"station_name":"Tanah Abang","transit":true,"i_long":106.811091},{"line":1,"i_long":106.816351,"station_name":"Karet","i_lat":-6.20132,"is_transit":false,"station_id":"KAT","time":5,"distance":2029,"transit":false},{"time":1,"station_name":"Sudirman Baru","is_transit":false,"i_lat":-6.201433,"i_long":106.819881,"station_id":"SUDB","line":1,"distance":471,"transit":false},{"i_lat":-6.202263,"distance":280,"line":1,"station_id":"SUD","i_long":106.822649,"time":1,"transit":false,"is_transit":false,"station_name":"Sudirman"},{"transit":false,"time":4,"station_name":"Manggarai","distance":3186,"line":0,"station_id":"MRI","is_transit":true,"i_lat":-6.209883,"i_long":106.84912},{"line":1,"transit":false,"i_long":106.858896,"i_lat":-6.212485,"is_transit":false,"station_id":"MTR","distance":1275,"station_name":"Matraman","time":2},{"is_transit":true,"station_name":"Jatinegara","time":8,"line":0,"station_id":"JNG","i_long":106.86807400000001,"transit":true,"distance":1377,"i_lat":-6.215091},{"transit":false,"line":11,"is_transit":false,"distance":1236,"time":2,"station_id":"POK","i_lat":-6.209188,"i_long":106.861737,"station_name":"Pondok Jati"},{"station_id":"KMT","i_lat":-6.193792,"i_long":106.855437,"time":2,"transit":false,"is_transit":false,"line":11,"station_name":"Kramat","distance":1829},{"station_id":"GST","i_long":106.850107,"distance":973,"line":11,"is_transit":false,"time":1,"station_name":"Gang Sentiong","transit":false,"i_lat":-6.185975},{"station_id":"PSE","is_transit":false,"time":8,"distance":1567,"i_long":106.84368,"station_name":"Pasar Senen","line":11,"transit":false,"i_lat":-6.174784},{"station_id":"KMO","transit":false,"is_transit":false,"line":11,"station_name":"Kemayoran","distance":1436,"time":4,"i_long":106.839204,"i_lat":-6.161728},{"i_lat":-6.14505,"is_transit":false,"time":5,"distance":1901,"transit":false,"i_long":106.836569,"line":11,"station_name":"Rajawali","station_id":"RJW"}],[{"transit":false,"time":0,"station_id":"CJT","distance":0,"i_long":106.508482,"i_lat":-6.354349,"station_name":"Cilejit","is_transit":false,"line":0},{"distance":7025,"station_id":"PRP","is_transit":false,"line":6,"transit":false,"time":9,"station_name":"Parung Panjang","i_long":106.568863,"i_lat":-6.3441410000000005},{"station_id":"CC","distance":5968,"is_transit":false,"station_name":"Cicayur","i_lat":-6.329547,"transit":false,"time":8,"i_long":106.617853,"line":0},{"i_long":106.640411,"i_lat":-6.32484,"line":0,"station_name":"Cisauk","station_id":"CSK","time":4,"distance":2519,"is_transit":false,"transit":false},{"transit":false,"distance":1784,"station_id":"SRP","time":4,"i_long":106.66566,"line":6,"i_lat":-6.319871,"is_transit":false,"station_name":"Serpong"},{"station_id":"RU","transit":false,"i_lat":-6.314823,"station_name":"Rawa Buntu","distance":2413,"is_transit":false,"i_long":106.675475,"time":4,"line":6},{"distance":4566,"transit":false,"is_transit":false,"time":6,"station_name":"Sudimara","station_id":"SDM","i_lat":-6.296963,"i_long":106.712277,"line":6},{"distance":1994,"time":4,"is_transit":false,"transit":false,"station_id":"JMU","i_lat":-6.288927,"line":6,"station_name":"Jurangmangu","i_long":106.728916},{"is_transit":false,"transit":false,"distance":2179,"time":3,"line":6,"i_long":106.74273,"station_id":"PDJ","station_name":"Pondokranji","i_lat":-6.276362},{"time":8,"station_id":"KBY","distance":6218,"station_name":"Kebayoran","i_long":106.780334,"i_lat":-6.237242,"line":6,"transit":false,"is_transit":false},{"station_name":"Palmerah","i_lat":-6.207404,"distance":3737,"line":6,"is_transit":false,"station_id":"PLM","transit":false,"i_long":106.79689,"time":7},{"i_long":106.811091,"is_transit":true,"station_id":"THB","station_name":"Tanah Abang","transit":true,"time":6,"line":1,"i_lat":-6.185545,"distance":3191},{"line":1,"time":5,"i_long":106.816351,"station_name":"Karet","transit":false,"station_id":"KAT","is_transit":false,"distance":2029,"i_lat":-6.20132},{"distance":471,"line":1,"i_long":106.819881,"i_lat":-6.201433,"station_name":"Sudirman Baru","time":1,"is_transit":false,"transit":false,"station_id":"SUDB"},{"i_long":106.822649,"station_id":"SUD","station_name":"Sudirman","distance":280,"time":1,"i_lat":-6.202263,"line":1,"transit":false,"is_transit":false},{"station_id":"MRI","distance":3186,"transit":true,"i_long":106.84912,"line":0,"time":4,"is_transit":true,"station_name":"Manggarai","i_lat":-6.209883},{"is_transit":false,"distance":1590,"i_long":106.840169,"line":0,"station_id":"CKI","time":4,"i_lat":-6.198556,"station_name":"Cikini","transit":false},{"transit":false,"i_lat":-6.186295,"station_id":"GDD","station_name":"Gondangdia","i_long":106.832183,"time":3,"line":2,"is_transit":false,"distance":1750},{"distance":2015,"station_id":"JUA","station_name":"Juanda","i_long":106.828284,"line":2,"is_transit":false,"time":4,"transit":false,"i_lat":-6.166716},{"is_transit":false,"i_lat":-6.160725,"i_long":106.827103,"station_id":"SW","transit":false,"line":2,"time":2,"station_name":"Sawah Besar","distance":1149},{"distance":906,"line":2,"transit":false,"is_transit":false,"station_id":"MGB","time":2,"i_lat":-6.149769,"station_name":"Manggabesar","i_long":106.82482},{"i_long":106.820901,"i_lat":-6.141205,"time":2,"station_id":"JAY","station_name":"Jayakarta","transit":false,"is_transit":false,"distance":1080,"line":7},{"i_long":106.812439,"time":4,"transit":true,"line":0,"distance":1264,"i_lat":-6.137569,"is_transit":true,"station_name":"Jakarta Kota","station_id":"JAKK"},{"distance":1364,"station_name":"Kampung Bandan","transit":true,"i_lat":-6.132549,"i_long":106.826365,"line":0,"is_transit":true,"station_id":"KPB","time":3},{"i_long":106.836569,"line":11,"is_transit":false,"station_name":"Rajawali","distance":1444,"transit":false,"station_id":"RJW","time":3,"i_lat":-6.14505}],[{"is_transit":false,"distance":0,"i_long":106.508482,"station_name":"Cilejit","station_id":"CJT","i_lat":-6.354349,"transit":false,"line":0,"time":0},{"is_transit":false,"transit":false,"i_lat":-6.3441410000000005,"distance":7025,"i_long":106.568863,"station_id":"PRP","line":6,"station_name":"Parung Panjang","time":9},{"transit":false,"station_name":"Cicayur","i_lat":-6.329547,"i_long":106.617853,"distance":5968,"line":0,"time":8,"station_id":"CC","is_transit":false},{"i_long":106.640411,"time":4,"line":0,"station_name":"Cisauk","station_id":"CSK","distance":2519,"transit":false,"is_transit":false,"i_lat":-6.32484},{"is_transit":false,"station_name":"Serpong","time":4,"station_id":"SRP","i_lat":-6.319871,"i_long":106.66566,"distance":1784,"line":6,"transit":false},{"distance":2413,"transit":false,"i_lat":-6.314823,"i_long":106.675475,"line":6,"is_transit":false,"station_name":"Rawa Buntu","station_id":"RU","time":4},{"station_id":"SDM","distance":4566,"station_name":"Sudimara","i_lat":-6.296963,"line":6,"is_transit":false,"i_long":106.712277,"time":6,"transit":false},{"transit":false,"time":4,"distance":1994,"i_lat":-6.288927,"is_transit":false,"line":6,"i_long":106.728916,"station_name":"Jurangmangu","station_id":"JMU"},{"time":3,"station_name":"Pondokranji","i_lat":-6.276362,"distance":2179,"i_long":106.74273,"line":6,"transit":false,"station_id":"PDJ","is_transit":false},{"i_long":106.780334,"line":6,"is_transit":false,"station_name":"Kebayoran","distance":6218,"transit":false,"i_lat":-6.237242,"time":8,"station_id":"KBY"},{"transit":false,"i_long":106.79689,"station_name":"Palmerah","distance":3737,"i_lat":-6.207404,"station_id":"PLM","time":7,"is_transit":false,"line":6},{"line":1,"time":6,"station_id":"THB","is_transit":true,"transit":true,"distance":3191,"station_name":"Tanah Abang","i_lat":-6.185545,"i_long":106.811091},{"station_name":"Duri","transit":true,"is_transit":true,"i_lat":-6.155215,"station_id":"DU","line":1,"distance":3632,"time":8,"i_long":106.800832},{"i_long":106.79867,"time":4,"i_lat":-6.144674,"station_name":"Angke","station_id":"AK","transit":false,"distance":1230,"line":0,"is_transit":false},{"i_lat":-6.132549,"transit":false,"i_long":106.826365,"distance":4102,"time":9,"is_transit":true,"station_name":"Kampung Bandan","line":0,"station_id":"KPB"},{"distance":1364,"station_name":"Jakarta Kota","transit":true,"i_long":106.812439,"station_id":"JAKK","is_transit":true,"line":0,"i_lat":-6.137569,"time":3},{"i_lat":-6.141205,"is_transit":false,"transit":false,"station_name":"Jayakarta","i_long":106.820901,"time":4,"line":7,"distance":1264,"station_id":"JAY"},{"is_transit":false,"transit":false,"distance":1080,"i_long":106.82482,"line":2,"station_name":"Manggabesar","station_id":"MGB","time":2,"i_lat":-6.149769},{"transit":false,"distance":906,"is_transit":false,"time":2,"i_lat":-6.160725,"line":2,"station_name":"Sawah Besar","station_id":"SW","i_long":106.827103},{"distance":1149,"station_id":"JUA","station_name":"Juanda","transit":false,"is_transit":false,"line":2,"time":2,"i_lat":-6.166716,"i_long":106.828284},{"i_lat":-6.186295,"transit":false,"i_long":106.832183,"station_id":"GDD","time":4,"distance":2015,"line":2,"station_name":"Gondangdia","is_transit":false},{"station_name":"Cikini","distance":1750,"line":0,"i_lat":-6.198556,"station_id":"CKI","i_long":106.840169,"is_transit":false,"time":3,"transit":false},{"i_lat":-6.209883,"time":4,"line":0,"station_id":"MRI","is_transit":true,"distance":1590,"station_name":"Manggarai","transit":true,"i_long":106.84912},{"line":1,"station_id":"MTR","i_lat":-6.212485,"is_transit":false,"time":2,"i_long":106.858896,"distance":1275,"station_name":"Matraman","transit":false},{"station_name":"Jatinegara","distance":1377,"transit":true,"i_lat":-6.215091,"i_long":106.86807400000001,"station_id":"JNG","is_transit":true,"line":0,"time":8},{"transit":false,"station_id":"POK","i_lat":-6.209188,"station_name":"Pondok Jati","line":11,"distance":1236,"is_transit":false,"time":2,"i_long":106.861737},{"distance":1829,"i_long":106.855437,"transit":false,"line":11,"station_id":"KMT","time":2,"station_name":"Kramat","i_lat":-6.193792,"is_transit":false},{"line":11,"is_transit":false,"i_lat":-6.185975,"distance":973,"station_name":"Gang Sentiong","station_id":"GST","time":1,"transit":false,"i_long":106.850107},{"distance":1567,"i_lat":-6.174784,"line":11,"station_name":"Pasar Senen","station_id":"PSE","time":8,"transit":false,"i_long":106.84368,"is_transit":false},{"time":4,"line":11,"distance":1436,"station_name":"Kemayoran","i_lat":-6.161728,"is_transit":false,"transit":false,"station_id":"KMO","i_long":106.839204},{"line":11,"is_transit":false,"time":5,"distance":1901,"transit":false,"i_lat":-6.14505,"i_long":106.836569,"station_id":"RJW","station_name":"Rajawali"}]]}