{"data":[[{"time":0,"station_name":"Cilejit","line":3,"station_id":"CJT","distance":0,"is_transit":false,"transit":false,"i_lat":-6.354349,"i_long":106.508482},{"i_lat":-6.3441410000000005,"transit":false,"distance":7025,"is_transit":false,"station_name":"Parung Panjang","i_long":106.568863,"line":6,"station_id":"PRP","time":9},{"transit":false,"i_lat":-6.329547,"is_transit":false,"distance":5968,"station_name":"Cicayur","station_id":"CC","time":8,"i_long":106.617853,"line":3},{"station_name":"Cisauk","i_long":106.640411,"distance":2519,"line":3,"time":4,"transit":false,"is_transit":false,"i_lat":-6.32484,"station_id":"CSK"},{"is_transit":false,"station_name":"Serpong","i_long":106.66566,"line":6,"i_lat":-6.319871,"time":4,"transit":false,"distance":1784,"station_id":"SRP"},{"distance":2413,"station_name":"Rawa Buntu","is_transit":false,"i_lat":-6.314823,"transit":false,"i_long":106.675475,"time":4,"station_id":"RU","line":6},{"distance":4566,"is_transit":false,"transit":false,"station_name":"Sudimara","time":6,"station_id":"SDM","i_lat":-6.296963,"i_long":106.712277,"line":6}]]}