{"data":[[{"is_transit":false,"line":0,"station_id":"CJT","distance":0,"transit":false,"i_lat":-6.354349,"time":0,"station_name":"Cilejit","i_long":106.508482},{"time":9,"i_lat":-6.3441410000000005,"station_name":"Parung Panjang","transit":false,"line":6,"is_transit":false,"distance":7025,"i_long":106.568863,"station_id":"PRP"},{"i_long":106.617853,"line":0,"i_lat":-6.329547,"station_name":"Cicayur","time":8,"distance":5968,"station_id":"CC","is_transit":false,"transit":false},{"is_transit":false,"station_name":"Cisauk","distance":2519,"transit":false,"time":4,"i_long":106.640411,"i_lat":-6.32484,"line":0,"station_id":"CSK"},{"time":4,"station_name":"Serpong","i_long":106.66566,"transit":false,"distance":1784,"is_transit":false,"station_id":"SRP","i_lat":-6.319871,"line":6}]]}