{"data":[[{"time":0,"i_lat":-6.354349,"station_name":"Cilejit","transit":false,"station_id":"CJT","distance":0,"is_transit":false,"i_long":106.508482,"line":3},{"transit":false,"station_id":"PRP","line":6,"distance":7025,"is_transit":false,"time":9,"i_lat":-6.3441410000000005,"station_name":"Parung Panjang","i_long":106.568863},{"i_long":106.617853,"distance":5968,"station_id":"CC","line":3,"time":8,"station_name":"Cicayur","is_transit":false,"transit":false,"i_lat":-6.329547},{"i_lat":-6.32484,"line":3,"time":4,"distance":2519,"i_long":106.640411,"station_name":"Cisauk","transit":false,"is_transit":false,"station_id":"CSK"},{"time":4,"line":6,"station_name":"Serpong","i_lat":-6.319871,"distance":1784,"station_id":"SRP","i_long":106.66566,"transit":false,"is_transit":false},{"station_id":"RU","i_lat":-6.314823,"i_long":106.675475,"transit":false,"line":6,"station_name":"Rawa Buntu","time":4,"is_transit":false,"distance":2413},{"time":6,"i_lat":-6.296963,"is_transit":false,"line":6,"station_name":"Sudimara","transit":false,"i_long":106.712277,"station_id":"SDM","distance":4566},{"transit":false,"is_transit":false,"station_id":"JMU","i_long":106.728916,"line":6,"time":4,"i_lat":-6.288927,"station_name":"Jurangmangu","distance":1994},{"is_transit":false,"line":6,"i_lat":-6.276362,"i_long":106.74273,"station_name":"Pondokranji","time":3,"distance":2179,"transit":false,"station_id":"PDJ"},{"i_long":106.780334,"station_name":"Kebayoran","is_transit":false,"distance":6218,"i_lat":-6.237242,"line":6,"station_id":"KBY","transit":false,"time":8},{"is_transit":false,"transit":false,"station_id":"PLM","distance":3737,"line":6,"time":7,"station_name":"Palmerah","i_long":106.79689,"i_lat":-6.207404},{"station_name":"Tanah Abang","i_lat":-6.185545,"i_long":106.811091,"line":1,"transit":true,"distance":3191,"time":6,"is_transit":true,"station_id":"THB"},{"station_id":"KAT","line":1,"transit":false,"i_lat":-6.20132,"time":5,"distance":2029,"station_name":"Karet","i_long":106.816351,"is_transit":false},{"is_transit":false,"i_long":106.819881,"distance":471,"station_id":"SUDB","i_lat":-6.201433,"time":1,"transit":false,"line":1,"station_name":"Sudirman Baru"},{"station_name":"Sudirman","distance":280,"is_transit":false,"transit":false,"time":1,"i_lat":-6.202263,"i_long":106.822649,"line":1,"station_id":"SUD"},{"station_id":"MRI","transit":true,"distance":3186,"i_lat":-6.209883,"i_long":106.84912,"is_transit":true,"station_name":"Manggarai","line":2,"time":4},{"i_long":106.857948,"station_name":"Tebet","station_id":"TEB","line":2,"time":4,"is_transit":false,"transit":false,"i_lat":-6.226659,"distance":2610},{"station_id":"CW","i_lat":-6.242512,"distance":1230,"line":2,"transit":false,"time":2,"i_long":106.856607,"station_name":"Cawang","is_transit":false},{"i_lat":-6.255332,"time":3,"transit":false,"is_transit":false,"i_long":106.85449,"line":2,"distance":1546,"station_name":"Duren Kalibata","station_id":"DRN"},{"is_transit":false,"station_name":"Pasar Minggu Baru","distance":824,"station_id":"PSMB","i_long":106.851577,"time":2,"i_lat":-6.263214,"line":2,"transit":false},{"transit":false,"time":2,"is_transit":false,"station_id":"PSM","line":2,"station_name":"Pasar Minggu","distance":2380,"i_lat":-6.2842400000000005,"i_long":106.843999},{"i_long":106.838896,"transit":false,"distance":2820,"i_lat":-6.3080680000000005,"station_name":"Tanjung Barat","time":4,"is_transit":false,"line":2,"station_id":"TNT"},{"distance":2671,"i_lat":-6.330363,"transit":false,"is_transit":false,"station_id":"LNA","station_name":"Lenteng Agung","time":3,"line":2,"i_long":106.832616},{"is_transit":false,"transit":false,"i_lat":-6.339291,"i_long":106.834175,"time":2,"line":2,"distance":1029,"station_id":"UP","station_name":"Univ. Pancasila"},{"transit":false,"station_name":"Univ. Indonesia","distance":2264,"line":2,"i_lat":-6.360749,"is_transit":false,"station_id":"UI","i_long":106.831474,"time":3},{"i_lat":-6.369073,"is_transit":false,"line":2,"distance":1109,"i_long":106.831114,"time":2,"station_name":"Pondok Cina","transit":false,"station_id":"POC"},{"distance":2727,"is_transit":false,"time":4,"i_long":106.819451,"transit":false,"i_lat":-6.391065,"station_name":"Depokbaru","station_id":"DPB","line":2},{"time":3,"transit":false,"i_lat":-6.405256,"station_name":"Depok","distance":1584,"is_transit":false,"line":2,"station_id":"DP","i_long":106.816926},{"station_name":"Citayam","line":2,"station_id":"CTA","i_lat":-6.448811,"distance":5084,"is_transit":true,"time":6,"i_long":106.800298,"transit":true},{"station_id":"PDRG","i_lat":-6.460735,"station_name":"Pondok Rajeg","distance":0,"transit":false,"is_transit":false,"line":21,"time":0,"i_long":106.824374}],[{"i_lat":-6.354349,"station_id":"CJT","station_name":"Cilejit","line":3,"is_transit":false,"time":0,"transit":false,"i_long":106.508482,"distance":0},{"is_transit":false,"distance":7025,"station_name":"Parung Panjang","line":6,"transit":false,"time":9,"i_lat":-6.3441410000000005,"station_id":"PRP","i_long":106.568863},{"distance":5968,"transit":false,"is_transit":false,"station_id":"CC","i_lat":-6.329547,"station_name":"Cicayur","time":8,"i_long":106.617853,"line":3},{"is_transit":false,"station_id":"CSK","time":4,"transit":false,"distance":2519,"i_lat":-6.32484,"i_long":106.640411,"station_name":"Cisauk","line":3},{"time":4,"is_transit":false,"station_id":"SRP","i_lat":-6.319871,"line":6,"distance":1784,"station_name":"Serpong","transit":false,"i_long":106.66566},{"time":4,"is_transit":false,"station_id":"RU","transit":false,"line":6,"station_name":"Rawa Buntu","distance":2413,"i_long":106.675475,"i_lat":-6.314823},{"i_lat":-6.296963,"station_id":"SDM","i_long":106.712277,"distance":4566,"time":6,"station_name":"Sudimara","line":6,"transit":false,"is_transit":false},{"is_transit":false,"distance":1994,"station_id":"JMU","i_lat":-6.288927,"station_name":"Jurangmangu","i_long":106.728916,"line":6,"time":4,"transit":false},{"is_transit":false,"time":3,"station_id":"PDJ","i_long":106.74273,"station_name":"Pondokranji","i_lat":-6.276362,"line":6,"distance":2179,"transit":false},{"line":6,"time":8,"station_name":"Kebayoran","is_transit":false,"i_lat":-6.237242,"i_long":106.780334,"station_id":"KBY","distance":6218,"transit":false},{"i_long":106.79689,"transit":false,"distance":3737,"station_name":"Palmerah","i_lat":-6.207404,"is_transit":false,"time":7,"line":6,"station_id":"PLM"},{"is_transit":true,"distance":3191,"i_long":106.811091,"time":6,"station_id":"THB","i_lat":-6.185545,"transit":true,"station_name":"Tanah Abang","line":1},{"i_long":106.800832,"transit":false,"distance":3632,"time":8,"station_id":"DU","station_name":"Duri","is_transit":false,"i_lat":-6.155215,"line":1},{"i_lat":-6.144674,"transit":false,"time":4,"i_long":106.79867,"is_transit":false,"distance":1230,"station_id":"AK","station_name":"Angke","line":1},{"station_id":"KPB","i_lat":-6.132549,"transit":true,"i_long":106.826365,"time":9,"line":4,"station_name":"Kampung Bandan","distance":4102,"is_transit":true},{"station_id":"JAKK","is_transit":true,"i_long":106.812439,"station_name":"Jakarta Kota","i_lat":-6.137569,"line":2,"time":3,"transit":true,"distance":1364},{"line":2,"time":4,"transit":false,"station_id":"JAY","station_name":"Jayakarta","distance":1264,"is_transit":false,"i_lat":-6.141205,"i_long":106.820901},{"is_transit":false,"transit":false,"i_lat":-6.149769,"line":2,"i_long":106.82482,"station_id":"MGB","distance":1080,"time":2,"station_name":"Manggabesar"},{"i_long":106.827103,"station_name":"Sawah Besar","line":2,"time":2,"i_lat":-6.160725,"transit":false,"station_id":"SW","is_transit":false,"distance":906},{"i_long":106.828284,"is_transit":false,"line":2,"i_lat":-6.166716,"distance":1149,"time":2,"transit":false,"station_id":"JUA","station_name":"Juanda"},{"transit":false,"time":4,"i_long":106.832183,"i_lat":-6.186295,"station_name":"Gondangdia","station_id":"GDD","is_transit":false,"distance":2015,"line":2},{"is_transit":false,"distance":1750,"station_name":"Cikini","i_lat":-6.198556,"time":3,"line":2,"i_long":106.840169,"station_id":"CKI","transit":false},{"station_name":"Manggarai","station_id":"MRI","transit":false,"i_long":106.84912,"line":2,"distance":1590,"time":4,"is_transit":false,"i_lat":-6.209883},{"is_transit":false,"i_lat":-6.226659,"transit":false,"station_name":"Tebet","i_long":106.857948,"station_id":"TEB","time":4,"distance":2610,"line":2},{"station_id":"CW","transit":false,"station_name":"Cawang","i_lat":-6.242512,"i_long":106.856607,"time":2,"line":2,"distance":1230,"is_transit":false},{"time":3,"distance":1546,"transit":false,"station_id":"DRN","i_lat":-6.255332,"is_transit":false,"line":2,"station_name":"Duren Kalibata","i_long":106.85449},{"station_id":"PSMB","transit":false,"time":2,"station_name":"Pasar Minggu Baru","i_lat":-6.263214,"line":2,"distance":824,"is_transit":false,"i_long":106.851577},{"line":2,"is_transit":false,"time":2,"i_long":106.843999,"station_name":"Pasar Minggu","i_lat":-6.2842400000000005,"station_id":"PSM","transit":false,"distance":2380},{"line":2,"is_transit":false,"station_name":"Tanjung Barat","i_lat":-6.3080680000000005,"station_id":"TNT","time":4,"distance":2820,"transit":false,"i_long":106.838896},{"station_name":"Lenteng Agung","transit":false,"is_transit":false,"station_id":"LNA","i_lat":-6.330363,"time":3,"distance":2671,"i_long":106.832616,"line":2},{"i_lat":-6.339291,"is_transit":false,"time":2,"i_long":106.834175,"distance":1029,"station_id":"UP","transit":false,"line":2,"station_name":"Univ. Pancasila"},{"i_long":106.831474,"line":2,"is_transit":false,"transit":false,"station_id":"UI","i_lat":-6.360749,"distance":2264,"station_name":"Univ. Indonesia","time":3},{"station_name":"Pondok Cina","i_long":106.831114,"transit":false,"i_lat":-6.369073,"distance":1109,"line":2,"is_transit":false,"time":2,"station_id":"POC"},{"time":4,"station_name":"Depokbaru","is_transit":false,"i_long":106.819451,"station_id":"DPB","line":2,"transit":false,"i_lat":-6.391065,"distance":2727},{"i_lat":-6.405256,"time":3,"transit":false,"is_transit":false,"distance":1584,"station_name":"Depok","station_id":"DP","line":2,"i_long":106.816926},{"distance":5084,"i_long":106.800298,"is_transit":true,"station_name":"Citayam","time":6,"line":2,"i_lat":-6.448811,"transit":true,"station_id":"CTA"},{"time":0,"i_lat":-6.460735,"line":21,"station_id":"PDRG","transit":false,"is_transit":false,"station_name":"Pondok Rajeg","i_long":106.824374,"distance":0}],[{"station_name":"Cilejit","time":0,"distance":0,"i_lat":-6.354349,"is_transit":false,"station_id":"CJT","i_long":106.508482,"transit":false,"line":3},{"transit":false,"station_id":"PRP","distance":7025,"i_long":106.568863,"i_lat":-6.3441410000000005,"time":9,"station_name":"Parung Panjang","is_transit":false,"line":6},{"i_lat":-6.329547,"is_transit":false,"line":3,"transit":false,"time":8,"station_id":"CC","station_name":"Cicayur","distance":5968,"i_long":106.617853},{"i_lat":-6.32484,"station_name":"Cisauk","i_long":106.640411,"time":4,"transit":false,"station_id":"CSK","line":3,"distance":2519,"is_transit":false},{"station_id":"SRP","line":6,"transit":false,"is_transit":false,"i_lat":-6.319871,"time":4,"station_name":"Serpong","distance":1784,"i_long":106.66566},{"distance":2413,"i_lat":-6.314823,"transit":false,"i_long":106.675475,"is_transit":false,"time":4,"station_id":"RU","line":6,"station_name":"Rawa Buntu"},{"is_transit":false,"station_id":"SDM","distance":4566,"line":6,"station_name":"Sudimara","time":6,"transit":false,"i_long":106.712277,"i_lat":-6.296963},{"station_id":"JMU","i_long":106.728916,"i_lat":-6.288927,"line":6,"transit":false,"station_name":"Jurangmangu","time":4,"is_transit":false,"distance":1994},{"time":3,"station_id":"PDJ","station_name":"Pondokranji","i_lat":-6.276362,"i_long":106.74273,"is_transit":false,"transit":false,"distance":2179,"line":6},{"station_name":"Kebayoran","transit":false,"line":6,"distance":6218,"time":8,"station_id":"KBY","is_transit":false,"i_long":106.780334,"i_lat":-6.237242},{"time":7,"is_transit":false,"station_id":"PLM","i_lat":-6.207404,"station_name":"Palmerah","transit":false,"distance":3737,"i_long":106.79689,"line":6},{"time":6,"is_transit":true,"station_name":"Tanah Abang","i_long":106.811091,"transit":true,"distance":3191,"line":1,"i_lat":-6.185545,"station_id":"THB"},{"transit":false,"station_id":"DU","is_transit":false,"time":8,"station_name":"Duri","i_long":106.800832,"line":1,"distance":3632,"i_lat":-6.155215},{"line":1,"is_transit":false,"transit":false,"distance":1230,"i_lat":-6.144674,"i_long":106.79867,"station_name":"Angke","station_id":"AK","time":4},{"station_id":"KPB","is_transit":true,"i_lat":-6.132549,"station_name":"Kampung Bandan","line":4,"distance":4102,"time":9,"i_long":106.826365,"transit":true},{"station_id":"RJW","distance":1444,"i_lat":-6.14505,"transit":false,"is_transit":false,"i_long":106.836569,"line":11,"station_name":"Rajawali","time":3},{"i_lat":-6.161728,"time":5,"station_name":"Kemayoran","station_id":"KMO","i_long":106.839204,"line":11,"is_transit":false,"distance":1901,"transit":false},{"time":4,"is_transit":false,"transit":false,"station_name":"Pasar Senen","distance":1436,"i_lat":-6.174784,"station_id":"PSE","i_long":106.84368,"line":11},{"transit":false,"is_transit":false,"line":11,"time":8,"i_lat":-6.185975,"distance":1567,"i_long":106.850107,"station_id":"GST","station_name":"Gang Sentiong"},{"i_lat":-6.193792,"station_id":"KMT","transit":false,"time":1,"station_name":"Kramat","distance":973,"is_transit":false,"i_long":106.855437,"line":11},{"time":2,"transit":false,"station_id":"POK","station_name":"Pondok Jati","i_lat":-6.209188,"i_long":106.861737,"is_transit":false,"distance":1829,"line":11},{"time":9,"station_id":"JNG","station_name":"Jatinegara","transit":true,"distance":1236,"i_long":106.86807400000001,"is_transit":true,"i_lat":-6.215091,"line":1},{"i_long":106.858896,"distance":1377,"i_lat":-6.212485,"time":2,"station_name":"Matraman","is_transit":false,"station_id":"MTR","transit":false,"line":1},{"distance":1275,"station_id":"MRI","line":2,"station_name":"Manggarai","time":2,"is_transit":true,"transit":true,"i_lat":-6.209883,"i_long":106.84912},{"distance":2610,"transit":false,"is_transit":false,"time":4,"station_name":"Tebet","station_id":"TEB","i_long":106.857948,"line":2,"i_lat":-6.226659},{"i_lat":-6.242512,"station_id":"CW","is_transit":false,"line":2,"transit":false,"distance":1230,"i_long":106.856607,"time":2,"station_name":"Cawang"},{"transit":false,"is_transit":false,"i_lat":-6.255332,"station_name":"Duren Kalibata","distance":1546,"line":2,"time":3,"i_long":106.85449,"station_id":"DRN"},{"line":2,"is_transit":false,"station_name":"Pasar Minggu Baru","time":2,"transit":false,"distance":824,"i_lat":-6.263214,"station_id":"PSMB","i_long":106.851577},{"distance":2380,"is_transit":false,"transit":false,"station_id":"PSM","i_lat":-6.2842400000000005,"i_long":106.843999,"line":2,"time":2,"station_name":"Pasar Minggu"},{"i_lat":-6.3080680000000005,"station_id":"TNT","station_name":"Tanjung Barat","is_transit":false,"time":4,"distance":2820,"line":2,"transit":false,"i_long":106.838896},{"time":3,"is_transit":false,"line":2,"transit":false,"i_lat":-6.330363,"distance":2671,"station_name":"Lenteng Agung","i_long":106.832616,"station_id":"LNA"},{"station_id":"UP","station_name":"Univ. Pancasila","transit":false,"time":2,"is_transit":false,"distance":1029,"i_long":106.834175,"line":2,"i_lat":-6.339291},{"distance":2264,"is_transit":false,"time":3,"transit":false,"line":2,"station_name":"Univ. Indonesia","i_lat":-6.360749,"i_long":106.831474,"station_id":"UI"},{"distance":1109,"transit":false,"station_id":"POC","time":2,"station_name":"Pondok Cina","i_lat":-6.369073,"i_long":106.831114,"is_transit":false,"line":2},{"is_transit":false,"i_long":106.819451,"line":2,"transit":false,"station_id":"DPB","distance":2727,"time":4,"i_lat":-6.391065,"station_name":"Depokbaru"},{"transit":false,"i_lat":-6.405256,"i_long":106.816926,"time":3,"station_id":"DP","is_transit":false,"station_name":"Depok","distance":1584,"line":2},{"i_long":106.800298,"line":2,"station_id":"CTA","is_transit":true,"distance":5084,"i_lat":-6.448811,"station_name":"Citayam","time":6,"transit":true},{"time":0,"station_name":"Pondok Rajeg","i_lat":-6.460735,"line":21,"i_long":106.824374,"distance":0,"station_id":"PDRG","is_transit":false,"transit":false}]]}