{"data":[[{"transit":false,"is_transit":false,"line":0,"i_long":106.508482,"time":0,"distance":0,"station_id":"CJT","i_lat":-6.354349,"station_name":"Cilejit"},{"transit":false,"station_id":"PRP","time":9,"i_long":106.568863,"i_lat":-6.3441410000000005,"is_transit":false,"line":6,"station_name":"Parung Panjang","distance":7025},{"line":0,"station_name":"Cicayur","is_transit":false,"i_long":106.617853,"i_lat":-6.329547,"time":8,"transit":false,"station_id":"CC","distance":5968},{"i_lat":-6.32484,"time":4,"line":0,"station_name":"Cisauk","distance":2519,"station_id":"CSK","is_transit":false,"transit":false,"i_long":106.640411},{"i_lat":-6.319871,"time":4,"i_long":106.66566,"station_id":"SRP","station_name":"Serpong","distance":1784,"transit":false,"is_transit":false,"line":6},{"distance":2413,"time":4,"is_transit":false,"station_name":"Rawa Buntu","i_long":106.675475,"station_id":"RU","i_lat":-6.314823,"transit":false,"line":6},{"station_name":"Sudimara","time":6,"station_id":"SDM","i_lat":-6.296963,"i_long":106.712277,"line":6,"transit":false,"distance":4566,"is_transit":false},{"station_id":"JMU","station_name":"Jurangmangu","time":4,"is_transit":false,"i_long":106.728916,"distance":1994,"transit":false,"i_lat":-6.288927,"line":6},{"distance":2179,"time":3,"i_long":106.74273,"line":6,"i_lat":-6.276362,"is_transit":false,"station_id":"PDJ","transit":false,"station_name":"Pondokranji"},{"distance":6218,"i_long":106.780334,"station_id":"KBY","i_lat":-6.237242,"transit":false,"station_name":"Kebayoran","is_transit":false,"line":6,"time":8},{"station_name":"Palmerah","line":6,"station_id":"PLM","is_transit":false,"i_long":106.79689,"distance":3737,"time":7,"transit":false,"i_lat":-6.207404},{"station_name":"Tanah Abang","line":1,"station_id":"THB","i_long":106.811091,"i_lat":-6.185545,"is_transit":true,"distance":3191,"transit":true,"time":6},{"station_name":"Duri","distance":3632,"station_id":"DU","time":8,"line":1,"is_transit":true,"transit":true,"i_lat":-6.155215,"i_long":106.800832},{"time":4,"transit":false,"line":0,"station_name":"Angke","is_transit":false,"distance":1230,"i_long":106.79867,"station_id":"AK","i_lat":-6.144674},{"is_transit":true,"distance":4102,"time":9,"i_lat":-6.132549,"station_id":"KPB","station_name":"Kampung Bandan","line":0,"transit":false,"i_long":106.826365},{"line":0,"transit":false,"station_id":"AC","is_transit":false,"distance":2185,"i_lat":-6.128023,"station_name":"Ancol","i_long":106.84464,"time":4},{"station_id":"TPK","transit":false,"distance":4566,"station_name":"Tanjung Priuk","i_long":106.880089,"i_lat":-6.1109480000000005,"time":9,"line":4,"is_transit":false}],[{"station_name":"Cilejit","i_lat":-6.354349,"station_id":"CJT","distance":0,"transit":false,"line":0,"time":0,"i_long":106.508482,"is_transit":false},{"line":6,"i_long":106.568863,"distance":7025,"transit":false,"is_transit":false,"station_name":"Parung Panjang","i_lat":-6.3441410000000005,"station_id":"PRP","time":9},{"station_name":"Cicayur","is_transit":false,"i_long":106.617853,"i_lat":-6.329547,"distance":5968,"line":0,"time":8,"transit":false,"station_id":"CC"},{"station_name":"Cisauk","time":4,"distance":2519,"i_lat":-6.32484,"transit":false,"is_transit":false,"i_long":106.640411,"station_id":"CSK","line":0},{"station_name":"Serpong","time":4,"distance":1784,"transit":false,"is_transit":false,"i_lat":-6.319871,"line":6,"i_long":106.66566,"station_id":"SRP"},{"station_name":"Rawa Buntu","distance":2413,"is_transit":false,"i_lat":-6.314823,"transit":false,"station_id":"RU","time":4,"i_long":106.675475,"line":6},{"i_long":106.712277,"line":6,"distance":4566,"is_transit":false,"i_lat":-6.296963,"station_id":"SDM","station_name":"Sudimara","time":6,"transit":false},{"i_long":106.728916,"time":4,"transit":false,"is_transit":false,"line":6,"station_name":"Jurangmangu","i_lat":-6.288927,"station_id":"JMU","distance":1994},{"line":6,"time":3,"distance":2179,"station_id":"PDJ","is_transit":false,"transit":false,"i_long":106.74273,"station_name":"Pondokranji","i_lat":-6.276362},{"transit":false,"line":6,"is_transit":false,"distance":6218,"i_lat":-6.237242,"i_long":106.780334,"station_id":"KBY","station_name":"Kebayoran","time":8},{"station_name":"Palmerah","time":7,"station_id":"PLM","is_transit":false,"distance":3737,"i_long":106.79689,"line":6,"i_lat":-6.207404,"transit":false},{"i_lat":-6.185545,"i_long":106.811091,"time":6,"line":1,"transit":true,"distance":3191,"station_id":"THB","station_name":"Tanah Abang","is_transit":true},{"i_lat":-6.20132,"time":5,"i_long":106.816351,"station_name":"Karet","distance":2029,"is_transit":false,"line":1,"station_id":"KAT","transit":false},{"line":1,"station_id":"SUDB","is_transit":false,"station_name":"Sudirman Baru","time":1,"transit":false,"distance":471,"i_lat":-6.201433,"i_long":106.819881},{"time":1,"i_lat":-6.202263,"line":1,"transit":false,"station_id":"SUD","is_transit":false,"station_name":"Sudirman","i_long":106.822649,"distance":280},{"is_transit":true,"station_name":"Manggarai","distance":3186,"i_lat":-6.209883,"transit":true,"time":4,"station_id":"MRI","line":0,"i_long":106.84912},{"i_long":106.840169,"time":4,"distance":1590,"transit":false,"is_transit":false,"line":0,"station_id":"CKI","station_name":"Cikini","i_lat":-6.198556},{"distance":1750,"transit":false,"line":2,"i_lat":-6.186295,"is_transit":false,"station_id":"GDD","i_long":106.832183,"station_name":"Gondangdia","time":3},{"is_transit":false,"distance":2015,"transit":false,"line":2,"station_id":"JUA","station_name":"Juanda","time":4,"i_long":106.828284,"i_lat":-6.166716},{"transit":false,"is_transit":false,"station_id":"SW","distance":1149,"i_long":106.827103,"time":2,"station_name":"Sawah Besar","line":2,"i_lat":-6.160725},{"i_long":106.82482,"distance":906,"station_name":"Manggabesar","station_id":"MGB","is_transit":false,"time":2,"transit":false,"line":2,"i_lat":-6.149769},{"line":7,"transit":false,"station_id":"JAY","station_name":"Jayakarta","is_transit":false,"i_lat":-6.141205,"time":2,"distance":1080,"i_long":106.820901},{"is_transit":true,"transit":true,"i_long":106.812439,"station_id":"JAKK","line":0,"station_name":"Jakarta Kota","distance":1264,"i_lat":-6.137569,"time":4},{"station_id":"KPB","distance":1364,"station_name":"Kampung Bandan","is_transit":true,"time":3,"i_long":106.826365,"transit":false,"i_lat":-6.132549,"line":0},{"is_transit":false,"transit":false,"station_name":"Ancol","distance":2185,"station_id":"AC","i_lat":-6.128023,"time":4,"i_long":106.84464,"line":0},{"station_name":"Tanjung Priuk","time":9,"transit":false,"is_transit":false,"i_long":106.880089,"distance":4566,"line":4,"i_lat":-6.1109480000000005,"station_id":"TPK"}],[{"distance":0,"i_long":106.508482,"i_lat":-6.354349,"is_transit":false,"transit":false,"station_name":"Cilejit","line":0,"station_id":"CJT","time":0},{"i_lat":-6.3441410000000005,"station_id":"PRP","is_transit":false,"station_name":"Parung Panjang","i_long":106.568863,"line":6,"transit":false,"time":9,"distance":7025},{"is_transit":false,"i_long":106.617853,"distance":5968,"line":0,"station_name":"Cicayur","station_id":"CC","time":8,"transit":false,"i_lat":-6.329547},{"i_lat":-6.32484,"station_id":"CSK","transit":false,"station_name":"Cisauk","time":4,"distance":2519,"is_transit":false,"i_long":106.640411,"line":0},{"i_lat":-6.319871,"i_long":106.66566,"station_id":"SRP","is_transit":false,"distance":1784,"time":4,"transit":false,"station_name":"Serpong","line":6},{"is_transit":false,"time":4,"i_lat":-6.314823,"distance":2413,"transit":false,"i_long":106.675475,"line":6,"station_name":"Rawa Buntu","station_id":"RU"},{"station_id":"SDM","time":6,"i_lat":-6.296963,"station_name":"Sudimara","is_transit":false,"line":6,"distance":4566,"i_long":106.712277,"transit":false},{"transit":false,"i_long":106.728916,"line":6,"station_id":"JMU","i_lat":-6.288927,"is_transit":false,"station_name":"Jurangmangu","time":4,"distance":1994},{"line":6,"transit":false,"i_lat":-6.276362,"station_name":"Pondokranji","station_id":"PDJ","is_transit":false,"i_long":106.74273,"distance":2179,"time":3},{"line":6,"transit":false,"station_id":"KBY","is_transit":false,"time":8,"station_name":"Kebayoran","i_long":106.780334,"distance":6218,"i_lat":-6.237242},{"i_lat":-6.207404,"transit":false,"station_name":"Palmerah","time":7,"station_id":"PLM","line":6,"is_transit":false,"i_long":106.79689,"distance":3737},{"i_long":106.811091,"distance":3191,"station_id":"THB","time":6,"transit":true,"station_name":"Tanah Abang","is_transit":true,"line":1,"i_lat":-6.185545},{"transit":false,"i_lat":-6.20132,"i_long":106.816351,"is_transit":false,"line":1,"station_id":"KAT","distance":2029,"time":5,"station_name":"Karet"},{"station_name":"Sudirman Baru","station_id":"SUDB","is_transit":false,"time":1,"transit":false,"i_lat":-6.201433,"distance":471,"i_long":106.819881,"line":1},{"is_transit":false,"i_long":106.822649,"line":1,"distance":280,"station_id":"SUD","station_name":"Sudirman","time":1,"transit":false,"i_lat":-6.202263},{"is_transit":true,"station_name":"Manggarai","i_long":106.84912,"station_id":"MRI","distance":3186,"line":0,"transit":false,"i_lat":-6.209883,"time":4},{"station_name":"Matraman","distance":1275,"transit":false,"station_id":"MTR","is_transit":false,"time":2,"i_lat":-6.212485,"line":1,"i_long":106.858896},{"line":0,"time":8,"transit":true,"station_id":"JNG","distance":1377,"station_name":"Jatinegara","is_transit":true,"i_lat":-6.215091,"i_long":106.86807400000001},{"distance":1236,"station_id":"POK","station_name":"Pondok Jati","is_transit":false,"time":2,"transit":false,"i_lat":-6.209188,"i_long":106.861737,"line":11},{"station_id":"KMT","i_lat":-6.193792,"distance":1829,"line":11,"i_long":106.855437,"station_name":"Kramat","transit":false,"is_transit":false,"time":2},{"station_id":"GST","is_transit":false,"time":1,"station_name":"Gang Sentiong","line":11,"i_long":106.850107,"transit":false,"distance":973,"i_lat":-6.185975},{"distance":1567,"transit":false,"i_long":106.84368,"station_id":"PSE","is_transit":false,"time":8,"line":11,"i_lat":-6.174784,"station_name":"Pasar Senen"},{"time":4,"line":11,"station_name":"Kemayoran","is_transit":false,"transit":false,"i_long":106.839204,"distance":1436,"i_lat":-6.161728,"station_id":"KMO"},{"i_long":106.836569,"station_name":"Rajawali","i_lat":-6.14505,"station_id":"RJW","is_transit":false,"distance":1901,"line":11,"transit":false,"time":5},{"line":0,"station_id":"KPB","is_transit":true,"i_lat":-6.132549,"time":3,"transit":true,"distance":1444,"station_name":"Kampung Bandan","i_long":106.826365},{"is_transit":false,"i_lat":-6.128023,"station_id":"AC","line":0,"station_name":"Ancol","transit":false,"distance":2185,"i_long":106.84464,"time":4},{"i_long":106.880089,"time":9,"distance":4566,"station_id":"TPK","line":4,"station_name":"Tanjung Priuk","is_transit":false,"transit":false,"i_lat":-6.1109480000000005}]]}