{"data":[[{"station_id":"CJT","i_lat":-6.354349,"time":0,"transit":false,"i_long":106.508482,"distance":0,"station_name":"Cilejit","is_transit":false,"line":3},{"transit":false,"station_id":"PRP","i_lat":-6.3441410000000005,"station_name":"Parung Panjang","is_transit":false,"i_long":106.568863,"line":6,"time":9,"distance":7025},{"station_name":"Cicayur","time":8,"distance":5968,"transit":false,"line":3,"station_id":"CC","is_transit":false,"i_lat":-6.329547,"i_long":106.617853},{"station_id":"CSK","distance":2519,"i_long":106.640411,"transit":false,"is_transit":false,"time":4,"station_name":"Cisauk","i_lat":-6.32484,"line":3},{"distance":1784,"station_id":"SRP","time":4,"i_lat":-6.319871,"is_transit":false,"line":6,"transit":false,"station_name":"Serpong","i_long":106.66566},{"station_name":"Rawa Buntu","time":4,"line":6,"distance":2413,"is_transit":false,"i_lat":-6.314823,"station_id":"RU","i_long":106.675475,"transit":false},{"line":6,"distance":4566,"transit":false,"is_transit":false,"time":6,"station_name":"Sudimara","i_lat":-6.296963,"station_id":"SDM","i_long":106.712277},{"is_transit":false,"transit":false,"distance":1994,"i_lat":-6.288927,"i_long":106.728916,"line":6,"station_id":"JMU","station_name":"Jurangmangu","time":4},{"is_transit":false,"station_id":"PDJ","i_lat":-6.276362,"time":3,"transit":false,"line":6,"distance":2179,"i_long":106.74273,"station_name":"Pondokranji"}]]}