{"data":[[{"is_transit":false,"i_lat":-6.354349,"line":3,"distance":0,"transit":false,"station_name":"Cilejit","time":0,"station_id":"CJT","i_long":106.508482},{"is_transit":false,"time":9,"line":6,"transit":false,"station_name":"Parung Panjang","station_id":"PRP","i_long":106.568863,"i_lat":-6.3441410000000005,"distance":7025},{"i_long":106.617853,"i_lat":-6.329547,"line":3,"station_name":"Cicayur","is_transit":false,"station_id":"CC","time":8,"distance":5968,"transit":false},{"is_transit":false,"time":4,"i_lat":-6.32484,"distance":2519,"station_id":"CSK","i_long":106.640411,"line":3,"station_name":"Cisauk","transit":false},{"distance":1784,"i_long":106.66566,"time":4,"station_id":"SRP","is_transit":false,"i_lat":-6.319871,"line":6,"station_name":"Serpong","transit":false},{"is_transit":false,"time":4,"i_lat":-6.314823,"i_long":106.675475,"station_name":"Rawa Buntu","station_id":"RU","distance":2413,"line":6,"transit":false},{"distance":4566,"transit":false,"line":6,"i_long":106.712277,"i_lat":-6.296963,"station_id":"SDM","time":6,"is_transit":false,"station_name":"Sudimara"},{"station_id":"JMU","distance":1994,"i_long":106.728916,"line":6,"transit":false,"station_name":"Jurangmangu","is_transit":false,"time":4,"i_lat":-6.288927},{"transit":false,"station_id":"PDJ","i_long":106.74273,"line":6,"i_lat":-6.276362,"distance":2179,"station_name":"Pondokranji","is_transit":false,"time":3},{"station_name":"Kebayoran","time":8,"distance":6218,"station_id":"KBY","transit":false,"i_lat":-6.237242,"is_transit":false,"line":6,"i_long":106.780334},{"distance":3737,"time":7,"transit":false,"is_transit":false,"i_long":106.79689,"i_lat":-6.207404,"station_name":"Palmerah","station_id":"PLM","line":6},{"distance":3191,"i_long":106.811091,"line":1,"is_transit":true,"station_name":"Tanah Abang","station_id":"THB","i_lat":-6.185545,"transit":true,"time":6},{"distance":3632,"station_id":"DU","time":8,"is_transit":false,"i_lat":-6.155215,"i_long":106.800832,"transit":false,"station_name":"Duri","line":1},{"station_id":"AK","distance":1230,"station_name":"Angke","transit":false,"line":1,"i_lat":-6.144674,"is_transit":false,"time":4,"i_long":106.79867},{"time":9,"i_lat":-6.132549,"station_name":"Kampung Bandan","i_long":106.826365,"transit":true,"station_id":"KPB","is_transit":true,"distance":4102,"line":4},{"i_long":106.812439,"is_transit":true,"i_lat":-6.137569,"distance":1364,"transit":true,"station_id":"JAKK","time":3,"station_name":"Jakarta Kota","line":2},{"line":2,"i_long":106.820901,"is_transit":false,"transit":false,"time":4,"station_name":"Jayakarta","station_id":"JAY","distance":1264,"i_lat":-6.141205},{"line":2,"distance":1080,"station_name":"Manggabesar","i_long":106.82482,"transit":false,"time":2,"station_id":"MGB","is_transit":false,"i_lat":-6.149769},{"station_id":"SW","i_lat":-6.160725,"station_name":"Sawah Besar","time":2,"i_long":106.827103,"is_transit":false,"line":2,"distance":906,"transit":false}],[{"transit":false,"line":3,"is_transit":false,"distance":0,"time":0,"station_id":"CJT","station_name":"Cilejit","i_lat":-6.354349,"i_long":106.508482},{"station_name":"Parung Panjang","i_lat":-6.3441410000000005,"time":9,"i_long":106.568863,"line":6,"is_transit":false,"distance":7025,"station_id":"PRP","transit":false},{"is_transit":false,"i_lat":-6.329547,"station_name":"Cicayur","distance":5968,"transit":false,"line":3,"i_long":106.617853,"time":8,"station_id":"CC"},{"station_name":"Cisauk","i_lat":-6.32484,"station_id":"CSK","i_long":106.640411,"distance":2519,"line":3,"transit":false,"time":4,"is_transit":false},{"transit":false,"station_id":"SRP","distance":1784,"i_lat":-6.319871,"i_long":106.66566,"station_name":"Serpong","is_transit":false,"time":4,"line":6},{"transit":false,"distance":2413,"i_lat":-6.314823,"station_name":"Rawa Buntu","line":6,"is_transit":false,"station_id":"RU","i_long":106.675475,"time":4},{"station_name":"Sudimara","line":6,"is_transit":false,"time":6,"distance":4566,"station_id":"SDM","i_lat":-6.296963,"transit":false,"i_long":106.712277},{"line":6,"distance":1994,"i_long":106.728916,"i_lat":-6.288927,"transit":false,"station_id":"JMU","is_transit":false,"time":4,"station_name":"Jurangmangu"},{"transit":false,"i_lat":-6.276362,"line":6,"i_long":106.74273,"time":3,"station_name":"Pondokranji","is_transit":false,"station_id":"PDJ","distance":2179},{"i_long":106.780334,"transit":false,"station_name":"Kebayoran","time":8,"is_transit":false,"distance":6218,"line":6,"i_lat":-6.237242,"station_id":"KBY"},{"time":7,"line":6,"station_id":"PLM","distance":3737,"i_long":106.79689,"transit":false,"station_name":"Palmerah","is_transit":false,"i_lat":-6.207404},{"distance":3191,"i_lat":-6.185545,"station_id":"THB","time":6,"i_long":106.811091,"is_transit":true,"line":1,"transit":true,"station_name":"Tanah Abang"},{"station_id":"KAT","i_long":106.816351,"distance":2029,"station_name":"Karet","is_transit":false,"time":5,"i_lat":-6.20132,"transit":false,"line":1},{"transit":false,"i_lat":-6.201433,"i_long":106.819881,"line":1,"distance":471,"is_transit":false,"time":1,"station_name":"Sudirman Baru","station_id":"SUDB"},{"station_id":"SUD","i_lat":-6.202263,"distance":280,"line":1,"transit":false,"i_long":106.822649,"is_transit":false,"station_name":"Sudirman","time":1},{"station_id":"MRI","time":4,"station_name":"Manggarai","is_transit":true,"transit":true,"distance":3186,"i_long":106.84912,"i_lat":-6.209883,"line":2},{"i_lat":-6.198556,"station_name":"Cikini","time":4,"i_long":106.840169,"line":2,"transit":false,"station_id":"CKI","is_transit":false,"distance":1590},{"station_name":"Gondangdia","time":3,"distance":1750,"line":2,"i_long":106.832183,"is_transit":false,"i_lat":-6.186295,"station_id":"GDD","transit":false},{"distance":2015,"station_id":"JUA","line":2,"transit":false,"is_transit":false,"time":4,"station_name":"Juanda","i_long":106.828284,"i_lat":-6.166716},{"line":2,"transit":false,"station_id":"SW","time":2,"i_lat":-6.160725,"is_transit":false,"station_name":"Sawah Besar","distance":1149,"i_long":106.827103}],[{"station_name":"Cilejit","distance":0,"time":0,"transit":false,"station_id":"CJT","is_transit":false,"i_long":106.508482,"i_lat":-6.354349,"line":3},{"station_id":"PRP","station_name":"Parung Panjang","is_transit":false,"transit":false,"distance":7025,"i_lat":-6.3441410000000005,"i_long":106.568863,"line":6,"time":9},{"i_lat":-6.329547,"transit":false,"station_name":"Cicayur","station_id":"CC","is_transit":false,"line":3,"time":8,"i_long":106.617853,"distance":5968},{"i_lat":-6.32484,"station_name":"Cisauk","distance":2519,"is_transit":false,"i_long":106.640411,"time":4,"line":3,"station_id":"CSK","transit":false},{"i_long":106.66566,"station_name":"Serpong","line":6,"time":4,"transit":false,"distance":1784,"station_id":"SRP","i_lat":-6.319871,"is_transit":false},{"time":4,"i_long":106.675475,"distance":2413,"transit":false,"station_id":"RU","is_transit":false,"station_name":"Rawa Buntu","i_lat":-6.314823,"line":6},{"transit":false,"i_lat":-6.296963,"i_long":106.712277,"line":6,"station_name":"Sudimara","time":6,"is_transit":false,"station_id":"SDM","distance":4566},{"line":6,"is_transit":false,"i_long":106.728916,"station_name":"Jurangmangu","distance":1994,"transit":false,"time":4,"i_lat":-6.288927,"station_id":"JMU"},{"station_name":"Pondokranji","i_long":106.74273,"is_transit":false,"station_id":"PDJ","transit":false,"distance":2179,"i_lat":-6.276362,"line":6,"time":3},{"i_lat":-6.237242,"station_id":"KBY","line":6,"time":8,"transit":false,"i_long":106.780334,"station_name":"Kebayoran","distance":6218,"is_transit":false},{"time":7,"transit":false,"is_transit":false,"distance":3737,"station_id":"PLM","i_lat":-6.207404,"i_long":106.79689,"line":6,"station_name":"Palmerah"},{"is_transit":true,"transit":true,"i_long":106.811091,"line":1,"station_name":"Tanah Abang","station_id":"THB","i_lat":-6.185545,"time":6,"distance":3191},{"i_lat":-6.155215,"station_id":"DU","time":8,"distance":3632,"i_long":106.800832,"is_transit":false,"line":1,"transit":false,"station_name":"Duri"},{"transit":false,"is_transit":false,"i_lat":-6.144674,"time":4,"distance":1230,"station_id":"AK","i_long":106.79867,"station_name":"Angke","line":1},{"transit":true,"line":4,"station_id":"KPB","time":9,"station_name":"Kampung Bandan","is_transit":true,"distance":4102,"i_lat":-6.132549,"i_long":106.826365},{"is_transit":false,"station_id":"RJW","time":3,"transit":false,"line":11,"i_lat":-6.14505,"distance":1444,"i_long":106.836569,"station_name":"Rajawali"},{"distance":1901,"line":11,"i_lat":-6.161728,"transit":false,"is_transit":false,"i_long":106.839204,"time":5,"station_name":"Kemayoran","station_id":"KMO"},{"time":4,"line":11,"i_lat":-6.174784,"station_name":"Pasar Senen","is_transit":false,"transit":false,"i_long":106.84368,"distance":1436,"station_id":"PSE"},{"line":11,"distance":1567,"time":8,"i_long":106.850107,"i_lat":-6.185975,"station_id":"GST","station_name":"Gang Sentiong","transit":false,"is_transit":false},{"is_transit":false,"i_long":106.855437,"line":11,"i_lat":-6.193792,"time":1,"distance":973,"transit":false,"station_name":"Kramat","station_id":"KMT"},{"i_lat":-6.209188,"is_transit":false,"station_name":"Pondok Jati","transit":false,"time":2,"distance":1829,"i_long":106.861737,"station_id":"POK","line":11},{"station_name":"Jatinegara","transit":true,"time":9,"i_lat":-6.215091,"station_id":"JNG","i_long":106.86807400000001,"is_transit":true,"line":1,"distance":1236},{"i_long":106.858896,"is_transit":false,"time":2,"i_lat":-6.212485,"station_id":"MTR","distance":1377,"transit":false,"line":1,"station_name":"Matraman"},{"station_id":"MRI","line":2,"station_name":"Manggarai","time":2,"i_lat":-6.209883,"distance":1275,"i_long":106.84912,"transit":true,"is_transit":true},{"transit":false,"station_name":"Cikini","station_id":"CKI","time":4,"distance":1590,"i_lat":-6.198556,"i_long":106.840169,"is_transit":false,"line":2},{"is_transit":false,"station_name":"Gondangdia","distance":1750,"i_lat":-6.186295,"i_long":106.832183,"time":3,"transit":false,"station_id":"GDD","line":2},{"is_transit":false,"station_name":"Juanda","distance":2015,"i_long":106.828284,"transit":false,"line":2,"i_lat":-6.166716,"time":4,"station_id":"JUA"},{"line":2,"i_lat":-6.160725,"transit":false,"i_long":106.827103,"time":2,"station_id":"SW","distance":1149,"station_name":"Sawah Besar","is_transit":false}],[{"distance":0,"time":0,"station_name":"Cilejit","station_id":"CJT","is_transit":false,"i_lat":-6.354349,"i_long":106.508482,"line":3,"transit":false},{"is_transit":false,"station_name":"Parung Panjang","time":9,"station_id":"PRP","distance":7025,"i_long":106.568863,"line":6,"i_lat":-6.3441410000000005,"transit":false},{"distance":5968,"i_long":106.617853,"line":3,"station_id":"CC","station_name":"Cicayur","transit":false,"i_lat":-6.329547,"time":8,"is_transit":false},{"line":3,"station_name":"Cisauk","i_lat":-6.32484,"i_long":106.640411,"transit":false,"station_id":"CSK","time":4,"is_transit":false,"distance":2519},{"station_id":"SRP","time":4,"distance":1784,"i_long":106.66566,"line":6,"transit":false,"i_lat":-6.319871,"station_name":"Serpong","is_transit":false},{"line":6,"is_transit":false,"station_name":"Rawa Buntu","i_long":106.675475,"distance":2413,"transit":false,"station_id":"RU","time":4,"i_lat":-6.314823},{"i_long":106.712277,"time":6,"i_lat":-6.296963,"is_transit":false,"station_id":"SDM","distance":4566,"station_name":"Sudimara","transit":false,"line":6},{"line":6,"station_name":"Jurangmangu","station_id":"JMU","time":4,"i_long":106.728916,"i_lat":-6.288927,"transit":false,"distance":1994,"is_transit":false},{"station_id":"PDJ","distance":2179,"station_name":"Pondokranji","time":3,"transit":false,"is_transit":false,"i_lat":-6.276362,"i_long":106.74273,"line":6},{"line":6,"i_lat":-6.237242,"station_id":"KBY","is_transit":false,"transit":false,"station_name":"Kebayoran","time":8,"distance":6218,"i_long":106.780334},{"is_transit":false,"station_name":"Palmerah","i_long":106.79689,"station_id":"PLM","distance":3737,"line":6,"i_lat":-6.207404,"transit":false,"time":7},{"is_transit":true,"distance":3191,"station_id":"THB","i_long":106.811091,"line":1,"transit":true,"time":6,"i_lat":-6.185545,"station_name":"Tanah Abang"},{"distance":2029,"station_id":"KAT","i_lat":-6.20132,"line":1,"transit":false,"i_long":106.816351,"station_name":"Karet","time":5,"is_transit":false},{"i_long":106.819881,"line":1,"distance":471,"time":1,"i_lat":-6.201433,"station_id":"SUDB","is_transit":false,"station_name":"Sudirman Baru","transit":false},{"station_name":"Sudirman","station_id":"SUD","i_lat":-6.202263,"time":1,"distance":280,"is_transit":false,"i_long":106.822649,"line":1,"transit":false},{"transit":false,"i_lat":-6.209883,"distance":3186,"i_long":106.84912,"time":4,"is_transit":false,"line":2,"station_id":"MRI","station_name":"Manggarai"},{"line":1,"is_transit":false,"station_id":"MTR","i_lat":-6.212485,"station_name":"Matraman","transit":false,"time":2,"distance":1275,"i_long":106.858896},{"transit":true,"distance":1377,"i_lat":-6.215091,"station_name":"Jatinegara","is_transit":true,"time":8,"station_id":"JNG","i_long":106.86807400000001,"line":1},{"station_name":"Pondok Jati","i_lat":-6.209188,"time":2,"is_transit":false,"distance":1236,"transit":false,"i_long":106.861737,"station_id":"POK","line":11},{"line":11,"time":2,"station_name":"Kramat","station_id":"KMT","is_transit":false,"i_long":106.855437,"distance":1829,"i_lat":-6.193792,"transit":false},{"i_lat":-6.185975,"line":11,"transit":false,"distance":973,"i_long":106.850107,"time":1,"station_id":"GST","is_transit":false,"station_name":"Gang Sentiong"},{"distance":1567,"i_lat":-6.174784,"station_name":"Pasar Senen","line":11,"i_long":106.84368,"transit":false,"station_id":"PSE","is_transit":false,"time":8},{"i_lat":-6.161728,"distance":1436,"transit":false,"line":11,"time":4,"station_name":"Kemayoran","station_id":"KMO","is_transit":false,"i_long":106.839204},{"transit":false,"station_name":"Rajawali","is_transit":false,"distance":1901,"time":5,"station_id":"RJW","i_long":106.836569,"i_lat":-6.14505,"line":11},{"station_id":"KPB","distance":1444,"is_transit":true,"i_lat":-6.132549,"i_long":106.826365,"time":3,"line":4,"transit":true,"station_name":"Kampung Bandan"},{"station_id":"JAKK","distance":1364,"i_long":106.812439,"is_transit":true,"station_name":"Jakarta Kota","i_lat":-6.137569,"line":2,"time":3,"transit":true},{"i_long":106.820901,"station_id":"JAY","line":2,"distance":1264,"time":4,"transit":false,"station_name":"Jayakarta","is_transit":false,"i_lat":-6.141205},{"station_id":"MGB","transit":false,"station_name":"Manggabesar","line":2,"i_lat":-6.149769,"i_long":106.82482,"distance":1080,"is_transit":false,"time":2},{"transit":false,"line":2,"is_transit":false,"station_name":"Sawah Besar","station_id":"SW","time":2,"i_lat":-6.160725,"distance":906,"i_long":106.827103}]]}