{"data":[[{"transit":false,"time":0,"is_transit":false,"distance":0,"i_long":106.508482,"station_name":"Cilejit","i_lat":-6.354349,"line":3,"station_id":"CJT"},{"distance":7025,"is_transit":false,"i_lat":-6.3441410000000005,"station_name":"Parung Panjang","station_id":"PRP","line":6,"time":9,"i_long":106.568863,"transit":false},{"line":3,"time":8,"station_name":"Cicayur","distance":5968,"station_id":"CC","i_long":106.617853,"i_lat":-6.329547,"transit":false,"is_transit":false},{"time":4,"is_transit":false,"i_lat":-6.32484,"i_long":106.640411,"station_name":"Cisauk","distance":2519,"transit":false,"line":3,"station_id":"CSK"},{"line":6,"transit":false,"station_id":"SRP","is_transit":false,"distance":1784,"station_name":"Serpong","time":4,"i_lat":-6.319871,"i_long":106.66566},{"line":6,"station_name":"Rawa Buntu","time":4,"distance":2413,"i_lat":-6.314823,"i_long":106.675475,"transit":false,"station_id":"RU","is_transit":false},{"station_name":"Sudimara","distance":4566,"i_lat":-6.296963,"time":6,"station_id":"SDM","i_long":106.712277,"line":6,"is_transit":false,"transit":false},{"is_transit":false,"time":4,"i_long":106.728916,"station_id":"JMU","transit":false,"distance":1994,"i_lat":-6.288927,"line":6,"station_name":"Jurangmangu"},{"is_transit":false,"distance":2179,"station_name":"Pondokranji","time":3,"i_lat":-6.276362,"i_long":106.74273,"transit":false,"station_id":"PDJ","line":6},{"time":8,"distance":6218,"station_id":"KBY","line":6,"station_name":"Kebayoran","transit":false,"i_lat":-6.237242,"is_transit":false,"i_long":106.780334},{"transit":false,"is_transit":false,"i_long":106.79689,"station_id":"PLM","station_name":"Palmerah","distance":3737,"line":6,"i_lat":-6.207404,"time":7},{"station_id":"THB","distance":3191,"transit":true,"i_lat":-6.185545,"i_long":106.811091,"time":6,"is_transit":true,"line":1,"station_name":"Tanah Abang"},{"is_transit":false,"transit":false,"time":8,"i_lat":-6.155215,"station_id":"DU","i_long":106.800832,"line":1,"distance":3632,"station_name":"Duri"},{"is_transit":false,"time":4,"i_long":106.79867,"station_name":"Angke","i_lat":-6.144674,"station_id":"AK","distance":1230,"transit":false,"line":1},{"transit":true,"station_name":"Kampung Bandan","i_long":106.826365,"is_transit":true,"i_lat":-6.132549,"station_id":"KPB","distance":4102,"time":9,"line":4},{"station_name":"Ancol","transit":false,"station_id":"AC","time":4,"i_long":106.84464,"is_transit":false,"line":4,"i_lat":-6.128023,"distance":2185},{"distance":4566,"transit":false,"station_id":"TPK","is_transit":false,"i_lat":-6.1109480000000005,"time":9,"i_long":106.880089,"station_name":"Tanjung Priuk","line":4}],[{"i_long":106.508482,"distance":0,"time":0,"line":3,"station_name":"Cilejit","i_lat":-6.354349,"transit":false,"is_transit":false,"station_id":"CJT"},{"time":9,"i_lat":-6.3441410000000005,"station_name":"Parung Panjang","is_transit":false,"line":6,"transit":false,"i_long":106.568863,"distance":7025,"station_id":"PRP"},{"station_name":"Cicayur","is_transit":false,"distance":5968,"line":3,"station_id":"CC","i_long":106.617853,"time":8,"i_lat":-6.329547,"transit":false},{"line":3,"transit":false,"station_name":"Cisauk","station_id":"CSK","time":4,"distance":2519,"i_lat":-6.32484,"i_long":106.640411,"is_transit":false},{"station_id":"SRP","is_transit":false,"time":4,"distance":1784,"i_lat":-6.319871,"i_long":106.66566,"station_name":"Serpong","line":6,"transit":false},{"i_long":106.675475,"line":6,"is_transit":false,"i_lat":-6.314823,"distance":2413,"station_id":"RU","transit":false,"time":4,"station_name":"Rawa Buntu"},{"i_lat":-6.296963,"station_name":"Sudimara","i_long":106.712277,"station_id":"SDM","is_transit":false,"time":6,"line":6,"distance":4566,"transit":false},{"line":6,"i_lat":-6.288927,"is_transit":false,"time":4,"i_long":106.728916,"transit":false,"station_name":"Jurangmangu","distance":1994,"station_id":"JMU"},{"station_id":"PDJ","line":6,"i_long":106.74273,"is_transit":false,"time":3,"distance":2179,"i_lat":-6.276362,"station_name":"Pondokranji","transit":false},{"station_name":"Kebayoran","i_long":106.780334,"is_transit":false,"transit":false,"station_id":"KBY","time":8,"distance":6218,"i_lat":-6.237242,"line":6},{"i_long":106.79689,"i_lat":-6.207404,"station_name":"Palmerah","station_id":"PLM","time":7,"is_transit":false,"distance":3737,"line":6,"transit":false},{"station_id":"THB","is_transit":true,"transit":true,"i_lat":-6.185545,"station_name":"Tanah Abang","i_long":106.811091,"line":1,"time":6,"distance":3191},{"station_name":"Karet","station_id":"KAT","distance":2029,"time":5,"i_lat":-6.20132,"i_long":106.816351,"is_transit":false,"line":1,"transit":false},{"is_transit":false,"i_long":106.819881,"time":1,"line":1,"transit":false,"station_id":"SUDB","distance":471,"station_name":"Sudirman Baru","i_lat":-6.201433},{"transit":false,"station_name":"Sudirman","station_id":"SUD","i_lat":-6.202263,"i_long":106.822649,"time":1,"is_transit":false,"distance":280,"line":1},{"is_transit":true,"line":2,"transit":true,"station_name":"Manggarai","station_id":"MRI","time":4,"i_lat":-6.209883,"distance":3186,"i_long":106.84912},{"line":2,"time":4,"distance":1590,"i_long":106.840169,"i_lat":-6.198556,"station_id":"CKI","transit":false,"is_transit":false,"station_name":"Cikini"},{"time":3,"station_id":"GDD","is_transit":false,"distance":1750,"i_lat":-6.186295,"station_name":"Gondangdia","transit":false,"line":2,"i_long":106.832183},{"i_lat":-6.166716,"station_name":"Juanda","distance":2015,"i_long":106.828284,"transit":false,"is_transit":false,"time":4,"line":2,"station_id":"JUA"},{"is_transit":false,"i_long":106.827103,"line":2,"distance":1149,"transit":false,"time":2,"station_name":"Sawah Besar","station_id":"SW","i_lat":-6.160725},{"station_name":"Manggabesar","transit":false,"station_id":"MGB","time":2,"i_long":106.82482,"i_lat":-6.149769,"line":2,"distance":906,"is_transit":false},{"is_transit":false,"time":2,"station_name":"Jayakarta","distance":1080,"line":2,"i_lat":-6.141205,"transit":false,"station_id":"JAY","i_long":106.820901},{"distance":1264,"line":2,"station_id":"JAKK","i_lat":-6.137569,"transit":true,"time":4,"i_long":106.812439,"is_transit":true,"station_name":"Jakarta Kota"},{"time":3,"distance":1364,"station_name":"Kampung Bandan","station_id":"KPB","is_transit":true,"transit":true,"i_long":106.826365,"i_lat":-6.132549,"line":4},{"i_long":106.84464,"transit":false,"i_lat":-6.128023,"is_transit":false,"station_id":"AC","time":4,"line":4,"station_name":"Ancol","distance":2185},{"station_id":"TPK","time":9,"is_transit":false,"transit":false,"distance":4566,"i_long":106.880089,"line":4,"i_lat":-6.1109480000000005,"station_name":"Tanjung Priuk"}],[{"transit":false,"station_id":"CJT","line":3,"station_name":"Cilejit","distance":0,"is_transit":false,"time":0,"i_lat":-6.354349,"i_long":106.508482},{"station_id":"PRP","time":9,"i_lat":-6.3441410000000005,"transit":false,"is_transit":false,"station_name":"Parung Panjang","i_long":106.568863,"line":6,"distance":7025},{"time":8,"transit":false,"station_name":"Cicayur","i_lat":-6.329547,"station_id":"CC","distance":5968,"line":3,"is_transit":false,"i_long":106.617853},{"transit":false,"time":4,"i_lat":-6.32484,"distance":2519,"line":3,"station_id":"CSK","station_name":"Cisauk","i_long":106.640411,"is_transit":false},{"time":4,"station_id":"SRP","i_lat":-6.319871,"line":6,"is_transit":false,"station_name":"Serpong","distance":1784,"transit":false,"i_long":106.66566},{"i_lat":-6.314823,"transit":false,"station_id":"RU","station_name":"Rawa Buntu","is_transit":false,"i_long":106.675475,"time":4,"distance":2413,"line":6},{"is_transit":false,"transit":false,"station_id":"SDM","i_long":106.712277,"line":6,"distance":4566,"station_name":"Sudimara","i_lat":-6.296963,"time":6},{"station_id":"JMU","time":4,"is_transit":false,"i_long":106.728916,"line":6,"transit":false,"i_lat":-6.288927,"distance":1994,"station_name":"Jurangmangu"},{"transit":false,"station_id":"PDJ","distance":2179,"i_long":106.74273,"line":6,"station_name":"Pondokranji","i_lat":-6.276362,"is_transit":false,"time":3},{"distance":6218,"station_name":"Kebayoran","is_transit":false,"transit":false,"i_lat":-6.237242,"i_long":106.780334,"line":6,"station_id":"KBY","time":8},{"station_name":"Palmerah","transit":false,"time":7,"is_transit":false,"i_long":106.79689,"line":6,"distance":3737,"i_lat":-6.207404,"station_id":"PLM"},{"is_transit":true,"distance":3191,"station_id":"THB","time":6,"i_lat":-6.185545,"transit":true,"station_name":"Tanah Abang","line":1,"i_long":106.811091},{"station_name":"Karet","station_id":"KAT","time":5,"i_lat":-6.20132,"line":1,"distance":2029,"transit":false,"i_long":106.816351,"is_transit":false},{"line":1,"i_long":106.819881,"station_name":"Sudirman Baru","station_id":"SUDB","distance":471,"is_transit":false,"time":1,"transit":false,"i_lat":-6.201433},{"station_id":"SUD","i_long":106.822649,"distance":280,"station_name":"Sudirman","time":1,"is_transit":false,"i_lat":-6.202263,"transit":false,"line":1},{"station_id":"MRI","line":2,"station_name":"Manggarai","distance":3186,"is_transit":false,"time":4,"i_lat":-6.209883,"transit":false,"i_long":106.84912},{"line":1,"i_long":106.858896,"station_name":"Matraman","transit":false,"distance":1275,"is_transit":false,"station_id":"MTR","time":2,"i_lat":-6.212485},{"station_id":"JNG","is_transit":true,"time":8,"i_lat":-6.215091,"i_long":106.86807400000001,"line":1,"distance":1377,"transit":true,"station_name":"Jatinegara"},{"station_id":"POK","transit":false,"station_name":"Pondok Jati","time":2,"is_transit":false,"i_long":106.861737,"i_lat":-6.209188,"line":11,"distance":1236},{"transit":false,"station_name":"Kramat","i_long":106.855437,"line":11,"distance":1829,"time":2,"is_transit":false,"station_id":"KMT","i_lat":-6.193792},{"transit":false,"time":1,"distance":973,"i_long":106.850107,"line":11,"i_lat":-6.185975,"station_id":"GST","is_transit":false,"station_name":"Gang Sentiong"},{"is_transit":false,"distance":1567,"line":11,"time":8,"i_long":106.84368,"station_name":"Pasar Senen","station_id":"PSE","i_lat":-6.174784,"transit":false},{"time":4,"i_lat":-6.161728,"distance":1436,"i_long":106.839204,"transit":false,"line":11,"is_transit":false,"station_name":"Kemayoran","station_id":"KMO"},{"line":11,"is_transit":false,"time":5,"distance":1901,"i_lat":-6.14505,"i_long":106.836569,"station_name":"Rajawali","station_id":"RJW","transit":false},{"station_name":"Kampung Bandan","is_transit":true,"distance":1444,"time":3,"transit":true,"i_lat":-6.132549,"i_long":106.826365,"line":4,"station_id":"KPB"},{"is_transit":false,"line":4,"station_name":"Ancol","distance":2185,"i_long":106.84464,"time":4,"station_id":"AC","transit":false,"i_lat":-6.128023},{"i_lat":-6.1109480000000005,"transit":false,"is_transit":false,"station_name":"Tanjung Priuk","time":9,"station_id":"TPK","i_long":106.880089,"distance":4566,"line":4}]]}