{
  "data": [
    [
      {
        "distance": 0,
        "i_lat": -6.354349,
        "i_long": 106.508482,
        "is_transit": false,
        "line": 3,
        "station_id": "CJT",
        "station_name": "Cilejit",
        "time": 0,
        "transit": false
      },
      {
        "distance": 7025,
        "i_lat": -6.3441410000000005,
        "i_long": 106.568863,
        "is_transit": false,
        "line": 6,
        "station_id": "PRP",
        "station_name": "Parung Panjang",
        "time": 9,
        "transit": false
      },
      {
        "distance": 5968,
        "i_lat": -6.329547,
        "i_long": 106.617853,
        "is_transit": false,
        "line": 3,
        "station_id": "CC",
        "station_name": "Cicayur",
        "time": 8,
        "transit": false
      },
      {
        "distance": 2519,
        "i_lat": -6.32484,
        "i_long": 106.640411,
        "is_transit": false,
        "line": 3,
        "station_id": "CSK",
        "station_name": "Cisauk",
        "time": 4,
        "transit": false
      },
      {
        "distance": 1784,
        "i_lat": -6.319871,
        "i_long": 106.66566,
        "is_transit": false,
        "line": 6,
        "station_id": "SRP",
        "station_name": "Serpong",
        "time": 4,
        "transit": false
      },
      {
        "distance": 2413,
        "i_lat": -6.314823,
        "i_long": 106.675475,
        "is_transit": false,
        "line": 6,
        "station_id": "RU",
        "station_name": "Rawa Buntu",
        "time": 4,
        "transit": false
      },
      {
        "distance": 4566,
        "i_lat": -6.296963,
        "i_long": 106.712277,
        "is_transit": false,
        "line": 6,
        "station_id": "SDM",
        "station_name": "Sudimara",
        "time": 6,
        "transit": false
      },
      {
        "distance": 1994,
        "i_lat": -6.288927,
        "i_long": 106.728916,
        "is_transit": false,
        "line": 6,
        "station_id": "JMU",
        "station_name": "Jurangmangu",
        "time": 4,
        "transit": false
      },
      {
        "distance": 2179,
        "i_lat": -6.276362,
        "i_long": 106.74273,
        "is_transit": false,
        "line": 6,
        "station_id": "PDJ",
        "station_name": "Pondokranji",
        "time": 3,
        "transit": false
      }
    ]
  ]
}
