{"data":[[{"distance":0,"i_lat":-6.354349,"time":0,"station_id":"CJT","station_name":"Cilejit","line":0,"i_long":106.508482,"transit":false,"is_transit":false},{"i_long":106.568863,"i_lat":-6.3441410000000005,"line":6,"station_id":"PRP","is_transit":false,"distance":7025,"station_name":"Parung Panjang","time":9,"transit":false},{"station_name":"Cicayur","distance":5968,"transit":false,"i_lat":-6.329547,"i_long":106.617853,"time":8,"is_transit":false,"line":0,"station_id":"CC"},{"distance":2519,"i_lat":-6.32484,"is_transit":false,"transit":false,"line":0,"i_long":106.640411,"station_id":"CSK","time":4,"station_name":"Cisauk"},{"station_name":"Serpong","is_transit":false,"i_lat":-6.319871,"i_long":106.66566,"station_id":"SRP","transit":false,"line":6,"time":4,"distance":1784},{"distance":2413,"time":4,"station_id":"RU","transit":false,"i_long":106.675475,"i_lat":-6.314823,"line":6,"is_transit":false,"station_name":"Rawa Buntu"},{"is_transit":false,"transit":false,"time":6,"station_name":"Sudimara","distance":4566,"i_long":106.712277,"station_id":"SDM","i_lat":-6.296963,"line":6}]]}