{"data":[[{"i_long":106.508482,"distance":0,"station_id":"CJT","line":3,"i_lat":-6.354349,"transit":false,"is_transit":false,"time":0,"station_name":"Cilejit"},{"station_id":"PRP","i_long":106.568863,"station_name":"Parung Panjang","line":6,"time":9,"i_lat":-6.3441410000000005,"is_transit":false,"distance":7025,"transit":false},{"is_transit":false,"line":3,"station_name":"Cicayur","distance":5968,"i_long":106.617853,"transit":false,"station_id":"CC","time":8,"i_lat":-6.329547},{"transit":false,"station_id":"CSK","distance":2519,"station_name":"Cisauk","i_long":106.640411,"is_transit":false,"time":4,"i_lat":-6.32484,"line":3},{"transit":false,"i_long":106.66566,"is_transit":false,"distance":1784,"line":6,"station_name":"Serpong","time":4,"i_lat":-6.319871,"station_id":"SRP"},{"station_name":"Rawa Buntu","i_long":106.675475,"i_lat":-6.314823,"is_transit":false,"time":4,"distance":2413,"transit":false,"line":6,"station_id":"RU"},{"i_long":106.712277,"distance":4566,"is_transit":false,"line":6,"station_name":"Sudimara","transit":false,"station_id":"SDM","time":6,"i_lat":-6.296963},{"station_id":"JMU","station_name":"Jurangmangu","i_long":106.728916,"line":6,"time":4,"i_lat":-6.288927,"transit":false,"is_transit":false,"distance":1994},{"station_id":"PDJ","distance":2179,"time":3,"is_transit":false,"line":6,"transit":false,"station_name":"Pondokranji","i_lat":-6.276362,"i_long":106.74273},{"i_long":106.780334,"line":6,"station_id":"KBY","is_transit":false,"i_lat":-6.237242,"transit":false,"time":8,"station_name":"Kebayoran","distance":6218},{"station_name":"Palmerah","line":6,"station_id":"PLM","i_long":106.79689,"distance":3737,"time":7,"is_transit":false,"transit":false,"i_lat":-6.207404},{"distance":3191,"i_lat":-6.185545,"station_id":"THB","station_name":"Tanah Abang","line":1,"transit":true,"is_transit":true,"time":6,"i_long":106.811091},{"station_name":"Duri","transit":false,"station_id":"DU","distance":3632,"time":8,"i_lat":-6.155215,"i_long":106.800832,"line":1,"is_transit":false},{"line":1,"i_lat":-6.144674,"station_id":"AK","distance":1230,"time":4,"i_long":106.79867,"station_name":"Angke","transit":false,"is_transit":false},{"station_id":"KPB","distance":4102,"station_name":"Kampung Bandan","i_long":106.826365,"transit":true,"is_transit":true,"line":4,"i_lat":-6.132549,"time":9},{"transit":false,"is_transit":false,"time":3,"station_id":"RJW","station_name":"Rajawali","i_lat":-6.14505,"i_long":106.836569,"line":11,"distance":1444}],[{"station_id":"CJT","station_name":"Cilejit","transit":false,"i_long":106.508482,"distance":0,"time":0,"line":3,"is_transit":false,"i_lat":-6.354349},{"distance":7025,"time":9,"station_name":"Parung Panjang","transit":false,"station_id":"PRP","is_transit":false,"line":6,"i_lat":-6.3441410000000005,"i_long":106.568863},{"station_name":"Cicayur","station_id":"CC","line":3,"i_lat":-6.329547,"time":8,"i_long":106.617853,"is_transit":false,"transit":false,"distance":5968},{"i_lat":-6.32484,"i_long":106.640411,"station_name":"Cisauk","station_id":"CSK","time":4,"line":3,"transit":false,"distance":2519,"is_transit":false},{"time":4,"line":6,"transit":false,"station_id":"SRP","station_name":"Serpong","distance":1784,"is_transit":false,"i_lat":-6.319871,"i_long":106.66566},{"station_name":"Rawa Buntu","i_lat":-6.314823,"time":4,"transit":false,"station_id":"RU","i_long":106.675475,"line":6,"distance":2413,"is_transit":false},{"distance":4566,"i_long":106.712277,"station_id":"SDM","station_name":"Sudimara","is_transit":false,"time":6,"transit":false,"line":6,"i_lat":-6.296963},{"distance":1994,"i_long":106.728916,"station_id":"JMU","line":6,"station_name":"Jurangmangu","is_transit":false,"time":4,"transit":false,"i_lat":-6.288927},{"i_lat":-6.276362,"station_id":"PDJ","is_transit":false,"distance":2179,"line":6,"i_long":106.74273,"transit":false,"station_name":"Pondokranji","time":3},{"distance":6218,"i_long":106.780334,"time":8,"station_name":"Kebayoran","i_lat":-6.237242,"station_id":"KBY","is_transit":false,"line":6,"transit":false},{"time":7,"transit":false,"line":6,"distance":3737,"station_name":"Palmerah","station_id":"PLM","i_long":106.79689,"i_lat":-6.207404,"is_transit":false},{"transit":true,"i_long":106.811091,"time":6,"station_id":"THB","station_name":"Tanah Abang","is_transit":true,"line":1,"distance":3191,"i_lat":-6.185545},{"i_lat":-6.20132,"i_long":106.816351,"station_name":"Karet","distance":2029,"line":1,"is_transit":false,"station_id":"KAT","transit":false,"time":5},{"station_name":"Sudirman Baru","is_transit":false,"distance":471,"i_lat":-6.201433,"i_long":106.819881,"line":1,"transit":false,"time":1,"station_id":"SUDB"},{"transit":false,"station_name":"Sudirman","time":1,"i_lat":-6.202263,"station_id":"SUD","is_transit":false,"distance":280,"i_long":106.822649,"line":1},{"i_lat":-6.209883,"station_id":"MRI","is_transit":false,"time":4,"station_name":"Manggarai","transit":false,"distance":3186,"i_long":106.84912,"line":2},{"station_id":"MTR","i_long":106.858896,"station_name":"Matraman","i_lat":-6.212485,"line":1,"distance":1275,"transit":false,"is_transit":false,"time":2},{"i_lat":-6.215091,"is_transit":true,"line":1,"time":8,"station_name":"Jatinegara","station_id":"JNG","transit":true,"distance":1377,"i_long":106.86807400000001},{"line":11,"i_long":106.861737,"time":2,"i_lat":-6.209188,"is_transit":false,"station_name":"Pondok Jati","transit":false,"station_id":"POK","distance":1236},{"distance":1829,"transit":false,"station_name":"Kramat","is_transit":false,"station_id":"KMT","time":2,"i_lat":-6.193792,"i_long":106.855437,"line":11},{"station_name":"Gang Sentiong","station_id":"GST","time":1,"i_lat":-6.185975,"i_long":106.850107,"transit":false,"is_transit":false,"distance":973,"line":11},{"transit":false,"station_name":"Pasar Senen","time":8,"distance":1567,"is_transit":false,"station_id":"PSE","i_lat":-6.174784,"line":11,"i_long":106.84368},{"i_long":106.839204,"line":11,"is_transit":false,"transit":false,"distance":1436,"i_lat":-6.161728,"time":4,"station_name":"Kemayoran","station_id":"KMO"},{"i_long":106.836569,"is_transit":false,"station_name":"Rajawali","time":5,"station_id":"RJW","i_lat":-6.14505,"distance":1901,"line":11,"transit":false}],[{"i_long":106.508482,"i_lat":-6.354349,"distance":0,"time":0,"is_transit":false,"station_id":"CJT","transit":false,"station_name":"Cilejit","line":3},{"station_id":"PRP","i_long":106.568863,"line":6,"time":9,"distance":7025,"transit":false,"station_name":"Parung Panjang","is_transit":false,"i_lat":-6.3441410000000005},{"station_name":"Cicayur","station_id":"CC","time":8,"i_lat":-6.329547,"line":3,"distance":5968,"i_long":106.617853,"transit":false,"is_transit":false},{"station_name":"Cisauk","is_transit":false,"i_long":106.640411,"i_lat":-6.32484,"line":3,"time":4,"distance":2519,"station_id":"CSK","transit":false},{"transit":false,"i_long":106.66566,"is_transit":false,"station_name":"Serpong","station_id":"SRP","i_lat":-6.319871,"time":4,"line":6,"distance":1784},{"i_long":106.675475,"transit":false,"station_name":"Rawa Buntu","is_transit":false,"line":6,"station_id":"RU","i_lat":-6.314823,"time":4,"distance":2413},{"time":6,"station_name":"Sudimara","is_transit":false,"distance":4566,"station_id":"SDM","line":6,"i_lat":-6.296963,"transit":false,"i_long":106.712277},{"station_name":"Jurangmangu","distance":1994,"i_long":106.728916,"line":6,"i_lat":-6.288927,"transit":false,"station_id":"JMU","is_transit":false,"time":4},{"distance":2179,"line":6,"station_name":"Pondokranji","station_id":"PDJ","i_lat":-6.276362,"is_transit":false,"i_long":106.74273,"time":3,"transit":false},{"is_transit":false,"distance":6218,"i_lat":-6.237242,"transit":false,"station_id":"KBY","i_long":106.780334,"station_name":"Kebayoran","time":8,"line":6},{"station_id":"PLM","line":6,"station_name":"Palmerah","transit":false,"is_transit":false,"time":7,"i_long":106.79689,"i_lat":-6.207404,"distance":3737},{"line":1,"distance":3191,"i_long":106.811091,"time":6,"i_lat":-6.185545,"station_name":"Tanah Abang","transit":true,"station_id":"THB","is_transit":true},{"distance":2029,"i_long":106.816351,"station_name":"Karet","station_id":"KAT","is_transit":false,"line":1,"transit":false,"i_lat":-6.20132,"time":5},{"station_name":"Sudirman Baru","i_lat":-6.201433,"time":1,"line":1,"is_transit":false,"transit":false,"i_long":106.819881,"distance":471,"station_id":"SUDB"},{"station_name":"Sudirman","i_lat":-6.202263,"transit":false,"line":1,"is_transit":false,"distance":280,"i_long":106.822649,"time":1,"station_id":"SUD"},{"line":2,"station_id":"MRI","station_name":"Manggarai","time":4,"i_long":106.84912,"i_lat":-6.209883,"is_transit":true,"transit":true,"distance":3186},{"station_name":"Cikini","line":2,"time":4,"distance":1590,"is_transit":false,"i_lat":-6.198556,"transit":false,"i_long":106.840169,"station_id":"CKI"},{"transit":false,"station_name":"Gondangdia","is_transit":false,"time":3,"station_id":"GDD","distance":1750,"i_long":106.832183,"i_lat":-6.186295,"line":2},{"transit":false,"station_name":"Juanda","is_transit":false,"i_lat":-6.166716,"distance":2015,"station_id":"JUA","time":4,"i_long":106.828284,"line":2},{"station_name":"Sawah Besar","distance":1149,"i_long":106.827103,"line":2,"transit":false,"time":2,"station_id":"SW","i_lat":-6.160725,"is_transit":false},{"time":2,"i_lat":-6.149769,"i_long":106.82482,"station_name":"Manggabesar","line":2,"transit":false,"station_id":"MGB","is_transit":false,"distance":906},{"is_transit":false,"station_name":"Jayakarta","i_lat":-6.141205,"distance":1080,"transit":false,"line":2,"time":2,"i_long":106.820901,"station_id":"JAY"},{"is_transit":true,"i_long":106.812439,"line":2,"time":4,"station_name":"Jakarta Kota","transit":true,"i_lat":-6.137569,"station_id":"JAKK","distance":1264},{"line":4,"station_name":"Kampung Bandan","transit":true,"station_id":"KPB","is_transit":true,"time":3,"i_lat":-6.132549,"i_long":106.826365,"distance":1364},{"line":11,"is_transit":false,"station_name":"Rajawali","distance":1444,"time":3,"i_long":106.836569,"station_id":"RJW","i_lat":-6.14505,"transit":false}],[{"distance":0,"time":0,"i_long":106.508482,"station_name":"Cilejit","transit":false,"is_transit":false,"i_lat":-6.354349,"line":3,"station_id":"CJT"},{"distance":7025,"is_transit":false,"i_lat":-6.3441410000000005,"transit":false,"line":6,"time":9,"station_id":"PRP","station_name":"Parung Panjang","i_long":106.568863},{"transit":false,"distance":5968,"station_name":"Cicayur","station_id":"CC","i_long":106.617853,"is_transit":false,"i_lat":-6.329547,"time":8,"line":3},{"distance":2519,"station_name":"Cisauk","transit":false,"station_id":"CSK","time":4,"line":3,"i_long":106.640411,"i_lat":-6.32484,"is_transit":false},{"station_name":"Serpong","time":4,"i_long":106.66566,"transit":false,"i_lat":-6.319871,"station_id":"SRP","is_transit":false,"distance":1784,"line":6},{"is_transit":false,"distance":2413,"transit":false,"i_lat":-6.314823,"line":6,"station_id":"RU","i_long":106.675475,"time":4,"station_name":"Rawa Buntu"},{"distance":4566,"line":6,"i_long":106.712277,"is_transit":false,"i_lat":-6.296963,"station_name":"Sudimara","station_id":"SDM","transit":false,"time":6},{"line":6,"station_id":"JMU","transit":false,"is_transit":false,"i_lat":-6.288927,"i_long":106.728916,"distance":1994,"time":4,"station_name":"Jurangmangu"},{"i_lat":-6.276362,"distance":2179,"time":3,"station_id":"PDJ","transit":false,"station_name":"Pondokranji","line":6,"is_transit":false,"i_long":106.74273},{"distance":6218,"i_lat":-6.237242,"time":8,"transit":false,"station_name":"Kebayoran","i_long":106.780334,"is_transit":false,"line":6,"station_id":"KBY"},{"time":7,"station_id":"PLM","i_lat":-6.207404,"i_long":106.79689,"transit":false,"station_name":"Palmerah","distance":3737,"line":6,"is_transit":false},{"line":1,"station_name":"Tanah Abang","transit":true,"station_id":"THB","i_long":106.811091,"distance":3191,"time":6,"i_lat":-6.185545,"is_transit":true},{"transit":false,"time":8,"is_transit":false,"i_lat":-6.155215,"i_long":106.800832,"station_name":"Duri","distance":3632,"line":1,"station_id":"DU"},{"station_id":"AK","line":1,"is_transit":false,"station_name":"Angke","time":4,"distance":1230,"i_long":106.79867,"transit":false,"i_lat":-6.144674},{"transit":true,"is_transit":true,"time":9,"station_id":"KPB","distance":4102,"line":4,"station_name":"Kampung Bandan","i_long":106.826365,"i_lat":-6.132549},{"station_name":"Jakarta Kota","station_id":"JAKK","i_long":106.812439,"line":2,"transit":true,"is_transit":true,"distance":1364,"i_lat":-6.137569,"time":3},{"is_transit":false,"station_name":"Jayakarta","i_lat":-6.141205,"station_id":"JAY","transit":false,"i_long":106.820901,"time":4,"distance":1264,"line":2},{"transit":false,"i_long":106.82482,"line":2,"station_id":"MGB","is_transit":false,"distance":1080,"time":2,"station_name":"Manggabesar","i_lat":-6.149769},{"distance":906,"station_id":"SW","station_name":"Sawah Besar","is_transit":false,"i_long":106.827103,"line":2,"time":2,"transit":false,"i_lat":-6.160725},{"distance":1149,"i_lat":-6.166716,"i_long":106.828284,"line":2,"station_name":"Juanda","transit":false,"is_transit":false,"time":2,"station_id":"JUA"},{"transit":false,"station_name":"Gondangdia","i_lat":-6.186295,"station_id":"GDD","is_transit":false,"line":2,"i_long":106.832183,"time":4,"distance":2015},{"line":2,"transit":false,"distance":1750,"i_lat":-6.198556,"i_long":106.840169,"time":3,"station_name":"Cikini","station_id":"CKI","is_transit":false},{"transit":true,"distance":1590,"station_id":"MRI","i_long":106.84912,"line":2,"i_lat":-6.209883,"station_name":"Manggarai","is_transit":true,"time":4},{"i_lat":-6.212485,"is_transit":false,"time":2,"distance":1275,"i_long":106.858896,"station_name":"Matraman","line":1,"transit":false,"station_id":"MTR"},{"time":8,"i_lat":-6.215091,"transit":true,"station_id":"JNG","is_transit":true,"i_long":106.86807400000001,"station_name":"Jatinegara","distance":1377,"line":1},{"line":11,"is_transit":false,"i_lat":-6.209188,"station_id":"POK","transit":false,"time":2,"i_long":106.861737,"distance":1236,"station_name":"Pondok Jati"},{"station_name":"Kramat","i_long":106.855437,"distance":1829,"transit":false,"time":2,"station_id":"KMT","i_lat":-6.193792,"is_transit":false,"line":11},{"distance":973,"station_id":"GST","is_transit":false,"line":11,"transit":false,"time":1,"i_lat":-6.185975,"i_long":106.850107,"station_name":"Gang Sentiong"},{"station_id":"PSE","distance":1567,"line":11,"station_name":"Pasar Senen","i_lat":-6.174784,"transit":false,"is_transit":false,"time":8,"i_long":106.84368},{"i_lat":-6.161728,"i_long":106.839204,"transit":false,"station_name":"Kemayoran","time":4,"distance":1436,"station_id":"KMO","is_transit":false,"line":11},{"station_name":"Rajawali","is_transit":false,"i_long":106.836569,"line":11,"transit":false,"station_id":"RJW","distance":1901,"i_lat":-6.14505,"time":5}]]}