{"data":[[{"is_transit":false,"station_id":"CJT","i_lat":-6.354349,"station_name":"Cilejit","transit":false,"distance":0,"i_long":106.508482,"time":0,"line":3},{"i_long":106.568863,"i_lat":-6.3441410000000005,"distance":7025,"station_name":"Parung Panjang","time":9,"is_transit":false,"transit":false,"line":6,"station_id":"PRP"},{"i_long":106.617853,"line":3,"is_transit":false,"time":8,"station_id":"CC","station_name":"Cicayur","transit":false,"distance":5968,"i_lat":-6.329547},{"transit":false,"station_id":"CSK","line":3,"is_transit":false,"i_lat":-6.32484,"station_name":"Cisauk","time":4,"distance":2519,"i_long":106.640411},{"station_name":"Serpong","station_id":"SRP","time":4,"is_transit":false,"i_lat":-6.319871,"distance":1784,"i_long":106.66566,"line":6,"transit":false},{"i_long":106.675475,"is_transit":false,"distance":2413,"i_lat":-6.314823,"time":4,"station_name":"Rawa Buntu","station_id":"RU","line":6,"transit":false},{"station_name":"Sudimara","is_transit":false,"i_lat":-6.296963,"time":6,"distance":4566,"transit":false,"i_long":106.712277,"line":6,"station_id":"SDM"}]]}