{"data":[[{"distance":0,"line":3,"time":0,"i_long":106.508482,"station_id":"CJT","i_lat":-6.354349,"is_transit":false,"station_name":"Cilejit","transit":false},{"i_lat":-6.3441410000000005,"transit":false,"i_long":106.568863,"line":6,"time":9,"station_name":"Parung Panjang","distance":7025,"is_transit":false,"station_id":"PRP"},{"station_name":"Cicayur","i_lat":-6.329547,"line":3,"i_long":106.617853,"is_transit":false,"transit":false,"distance":5968,"station_id":"CC","time":8},{"i_long":106.640411,"station_name":"Cisauk","station_id":"CSK","line":3,"is_transit":false,"transit":false,"distance":2519,"i_lat":-6.32484,"time":4},{"transit":false,"station_name":"Serpong","station_id":"SRP","distance":1784,"i_lat":-6.319871,"i_long":106.66566,"is_transit":false,"time":4,"line":6},{"station_name":"Rawa Buntu","is_transit":false,"i_lat":-6.314823,"station_id":"RU","i_long":106.675475,"time":4,"distance":2413,"transit":false,"line":6},{"is_transit":false,"line":6,"station_name":"Sudimara","i_lat":-6.296963,"station_id":"SDM","i_long":106.712277,"transit":false,"distance":4566,"time":6},{"time":4,"line":6,"station_name":"Jurangmangu","is_transit":false,"distance":1994,"station_id":"JMU","transit":false,"i_lat":-6.288927,"i_long":106.728916},{"distance":2179,"station_id":"PDJ","line":6,"station_name":"Pondokranji","transit":false,"i_long":106.74273,"time":3,"is_transit":false,"i_lat":-6.276362},{"station_id":"KBY","is_transit":false,"transit":false,"i_lat":-6.237242,"station_name":"Kebayoran","distance":6218,"i_long":106.780334,"time":8,"line":6},{"is_transit":false,"station_id":"PLM","distance":3737,"transit":false,"i_lat":-6.207404,"time":7,"i_long":106.79689,"station_name":"Palmerah","line":6},{"distance":3191,"line":1,"transit":true,"i_lat":-6.185545,"is_transit":true,"station_name":"Tanah Abang","i_long":106.811091,"station_id":"THB","time":6},{"i_long":106.816351,"distance":2029,"is_transit":false,"station_name":"Karet","time":5,"transit":false,"line":1,"i_lat":-6.20132,"station_id":"KAT"},{"distance":471,"line":1,"i_long":106.819881,"time":1,"station_name":"Sudirman Baru","is_transit":false,"i_lat":-6.201433,"transit":false,"station_id":"SUDB"},{"is_transit":false,"line":1,"station_id":"SUD","time":1,"i_lat":-6.202263,"distance":280,"transit":false,"i_long":106.822649,"station_name":"Sudirman"},{"station_id":"MRI","is_transit":true,"i_long":106.84912,"transit":true,"distance":3186,"time":4,"station_name":"Manggarai","i_lat":-6.209883,"line":2},{"i_long":106.857948,"line":2,"station_id":"TEB","i_lat":-6.226659,"distance":2610,"station_name":"Tebet","time":4,"is_transit":false,"transit":false},{"station_name":"Cawang","distance":1230,"i_long":106.856607,"is_transit":false,"i_lat":-6.242512,"transit":false,"station_id":"CW","time":2,"line":2},{"is_transit":false,"i_lat":-6.255332,"station_name":"Duren Kalibata","distance":1546,"i_long":106.85449,"line":2,"transit":false,"station_id":"DRN","time":3},{"transit":false,"i_long":106.851577,"line":2,"station_id":"PSMB","i_lat":-6.263214,"is_transit":false,"time":2,"station_name":"Pasar Minggu Baru","distance":824},{"line":2,"time":2,"station_id":"PSM","i_lat":-6.2842400000000005,"distance":2380,"is_transit":false,"i_long":106.843999,"transit":false,"station_name":"Pasar Minggu"},{"distance":2820,"time":4,"station_name":"Tanjung Barat","is_transit":false,"transit":false,"line":2,"i_lat":-6.3080680000000005,"i_long":106.838896,"station_id":"TNT"},{"i_lat":-6.330363,"line":2,"station_name":"Lenteng Agung","transit":false,"is_transit":false,"time":3,"distance":2671,"i_long":106.832616,"station_id":"LNA"}],[{"i_long":106.508482,"is_transit":false,"time":0,"station_id":"CJT","station_name":"Cilejit","transit":false,"i_lat":-6.354349,"line":3,"distance":0},{"i_long":106.568863,"is_transit":false,"line":6,"time":9,"transit":false,"distance":7025,"station_id":"PRP","station_name":"Parung Panjang","i_lat":-6.3441410000000005},{"station_id":"CC","station_name":"Cicayur","line":3,"time":8,"i_long":106.617853,"i_lat":-6.329547,"transit":false,"distance":5968,"is_transit":false},{"distance":2519,"station_id":"CSK","line":3,"transit":false,"time":4,"i_long":106.640411,"is_transit":false,"i_lat":-6.32484,"station_name":"Cisauk"},{"station_name":"Serpong","time":4,"is_transit":false,"station_id":"SRP","transit":false,"i_lat":-6.319871,"distance":1784,"i_long":106.66566,"line":6},{"time":4,"distance":2413,"i_long":106.675475,"station_id":"RU","is_transit":false,"transit":false,"i_lat":-6.314823,"line":6,"station_name":"Rawa Buntu"},{"i_long":106.712277,"station_name":"Sudimara","station_id":"SDM","is_transit":false,"transit":false,"time":6,"i_lat":-6.296963,"distance":4566,"line":6},{"i_long":106.728916,"station_name":"Jurangmangu","station_id":"JMU","distance":1994,"i_lat":-6.288927,"line":6,"time":4,"is_transit":false,"transit":false},{"station_id":"PDJ","i_lat":-6.276362,"time":3,"i_long":106.74273,"is_transit":false,"transit":false,"distance":2179,"station_name":"Pondokranji","line":6},{"distance":6218,"i_lat":-6.237242,"is_transit":false,"station_name":"Kebayoran","transit":false,"station_id":"KBY","i_long":106.780334,"line":6,"time":8},{"station_id":"PLM","transit":false,"is_transit":false,"i_long":106.79689,"station_name":"Palmerah","line":6,"i_lat":-6.207404,"distance":3737,"time":7},{"time":6,"line":1,"distance":3191,"is_transit":true,"transit":true,"i_long":106.811091,"station_name":"Tanah Abang","station_id":"THB","i_lat":-6.185545},{"station_name":"Duri","i_long":106.800832,"i_lat":-6.155215,"is_transit":false,"transit":false,"distance":3632,"line":1,"time":8,"station_id":"DU"},{"transit":false,"is_transit":false,"station_name":"Angke","i_lat":-6.144674,"i_long":106.79867,"time":4,"distance":1230,"station_id":"AK","line":1},{"station_id":"KPB","i_lat":-6.132549,"time":9,"distance":4102,"line":4,"station_name":"Kampung Bandan","transit":true,"is_transit":true,"i_long":106.826365},{"i_lat":-6.137569,"distance":1364,"i_long":106.812439,"station_name":"Jakarta Kota","is_transit":true,"transit":true,"station_id":"JAKK","line":2,"time":3},{"station_name":"Jayakarta","i_lat":-6.141205,"station_id":"JAY","line":2,"transit":false,"time":4,"distance":1264,"is_transit":false,"i_long":106.820901},{"transit":false,"distance":1080,"line":2,"station_id":"MGB","i_lat":-6.149769,"i_long":106.82482,"time":2,"station_name":"Manggabesar","is_transit":false},{"line":2,"i_lat":-6.160725,"distance":906,"is_transit":false,"station_name":"Sawah Besar","transit":false,"time":2,"station_id":"SW","i_long":106.827103},{"i_lat":-6.166716,"is_transit":false,"time":2,"distance":1149,"station_name":"Juanda","transit":false,"i_long":106.828284,"line":2,"station_id":"JUA"},{"is_transit":false,"distance":2015,"station_id":"GDD","transit":false,"i_long":106.832183,"time":4,"i_lat":-6.186295,"line":2,"station_name":"Gondangdia"},{"i_long":106.840169,"is_transit":false,"i_lat":-6.198556,"transit":false,"time":3,"distance":1750,"station_id":"CKI","line":2,"station_name":"Cikini"},{"distance":1590,"i_lat":-6.209883,"i_long":106.84912,"time":4,"station_id":"MRI","is_transit":false,"transit":false,"station_name":"Manggarai","line":2},{"transit":false,"i_long":106.857948,"line":2,"station_id":"TEB","is_transit":false,"time":4,"distance":2610,"i_lat":-6.226659,"station_name":"Tebet"},{"line":2,"distance":1230,"i_long":106.856607,"is_transit":false,"time":2,"station_id":"CW","i_lat":-6.242512,"transit":false,"station_name":"Cawang"},{"distance":1546,"transit":false,"line":2,"is_transit":false,"station_name":"Duren Kalibata","i_lat":-6.255332,"station_id":"DRN","i_long":106.85449,"time":3},{"transit":false,"time":2,"station_name":"Pasar Minggu Baru","is_transit":false,"i_lat":-6.263214,"i_long":106.851577,"distance":824,"station_id":"PSMB","line":2},{"time":2,"i_long":106.843999,"i_lat":-6.2842400000000005,"station_name":"Pasar Minggu","distance":2380,"station_id":"PSM","line":2,"transit":false,"is_transit":false},{"i_long":106.838896,"is_transit":false,"line":2,"station_name":"Tanjung Barat","transit":false,"distance":2820,"i_lat":-6.3080680000000005,"time":4,"station_id":"TNT"},{"station_id":"LNA","is_transit":false,"transit":false,"distance":2671,"i_long":106.832616,"line":2,"station_name":"Lenteng Agung","time":3,"i_lat":-6.330363}],[{"time":0,"line":3,"transit":false,"station_id":"CJT","distance":0,"is_transit":false,"i_long":106.508482,"station_name":"Cilejit","i_lat":-6.354349},{"station_name":"Parung Panjang","distance":7025,"time":9,"transit":false,"is_transit":false,"i_long":106.568863,"station_id":"PRP","i_lat":-6.3441410000000005,"line":6},{"station_id":"CC","i_long":106.617853,"line":3,"transit":false,"distance":5968,"i_lat":-6.329547,"is_transit":false,"station_name":"Cicayur","time":8},{"distance":2519,"i_long":106.640411,"line":3,"transit":false,"i_lat":-6.32484,"time":4,"is_transit":false,"station_name":"Cisauk","station_id":"CSK"},{"station_name":"Serpong","line":6,"i_long":106.66566,"station_id":"SRP","i_lat":-6.319871,"transit":false,"distance":1784,"time":4,"is_transit":false},{"distance":2413,"station_name":"Rawa Buntu","transit":false,"station_id":"RU","line":6,"i_lat":-6.314823,"time":4,"is_transit":false,"i_long":106.675475},{"is_transit":false,"station_name":"Sudimara","transit":false,"i_lat":-6.296963,"line":6,"distance":4566,"i_long":106.712277,"time":6,"station_id":"SDM"},{"distance":1994,"station_name":"Jurangmangu","i_lat":-6.288927,"transit":false,"i_long":106.728916,"station_id":"JMU","is_transit":false,"line":6,"time":4},{"i_long":106.74273,"line":6,"station_name":"Pondokranji","station_id":"PDJ","distance":2179,"is_transit":false,"time":3,"transit":false,"i_lat":-6.276362},{"i_lat":-6.237242,"is_transit":false,"time":8,"transit":false,"station_id":"KBY","distance":6218,"station_name":"Kebayoran","i_long":106.780334,"line":6},{"line":6,"i_long":106.79689,"distance":3737,"is_transit":false,"station_name":"Palmerah","i_lat":-6.207404,"time":7,"transit":false,"station_id":"PLM"},{"i_lat":-6.185545,"distance":3191,"is_transit":true,"transit":true,"time":6,"station_id":"THB","line":1,"i_long":106.811091,"station_name":"Tanah Abang"},{"line":1,"i_lat":-6.155215,"station_name":"Duri","time":8,"station_id":"DU","i_long":106.800832,"distance":3632,"is_transit":false,"transit":false},{"i_long":106.79867,"station_name":"Angke","station_id":"AK","time":4,"transit":false,"is_transit":false,"line":1,"i_lat":-6.144674,"distance":1230},{"transit":true,"time":9,"station_id":"KPB","i_long":106.826365,"line":4,"is_transit":true,"i_lat":-6.132549,"distance":4102,"station_name":"Kampung Bandan"},{"i_long":106.836569,"station_id":"RJW","station_name":"Rajawali","is_transit":false,"i_lat":-6.14505,"line":11,"time":3,"transit":false,"distance":1444},{"transit":false,"i_lat":-6.161728,"station_id":"KMO","time":5,"distance":1901,"is_transit":false,"line":11,"station_name":"Kemayoran","i_long":106.839204},{"i_long":106.84368,"line":11,"distance":1436,"transit":false,"i_lat":-6.174784,"is_transit":false,"station_name":"Pasar Senen","time":4,"station_id":"PSE"},{"distance":1567,"time":8,"i_long":106.850107,"station_name":"Gang Sentiong","station_id":"GST","i_lat":-6.185975,"is_transit":false,"transit":false,"line":11},{"station_id":"KMT","time":1,"distance":973,"is_transit":false,"station_name":"Kramat","transit":false,"line":11,"i_lat":-6.193792,"i_long":106.855437},{"distance":1829,"transit":false,"station_name":"Pondok Jati","time":2,"i_lat":-6.209188,"line":11,"is_transit":false,"i_long":106.861737,"station_id":"POK"},{"distance":1236,"time":9,"is_transit":true,"i_long":106.86807400000001,"line":1,"station_id":"JNG","station_name":"Jatinegara","transit":true,"i_lat":-6.215091},{"i_lat":-6.212485,"i_long":106.858896,"line":1,"time":2,"station_id":"MTR","transit":false,"distance":1377,"is_transit":false,"station_name":"Matraman"},{"station_name":"Manggarai","line":2,"distance":1275,"is_transit":true,"time":2,"i_lat":-6.209883,"transit":true,"i_long":106.84912,"station_id":"MRI"},{"distance":2610,"i_long":106.857948,"time":4,"station_id":"TEB","is_transit":false,"i_lat":-6.226659,"line":2,"transit":false,"station_name":"Tebet"},{"i_lat":-6.242512,"i_long":106.856607,"line":2,"time":2,"transit":false,"distance":1230,"station_name":"Cawang","station_id":"CW","is_transit":false},{"i_lat":-6.255332,"transit":false,"line":2,"distance":1546,"time":3,"is_transit":false,"i_long":106.85449,"station_name":"Duren Kalibata","station_id":"DRN"},{"distance":824,"station_name":"Pasar Minggu Baru","i_lat":-6.263214,"line":2,"i_long":106.851577,"is_transit":false,"station_id":"PSMB","time":2,"transit":false},{"distance":2380,"transit":false,"is_transit":false,"station_name":"Pasar Minggu","line":2,"i_lat":-6.2842400000000005,"station_id":"PSM","i_long":106.843999,"time":2},{"station_id":"TNT","transit":false,"i_long":106.838896,"station_name":"Tanjung Barat","time":4,"is_transit":false,"line":2,"distance":2820,"i_lat":-6.3080680000000005},{"station_id":"LNA","is_transit":false,"transit":false,"station_name":"Lenteng Agung","i_lat":-6.330363,"line":2,"distance":2671,"i_long":106.832616,"time":3}]]}