{"data":[[{"i_long":106.508482,"time":0,"transit":false,"line":3,"station_name":"Cilejit","is_transit":false,"station_id":"CJT","i_lat":-6.354349,"distance":0},{"i_long":106.568863,"line":6,"i_lat":-6.3441410000000005,"distance":7025,"is_transit":false,"station_id":"PRP","transit":false,"station_name":"Parung Panjang","time":9},{"station_id":"CC","distance":5968,"time":8,"line":3,"i_long":106.617853,"is_transit":false,"i_lat":-6.329547,"transit":false,"station_name":"Cicayur"},{"is_transit":false,"station_name":"Cisauk","distance":2519,"time":4,"i_lat":-6.32484,"transit":false,"station_id":"CSK","i_long":106.640411,"line":3},{"station_id":"SRP","distance":1784,"i_long":106.66566,"station_name":"Serpong","line":6,"time":4,"is_transit":false,"transit":false,"i_lat":-6.319871},{"distance":2413,"line":6,"station_id":"RU","station_name":"Rawa Buntu","i_lat":-6.314823,"is_transit":false,"transit":false,"i_long":106.675475,"time":4},{"distance":4566,"i_long":106.712277,"station_name":"Sudimara","station_id":"SDM","transit":false,"line":6,"time":6,"i_lat":-6.296963,"is_transit":false},{"line":6,"station_id":"JMU","transit":false,"i_lat":-6.288927,"time":4,"i_long":106.728916,"station_name":"Jurangmangu","is_transit":false,"distance":1994},{"transit":false,"station_id":"PDJ","station_name":"Pondokranji","time":3,"i_long":106.74273,"i_lat":-6.276362,"line":6,"is_transit":false,"distance":2179},{"station_name":"Kebayoran","is_transit":false,"transit":false,"i_lat":-6.237242,"i_long":106.780334,"station_id":"KBY","time":8,"line":6,"distance":6218},{"time":7,"station_name":"Palmerah","distance":3737,"line":6,"i_lat":-6.207404,"station_id":"PLM","i_long":106.79689,"transit":false,"is_transit":false},{"station_id":"THB","is_transit":true,"station_name":"Tanah Abang","distance":3191,"i_lat":-6.185545,"i_long":106.811091,"line":1,"time":6,"transit":true},{"transit":false,"line":1,"is_transit":false,"time":5,"distance":2029,"station_id":"KAT","i_lat":-6.20132,"i_long":106.816351,"station_name":"Karet"},{"station_name":"Sudirman Baru","distance":471,"i_long":106.819881,"i_lat":-6.201433,"transit":false,"station_id":"SUDB","time":1,"line":1,"is_transit":false},{"is_transit":false,"time":1,"i_long":106.822649,"station_name":"Sudirman","line":1,"transit":false,"distance":280,"station_id":"SUD","i_lat":-6.202263},{"transit":true,"distance":3186,"station_id":"MRI","station_name":"Manggarai","i_lat":-6.209883,"i_long":106.84912,"is_transit":true,"time":4,"line":2},{"distance":2610,"i_long":106.857948,"line":2,"is_transit":false,"transit":false,"i_lat":-6.226659,"station_id":"TEB","time":4,"station_name":"Tebet"},{"distance":1230,"is_transit":false,"transit":false,"line":2,"station_id":"CW","station_name":"Cawang","time":2,"i_lat":-6.242512,"i_long":106.856607},{"i_long":106.85449,"distance":1546,"station_id":"DRN","line":2,"i_lat":-6.255332,"transit":false,"is_transit":false,"time":3,"station_name":"Duren Kalibata"},{"station_id":"PSMB","i_long":106.851577,"station_name":"Pasar Minggu Baru","line":2,"time":2,"i_lat":-6.263214,"is_transit":false,"distance":824,"transit":false},{"is_transit":false,"line":2,"station_name":"Pasar Minggu","distance":2380,"i_long":106.843999,"transit":false,"station_id":"PSM","time":2,"i_lat":-6.2842400000000005},{"transit":false,"station_id":"TNT","distance":2820,"station_name":"Tanjung Barat","i_long":106.838896,"is_transit":false,"time":4,"i_lat":-6.3080680000000005,"line":2},{"transit":false,"i_long":106.832616,"is_transit":false,"distance":2671,"line":2,"station_name":"Lenteng Agung","time":3,"i_lat":-6.330363,"station_id":"LNA"}],[{"station_name":"Cilejit","i_long":106.508482,"i_lat":-6.354349,"is_transit":false,"time":0,"distance":0,"transit":false,"line":3,"station_id":"CJT"},{"i_long":106.568863,"distance":7025,"is_transit":false,"line":6,"station_name":"Parung Panjang","transit":false,"station_id":"PRP","time":9,"i_lat":-6.3441410000000005},{"station_id":"CC","station_name":"Cicayur","i_long":106.617853,"line":3,"time":8,"i_lat":-6.329547,"transit":false,"is_transit":false,"distance":5968},{"station_id":"CSK","distance":2519,"time":4,"is_transit":false,"line":3,"transit":false,"station_name":"Cisauk","i_lat":-6.32484,"i_long":106.640411},{"i_long":106.66566,"line":6,"station_id":"SRP","is_transit":false,"i_lat":-6.319871,"transit":false,"time":4,"station_name":"Serpong","distance":1784},{"station_name":"Rawa Buntu","line":6,"station_id":"RU","i_long":106.675475,"distance":2413,"time":4,"is_transit":false,"transit":false,"i_lat":-6.314823},{"distance":4566,"i_lat":-6.296963,"station_id":"SDM","station_name":"Sudimara","line":6,"transit":false,"is_transit":false,"time":6,"i_long":106.712277},{"station_name":"Jurangmangu","transit":false,"station_id":"JMU","distance":1994,"time":4,"i_lat":-6.288927,"i_long":106.728916,"line":6,"is_transit":false},{"line":6,"i_lat":-6.276362,"station_id":"PDJ","distance":2179,"time":3,"i_long":106.74273,"station_name":"Pondokranji","transit":false,"is_transit":false},{"station_id":"KBY","distance":6218,"station_name":"Kebayoran","i_long":106.780334,"transit":false,"is_transit":false,"line":6,"i_lat":-6.237242,"time":8},{"transit":false,"is_transit":false,"time":7,"station_id":"PLM","station_name":"Palmerah","i_lat":-6.207404,"i_long":106.79689,"line":6,"distance":3737},{"station_id":"THB","station_name":"Tanah Abang","transit":true,"i_long":106.811091,"distance":3191,"time":6,"line":1,"is_transit":true,"i_lat":-6.185545},{"distance":3632,"time":8,"station_name":"Duri","transit":false,"station_id":"DU","is_transit":false,"line":1,"i_lat":-6.155215,"i_long":106.800832},{"station_name":"Angke","station_id":"AK","line":1,"i_lat":-6.144674,"time":4,"i_long":106.79867,"is_transit":false,"transit":false,"distance":1230},{"i_lat":-6.132549,"i_long":106.826365,"station_name":"Kampung Bandan","station_id":"KPB","time":9,"line":4,"transit":true,"distance":4102,"is_transit":true},{"time":3,"line":2,"transit":true,"station_id":"JAKK","station_name":"Jakarta Kota","distance":1364,"is_transit":true,"i_lat":-6.137569,"i_long":106.812439},{"station_name":"Jayakarta","i_lat":-6.141205,"time":4,"transit":false,"station_id":"JAY","i_long":106.820901,"line":2,"distance":1264,"is_transit":false},{"distance":1080,"is_transit":false,"station_name":"Manggabesar","i_long":106.82482,"transit":false,"time":2,"i_lat":-6.149769,"station_id":"MGB","line":2},{"time":2,"i_lat":-6.160725,"station_id":"SW","i_long":106.827103,"line":2,"distance":906,"transit":false,"station_name":"Sawah Besar","is_transit":false},{"i_lat":-6.166716,"transit":false,"distance":1149,"station_id":"JUA","line":2,"is_transit":false,"time":2,"i_long":106.828284,"station_name":"Juanda"},{"i_lat":-6.186295,"distance":2015,"line":2,"station_id":"GDD","is_transit":false,"time":4,"transit":false,"station_name":"Gondangdia","i_long":106.832183},{"distance":1750,"station_name":"Cikini","is_transit":false,"time":3,"i_long":106.840169,"transit":false,"line":2,"station_id":"CKI","i_lat":-6.198556},{"station_id":"MRI","i_lat":-6.209883,"time":4,"station_name":"Manggarai","is_transit":false,"i_long":106.84912,"transit":false,"line":2,"distance":1590},{"station_id":"TEB","transit":false,"is_transit":false,"i_lat":-6.226659,"i_long":106.857948,"station_name":"Tebet","distance":2610,"time":4,"line":2},{"distance":1230,"line":2,"transit":false,"is_transit":false,"station_id":"CW","i_long":106.856607,"station_name":"Cawang","time":2,"i_lat":-6.242512},{"i_long":106.85449,"line":2,"time":3,"station_id":"DRN","transit":false,"distance":1546,"is_transit":false,"station_name":"Duren Kalibata","i_lat":-6.255332},{"i_long":106.851577,"line":2,"transit":false,"is_transit":false,"station_name":"Pasar Minggu Baru","time":2,"station_id":"PSMB","distance":824,"i_lat":-6.263214},{"is_transit":false,"distance":2380,"i_lat":-6.2842400000000005,"i_long":106.843999,"line":2,"transit":false,"station_id":"PSM","time":2,"station_name":"Pasar Minggu"},{"i_lat":-6.3080680000000005,"is_transit":false,"line":2,"time":4,"station_name":"Tanjung Barat","station_id":"TNT","transit":false,"distance":2820,"i_long":106.838896},{"line":2,"i_long":106.832616,"time":3,"i_lat":-6.330363,"is_transit":false,"station_name":"Lenteng Agung","transit":false,"station_id":"LNA","distance":2671}],[{"distance":0,"transit":false,"station_name":"Cilejit","is_transit":false,"station_id":"CJT","time":0,"i_lat":-6.354349,"i_long":106.508482,"line":3},{"station_name":"Parung Panjang","station_id":"PRP","time":9,"i_lat":-6.3441410000000005,"i_long":106.568863,"transit":false,"is_transit":false,"distance":7025,"line":6},{"transit":false,"station_name":"Cicayur","time":8,"distance":5968,"is_transit":false,"station_id":"CC","i_lat":-6.329547,"line":3,"i_long":106.617853},{"i_long":106.640411,"line":3,"is_transit":false,"transit":false,"distance":2519,"i_lat":-6.32484,"time":4,"station_name":"Cisauk","station_id":"CSK"},{"i_long":106.66566,"is_transit":false,"station_name":"Serpong","time":4,"station_id":"SRP","i_lat":-6.319871,"distance":1784,"line":6,"transit":false},{"i_long":106.675475,"i_lat":-6.314823,"distance":2413,"time":4,"is_transit":false,"station_id":"RU","transit":false,"station_name":"Rawa Buntu","line":6},{"station_id":"SDM","i_long":106.712277,"line":6,"time":6,"distance":4566,"transit":false,"station_name":"Sudimara","is_transit":false,"i_lat":-6.296963},{"station_name":"Jurangmangu","station_id":"JMU","time":4,"i_lat":-6.288927,"line":6,"distance":1994,"i_long":106.728916,"transit":false,"is_transit":false},{"station_name":"Pondokranji","is_transit":false,"i_long":106.74273,"i_lat":-6.276362,"line":6,"time":3,"distance":2179,"station_id":"PDJ","transit":false},{"transit":false,"i_long":106.780334,"is_transit":false,"station_name":"Kebayoran","station_id":"KBY","i_lat":-6.237242,"time":8,"line":6,"distance":6218},{"i_long":106.79689,"transit":false,"station_name":"Palmerah","is_transit":false,"line":6,"station_id":"PLM","i_lat":-6.207404,"time":7,"distance":3737},{"time":6,"station_name":"Tanah Abang","is_transit":true,"distance":3191,"station_id":"THB","line":1,"i_lat":-6.185545,"transit":true,"i_long":106.811091},{"station_name":"Duri","distance":3632,"i_long":106.800832,"line":1,"i_lat":-6.155215,"transit":false,"station_id":"DU","is_transit":false,"time":8},{"distance":1230,"line":1,"station_name":"Angke","station_id":"AK","i_lat":-6.144674,"is_transit":false,"i_long":106.79867,"time":4,"transit":false},{"is_transit":true,"distance":4102,"i_lat":-6.132549,"transit":true,"station_id":"KPB","i_long":106.826365,"station_name":"Kampung Bandan","time":9,"line":4},{"station_id":"RJW","line":11,"station_name":"Rajawali","transit":false,"is_transit":false,"time":3,"i_long":106.836569,"i_lat":-6.14505,"distance":1444},{"line":11,"distance":1901,"i_long":106.839204,"time":5,"i_lat":-6.161728,"station_name":"Kemayoran","transit":false,"station_id":"KMO","is_transit":false},{"time":4,"i_lat":-6.174784,"line":11,"is_transit":false,"station_name":"Pasar Senen","distance":1436,"station_id":"PSE","i_long":106.84368,"transit":false},{"line":11,"i_long":106.850107,"distance":1567,"station_name":"Gang Sentiong","is_transit":false,"station_id":"GST","i_lat":-6.185975,"transit":false,"time":8},{"station_name":"Kramat","station_id":"KMT","i_lat":-6.193792,"time":1,"i_long":106.855437,"line":11,"transit":false,"is_transit":false,"distance":973},{"i_long":106.861737,"transit":false,"line":11,"i_lat":-6.209188,"station_name":"Pondok Jati","station_id":"POK","is_transit":false,"time":2,"distance":1829},{"transit":true,"i_lat":-6.215091,"station_id":"JNG","station_name":"Jatinegara","distance":1236,"i_long":106.86807400000001,"line":1,"time":9,"is_transit":true},{"transit":false,"station_name":"Matraman","is_transit":false,"time":2,"station_id":"MTR","distance":1377,"i_long":106.858896,"i_lat":-6.212485,"line":1},{"transit":true,"station_name":"Manggarai","is_transit":true,"i_lat":-6.209883,"distance":1275,"station_id":"MRI","time":2,"i_long":106.84912,"line":2},{"station_name":"Tebet","distance":2610,"i_long":106.857948,"line":2,"transit":false,"time":4,"station_id":"TEB","i_lat":-6.226659,"is_transit":false},{"time":2,"i_lat":-6.242512,"i_long":106.856607,"station_name":"Cawang","line":2,"transit":false,"station_id":"CW","is_transit":false,"distance":1230},{"is_transit":false,"station_name":"Duren Kalibata","i_lat":-6.255332,"distance":1546,"transit":false,"line":2,"time":3,"i_long":106.85449,"station_id":"DRN"},{"is_transit":false,"i_long":106.851577,"line":2,"time":2,"station_name":"Pasar Minggu Baru","transit":false,"i_lat":-6.263214,"station_id":"PSMB","distance":824},{"line":2,"station_name":"Pasar Minggu","transit":false,"station_id":"PSM","is_transit":false,"time":2,"i_lat":-6.2842400000000005,"i_long":106.843999,"distance":2380},{"line":2,"is_transit":false,"station_name":"Tanjung Barat","distance":2820,"time":4,"i_long":106.838896,"station_id":"TNT","i_lat":-6.3080680000000005,"transit":false},{"distance":2671,"time":3,"i_long":106.832616,"station_name":"Lenteng Agung","transit":false,"is_transit":false,"i_lat":-6.330363,"line":2,"station_id":"LNA"}]]}