{"data":[[{"distance":0,"i_lat":-6.354349,"i_long":106.508482,"time":0,"station_id":"CJT","line":0,"transit":false,"station_name":"Cilejit","is_transit":false},{"station_id":"PRP","distance":7025,"time":9,"transit":false,"i_long":106.568863,"station_name":"Parung Panjang","is_transit":false,"line":6,"i_lat":-6.3441410000000005},{"is_transit":false,"i_long":106.617853,"line":0,"station_name":"Cicayur","station_id":"CC","distance":5968,"time":8,"transit":false,"i_lat":-6.329547},{"time":4,"line":0,"transit":false,"i_lat":-6.32484,"is_transit":false,"station_id":"CSK","station_name":"Cisauk","i_long":106.640411,"distance":2519},{"line":6,"i_lat":-6.319871,"station_name":"Serpong","transit":false,"is_transit":false,"station_id":"SRP","time":4,"i_long":106.66566,"distance":1784},{"i_lat":-6.314823,"station_name":"Rawa Buntu","i_long":106.675475,"time":4,"station_id":"RU","is_transit":false,"distance":2413,"line":6,"transit":false},{"i_lat":-6.296963,"station_name":"Sudimara","time":6,"i_long":106.712277,"distance":4566,"transit":false,"station_id":"SDM","line":6,"is_transit":false},{"station_name":"Jurangmangu","i_long":106.728916,"distance":1994,"time":4,"transit":false,"line":6,"is_transit":false,"station_id":"JMU","i_lat":-6.288927},{"time":3,"i_lat":-6.276362,"distance":2179,"transit":false,"i_long":106.74273,"station_id":"PDJ","is_transit":false,"station_name":"Pondokranji","line":6}]]}