{"data":[[{"station_name":"Cilejit","transit":false,"station_id":"CJT","distance":0,"is_transit":false,"time":0,"i_long":106.508482,"i_lat":-6.354349,"line":3},{"station_id":"PRP","transit":false,"i_lat":-6.3441410000000005,"i_long":106.568863,"line":6,"distance":7025,"time":9,"is_transit":false,"station_name":"Parung Panjang"},{"transit":false,"station_name":"Cicayur","distance":5968,"i_lat":-6.329547,"time":8,"line":3,"station_id":"CC","i_long":106.617853,"is_transit":false},{"time":4,"station_name":"Cisauk","is_transit":false,"transit":false,"distance":2519,"station_id":"CSK","i_long":106.640411,"i_lat":-6.32484,"line":3},{"i_lat":-6.319871,"i_long":106.66566,"line":6,"time":4,"station_name":"Serpong","distance":1784,"is_transit":false,"transit":false,"station_id":"SRP"},{"distance":2413,"station_id":"RU","is_transit":false,"line":6,"station_name":"Rawa Buntu","time":4,"i_lat":-6.314823,"i_long":106.675475,"transit":false},{"line":6,"station_name":"Sudimara","is_transit":false,"transit":false,"i_lat":-6.296963,"i_long":106.712277,"time":6,"distance":4566,"station_id":"SDM"},{"transit":false,"i_long":106.728916,"line":6,"is_transit":false,"station_id":"JMU","distance":1994,"station_name":"Jurangmangu","time":4,"i_lat":-6.288927},{"transit":false,"i_lat":-6.276362,"distance":2179,"line":6,"is_transit":false,"station_name":"Pondokranji","i_long":106.74273,"time":3,"station_id":"PDJ"},{"time":8,"station_id":"KBY","station_name":"Kebayoran","transit":false,"line":6,"i_long":106.780334,"is_transit":false,"distance":6218,"i_lat":-6.237242},{"distance":3737,"i_lat":-6.207404,"i_long":106.79689,"transit":false,"time":7,"station_name":"Palmerah","is_transit":false,"line":6,"station_id":"PLM"},{"station_name":"Tanah Abang","station_id":"THB","is_transit":true,"distance":3191,"i_lat":-6.185545,"transit":true,"i_long":106.811091,"line":1,"time":6},{"line":1,"time":8,"distance":3632,"i_long":106.800832,"station_id":"DU","transit":false,"i_lat":-6.155215,"station_name":"Duri","is_transit":false},{"i_long":106.79867,"station_name":"Angke","i_lat":-6.144674,"time":4,"distance":1230,"station_id":"AK","transit":false,"line":1,"is_transit":false},{"i_lat":-6.132549,"is_transit":true,"i_long":106.826365,"station_name":"Kampung Bandan","line":4,"time":9,"station_id":"KPB","transit":true,"distance":4102},{"i_long":106.812439,"time":3,"distance":1364,"station_name":"Jakarta Kota","i_lat":-6.137569,"is_transit":true,"line":2,"transit":true,"station_id":"JAKK"},{"i_long":106.820901,"station_id":"JAY","time":4,"is_transit":false,"transit":false,"i_lat":-6.141205,"station_name":"Jayakarta","distance":1264,"line":2},{"station_id":"MGB","station_name":"Manggabesar","time":2,"distance":1080,"i_long":106.82482,"line":2,"is_transit":false,"transit":false,"i_lat":-6.149769},{"is_transit":false,"transit":false,"station_id":"SW","i_lat":-6.160725,"i_long":106.827103,"station_name":"Sawah Besar","time":2,"distance":906,"line":2}],[{"i_lat":-6.354349,"i_long":106.508482,"line":3,"station_name":"Cilejit","time":0,"transit":false,"distance":0,"is_transit":false,"station_id":"CJT"},{"transit":false,"line":6,"distance":7025,"station_name":"Parung Panjang","i_lat":-6.3441410000000005,"i_long":106.568863,"time":9,"station_id":"PRP","is_transit":false},{"i_long":106.617853,"i_lat":-6.329547,"is_transit":false,"time":8,"line":3,"distance":5968,"station_id":"CC","transit":false,"station_name":"Cicayur"},{"line":3,"station_id":"CSK","is_transit":false,"transit":false,"i_lat":-6.32484,"time":4,"distance":2519,"i_long":106.640411,"station_name":"Cisauk"},{"station_id":"SRP","i_long":106.66566,"line":6,"station_name":"Serpong","transit":false,"i_lat":-6.319871,"distance":1784,"is_transit":false,"time":4},{"transit":false,"i_lat":-6.314823,"is_transit":false,"distance":2413,"station_id":"RU","i_long":106.675475,"station_name":"Rawa Buntu","time":4,"line":6},{"station_name":"Sudimara","line":6,"transit":false,"i_long":106.712277,"station_id":"SDM","is_transit":false,"time":6,"i_lat":-6.296963,"distance":4566},{"is_transit":false,"i_long":106.728916,"transit":false,"i_lat":-6.288927,"time":4,"station_name":"Jurangmangu","line":6,"distance":1994,"station_id":"JMU"},{"time":3,"is_transit":false,"transit":false,"station_id":"PDJ","station_name":"Pondokranji","i_long":106.74273,"i_lat":-6.276362,"line":6,"distance":2179},{"station_name":"Kebayoran","i_long":106.780334,"transit":false,"distance":6218,"is_transit":false,"i_lat":-6.237242,"station_id":"KBY","line":6,"time":8},{"station_name":"Palmerah","distance":3737,"transit":false,"is_transit":false,"time":7,"i_lat":-6.207404,"i_long":106.79689,"line":6,"station_id":"PLM"},{"station_id":"THB","i_long":106.811091,"is_transit":true,"line":1,"i_lat":-6.185545,"distance":3191,"time":6,"transit":true,"station_name":"Tanah Abang"},{"distance":2029,"line":1,"is_transit":false,"station_id":"KAT","station_name":"Karet","i_lat":-6.20132,"transit":false,"i_long":106.816351,"time":5},{"station_id":"SUDB","distance":471,"i_long":106.819881,"line":1,"time":1,"transit":false,"station_name":"Sudirman Baru","is_transit":false,"i_lat":-6.201433},{"station_name":"Sudirman","is_transit":false,"transit":false,"station_id":"SUD","i_long":106.822649,"time":1,"distance":280,"i_lat":-6.202263,"line":1},{"distance":3186,"transit":true,"station_id":"MRI","i_lat":-6.209883,"i_long":106.84912,"is_transit":true,"station_name":"Manggarai","time":4,"line":2},{"distance":1590,"i_long":106.840169,"station_name":"Cikini","is_transit":false,"transit":false,"i_lat":-6.198556,"time":4,"station_id":"CKI","line":2},{"is_transit":false,"distance":1750,"station_id":"GDD","line":2,"time":3,"station_name":"Gondangdia","i_long":106.832183,"transit":false,"i_lat":-6.186295},{"is_transit":false,"line":2,"station_id":"JUA","station_name":"Juanda","distance":2015,"i_lat":-6.166716,"i_long":106.828284,"time":4,"transit":false},{"i_long":106.827103,"time":2,"station_name":"Sawah Besar","transit":false,"is_transit":false,"line":2,"i_lat":-6.160725,"distance":1149,"station_id":"SW"}],[{"line":3,"time":0,"station_id":"CJT","distance":0,"station_name":"Cilejit","transit":false,"i_long":106.508482,"i_lat":-6.354349,"is_transit":false},{"i_long":106.568863,"line":6,"distance":7025,"i_lat":-6.3441410000000005,"station_name":"Parung Panjang","is_transit":false,"time":9,"transit":false,"station_id":"PRP"},{"i_lat":-6.329547,"i_long":106.617853,"station_id":"CC","transit":false,"station_name":"Cicayur","is_transit":false,"line":3,"distance":5968,"time":8},{"is_transit":false,"station_id":"CSK","station_name":"Cisauk","line":3,"i_long":106.640411,"time":4,"transit":false,"i_lat":-6.32484,"distance":2519},{"i_lat":-6.319871,"time":4,"distance":1784,"station_name":"Serpong","is_transit":false,"transit":false,"i_long":106.66566,"station_id":"SRP","line":6},{"is_transit":false,"i_long":106.675475,"time":4,"transit":false,"station_name":"Rawa Buntu","i_lat":-6.314823,"distance":2413,"line":6,"station_id":"RU"},{"distance":4566,"transit":false,"time":6,"station_name":"Sudimara","line":6,"is_transit":false,"station_id":"SDM","i_lat":-6.296963,"i_long":106.712277},{"distance":1994,"time":4,"station_name":"Jurangmangu","is_transit":false,"station_id":"JMU","i_lat":-6.288927,"i_long":106.728916,"transit":false,"line":6},{"i_lat":-6.276362,"i_long":106.74273,"line":6,"station_name":"Pondokranji","time":3,"transit":false,"distance":2179,"is_transit":false,"station_id":"PDJ"},{"is_transit":false,"i_long":106.780334,"transit":false,"i_lat":-6.237242,"line":6,"distance":6218,"station_name":"Kebayoran","station_id":"KBY","time":8},{"i_long":106.79689,"i_lat":-6.207404,"line":6,"is_transit":false,"time":7,"station_name":"Palmerah","transit":false,"distance":3737,"station_id":"PLM"},{"station_name":"Tanah Abang","is_transit":true,"i_long":106.811091,"line":1,"distance":3191,"i_lat":-6.185545,"station_id":"THB","transit":true,"time":6},{"line":1,"is_transit":false,"distance":3632,"time":8,"station_id":"DU","transit":false,"i_lat":-6.155215,"i_long":106.800832,"station_name":"Duri"},{"time":4,"distance":1230,"station_id":"AK","is_transit":false,"i_lat":-6.144674,"transit":false,"i_long":106.79867,"line":1,"station_name":"Angke"},{"station_id":"KPB","time":9,"is_transit":true,"transit":true,"distance":4102,"i_lat":-6.132549,"i_long":106.826365,"line":4,"station_name":"Kampung Bandan"},{"station_name":"Rajawali","is_transit":false,"transit":false,"station_id":"RJW","i_long":106.836569,"line":11,"time":3,"distance":1444,"i_lat":-6.14505},{"station_id":"KMO","line":11,"i_long":106.839204,"is_transit":false,"distance":1901,"time":5,"station_name":"Kemayoran","transit":false,"i_lat":-6.161728},{"line":11,"transit":false,"station_name":"Pasar Senen","is_transit":false,"distance":1436,"station_id":"PSE","time":4,"i_lat":-6.174784,"i_long":106.84368},{"transit":false,"station_id":"GST","line":11,"distance":1567,"is_transit":false,"i_long":106.850107,"time":8,"station_name":"Gang Sentiong","i_lat":-6.185975},{"line":11,"station_id":"KMT","transit":false,"is_transit":false,"i_long":106.855437,"distance":973,"time":1,"station_name":"Kramat","i_lat":-6.193792},{"time":2,"distance":1829,"transit":false,"is_transit":false,"i_lat":-6.209188,"station_name":"Pondok Jati","line":11,"i_long":106.861737,"station_id":"POK"},{"time":9,"i_lat":-6.215091,"line":1,"station_id":"JNG","i_long":106.86807400000001,"station_name":"Jatinegara","is_transit":true,"distance":1236,"transit":true},{"transit":false,"time":2,"i_lat":-6.212485,"station_name":"Matraman","line":1,"station_id":"MTR","distance":1377,"is_transit":false,"i_long":106.858896},{"station_name":"Manggarai","station_id":"MRI","time":2,"line":2,"i_long":106.84912,"distance":1275,"is_transit":true,"transit":true,"i_lat":-6.209883},{"transit":false,"i_long":106.840169,"station_id":"CKI","is_transit":false,"i_lat":-6.198556,"line":2,"distance":1590,"station_name":"Cikini","time":4},{"i_long":106.832183,"i_lat":-6.186295,"station_id":"GDD","line":2,"time":3,"distance":1750,"is_transit":false,"transit":false,"station_name":"Gondangdia"},{"line":2,"i_lat":-6.166716,"time":4,"transit":false,"i_long":106.828284,"station_name":"Juanda","is_transit":false,"station_id":"JUA","distance":2015},{"line":2,"i_long":106.827103,"distance":1149,"station_name":"Sawah Besar","is_transit":false,"i_lat":-6.160725,"time":2,"transit":false,"station_id":"SW"}],[{"i_long":106.508482,"distance":0,"is_transit":false,"transit":false,"line":3,"station_name":"Cilejit","station_id":"CJT","time":0,"i_lat":-6.354349},{"i_lat":-6.3441410000000005,"time":9,"transit":false,"is_transit":false,"station_id":"PRP","distance":7025,"station_name":"Parung Panjang","line":6,"i_long":106.568863},{"transit":false,"line":3,"distance":5968,"station_id":"CC","is_transit":false,"i_lat":-6.329547,"i_long":106.617853,"time":8,"station_name":"Cicayur"},{"station_name":"Cisauk","time":4,"distance":2519,"is_transit":false,"i_long":106.640411,"transit":false,"i_lat":-6.32484,"line":3,"station_id":"CSK"},{"station_name":"Serpong","is_transit":false,"station_id":"SRP","i_long":106.66566,"time":4,"transit":false,"distance":1784,"line":6,"i_lat":-6.319871},{"station_id":"RU","line":6,"time":4,"station_name":"Rawa Buntu","transit":false,"is_transit":false,"i_long":106.675475,"distance":2413,"i_lat":-6.314823},{"time":6,"station_id":"SDM","line":6,"i_lat":-6.296963,"is_transit":false,"transit":false,"distance":4566,"i_long":106.712277,"station_name":"Sudimara"},{"i_lat":-6.288927,"station_name":"Jurangmangu","line":6,"station_id":"JMU","transit":false,"i_long":106.728916,"distance":1994,"time":4,"is_transit":false},{"i_lat":-6.276362,"distance":2179,"line":6,"is_transit":false,"transit":false,"i_long":106.74273,"time":3,"station_id":"PDJ","station_name":"Pondokranji"},{"transit":false,"i_lat":-6.237242,"i_long":106.780334,"time":8,"line":6,"is_transit":false,"station_name":"Kebayoran","station_id":"KBY","distance":6218},{"station_name":"Palmerah","i_lat":-6.207404,"time":7,"is_transit":false,"transit":false,"i_long":106.79689,"distance":3737,"station_id":"PLM","line":6},{"time":6,"distance":3191,"station_id":"THB","is_transit":true,"i_lat":-6.185545,"line":1,"transit":true,"i_long":106.811091,"station_name":"Tanah Abang"},{"line":1,"station_id":"KAT","is_transit":false,"transit":false,"distance":2029,"time":5,"station_name":"Karet","i_lat":-6.20132,"i_long":106.816351},{"i_lat":-6.201433,"distance":471,"transit":false,"is_transit":false,"time":1,"station_id":"SUDB","i_long":106.819881,"station_name":"Sudirman Baru","line":1},{"i_lat":-6.202263,"is_transit":false,"station_id":"SUD","distance":280,"time":1,"transit":false,"line":1,"station_name":"Sudirman","i_long":106.822649},{"time":4,"distance":3186,"i_lat":-6.209883,"is_transit":false,"transit":false,"i_long":106.84912,"station_id":"MRI","station_name":"Manggarai","line":2},{"is_transit":false,"station_name":"Matraman","distance":1275,"time":2,"i_lat":-6.212485,"station_id":"MTR","i_long":106.858896,"line":1,"transit":false},{"distance":1377,"i_long":106.86807400000001,"station_name":"Jatinegara","transit":true,"line":1,"time":8,"is_transit":true,"i_lat":-6.215091,"station_id":"JNG"},{"station_name":"Pondok Jati","i_lat":-6.209188,"distance":1236,"line":11,"is_transit":false,"time":2,"i_long":106.861737,"transit":false,"station_id":"POK"},{"transit":false,"line":11,"distance":1829,"station_name":"Kramat","time":2,"i_lat":-6.193792,"station_id":"KMT","i_long":106.855437,"is_transit":false},{"is_transit":false,"line":11,"time":1,"station_id":"GST","station_name":"Gang Sentiong","distance":973,"i_lat":-6.185975,"i_long":106.850107,"transit":false},{"transit":false,"i_lat":-6.174784,"i_long":106.84368,"distance":1567,"station_id":"PSE","station_name":"Pasar Senen","is_transit":false,"time":8,"line":11},{"is_transit":false,"i_long":106.839204,"station_name":"Kemayoran","line":11,"distance":1436,"station_id":"KMO","transit":false,"time":4,"i_lat":-6.161728},{"station_name":"Rajawali","is_transit":false,"time":5,"station_id":"RJW","transit":false,"i_long":106.836569,"distance":1901,"i_lat":-6.14505,"line":11},{"station_name":"Kampung Bandan","i_lat":-6.132549,"i_long":106.826365,"station_id":"KPB","time":3,"is_transit":true,"transit":true,"distance":1444,"line":4},{"station_id":"JAKK","distance":1364,"time":3,"i_lat":-6.137569,"line":2,"transit":true,"is_transit":true,"station_name":"Jakarta Kota","i_long":106.812439},{"time":4,"i_long":106.820901,"distance":1264,"transit":false,"is_transit":false,"station_id":"JAY","i_lat":-6.141205,"station_name":"Jayakarta","line":2},{"i_lat":-6.149769,"time":2,"station_name":"Manggabesar","station_id":"MGB","is_transit":false,"distance":1080,"i_long":106.82482,"line":2,"transit":false},{"i_lat":-6.160725,"line":2,"station_id":"SW","i_long":106.827103,"is_transit":false,"station_name":"Sawah Besar","distance":906,"time":2,"transit":false}]]}