{"data":[[{"transit":false,"is_transit":false,"distance":0,"line":3,"time":0,"station_name":"Cilejit","station_id":"CJT","i_long":106.508482,"i_lat":-6.354349},{"station_name":"Parung Panjang","is_transit":false,"i_lat":-6.3441410000000005,"line":6,"i_long":106.568863,"transit":false,"distance":7025,"station_id":"PRP","time":9},{"transit":false,"station_name":"Cicayur","distance":5968,"station_id":"CC","i_long":106.617853,"i_lat":-6.329547,"time":8,"is_transit":false,"line":3},{"station_name":"Cisauk","line":3,"station_id":"CSK","i_lat":-6.32484,"i_long":106.640411,"distance":2519,"time":4,"is_transit":false,"transit":false},{"is_transit":false,"line":6,"station_id":"SRP","transit":false,"time":4,"distance":1784,"i_lat":-6.319871,"station_name":"Serpong","i_long":106.66566},{"transit":false,"is_transit":false,"station_name":"Rawa Buntu","i_lat":-6.314823,"i_long":106.675475,"distance":2413,"line":6,"time":4,"station_id":"RU"},{"time":6,"i_lat":-6.296963,"station_name":"Sudimara","i_long":106.712277,"is_transit":false,"distance":4566,"station_id":"SDM","line":6,"transit":false},{"line":6,"station_id":"JMU","i_long":106.728916,"station_name":"Jurangmangu","is_transit":false,"transit":false,"time":4,"distance":1994,"i_lat":-6.288927},{"i_lat":-6.276362,"time":3,"station_id":"PDJ","station_name":"Pondokranji","transit":false,"i_long":106.74273,"line":6,"distance":2179,"is_transit":false},{"station_name":"Kebayoran","transit":false,"i_lat":-6.237242,"line":6,"is_transit":false,"time":8,"i_long":106.780334,"distance":6218,"station_id":"KBY"},{"distance":3737,"i_long":106.79689,"transit":false,"station_name":"Palmerah","line":6,"is_transit":false,"i_lat":-6.207404,"station_id":"PLM","time":7},{"station_id":"THB","distance":3191,"is_transit":true,"transit":true,"time":6,"i_lat":-6.185545,"line":1,"station_name":"Tanah Abang","i_long":106.811091},{"distance":3632,"line":1,"i_lat":-6.155215,"i_long":106.800832,"time":8,"station_name":"Duri","station_id":"DU","transit":false,"is_transit":false},{"time":4,"line":1,"distance":1230,"is_transit":false,"transit":false,"i_long":106.79867,"station_name":"Angke","i_lat":-6.144674,"station_id":"AK"},{"distance":4102,"station_id":"KPB","i_long":106.826365,"line":4,"station_name":"Kampung Bandan","transit":true,"time":9,"i_lat":-6.132549,"is_transit":true},{"station_id":"RJW","station_name":"Rajawali","line":11,"transit":false,"i_long":106.836569,"is_transit":false,"time":3,"distance":1444,"i_lat":-6.14505},{"distance":1901,"time":5,"transit":false,"i_long":106.839204,"station_id":"KMO","station_name":"Kemayoran","line":11,"is_transit":false,"i_lat":-6.161728},{"station_name":"Pasar Senen","i_long":106.84368,"line":11,"time":4,"distance":1436,"station_id":"PSE","i_lat":-6.174784,"transit":false,"is_transit":false},{"is_transit":false,"time":8,"distance":1567,"station_id":"GST","i_lat":-6.185975,"line":11,"transit":false,"i_long":106.850107,"station_name":"Gang Sentiong"}],[{"i_lat":-6.354349,"line":3,"i_long":106.508482,"time":0,"is_transit":false,"station_name":"Cilejit","station_id":"CJT","transit":false,"distance":0},{"distance":7025,"station_id":"PRP","i_long":106.568863,"is_transit":false,"station_name":"Parung Panjang","i_lat":-6.3441410000000005,"line":6,"time":9,"transit":false},{"station_name":"Cicayur","distance":5968,"i_lat":-6.329547,"transit":false,"station_id":"CC","i_long":106.617853,"is_transit":false,"time":8,"line":3},{"i_lat":-6.32484,"is_transit":false,"station_name":"Cisauk","time":4,"station_id":"CSK","distance":2519,"i_long":106.640411,"line":3,"transit":false},{"station_name":"Serpong","is_transit":false,"time":4,"transit":false,"i_lat":-6.319871,"line":6,"i_long":106.66566,"distance":1784,"station_id":"SRP"},{"station_name":"Rawa Buntu","time":4,"i_lat":-6.314823,"station_id":"RU","line":6,"transit":false,"distance":2413,"i_long":106.675475,"is_transit":false},{"transit":false,"station_name":"Sudimara","distance":4566,"is_transit":false,"i_lat":-6.296963,"line":6,"i_long":106.712277,"time":6,"station_id":"SDM"},{"time":4,"station_name":"Jurangmangu","is_transit":false,"distance":1994,"line":6,"i_long":106.728916,"transit":false,"station_id":"JMU","i_lat":-6.288927},{"line":6,"i_lat":-6.276362,"is_transit":false,"distance":2179,"transit":false,"station_id":"PDJ","time":3,"station_name":"Pondokranji","i_long":106.74273},{"distance":6218,"i_lat":-6.237242,"i_long":106.780334,"station_name":"Kebayoran","time":8,"line":6,"is_transit":false,"station_id":"KBY","transit":false},{"is_transit":false,"station_id":"PLM","i_lat":-6.207404,"i_long":106.79689,"time":7,"distance":3737,"station_name":"Palmerah","transit":false,"line":6},{"is_transit":true,"station_name":"Tanah Abang","time":6,"i_lat":-6.185545,"i_long":106.811091,"distance":3191,"station_id":"THB","transit":true,"line":1},{"i_lat":-6.20132,"distance":2029,"station_name":"Karet","station_id":"KAT","is_transit":false,"transit":false,"time":5,"i_long":106.816351,"line":1},{"time":1,"i_long":106.819881,"station_name":"Sudirman Baru","transit":false,"distance":471,"is_transit":false,"station_id":"SUDB","i_lat":-6.201433,"line":1},{"station_id":"SUD","line":1,"station_name":"Sudirman","i_long":106.822649,"transit":false,"distance":280,"i_lat":-6.202263,"time":1,"is_transit":false},{"i_long":106.84912,"i_lat":-6.209883,"time":4,"line":2,"distance":3186,"transit":false,"station_id":"MRI","is_transit":false,"station_name":"Manggarai"},{"time":2,"line":1,"station_name":"Matraman","i_lat":-6.212485,"distance":1275,"is_transit":false,"station_id":"MTR","transit":false,"i_long":106.858896},{"i_long":106.86807400000001,"line":1,"transit":true,"is_transit":true,"distance":1377,"i_lat":-6.215091,"time":8,"station_name":"Jatinegara","station_id":"JNG"},{"station_id":"POK","distance":1236,"i_long":106.861737,"i_lat":-6.209188,"station_name":"Pondok Jati","line":11,"transit":false,"time":2,"is_transit":false},{"transit":false,"is_transit":false,"time":2,"line":11,"station_name":"Kramat","i_lat":-6.193792,"i_long":106.855437,"station_id":"KMT","distance":1829},{"is_transit":false,"i_lat":-6.185975,"i_long":106.850107,"station_name":"Gang Sentiong","distance":973,"time":1,"transit":false,"station_id":"GST","line":11}],[{"is_transit":false,"transit":false,"i_lat":-6.354349,"station_name":"Cilejit","station_id":"CJT","time":0,"distance":0,"i_long":106.508482,"line":3},{"is_transit":false,"distance":7025,"transit":false,"i_lat":-6.3441410000000005,"station_id":"PRP","line":6,"time":9,"i_long":106.568863,"station_name":"Parung Panjang"},{"station_id":"CC","i_long":106.617853,"time":8,"transit":false,"i_lat":-6.329547,"is_transit":false,"station_name":"Cicayur","distance":5968,"line":3},{"is_transit":false,"i_lat":-6.32484,"line":3,"station_id":"CSK","i_long":106.640411,"distance":2519,"time":4,"transit":false,"station_name":"Cisauk"},{"is_transit":false,"i_long":106.66566,"station_id":"SRP","transit":false,"i_lat":-6.319871,"station_name":"Serpong","line":6,"distance":1784,"time":4},{"is_transit":false,"distance":2413,"time":4,"i_long":106.675475,"station_id":"RU","i_lat":-6.314823,"transit":false,"station_name":"Rawa Buntu","line":6},{"station_id":"SDM","i_long":106.712277,"line":6,"is_transit":false,"station_name":"Sudimara","time":6,"transit":false,"distance":4566,"i_lat":-6.296963},{"is_transit":false,"line":6,"i_lat":-6.288927,"station_name":"Jurangmangu","time":4,"i_long":106.728916,"transit":false,"distance":1994,"station_id":"JMU"},{"station_name":"Pondokranji","station_id":"PDJ","distance":2179,"time":3,"i_lat":-6.276362,"transit":false,"is_transit":false,"i_long":106.74273,"line":6},{"is_transit":false,"transit":false,"distance":6218,"i_lat":-6.237242,"station_id":"KBY","time":8,"i_long":106.780334,"station_name":"Kebayoran","line":6},{"station_id":"PLM","distance":3737,"line":6,"transit":false,"station_name":"Palmerah","time":7,"is_transit":false,"i_long":106.79689,"i_lat":-6.207404},{"transit":true,"line":1,"i_lat":-6.185545,"station_id":"THB","distance":3191,"station_name":"Tanah Abang","i_long":106.811091,"is_transit":true,"time":6},{"transit":false,"time":8,"station_id":"DU","line":1,"i_long":106.800832,"distance":3632,"i_lat":-6.155215,"is_transit":false,"station_name":"Duri"},{"i_lat":-6.144674,"distance":1230,"line":1,"time":4,"station_id":"AK","station_name":"Angke","transit":false,"is_transit":false,"i_long":106.79867},{"station_name":"Kampung Bandan","i_lat":-6.132549,"i_long":106.826365,"distance":4102,"time":9,"transit":true,"line":4,"is_transit":true,"station_id":"KPB"},{"i_long":106.812439,"station_id":"JAKK","station_name":"Jakarta Kota","distance":1364,"i_lat":-6.137569,"time":3,"is_transit":true,"transit":true,"line":2},{"line":2,"i_lat":-6.141205,"time":4,"transit":false,"distance":1264,"is_transit":false,"station_name":"Jayakarta","station_id":"JAY","i_long":106.820901},{"station_name":"Manggabesar","time":2,"station_id":"MGB","transit":false,"distance":1080,"line":2,"i_lat":-6.149769,"i_long":106.82482,"is_transit":false},{"i_lat":-6.160725,"i_long":106.827103,"station_name":"Sawah Besar","station_id":"SW","line":2,"transit":false,"distance":906,"is_transit":false,"time":2},{"i_lat":-6.166716,"transit":false,"line":2,"station_name":"Juanda","time":2,"distance":1149,"station_id":"JUA","is_transit":false,"i_long":106.828284},{"distance":2015,"i_long":106.832183,"i_lat":-6.186295,"line":2,"time":4,"station_name":"Gondangdia","station_id":"GDD","is_transit":false,"transit":false},{"station_id":"CKI","transit":false,"line":2,"i_lat":-6.198556,"time":3,"i_long":106.840169,"distance":1750,"station_name":"Cikini","is_transit":false},{"i_lat":-6.209883,"station_id":"MRI","station_name":"Manggarai","is_transit":true,"transit":true,"distance":1590,"line":2,"i_long":106.84912,"time":4},{"distance":1275,"station_name":"Matraman","transit":false,"station_id":"MTR","is_transit":false,"i_lat":-6.212485,"i_long":106.858896,"line":1,"time":2},{"line":1,"station_name":"Jatinegara","is_transit":true,"transit":true,"time":8,"distance":1377,"i_long":106.86807400000001,"station_id":"JNG","i_lat":-6.215091},{"transit":false,"time":2,"i_lat":-6.209188,"i_long":106.861737,"line":11,"distance":1236,"is_transit":false,"station_id":"POK","station_name":"Pondok Jati"},{"i_lat":-6.193792,"station_name":"Kramat","station_id":"KMT","distance":1829,"i_long":106.855437,"line":11,"time":2,"transit":false,"is_transit":false},{"i_lat":-6.185975,"station_id":"GST","i_long":106.850107,"station_name":"Gang Sentiong","line":11,"is_transit":false,"time":1,"transit":false,"distance":973}],[{"is_transit":false,"i_long":106.508482,"line":3,"station_id":"CJT","i_lat":-6.354349,"distance":0,"time":0,"transit":false,"station_name":"Cilejit"},{"time":9,"i_long":106.568863,"distance":7025,"is_transit":false,"transit":false,"station_id":"PRP","line":6,"i_lat":-6.3441410000000005,"station_name":"Parung Panjang"},{"distance":5968,"i_lat":-6.329547,"i_long":106.617853,"time":8,"is_transit":false,"station_name":"Cicayur","transit":false,"line":3,"station_id":"CC"},{"i_lat":-6.32484,"time":4,"transit":false,"i_long":106.640411,"distance":2519,"line":3,"station_name":"Cisauk","station_id":"CSK","is_transit":false},{"i_long":106.66566,"line":6,"station_name":"Serpong","is_transit":false,"time":4,"transit":false,"station_id":"SRP","distance":1784,"i_lat":-6.319871},{"line":6,"i_long":106.675475,"station_name":"Rawa Buntu","transit":false,"i_lat":-6.314823,"station_id":"RU","time":4,"distance":2413,"is_transit":false},{"station_name":"Sudimara","i_long":106.712277,"distance":4566,"station_id":"SDM","line":6,"is_transit":false,"i_lat":-6.296963,"transit":false,"time":6},{"i_lat":-6.288927,"distance":1994,"station_id":"JMU","line":6,"station_name":"Jurangmangu","is_transit":false,"time":4,"i_long":106.728916,"transit":false},{"i_long":106.74273,"time":3,"station_id":"PDJ","transit":false,"distance":2179,"station_name":"Pondokranji","i_lat":-6.276362,"is_transit":false,"line":6},{"distance":6218,"station_name":"Kebayoran","i_lat":-6.237242,"station_id":"KBY","transit":false,"i_long":106.780334,"line":6,"time":8,"is_transit":false},{"i_long":106.79689,"station_name":"Palmerah","time":7,"distance":3737,"transit":false,"station_id":"PLM","is_transit":false,"i_lat":-6.207404,"line":6},{"is_transit":true,"transit":true,"i_lat":-6.185545,"time":6,"distance":3191,"station_id":"THB","i_long":106.811091,"station_name":"Tanah Abang","line":1},{"line":1,"transit":false,"station_name":"Karet","distance":2029,"station_id":"KAT","i_lat":-6.20132,"is_transit":false,"time":5,"i_long":106.816351},{"transit":false,"station_name":"Sudirman Baru","i_lat":-6.201433,"is_transit":false,"distance":471,"time":1,"station_id":"SUDB","line":1,"i_long":106.819881},{"distance":280,"station_name":"Sudirman","station_id":"SUD","transit":false,"i_long":106.822649,"is_transit":false,"i_lat":-6.202263,"line":1,"time":1},{"i_long":106.84912,"transit":true,"time":4,"is_transit":true,"line":2,"i_lat":-6.209883,"station_name":"Manggarai","station_id":"MRI","distance":3186},{"i_long":106.840169,"i_lat":-6.198556,"is_transit":false,"distance":1590,"station_name":"Cikini","transit":false,"station_id":"CKI","line":2,"time":4},{"is_transit":false,"time":3,"distance":1750,"i_lat":-6.186295,"transit":false,"station_name":"Gondangdia","station_id":"GDD","i_long":106.832183,"line":2},{"transit":false,"i_long":106.828284,"i_lat":-6.166716,"line":2,"is_transit":false,"distance":2015,"station_name":"Juanda","time":4,"station_id":"JUA"},{"distance":1149,"i_long":106.827103,"station_name":"Sawah Besar","line":2,"is_transit":false,"station_id":"SW","time":2,"transit":false,"i_lat":-6.160725},{"line":2,"time":2,"transit":false,"station_id":"MGB","distance":906,"station_name":"Manggabesar","i_lat":-6.149769,"i_long":106.82482,"is_transit":false},{"distance":1080,"is_transit":false,"station_name":"Jayakarta","line":2,"transit":false,"station_id":"JAY","i_lat":-6.141205,"time":2,"i_long":106.820901},{"station_id":"JAKK","transit":true,"is_transit":true,"station_name":"Jakarta Kota","i_lat":-6.137569,"line":2,"distance":1264,"i_long":106.812439,"time":4},{"transit":true,"line":4,"station_name":"Kampung Bandan","time":3,"i_lat":-6.132549,"is_transit":true,"station_id":"KPB","distance":1364,"i_long":106.826365},{"is_transit":false,"station_id":"RJW","time":3,"i_lat":-6.14505,"transit":false,"i_long":106.836569,"distance":1444,"line":11,"station_name":"Rajawali"},{"line":11,"i_lat":-6.161728,"distance":1901,"i_long":106.839204,"transit":false,"is_transit":false,"time":5,"station_name":"Kemayoran","station_id":"KMO"},{"line":11,"i_long":106.84368,"station_id":"PSE","station_name":"Pasar Senen","distance":1436,"is_transit":false,"i_lat":-6.174784,"transit":false,"time":4},{"is_transit":false,"station_name":"Gang Sentiong","time":8,"line":11,"transit":false,"i_lat":-6.185975,"i_long":106.850107,"distance":1567,"station_id":"GST"}]]}