{"data":[[{"station_name":"Cikini","line":2,"transit":false,"distance":0,"station_id":"CKI","is_transit":false,"i_lat":-6.198556,"i_long":106.840169,"time":0},{"station_name":"Manggarai","i_long":106.84912,"distance":1590,"station_id":"MRI","is_transit":true,"time":4,"transit":true,"i_lat":-6.209883,"line":2},{"transit":false,"distance":3186,"station_name":"Sudirman","i_lat":-6.202263,"station_id":"SUD","is_transit":false,"i_long":106.822649,"time":4,"line":1},{"transit":false,"time":1,"is_transit":false,"station_id":"SUDB","line":1,"i_long":106.819881,"station_name":"Sudirman Baru","i_lat":-6.201433,"distance":280},{"i_long":106.816351,"time":1,"distance":471,"line":1,"is_transit":false,"station_name":"Karet","station_id":"KAT","transit":false,"i_lat":-6.20132},{"is_transit":false,"distance":2029,"line":1,"transit":false,"station_id":"THB","station_name":"Tanah Abang","time":5,"i_long":106.811091,"i_lat":-6.185545},{"i_lat":-6.155215,"is_transit":true,"station_name":"Duri","time":8,"line":1,"distance":3632,"i_long":106.800832,"transit":true,"station_id":"DU"},{"time":3,"distance":1700,"station_id":"GGL","transit":false,"station_name":"Grogol","line":5,"i_long":106.788277,"is_transit":false,"i_lat":-6.162021},{"time":2,"distance":2036,"station_name":"Pesing","is_transit":false,"i_long":106.771379,"station_id":"PSG","line":5,"transit":false,"i_lat":-6.161433},{"line":5,"station_id":"TKO","distance":1614,"transit":false,"time":2,"station_name":"Taman Kota","i_lat":-6.1587309999999995,"is_transit":false,"i_long":106.756522},{"transit":false,"time":2,"i_long":106.737035,"station_id":"BOI","is_transit":false,"i_lat":-6.159876,"distance":2334,"station_name":"Bojongindah","line":5},{"i_long":106.723064,"i_lat":-6.162758,"distance":1152,"time":4,"line":5,"station_id":"RW","station_name":"Rawa Buaya","is_transit":false,"transit":false},{"station_id":"KDS","line":5,"time":3,"transit":false,"station_name":"Kalideres","i_long":106.701612,"is_transit":false,"i_lat":-6.166068,"distance":2504},{"i_lat":-6.169933,"i_long":106.679458,"time":3,"line":5,"station_name":"Poris","station_id":"PI","is_transit":false,"transit":false,"distance":2548},{"i_lat":-6.171811,"transit":false,"is_transit":false,"station_id":"BPR","distance":1834,"station_name":"Batuceper","i_long":106.665036,"time":3,"line":5}],[{"station_name":"Cikini","transit":false,"i_lat":-6.198556,"is_transit":false,"i_long":106.840169,"line":2,"time":0,"station_id":"CKI","distance":0},{"is_transit":false,"i_lat":-6.186295,"i_long":106.832183,"transit":false,"line":2,"time":3,"station_name":"Gondangdia","distance":1750,"station_id":"GDD"},{"distance":2015,"is_transit":false,"transit":false,"i_long":106.828284,"station_name":"Juanda","i_lat":-6.166716,"time":4,"line":2,"station_id":"JUA"},{"distance":1149,"i_lat":-6.160725,"transit":false,"time":2,"is_transit":false,"line":2,"station_name":"Sawah Besar","i_long":106.827103,"station_id":"SW"},{"transit":false,"station_name":"Manggabesar","station_id":"MGB","i_lat":-6.149769,"i_long":106.82482,"line":2,"is_transit":false,"time":2,"distance":906},{"line":2,"distance":1080,"i_lat":-6.141205,"transit":false,"time":2,"station_id":"JAY","is_transit":false,"station_name":"Jayakarta","i_long":106.820901},{"distance":1264,"line":2,"station_id":"JAKK","is_transit":true,"i_long":106.812439,"i_lat":-6.137569,"transit":true,"station_name":"Jakarta Kota","time":4},{"distance":1364,"is_transit":true,"station_name":"Kampung Bandan","transit":true,"time":3,"station_id":"KPB","i_lat":-6.132549,"i_long":106.826365,"line":4},{"station_name":"Angke","is_transit":false,"station_id":"AK","i_long":106.79867,"time":9,"i_lat":-6.144674,"distance":4102,"transit":false,"line":1},{"station_name":"Duri","time":4,"i_long":106.800832,"distance":1230,"i_lat":-6.155215,"line":1,"is_transit":true,"transit":true,"station_id":"DU"},{"is_transit":false,"line":5,"distance":1700,"station_name":"Grogol","i_lat":-6.162021,"station_id":"GGL","i_long":106.788277,"transit":false,"time":3},{"is_transit":false,"i_lat":-6.161433,"transit":false,"distance":2036,"station_name":"Pesing","line":5,"station_id":"PSG","time":2,"i_long":106.771379},{"line":5,"i_long":106.756522,"time":2,"station_id":"TKO","is_transit":false,"distance":1614,"station_name":"Taman Kota","i_lat":-6.1587309999999995,"transit":false},{"line":5,"transit":false,"time":2,"i_lat":-6.159876,"station_id":"BOI","distance":2334,"i_long":106.737035,"is_transit":false,"station_name":"Bojongindah"},{"station_id":"RW","transit":false,"distance":1152,"station_name":"Rawa Buaya","i_lat":-6.162758,"i_long":106.723064,"time":4,"line":5,"is_transit":false},{"i_long":106.701612,"time":3,"distance":2504,"station_name":"Kalideres","is_transit":false,"i_lat":-6.166068,"line":5,"transit":false,"station_id":"KDS"},{"station_name":"Poris","distance":2548,"station_id":"PI","is_transit":false,"line":5,"time":3,"i_lat":-6.169933,"transit":false,"i_long":106.679458},{"i_lat":-6.171811,"line":5,"time":3,"i_long":106.665036,"station_name":"Batuceper","distance":1834,"station_id":"BPR","transit":false,"is_transit":false}],[{"station_id":"CKI","line":2,"time":0,"transit":false,"distance":0,"i_long":106.840169,"station_name":"Cikini","i_lat":-6.198556,"is_transit":false},{"i_lat":-6.209883,"station_id":"MRI","i_long":106.84912,"is_transit":true,"station_name":"Manggarai","transit":true,"distance":1590,"line":2,"time":4},{"distance":1275,"i_long":106.858896,"transit":false,"line":1,"time":2,"station_name":"Matraman","station_id":"MTR","is_transit":false,"i_lat":-6.212485},{"i_long":106.86807400000001,"time":8,"transit":true,"i_lat":-6.215091,"line":1,"station_id":"JNG","is_transit":true,"distance":1377,"station_name":"Jatinegara"},{"distance":1236,"transit":false,"station_name":"Pondok Jati","is_transit":false,"line":11,"station_id":"POK","time":2,"i_lat":-6.209188,"i_long":106.861737},{"line":11,"i_lat":-6.193792,"is_transit":false,"i_long":106.855437,"time":2,"distance":1829,"station_name":"Kramat","station_id":"KMT","transit":false},{"distance":973,"i_long":106.850107,"line":11,"station_id":"GST","station_name":"Gang Sentiong","transit":false,"i_lat":-6.185975,"time":1,"is_transit":false},{"is_transit":false,"i_lat":-6.174784,"time":8,"line":11,"station_id":"PSE","i_long":106.84368,"distance":1567,"station_name":"Pasar Senen","transit":false},{"i_lat":-6.161728,"transit":false,"station_id":"KMO","station_name":"Kemayoran","distance":1436,"i_long":106.839204,"time":4,"line":11,"is_transit":false},{"station_name":"Rajawali","distance":1901,"is_transit":false,"i_lat":-6.14505,"line":11,"time":5,"i_long":106.836569,"station_id":"RJW","transit":false},{"station_name":"Kampung Bandan","station_id":"KPB","is_transit":true,"transit":true,"time":3,"distance":1444,"i_lat":-6.132549,"i_long":106.826365,"line":4},{"time":9,"transit":false,"line":1,"is_transit":false,"i_lat":-6.144674,"i_long":106.79867,"station_id":"AK","distance":4102,"station_name":"Angke"},{"transit":true,"is_transit":true,"station_name":"Duri","i_long":106.800832,"time":4,"distance":1230,"line":1,"i_lat":-6.155215,"station_id":"DU"},{"time":3,"line":5,"station_id":"GGL","i_lat":-6.162021,"station_name":"Grogol","transit":false,"distance":1700,"is_transit":false,"i_long":106.788277},{"is_transit":false,"station_id":"PSG","transit":false,"line":5,"distance":2036,"time":2,"station_name":"Pesing","i_lat":-6.161433,"i_long":106.771379},{"i_lat":-6.1587309999999995,"time":2,"transit":false,"station_name":"Taman Kota","line":5,"distance":1614,"station_id":"TKO","is_transit":false,"i_long":106.756522},{"time":2,"is_transit":false,"station_id":"BOI","transit":false,"distance":2334,"station_name":"Bojongindah","i_lat":-6.159876,"i_long":106.737035,"line":5},{"station_name":"Rawa Buaya","is_transit":false,"time":4,"station_id":"RW","i_lat":-6.162758,"i_long":106.723064,"distance":1152,"line":5,"transit":false},{"station_name":"Kalideres","distance":2504,"i_lat":-6.166068,"transit":false,"station_id":"KDS","time":3,"is_transit":false,"i_long":106.701612,"line":5},{"is_transit":false,"station_id":"PI","i_lat":-6.169933,"line":5,"distance":2548,"time":3,"transit":false,"station_name":"Poris","i_long":106.679458},{"station_id":"BPR","i_long":106.665036,"distance":1834,"transit":false,"i_lat":-6.171811,"station_name":"Batuceper","line":5,"time":3,"is_transit":false}],[{"is_transit":false,"station_id":"CKI","i_long":106.840169,"station_name":"Cikini","transit":false,"line":2,"i_lat":-6.198556,"time":0,"distance":0},{"transit":false,"station_name":"Gondangdia","station_id":"GDD","distance":1750,"time":3,"is_transit":false,"i_long":106.832183,"line":2,"i_lat":-6.186295},{"i_long":106.828284,"line":2,"time":4,"is_transit":false,"transit":false,"station_id":"JUA","distance":2015,"i_lat":-6.166716,"station_name":"Juanda"},{"is_transit":false,"station_id":"SW","time":2,"distance":1149,"i_lat":-6.160725,"i_long":106.827103,"line":2,"station_name":"Sawah Besar","transit":false},{"transit":false,"time":2,"distance":906,"station_id":"MGB","is_transit":false,"i_lat":-6.149769,"i_long":106.82482,"line":2,"station_name":"Manggabesar"},{"distance":1080,"station_name":"Jayakarta","is_transit":false,"i_lat":-6.141205,"i_long":106.820901,"station_id":"JAY","transit":false,"time":2,"line":2},{"time":4,"station_name":"Jakarta Kota","station_id":"JAKK","is_transit":true,"transit":true,"distance":1264,"line":2,"i_long":106.812439,"i_lat":-6.137569},{"i_lat":-6.132549,"time":3,"station_id":"KPB","i_long":106.826365,"distance":1364,"is_transit":true,"station_name":"Kampung Bandan","line":4,"transit":true},{"distance":1444,"i_lat":-6.14505,"station_name":"Rajawali","is_transit":false,"transit":false,"i_long":106.836569,"time":3,"station_id":"RJW","line":11},{"station_name":"Kemayoran","i_long":106.839204,"is_transit":false,"i_lat":-6.161728,"time":5,"distance":1901,"line":11,"station_id":"KMO","transit":false},{"is_transit":false,"i_long":106.84368,"time":4,"station_id":"PSE","station_name":"Pasar Senen","i_lat":-6.174784,"transit":false,"distance":1436,"line":11},{"time":8,"transit":false,"line":11,"i_lat":-6.185975,"is_transit":false,"i_long":106.850107,"station_id":"GST","distance":1567,"station_name":"Gang Sentiong"},{"line":11,"i_long":106.855437,"time":1,"station_id":"KMT","transit":false,"distance":973,"is_transit":false,"i_lat":-6.193792,"station_name":"Kramat"},{"distance":1829,"line":11,"i_long":106.861737,"transit":false,"station_name":"Pondok Jati","time":2,"is_transit":false,"i_lat":-6.209188,"station_id":"POK"},{"i_long":106.86807400000001,"time":9,"distance":1236,"station_name":"Jatinegara","is_transit":true,"station_id":"JNG","i_lat":-6.215091,"line":1,"transit":true},{"i_lat":-6.212485,"is_transit":false,"time":2,"station_name":"Matraman","i_long":106.858896,"transit":false,"distance":1377,"station_id":"MTR","line":1},{"is_transit":false,"i_long":106.84912,"line":2,"distance":1275,"station_id":"MRI","transit":false,"time":2,"i_lat":-6.209883,"station_name":"Manggarai"},{"distance":3186,"i_lat":-6.202263,"line":1,"i_long":106.822649,"station_id":"SUD","station_name":"Sudirman","is_transit":false,"time":4,"transit":false},{"station_id":"SUDB","i_long":106.819881,"i_lat":-6.201433,"time":1,"transit":false,"is_transit":false,"line":1,"station_name":"Sudirman Baru","distance":280},{"transit":false,"line":1,"i_lat":-6.20132,"i_long":106.816351,"is_transit":false,"distance":471,"station_id":"KAT","station_name":"Karet","time":1},{"line":1,"transit":false,"station_name":"Tanah Abang","i_lat":-6.185545,"i_long":106.811091,"time":5,"distance":2029,"is_transit":false,"station_id":"THB"},{"transit":true,"station_id":"DU","distance":3632,"is_transit":true,"i_lat":-6.155215,"line":1,"i_long":106.800832,"time":8,"station_name":"Duri"},{"distance":1700,"i_lat":-6.162021,"i_long":106.788277,"station_id":"GGL","station_name":"Grogol","transit":false,"time":3,"is_transit":false,"line":5},{"line":5,"station_id":"PSG","time":2,"distance":2036,"transit":false,"station_name":"Pesing","i_lat":-6.161433,"is_transit":false,"i_long":106.771379},{"station_id":"TKO","transit":false,"i_lat":-6.1587309999999995,"time":2,"i_long":106.756522,"line":5,"distance":1614,"station_name":"Taman Kota","is_transit":false},{"transit":false,"station_id":"BOI","line":5,"station_name":"Bojongindah","time":2,"distance":2334,"is_transit":false,"i_lat":-6.159876,"i_long":106.737035},{"i_lat":-6.162758,"i_long":106.723064,"station_id":"RW","distance":1152,"line":5,"is_transit":false,"time":4,"transit":false,"station_name":"Rawa Buaya"},{"line":5,"transit":false,"station_id":"KDS","station_name":"Kalideres","time":3,"distance":2504,"is_transit":false,"i_long":106.701612,"i_lat":-6.166068},{"transit":false,"i_lat":-6.169933,"line":5,"station_id":"PI","time":3,"i_long":106.679458,"distance":2548,"station_name":"Poris","is_transit":false},{"time":3,"transit":false,"distance":1834,"station_name":"Batuceper","i_lat":-6.171811,"i_long":106.665036,"is_transit":false,"line":5,"station_id":"BPR"}]]}