{"data":[[{"transit":false,"station_name":"Cikini","i_long":106.840169,"distance":0,"i_lat":-6.198556,"station_id":"CKI","is_transit":false,"time":0,"line":0},{"station_id":"MRI","station_name":"Manggarai","is_transit":true,"i_lat":-6.209883,"distance":1590,"time":4,"transit":true,"i_long":106.84912,"line":0},{"time":4,"distance":3186,"transit":false,"station_id":"SUD","station_name":"Sudirman","is_transit":false,"i_long":106.822649,"line":1,"i_lat":-6.202263},{"station_id":"SUDB","station_name":"Sudirman Baru","is_transit":false,"time":1,"distance":280,"transit":false,"i_lat":-6.201433,"i_long":106.819881,"line":1},{"is_transit":false,"line":1,"station_name":"Karet","distance":471,"time":1,"station_id":"KAT","transit":false,"i_long":106.816351,"i_lat":-6.20132},{"line":1,"i_long":106.811091,"station_id":"THB","time":5,"transit":true,"distance":2029,"is_transit":true,"station_name":"Tanah Abang","i_lat":-6.185545},{"line":6,"transit":false,"is_transit":false,"i_lat":-6.207404,"station_id":"PLM","station_name":"Palmerah","distance":3191,"i_long":106.79689,"time":6},{"station_name":"Kebayoran","i_long":106.780334,"station_id":"KBY","transit":false,"distance":3737,"i_lat":-6.237242,"time":7,"is_transit":false,"line":6},{"distance":6218,"time":8,"i_lat":-6.276362,"station_name":"Pondokranji","station_id":"PDJ","transit":false,"line":6,"i_long":106.74273,"is_transit":false},{"station_name":"Jurangmangu","time":3,"transit":false,"i_lat":-6.288927,"line":6,"station_id":"JMU","is_transit":false,"distance":2179,"i_long":106.728916},{"transit":false,"i_long":106.712277,"line":6,"i_lat":-6.296963,"station_id":"SDM","distance":1994,"time":4,"is_transit":false,"station_name":"Sudimara"}],[{"time":0,"i_lat":-6.198556,"station_id":"CKI","is_transit":false,"station_name":"Cikini","i_long":106.840169,"transit":false,"distance":0,"line":0},{"is_transit":false,"transit":false,"station_name":"Gondangdia","i_long":106.832183,"station_id":"GDD","line":2,"i_lat":-6.186295,"time":3,"distance":1750},{"i_lat":-6.166716,"distance":2015,"station_id":"JUA","i_long":106.828284,"is_transit":false,"line":2,"transit":false,"station_name":"Juanda","time":4},{"time":2,"station_name":"Sawah Besar","i_long":106.827103,"distance":1149,"station_id":"SW","transit":false,"i_lat":-6.160725,"is_transit":false,"line":2},{"is_transit":false,"station_name":"Manggabesar","station_id":"MGB","transit":false,"distance":906,"i_lat":-6.149769,"line":2,"i_long":106.82482,"time":2},{"is_transit":false,"station_id":"JAY","line":7,"distance":1080,"i_long":106.820901,"time":2,"transit":false,"station_name":"Jayakarta","i_lat":-6.141205},{"i_long":106.812439,"distance":1264,"time":4,"transit":true,"station_id":"JAKK","line":0,"is_transit":true,"station_name":"Jakarta Kota","i_lat":-6.137569},{"line":0,"i_lat":-6.132549,"station_name":"Kampung Bandan","station_id":"KPB","distance":1364,"time":3,"transit":false,"is_transit":true,"i_long":106.826365},{"transit":false,"station_name":"Angke","is_transit":false,"station_id":"AK","i_long":106.79867,"time":9,"line":0,"distance":4102,"i_lat":-6.144674},{"i_long":106.800832,"station_id":"DU","i_lat":-6.155215,"line":1,"is_transit":true,"station_name":"Duri","time":4,"transit":true,"distance":1230},{"is_transit":true,"station_name":"Tanah Abang","line":1,"distance":3632,"i_lat":-6.185545,"time":8,"station_id":"THB","transit":true,"i_long":106.811091},{"transit":false,"station_name":"Palmerah","time":6,"is_transit":false,"distance":3191,"line":6,"station_id":"PLM","i_lat":-6.207404,"i_long":106.79689},{"station_name":"Kebayoran","station_id":"KBY","i_long":106.780334,"i_lat":-6.237242,"distance":3737,"line":6,"is_transit":false,"time":7,"transit":false},{"is_transit":false,"station_id":"PDJ","time":8,"station_name":"Pondokranji","i_long":106.74273,"transit":false,"i_lat":-6.276362,"distance":6218,"line":6},{"distance":2179,"i_lat":-6.288927,"i_long":106.728916,"transit":false,"station_id":"JMU","station_name":"Jurangmangu","time":3,"is_transit":false,"line":6},{"i_long":106.712277,"is_transit":false,"station_id":"SDM","time":4,"station_name":"Sudimara","distance":1994,"transit":false,"line":6,"i_lat":-6.296963}],[{"is_transit":false,"station_id":"CKI","station_name":"Cikini","transit":false,"distance":0,"line":0,"i_long":106.840169,"i_lat":-6.198556,"time":0},{"i_lat":-6.209883,"station_id":"MRI","transit":true,"distance":1590,"i_long":106.84912,"is_transit":true,"station_name":"Manggarai","line":0,"time":4},{"station_id":"MTR","transit":false,"station_name":"Matraman","i_long":106.858896,"distance":1275,"time":2,"is_transit":false,"i_lat":-6.212485,"line":1},{"i_long":106.86807400000001,"station_id":"JNG","is_transit":true,"transit":true,"station_name":"Jatinegara","distance":1377,"i_lat":-6.215091,"line":0,"time":8},{"time":2,"i_long":106.861737,"i_lat":-6.209188,"is_transit":false,"line":11,"station_id":"POK","station_name":"Pondok Jati","transit":false,"distance":1236},{"station_name":"Kramat","i_lat":-6.193792,"time":2,"is_transit":false,"distance":1829,"i_long":106.855437,"transit":false,"station_id":"KMT","line":11},{"transit":false,"distance":973,"i_long":106.850107,"station_id":"GST","i_lat":-6.185975,"line":11,"station_name":"Gang Sentiong","is_transit":false,"time":1},{"i_lat":-6.174784,"is_transit":false,"line":11,"time":8,"station_id":"PSE","station_name":"Pasar Senen","transit":false,"i_long":106.84368,"distance":1567},{"transit":false,"line":11,"i_lat":-6.161728,"time":4,"distance":1436,"i_long":106.839204,"station_id":"KMO","station_name":"Kemayoran","is_transit":false},{"time":5,"station_id":"RJW","is_transit":false,"distance":1901,"station_name":"Rajawali","i_lat":-6.14505,"transit":false,"i_long":106.836569,"line":11},{"line":0,"time":3,"station_id":"KPB","transit":true,"is_transit":true,"i_lat":-6.132549,"distance":1444,"i_long":106.826365,"station_name":"Kampung Bandan"},{"line":0,"distance":4102,"i_lat":-6.144674,"station_id":"AK","station_name":"Angke","i_long":106.79867,"is_transit":false,"time":9,"transit":false},{"i_long":106.800832,"station_name":"Duri","time":4,"is_transit":true,"line":1,"transit":true,"distance":1230,"i_lat":-6.155215,"station_id":"DU"},{"line":1,"transit":true,"distance":3632,"i_long":106.811091,"i_lat":-6.185545,"is_transit":true,"station_name":"Tanah Abang","time":8,"station_id":"THB"},{"is_transit":false,"station_id":"PLM","i_lat":-6.207404,"line":6,"time":6,"distance":3191,"transit":false,"i_long":106.79689,"station_name":"Palmerah"},{"transit":false,"distance":3737,"station_id":"KBY","i_lat":-6.237242,"i_long":106.780334,"station_name":"Kebayoran","is_transit":false,"line":6,"time":7},{"distance":6218,"transit":false,"station_id":"PDJ","time":8,"i_lat":-6.276362,"i_long":106.74273,"line":6,"station_name":"Pondokranji","is_transit":false},{"i_long":106.728916,"station_name":"Jurangmangu","i_lat":-6.288927,"distance":2179,"transit":false,"station_id":"JMU","time":3,"line":6,"is_transit":false},{"transit":false,"i_long":106.712277,"line":6,"station_id":"SDM","station_name":"Sudimara","time":4,"i_lat":-6.296963,"is_transit":false,"distance":1994}],[{"station_name":"Cikini","time":0,"i_long":106.840169,"transit":false,"line":0,"distance":0,"station_id":"CKI","i_lat":-6.198556,"is_transit":false},{"i_long":106.832183,"transit":false,"station_name":"Gondangdia","time":3,"line":2,"station_id":"GDD","is_transit":false,"distance":1750,"i_lat":-6.186295},{"time":4,"is_transit":false,"transit":false,"station_id":"JUA","distance":2015,"i_lat":-6.166716,"i_long":106.828284,"line":2,"station_name":"Juanda"},{"is_transit":false,"station_name":"Sawah Besar","transit":false,"line":2,"station_id":"SW","time":2,"i_long":106.827103,"distance":1149,"i_lat":-6.160725},{"transit":false,"station_name":"Manggabesar","i_lat":-6.149769,"distance":906,"station_id":"MGB","i_long":106.82482,"time":2,"is_transit":false,"line":2},{"line":7,"is_transit":false,"transit":false,"station_id":"JAY","i_long":106.820901,"station_name":"Jayakarta","i_lat":-6.141205,"time":2,"distance":1080},{"distance":1264,"i_long":106.812439,"time":4,"transit":true,"station_name":"Jakarta Kota","line":0,"station_id":"JAKK","is_transit":true,"i_lat":-6.137569},{"station_id":"KPB","i_long":106.826365,"time":3,"distance":1364,"is_transit":true,"i_lat":-6.132549,"station_name":"Kampung Bandan","line":0,"transit":true},{"i_long":106.836569,"i_lat":-6.14505,"is_transit":false,"station_id":"RJW","transit":false,"line":11,"time":3,"station_name":"Rajawali","distance":1444},{"line":11,"is_transit":false,"i_lat":-6.161728,"transit":false,"station_id":"KMO","distance":1901,"i_long":106.839204,"time":5,"station_name":"Kemayoran"},{"i_lat":-6.174784,"i_long":106.84368,"station_id":"PSE","time":4,"distance":1436,"station_name":"Pasar Senen","transit":false,"line":11,"is_transit":false},{"line":11,"station_id":"GST","i_long":106.850107,"is_transit":false,"transit":false,"time":8,"i_lat":-6.185975,"distance":1567,"station_name":"Gang Sentiong"},{"line":11,"station_id":"KMT","time":1,"i_long":106.855437,"is_transit":false,"distance":973,"transit":false,"i_lat":-6.193792,"station_name":"Kramat"},{"distance":1829,"line":11,"is_transit":false,"time":2,"station_name":"Pondok Jati","station_id":"POK","i_long":106.861737,"i_lat":-6.209188,"transit":false},{"station_name":"Jatinegara","i_long":106.86807400000001,"i_lat":-6.215091,"is_transit":true,"time":9,"line":0,"transit":true,"station_id":"JNG","distance":1236},{"station_name":"Matraman","transit":false,"i_lat":-6.212485,"i_long":106.858896,"time":2,"is_transit":false,"line":1,"distance":1377,"station_id":"MTR"},{"line":0,"station_id":"MRI","time":2,"is_transit":true,"distance":1275,"station_name":"Manggarai","transit":false,"i_lat":-6.209883,"i_long":106.84912},{"station_id":"SUD","is_transit":false,"station_name":"Sudirman","transit":false,"i_long":106.822649,"i_lat":-6.202263,"line":1,"time":4,"distance":3186},{"line":1,"transit":false,"station_name":"Sudirman Baru","i_lat":-6.201433,"station_id":"SUDB","i_long":106.819881,"time":1,"is_transit":false,"distance":280},{"line":1,"distance":471,"time":1,"station_id":"KAT","is_transit":false,"station_name":"Karet","i_lat":-6.20132,"transit":false,"i_long":106.816351},{"i_long":106.811091,"line":1,"time":5,"i_lat":-6.185545,"transit":true,"distance":2029,"is_transit":true,"station_name":"Tanah Abang","station_id":"THB"},{"time":6,"station_id":"PLM","transit":false,"i_lat":-6.207404,"distance":3191,"is_transit":false,"i_long":106.79689,"station_name":"Palmerah","line":6},{"station_name":"Kebayoran","line":6,"i_lat":-6.237242,"transit":false,"station_id":"KBY","is_transit":false,"time":7,"i_long":106.780334,"distance":3737},{"time":8,"station_id":"PDJ","line":6,"distance":6218,"is_transit":false,"i_lat":-6.276362,"i_long":106.74273,"station_name":"Pondokranji","transit":false},{"is_transit":false,"i_lat":-6.288927,"line":6,"time":3,"station_name":"Jurangmangu","transit":false,"distance":2179,"i_long":106.728916,"station_id":"JMU"},{"time":4,"station_id":"SDM","transit":false,"distance":1994,"is_transit":false,"station_name":"Sudimara","i_lat":-6.296963,"line":6,"i_long":106.712277}]]}