{"data":[[{"time":0,"station_id":"CKI","station_name":"Cikini","distance":0,"transit":false,"line":2,"is_transit":false,"i_lat":-6.198556,"i_long":106.840169},{"station_name":"Manggarai","i_lat":-6.209883,"station_id":"MRI","time":4,"line":2,"transit":true,"distance":1590,"is_transit":true,"i_long":106.84912},{"transit":false,"station_name":"Sudirman","distance":3186,"is_transit":false,"station_id":"SUD","i_long":106.822649,"line":1,"time":4,"i_lat":-6.202263},{"distance":280,"i_lat":-6.201433,"i_long":106.819881,"is_transit":false,"transit":false,"line":1,"station_id":"SUDB","time":1,"station_name":"Sudirman Baru"},{"i_long":106.816351,"station_id":"KAT","transit":false,"is_transit":false,"line":1,"station_name":"Karet","i_lat":-6.20132,"distance":471,"time":1},{"line":1,"is_transit":true,"i_lat":-6.185545,"time":5,"station_id":"THB","station_name":"Tanah Abang","distance":2029,"i_long":106.811091,"transit":true},{"distance":3191,"i_lat":-6.207404,"station_name":"Palmerah","station_id":"PLM","time":6,"transit":false,"is_transit":false,"i_long":106.79689,"line":6},{"distance":3737,"line":6,"time":7,"i_long":106.780334,"transit":false,"station_name":"Kebayoran","i_lat":-6.237242,"station_id":"KBY","is_transit":false},{"i_lat":-6.276362,"line":6,"station_id":"PDJ","station_name":"Pondokranji","i_long":106.74273,"transit":false,"time":8,"distance":6218,"is_transit":false},{"station_name":"Jurangmangu","distance":2179,"transit":false,"i_lat":-6.288927,"time":3,"i_long":106.728916,"is_transit":false,"station_id":"JMU","line":6},{"distance":1994,"is_transit":false,"i_lat":-6.296963,"station_id":"SDM","transit":false,"station_name":"Sudimara","time":4,"line":6,"i_long":106.712277},{"distance":4566,"is_transit":false,"station_id":"RU","transit":false,"i_long":106.675475,"time":6,"station_name":"Rawa Buntu","line":6,"i_lat":-6.314823},{"station_id":"SRP","distance":2413,"i_lat":-6.319871,"transit":false,"station_name":"Serpong","is_transit":false,"time":4,"line":6,"i_long":106.66566},{"i_lat":-6.32484,"distance":1784,"line":3,"transit":false,"station_name":"Cisauk","time":4,"station_id":"CSK","i_long":106.640411,"is_transit":false},{"time":4,"transit":false,"line":3,"station_id":"CC","station_name":"Cicayur","i_long":106.617853,"i_lat":-6.329547,"is_transit":false,"distance":2519},{"i_long":106.568863,"time":8,"distance":5968,"station_id":"PRP","station_name":"Parung Panjang","transit":false,"is_transit":false,"i_lat":-6.3441410000000005,"line":6},{"is_transit":false,"line":3,"station_id":"CJT","time":9,"i_long":106.508482,"station_name":"Cilejit","distance":7025,"transit":false,"i_lat":-6.354349},{"station_name":"Daru","is_transit":false,"station_id":"DAR","i_long":106.491338,"time":6,"i_lat":-6.338021,"distance":2675,"transit":false,"line":0},{"station_name":"Tenjo","time":5,"i_long":106.460812,"distance":3902,"i_lat":-6.327251,"line":6,"is_transit":false,"transit":false,"station_id":"TEJ"},{"is_transit":false,"line":6,"distance":2974,"station_name":"Tigaraksa","i_lat":-6.328533,"station_id":"TGS","i_long":106.425991,"transit":false,"time":5},{"is_transit":false,"i_lat":-6.33561,"transit":false,"distance":2651,"station_name":"Cikoya","line":3,"station_id":"CKY","time":3,"i_long":106.411216},{"line":6,"i_long":106.394373,"time":4,"station_id":"MJ","is_transit":false,"distance":1853,"station_name":"Maja","i_lat":-6.332307,"transit":false},{"line":3,"transit":false,"time":10,"i_lat":-6.334892,"station_id":"CTR","distance":7293,"i_long":106.332092,"is_transit":false,"station_name":"Citeras"}],[{"station_id":"CKI","transit":false,"distance":0,"station_name":"Cikini","i_lat":-6.198556,"i_long":106.840169,"time":0,"line":2,"is_transit":false},{"i_long":106.832183,"time":3,"distance":1750,"station_name":"Gondangdia","is_transit":false,"i_lat":-6.186295,"line":2,"transit":false,"station_id":"GDD"},{"station_name":"Juanda","distance":2015,"station_id":"JUA","is_transit":false,"line":2,"time":4,"i_lat":-6.166716,"transit":false,"i_long":106.828284},{"i_long":106.827103,"is_transit":false,"station_id":"SW","distance":1149,"transit":false,"station_name":"Sawah Besar","i_lat":-6.160725,"time":2,"line":2},{"i_lat":-6.149769,"line":2,"station_name":"Manggabesar","distance":906,"transit":false,"time":2,"is_transit":false,"station_id":"MGB","i_long":106.82482},{"time":2,"station_name":"Jayakarta","station_id":"JAY","i_long":106.820901,"transit":false,"distance":1080,"is_transit":false,"i_lat":-6.141205,"line":2},{"transit":true,"distance":1264,"line":2,"station_id":"JAKK","station_name":"Jakarta Kota","time":4,"is_transit":true,"i_lat":-6.137569,"i_long":106.812439},{"time":3,"station_name":"Kampung Bandan","station_id":"KPB","is_transit":true,"transit":true,"i_long":106.826365,"line":4,"i_lat":-6.132549,"distance":1364},{"station_id":"AK","station_name":"Angke","distance":4102,"i_long":106.79867,"i_lat":-6.144674,"time":9,"is_transit":false,"line":1,"transit":false},{"station_id":"DU","i_lat":-6.155215,"transit":false,"time":4,"i_long":106.800832,"line":1,"distance":1230,"is_transit":false,"station_name":"Duri"},{"station_name":"Tanah Abang","time":8,"transit":true,"i_long":106.811091,"line":1,"is_transit":true,"station_id":"THB","distance":3632,"i_lat":-6.185545},{"i_lat":-6.207404,"transit":false,"station_name":"Palmerah","time":6,"distance":3191,"is_transit":false,"line":6,"station_id":"PLM","i_long":106.79689},{"line":6,"i_lat":-6.237242,"time":7,"transit":false,"is_transit":false,"station_name":"Kebayoran","i_long":106.780334,"station_id":"KBY","distance":3737},{"station_name":"Pondokranji","distance":6218,"line":6,"station_id":"PDJ","transit":false,"i_lat":-6.276362,"time":8,"is_transit":false,"i_long":106.74273},{"line":6,"is_transit":false,"i_long":106.728916,"i_lat":-6.288927,"transit":false,"distance":2179,"station_id":"JMU","time":3,"station_name":"Jurangmangu"},{"i_lat":-6.296963,"transit":false,"i_long":106.712277,"is_transit":false,"distance":1994,"station_name":"Sudimara","line":6,"time":4,"station_id":"SDM"},{"time":6,"transit":false,"station_name":"Rawa Buntu","is_transit":false,"distance":4566,"line":6,"station_id":"RU","i_lat":-6.314823,"i_long":106.675475},{"time":4,"line":6,"station_id":"SRP","i_lat":-6.319871,"station_name":"Serpong","transit":false,"distance":2413,"is_transit":false,"i_long":106.66566},{"is_transit":false,"station_id":"CSK","transit":false,"line":3,"distance":1784,"station_name":"Cisauk","time":4,"i_lat":-6.32484,"i_long":106.640411},{"i_lat":-6.329547,"time":4,"transit":false,"station_name":"Cicayur","line":3,"distance":2519,"station_id":"CC","is_transit":false,"i_long":106.617853},{"time":8,"is_transit":false,"station_id":"PRP","transit":false,"station_name":"Parung Panjang","distance":5968,"i_lat":-6.3441410000000005,"i_long":106.568863,"line":6},{"distance":7025,"i_lat":-6.354349,"line":3,"station_name":"Cilejit","i_long":106.508482,"time":9,"station_id":"CJT","is_transit":false,"transit":false},{"station_id":"DAR","i_lat":-6.338021,"transit":false,"distance":2675,"line":0,"time":6,"i_long":106.491338,"is_transit":false,"station_name":"Daru"},{"i_lat":-6.327251,"is_transit":false,"distance":3902,"station_id":"TEJ","transit":false,"i_long":106.460812,"line":6,"time":5,"station_name":"Tenjo"},{"time":5,"is_transit":false,"line":6,"transit":false,"station_name":"Tigaraksa","station_id":"TGS","distance":2974,"i_lat":-6.328533,"i_long":106.425991},{"distance":2651,"i_long":106.411216,"station_name":"Cikoya","is_transit":false,"i_lat":-6.33561,"line":3,"transit":false,"station_id":"CKY","time":3},{"i_lat":-6.332307,"time":4,"i_long":106.394373,"line":6,"is_transit":false,"station_id":"MJ","station_name":"Maja","distance":1853,"transit":false},{"transit":false,"time":10,"distance":7293,"i_long":106.332092,"line":3,"i_lat":-6.334892,"station_name":"Citeras","is_transit":false,"station_id":"CTR"}],[{"station_name":"Cikini","time":0,"i_long":106.840169,"station_id":"CKI","line":2,"distance":0,"is_transit":false,"i_lat":-6.198556,"transit":false},{"is_transit":true,"i_lat":-6.209883,"station_id":"MRI","time":4,"distance":1590,"i_long":106.84912,"station_name":"Manggarai","line":2,"transit":true},{"station_name":"Matraman","distance":1275,"is_transit":false,"i_lat":-6.212485,"time":2,"line":1,"transit":false,"i_long":106.858896,"station_id":"MTR"},{"station_name":"Jatinegara","i_long":106.86807400000001,"time":8,"station_id":"JNG","distance":1377,"is_transit":true,"transit":true,"line":1,"i_lat":-6.215091},{"line":11,"transit":false,"i_lat":-6.209188,"time":2,"is_transit":false,"distance":1236,"station_name":"Pondok Jati","station_id":"POK","i_long":106.861737},{"station_id":"KMT","i_lat":-6.193792,"i_long":106.855437,"distance":1829,"line":11,"station_name":"Kramat","time":2,"transit":false,"is_transit":false},{"i_long":106.850107,"line":11,"station_name":"Gang Sentiong","transit":false,"time":1,"distance":973,"station_id":"GST","is_transit":false,"i_lat":-6.185975},{"station_name":"Pasar Senen","i_lat":-6.174784,"line":11,"station_id":"PSE","is_transit":false,"distance":1567,"i_long":106.84368,"transit":false,"time":8},{"station_id":"KMO","i_long":106.839204,"time":4,"distance":1436,"transit":false,"station_name":"Kemayoran","line":11,"i_lat":-6.161728,"is_transit":false},{"is_transit":false,"time":5,"station_name":"Rajawali","i_lat":-6.14505,"distance":1901,"i_long":106.836569,"line":11,"station_id":"RJW","transit":false},{"is_transit":true,"station_name":"Kampung Bandan","i_lat":-6.132549,"line":4,"distance":1444,"time":3,"i_long":106.826365,"station_id":"KPB","transit":true},{"station_name":"Angke","i_lat":-6.144674,"line":1,"i_long":106.79867,"transit":false,"distance":4102,"station_id":"AK","time":9,"is_transit":false},{"line":1,"time":4,"is_transit":false,"transit":false,"station_id":"DU","station_name":"Duri","distance":1230,"i_long":106.800832,"i_lat":-6.155215},{"i_long":106.811091,"station_id":"THB","is_transit":true,"station_name":"Tanah Abang","transit":true,"time":8,"distance":3632,"i_lat":-6.185545,"line":1},{"line":6,"station_name":"Palmerah","time":6,"is_transit":false,"i_lat":-6.207404,"transit":false,"i_long":106.79689,"distance":3191,"station_id":"PLM"},{"distance":3737,"line":6,"station_id":"KBY","i_lat":-6.237242,"i_long":106.780334,"transit":false,"is_transit":false,"time":7,"station_name":"Kebayoran"},{"i_lat":-6.276362,"station_name":"Pondokranji","i_long":106.74273,"time":8,"line":6,"transit":false,"distance":6218,"station_id":"PDJ","is_transit":false},{"transit":false,"time":3,"is_transit":false,"i_lat":-6.288927,"station_id":"JMU","station_name":"Jurangmangu","i_long":106.728916,"distance":2179,"line":6},{"is_transit":false,"i_lat":-6.296963,"time":4,"station_id":"SDM","i_long":106.712277,"line":6,"transit":false,"station_name":"Sudimara","distance":1994},{"is_transit":false,"transit":false,"i_long":106.675475,"line":6,"time":6,"station_id":"RU","distance":4566,"station_name":"Rawa Buntu","i_lat":-6.314823},{"line":6,"i_lat":-6.319871,"transit":false,"time":4,"is_transit":false,"distance":2413,"station_id":"SRP","i_long":106.66566,"station_name":"Serpong"},{"time":4,"distance":1784,"is_transit":false,"i_long":106.640411,"station_id":"CSK","transit":false,"i_lat":-6.32484,"station_name":"Cisauk","line":3},{"is_transit":false,"distance":2519,"i_lat":-6.329547,"station_name":"Cicayur","i_long":106.617853,"line":3,"transit":false,"station_id":"CC","time":4},{"i_lat":-6.3441410000000005,"station_id":"PRP","transit":false,"distance":5968,"station_name":"Parung Panjang","i_long":106.568863,"is_transit":false,"time":8,"line":6},{"distance":7025,"time":9,"is_transit":false,"station_id":"CJT","transit":false,"station_name":"Cilejit","i_long":106.508482,"i_lat":-6.354349,"line":3},{"i_lat":-6.338021,"time":6,"is_transit":false,"transit":false,"distance":2675,"line":0,"station_id":"DAR","station_name":"Daru","i_long":106.491338},{"i_long":106.460812,"transit":false,"distance":3902,"is_transit":false,"station_id":"TEJ","line":6,"station_name":"Tenjo","time":5,"i_lat":-6.327251},{"station_id":"TGS","transit":false,"time":5,"i_lat":-6.328533,"i_long":106.425991,"station_name":"Tigaraksa","is_transit":false,"line":6,"distance":2974},{"i_lat":-6.33561,"station_name":"Cikoya","transit":false,"i_long":106.411216,"distance":2651,"line":3,"station_id":"CKY","time":3,"is_transit":false},{"transit":false,"is_transit":false,"i_lat":-6.332307,"time":4,"i_long":106.394373,"station_name":"Maja","line":6,"distance":1853,"station_id":"MJ"},{"station_id":"CTR","time":10,"station_name":"Citeras","distance":7293,"i_lat":-6.334892,"is_transit":false,"i_long":106.332092,"line":3,"transit":false}],[{"time":0,"is_transit":false,"distance":0,"line":2,"transit":false,"i_lat":-6.198556,"i_long":106.840169,"station_name":"Cikini","station_id":"CKI"},{"i_long":106.832183,"distance":1750,"is_transit":false,"time":3,"i_lat":-6.186295,"line":2,"station_id":"GDD","transit":false,"station_name":"Gondangdia"},{"i_lat":-6.166716,"i_long":106.828284,"line":2,"distance":2015,"transit":false,"time":4,"is_transit":false,"station_id":"JUA","station_name":"Juanda"},{"line":2,"i_lat":-6.160725,"transit":false,"time":2,"is_transit":false,"station_id":"SW","i_long":106.827103,"station_name":"Sawah Besar","distance":1149},{"i_lat":-6.149769,"line":2,"is_transit":false,"time":2,"i_long":106.82482,"transit":false,"station_id":"MGB","station_name":"Manggabesar","distance":906},{"i_long":106.820901,"distance":1080,"station_name":"Jayakarta","is_transit":false,"station_id":"JAY","time":2,"line":2,"i_lat":-6.141205,"transit":false},{"station_name":"Jakarta Kota","i_long":106.812439,"is_transit":true,"station_id":"JAKK","i_lat":-6.137569,"time":4,"distance":1264,"transit":true,"line":2},{"station_name":"Kampung Bandan","line":4,"i_lat":-6.132549,"station_id":"KPB","is_transit":true,"transit":true,"time":3,"i_long":106.826365,"distance":1364},{"line":11,"station_id":"RJW","i_long":106.836569,"transit":false,"is_transit":false,"station_name":"Rajawali","distance":1444,"time":3,"i_lat":-6.14505},{"transit":false,"line":11,"distance":1901,"i_long":106.839204,"station_name":"Kemayoran","is_transit":false,"time":5,"station_id":"KMO","i_lat":-6.161728},{"is_transit":false,"station_name":"Pasar Senen","line":11,"distance":1436,"station_id":"PSE","time":4,"i_long":106.84368,"i_lat":-6.174784,"transit":false},{"station_name":"Gang Sentiong","is_transit":false,"time":8,"i_long":106.850107,"i_lat":-6.185975,"line":11,"distance":1567,"transit":false,"station_id":"GST"},{"station_name":"Kramat","i_long":106.855437,"i_lat":-6.193792,"line":11,"transit":false,"distance":973,"is_transit":false,"station_id":"KMT","time":1},{"is_transit":false,"i_long":106.861737,"time":2,"i_lat":-6.209188,"station_id":"POK","station_name":"Pondok Jati","distance":1829,"transit":false,"line":11},{"is_transit":true,"line":1,"distance":1236,"i_long":106.86807400000001,"time":9,"transit":true,"station_name":"Jatinegara","station_id":"JNG","i_lat":-6.215091},{"station_id":"MTR","transit":false,"station_name":"Matraman","distance":1377,"is_transit":false,"time":2,"i_long":106.858896,"line":1,"i_lat":-6.212485},{"station_name":"Manggarai","line":2,"i_lat":-6.209883,"time":2,"i_long":106.84912,"distance":1275,"transit":false,"station_id":"MRI","is_transit":false},{"i_long":106.822649,"transit":false,"line":1,"time":4,"distance":3186,"station_name":"Sudirman","is_transit":false,"i_lat":-6.202263,"station_id":"SUD"},{"station_id":"SUDB","distance":280,"i_lat":-6.201433,"i_long":106.819881,"is_transit":false,"transit":false,"line":1,"station_name":"Sudirman Baru","time":1},{"station_id":"KAT","line":1,"transit":false,"time":1,"distance":471,"is_transit":false,"i_lat":-6.20132,"i_long":106.816351,"station_name":"Karet"},{"i_long":106.811091,"is_transit":true,"i_lat":-6.185545,"time":5,"station_id":"THB","line":1,"transit":true,"station_name":"Tanah Abang","distance":2029},{"transit":false,"station_id":"PLM","station_name":"Palmerah","is_transit":false,"line":6,"i_long":106.79689,"distance":3191,"time":6,"i_lat":-6.207404},{"i_lat":-6.237242,"distance":3737,"time":7,"is_transit":false,"station_id":"KBY","station_name":"Kebayoran","transit":false,"i_long":106.780334,"line":6},{"i_long":106.74273,"time":8,"line":6,"distance":6218,"i_lat":-6.276362,"transit":false,"station_name":"Pondokranji","is_transit":false,"station_id":"PDJ"},{"transit":false,"is_transit":false,"i_lat":-6.288927,"line":6,"station_id":"JMU","time":3,"station_name":"Jurangmangu","i_long":106.728916,"distance":2179},{"line":6,"station_id":"SDM","i_lat":-6.296963,"transit":false,"station_name":"Sudimara","distance":1994,"time":4,"is_transit":false,"i_long":106.712277},{"station_id":"RU","i_long":106.675475,"distance":4566,"time":6,"station_name":"Rawa Buntu","line":6,"i_lat":-6.314823,"transit":false,"is_transit":false},{"i_long":106.66566,"is_transit":false,"distance":2413,"line":6,"transit":false,"i_lat":-6.319871,"station_id":"SRP","time":4,"station_name":"Serpong"},{"is_transit":false,"station_name":"Cisauk","station_id":"CSK","transit":false,"time":4,"distance":1784,"i_long":106.640411,"line":3,"i_lat":-6.32484},{"time":4,"is_transit":false,"distance":2519,"station_id":"CC","i_lat":-6.329547,"station_name":"Cicayur","i_long":106.617853,"transit":false,"line":3},{"is_transit":false,"line":6,"station_name":"Parung Panjang","station_id":"PRP","time":8,"transit":false,"i_lat":-6.3441410000000005,"i_long":106.568863,"distance":5968},{"line":3,"station_name":"Cilejit","i_lat":-6.354349,"i_long":106.508482,"time":9,"distance":7025,"is_transit":false,"station_id":"CJT","transit":false},{"station_name":"Daru","is_transit":false,"i_lat":-6.338021,"line":0,"transit":false,"station_id":"DAR","distance":2675,"time":6,"i_long":106.491338},{"is_transit":false,"i_lat":-6.327251,"line":6,"i_long":106.460812,"time":5,"station_id":"TEJ","transit":false,"station_name":"Tenjo","distance":3902},{"line":6,"i_long":106.425991,"is_transit":false,"station_id":"TGS","i_lat":-6.328533,"station_name":"Tigaraksa","transit":false,"distance":2974,"time":5},{"is_transit":false,"i_long":106.411216,"line":3,"i_lat":-6.33561,"station_name":"Cikoya","transit":false,"time":3,"distance":2651,"station_id":"CKY"},{"line":6,"time":4,"transit":false,"station_id":"MJ","distance":1853,"station_name":"Maja","i_lat":-6.332307,"is_transit":false,"i_long":106.394373},{"line":3,"i_long":106.332092,"distance":7293,"transit":false,"i_lat":-6.334892,"time":10,"station_name":"Citeras","station_id":"CTR","is_transit":false}]]}