{"data":[[{"transit":false,"is_transit":false,"time":0,"i_lat":-6.198556,"distance":0,"i_long":106.840169,"station_id":"CKI","line":2,"station_name":"Cikini"},{"transit":true,"i_lat":-6.209883,"station_id":"MRI","line":2,"station_name":"Manggarai","time":4,"distance":1590,"is_transit":true,"i_long":106.84912},{"is_transit":false,"station_name":"Sudirman","i_lat":-6.202263,"transit":false,"station_id":"SUD","line":1,"time":4,"distance":3186,"i_long":106.822649},{"i_lat":-6.201433,"transit":false,"distance":280,"station_name":"Sudirman Baru","station_id":"SUDB","is_transit":false,"line":1,"time":1,"i_long":106.819881},{"i_lat":-6.20132,"i_long":106.816351,"is_transit":false,"transit":false,"distance":471,"time":1,"station_id":"KAT","line":1,"station_name":"Karet"},{"is_transit":false,"i_long":106.811091,"distance":2029,"transit":false,"line":1,"time":5,"i_lat":-6.185545,"station_name":"Tanah Abang","station_id":"THB"},{"is_transit":true,"time":8,"station_name":"Duri","transit":true,"distance":3632,"i_long":106.800832,"line":1,"station_id":"DU","i_lat":-6.155215},{"i_lat":-6.162021,"transit":false,"time":3,"line":5,"station_id":"GGL","is_transit":false,"i_long":106.788277,"station_name":"Grogol","distance":1700},{"station_id":"PSG","i_lat":-6.161433,"i_long":106.771379,"line":5,"transit":false,"is_transit":false,"time":2,"distance":2036,"station_name":"Pesing"},{"transit":false,"line":5,"i_lat":-6.1587309999999995,"is_transit":false,"station_name":"Taman Kota","time":2,"distance":1614,"i_long":106.756522,"station_id":"TKO"},{"distance":2334,"is_transit":false,"station_name":"Bojongindah","station_id":"BOI","transit":false,"i_lat":-6.159876,"i_long":106.737035,"line":5,"time":2},{"station_id":"RW","line":5,"station_name":"Rawa Buaya","transit":false,"i_lat":-6.162758,"time":4,"i_long":106.723064,"is_transit":false,"distance":1152},{"time":3,"is_transit":false,"station_name":"Kalideres","i_lat":-6.166068,"distance":2504,"transit":false,"station_id":"KDS","line":5,"i_long":106.701612},{"distance":2548,"time":3,"is_transit":false,"station_id":"PI","line":5,"i_lat":-6.169933,"i_long":106.679458,"transit":false,"station_name":"Poris"}],[{"i_long":106.840169,"is_transit":false,"line":2,"time":0,"transit":false,"station_name":"Cikini","i_lat":-6.198556,"station_id":"CKI","distance":0},{"station_name":"Gondangdia","time":3,"is_transit":false,"station_id":"GDD","line":2,"distance":1750,"i_lat":-6.186295,"i_long":106.832183,"transit":false},{"i_long":106.828284,"i_lat":-6.166716,"distance":2015,"line":2,"time":4,"is_transit":false,"station_id":"JUA","station_name":"Juanda","transit":false},{"time":2,"station_name":"Sawah Besar","i_long":106.827103,"transit":false,"station_id":"SW","is_transit":false,"line":2,"distance":1149,"i_lat":-6.160725},{"i_lat":-6.149769,"i_long":106.82482,"line":2,"station_name":"Manggabesar","time":2,"distance":906,"is_transit":false,"station_id":"MGB","transit":false},{"transit":false,"distance":1080,"i_long":106.820901,"line":2,"i_lat":-6.141205,"station_name":"Jayakarta","time":2,"station_id":"JAY","is_transit":false},{"transit":true,"i_lat":-6.137569,"distance":1264,"i_long":106.812439,"time":4,"line":2,"is_transit":true,"station_name":"Jakarta Kota","station_id":"JAKK"},{"i_lat":-6.132549,"distance":1364,"i_long":106.826365,"time":3,"line":4,"transit":true,"station_id":"KPB","station_name":"Kampung Bandan","is_transit":true},{"time":9,"station_id":"AK","i_long":106.79867,"transit":false,"line":1,"i_lat":-6.144674,"distance":4102,"is_transit":false,"station_name":"Angke"},{"transit":true,"is_transit":true,"time":4,"distance":1230,"station_id":"DU","i_long":106.800832,"i_lat":-6.155215,"line":1,"station_name":"Duri"},{"i_lat":-6.162021,"station_name":"Grogol","transit":false,"is_transit":false,"line":5,"i_long":106.788277,"station_id":"GGL","distance":1700,"time":3},{"i_lat":-6.161433,"i_long":106.771379,"line":5,"transit":false,"station_id":"PSG","station_name":"Pesing","is_transit":false,"time":2,"distance":2036},{"i_long":106.756522,"station_name":"Taman Kota","is_transit":false,"time":2,"station_id":"TKO","i_lat":-6.1587309999999995,"line":5,"distance":1614,"transit":false},{"is_transit":false,"time":2,"distance":2334,"i_lat":-6.159876,"i_long":106.737035,"station_name":"Bojongindah","transit":false,"station_id":"BOI","line":5},{"distance":1152,"i_long":106.723064,"transit":false,"line":5,"station_id":"RW","station_name":"Rawa Buaya","time":4,"i_lat":-6.162758,"is_transit":false},{"is_transit":false,"i_long":106.701612,"station_name":"Kalideres","line":5,"distance":2504,"transit":false,"station_id":"KDS","i_lat":-6.166068,"time":3},{"station_id":"PI","time":3,"i_lat":-6.169933,"line":5,"is_transit":false,"station_name":"Poris","transit":false,"distance":2548,"i_long":106.679458}],[{"distance":0,"station_name":"Cikini","is_transit":false,"time":0,"i_lat":-6.198556,"transit":false,"line":2,"i_long":106.840169,"station_id":"CKI"},{"station_name":"Manggarai","time":4,"distance":1590,"is_transit":true,"line":2,"station_id":"MRI","transit":true,"i_lat":-6.209883,"i_long":106.84912},{"transit":false,"i_long":106.858896,"i_lat":-6.212485,"distance":1275,"station_name":"Matraman","time":2,"line":1,"is_transit":false,"station_id":"MTR"},{"station_id":"JNG","distance":1377,"station_name":"Jatinegara","i_long":106.86807400000001,"transit":true,"i_lat":-6.215091,"time":8,"is_transit":true,"line":1},{"station_name":"Pondok Jati","transit":false,"is_transit":false,"i_lat":-6.209188,"i_long":106.861737,"time":2,"distance":1236,"station_id":"POK","line":11},{"station_name":"Kramat","transit":false,"time":2,"distance":1829,"station_id":"KMT","i_lat":-6.193792,"i_long":106.855437,"line":11,"is_transit":false},{"station_id":"GST","line":11,"distance":973,"i_lat":-6.185975,"i_long":106.850107,"transit":false,"is_transit":false,"time":1,"station_name":"Gang Sentiong"},{"distance":1567,"station_name":"Pasar Senen","is_transit":false,"transit":false,"i_lat":-6.174784,"time":8,"station_id":"PSE","i_long":106.84368,"line":11},{"i_long":106.839204,"is_transit":false,"i_lat":-6.161728,"transit":false,"line":11,"station_name":"Kemayoran","station_id":"KMO","distance":1436,"time":4},{"distance":1901,"i_lat":-6.14505,"time":5,"is_transit":false,"station_name":"Rajawali","i_long":106.836569,"station_id":"RJW","line":11,"transit":false},{"transit":true,"i_lat":-6.132549,"station_id":"KPB","is_transit":true,"station_name":"Kampung Bandan","i_long":106.826365,"line":4,"distance":1444,"time":3},{"station_id":"AK","i_lat":-6.144674,"i_long":106.79867,"time":9,"transit":false,"distance":4102,"line":1,"station_name":"Angke","is_transit":false},{"time":4,"i_long":106.800832,"is_transit":true,"line":1,"i_lat":-6.155215,"station_id":"DU","distance":1230,"transit":true,"station_name":"Duri"},{"transit":false,"i_lat":-6.162021,"station_id":"GGL","line":5,"time":3,"i_long":106.788277,"is_transit":false,"distance":1700,"station_name":"Grogol"},{"station_name":"Pesing","time":2,"station_id":"PSG","transit":false,"line":5,"is_transit":false,"distance":2036,"i_lat":-6.161433,"i_long":106.771379},{"distance":1614,"is_transit":false,"station_id":"TKO","i_long":106.756522,"time":2,"transit":false,"line":5,"station_name":"Taman Kota","i_lat":-6.1587309999999995},{"time":2,"transit":false,"i_lat":-6.159876,"station_id":"BOI","station_name":"Bojongindah","is_transit":false,"line":5,"distance":2334,"i_long":106.737035},{"transit":false,"time":4,"i_lat":-6.162758,"i_long":106.723064,"is_transit":false,"line":5,"station_name":"Rawa Buaya","station_id":"RW","distance":1152},{"line":5,"distance":2504,"i_lat":-6.166068,"station_id":"KDS","is_transit":false,"station_name":"Kalideres","i_long":106.701612,"time":3,"transit":false},{"is_transit":false,"distance":2548,"i_lat":-6.169933,"i_long":106.679458,"station_id":"PI","station_name":"Poris","time":3,"line":5,"transit":false}],[{"station_name":"Cikini","i_lat":-6.198556,"i_long":106.840169,"time":0,"line":2,"is_transit":false,"station_id":"CKI","transit":false,"distance":0},{"i_long":106.832183,"station_id":"GDD","time":3,"transit":false,"distance":1750,"line":2,"is_transit":false,"i_lat":-6.186295,"station_name":"Gondangdia"},{"line":2,"time":4,"is_transit":false,"i_long":106.828284,"transit":false,"i_lat":-6.166716,"station_name":"Juanda","distance":2015,"station_id":"JUA"},{"time":2,"line":2,"transit":false,"distance":1149,"station_id":"SW","station_name":"Sawah Besar","i_lat":-6.160725,"i_long":106.827103,"is_transit":false},{"station_id":"MGB","is_transit":false,"time":2,"station_name":"Manggabesar","distance":906,"i_lat":-6.149769,"line":2,"i_long":106.82482,"transit":false},{"line":2,"is_transit":false,"station_id":"JAY","distance":1080,"station_name":"Jayakarta","time":2,"transit":false,"i_lat":-6.141205,"i_long":106.820901},{"transit":true,"i_lat":-6.137569,"station_id":"JAKK","station_name":"Jakarta Kota","time":4,"distance":1264,"is_transit":true,"line":2,"i_long":106.812439},{"line":4,"i_long":106.826365,"is_transit":true,"distance":1364,"station_name":"Kampung Bandan","station_id":"KPB","transit":true,"i_lat":-6.132549,"time":3},{"is_transit":false,"station_id":"RJW","i_long":106.836569,"line":11,"time":3,"transit":false,"station_name":"Rajawali","distance":1444,"i_lat":-6.14505},{"station_name":"Kemayoran","i_lat":-6.161728,"i_long":106.839204,"distance":1901,"time":5,"transit":false,"is_transit":false,"station_id":"KMO","line":11},{"line":11,"time":4,"transit":false,"i_lat":-6.174784,"is_transit":false,"station_name":"Pasar Senen","station_id":"PSE","distance":1436,"i_long":106.84368},{"time":8,"station_name":"Gang Sentiong","i_long":106.850107,"i_lat":-6.185975,"station_id":"GST","distance":1567,"transit":false,"is_transit":false,"line":11},{"i_long":106.855437,"is_transit":false,"i_lat":-6.193792,"station_id":"KMT","transit":false,"line":11,"time":1,"distance":973,"station_name":"Kramat"},{"station_name":"Pondok Jati","i_long":106.861737,"line":11,"station_id":"POK","i_lat":-6.209188,"distance":1829,"transit":false,"time":2,"is_transit":false},{"i_lat":-6.215091,"transit":true,"time":9,"i_long":106.86807400000001,"line":1,"distance":1236,"station_id":"JNG","is_transit":true,"station_name":"Jatinegara"},{"line":1,"distance":1377,"station_id":"MTR","i_long":106.858896,"transit":false,"station_name":"Matraman","i_lat":-6.212485,"is_transit":false,"time":2},{"i_lat":-6.209883,"transit":false,"station_name":"Manggarai","distance":1275,"time":2,"i_long":106.84912,"line":2,"is_transit":false,"station_id":"MRI"},{"transit":false,"time":4,"i_lat":-6.202263,"station_id":"SUD","distance":3186,"is_transit":false,"i_long":106.822649,"line":1,"station_name":"Sudirman"},{"line":1,"transit":false,"station_name":"Sudirman Baru","i_lat":-6.201433,"station_id":"SUDB","is_transit":false,"i_long":106.819881,"time":1,"distance":280},{"distance":471,"station_id":"KAT","is_transit":false,"i_lat":-6.20132,"time":1,"line":1,"i_long":106.816351,"station_name":"Karet","transit":false},{"transit":false,"i_long":106.811091,"line":1,"station_id":"THB","distance":2029,"is_transit":false,"station_name":"Tanah Abang","i_lat":-6.185545,"time":5},{"station_id":"DU","station_name":"Duri","i_long":106.800832,"distance":3632,"time":8,"is_transit":true,"transit":true,"i_lat":-6.155215,"line":1},{"distance":1700,"station_name":"Grogol","transit":false,"i_long":106.788277,"station_id":"GGL","i_lat":-6.162021,"line":5,"is_transit":false,"time":3},{"distance":2036,"transit":false,"is_transit":false,"i_lat":-6.161433,"station_name":"Pesing","line":5,"time":2,"i_long":106.771379,"station_id":"PSG"},{"time":2,"transit":false,"station_id":"TKO","line":5,"station_name":"Taman Kota","distance":1614,"is_transit":false,"i_lat":-6.1587309999999995,"i_long":106.756522},{"i_long":106.737035,"station_name":"Bojongindah","is_transit":false,"distance":2334,"transit":false,"line":5,"station_id":"BOI","time":2,"i_lat":-6.159876},{"line":5,"time":4,"is_transit":false,"distance":1152,"station_name":"Rawa Buaya","station_id":"RW","i_long":106.723064,"transit":false,"i_lat":-6.162758},{"station_name":"Kalideres","i_lat":-6.166068,"transit":false,"station_id":"KDS","is_transit":false,"distance":2504,"time":3,"i_long":106.701612,"line":5},{"is_transit":false,"station_id":"PI","time":3,"station_name":"Poris","transit":false,"i_lat":-6.169933,"distance":2548,"line":5,"i_long":106.679458}]]}