{"data":[[{"station_id":"CKI","is_transit":false,"i_long":106.840169,"station_name":"Cikini","i_lat":-6.198556,"line":2,"time":0,"transit":false,"distance":0},{"line":2,"time":4,"transit":true,"station_id":"MRI","station_name":"Manggarai","distance":1590,"is_transit":true,"i_lat":-6.209883,"i_long":106.84912},{"i_long":106.822649,"line":1,"i_lat":-6.202263,"time":4,"station_id":"SUD","station_name":"Sudirman","is_transit":false,"transit":false,"distance":3186},{"i_long":106.819881,"station_name":"Sudirman Baru","transit":false,"distance":280,"is_transit":false,"station_id":"SUDB","i_lat":-6.201433,"time":1,"line":1},{"i_long":106.816351,"line":1,"station_name":"Karet","is_transit":false,"time":1,"distance":471,"transit":false,"station_id":"KAT","i_lat":-6.20132},{"station_name":"Tanah Abang","is_transit":true,"distance":2029,"time":5,"transit":true,"line":1,"station_id":"THB","i_lat":-6.185545,"i_long":106.811091},{"i_long":106.79689,"is_transit":false,"i_lat":-6.207404,"station_name":"Palmerah","line":6,"distance":3191,"station_id":"PLM","time":6,"transit":false},{"station_id":"KBY","transit":false,"is_transit":false,"station_name":"Kebayoran","i_lat":-6.237242,"line":6,"distance":3737,"i_long":106.780334,"time":7},{"time":8,"i_lat":-6.276362,"is_transit":false,"i_long":106.74273,"transit":false,"distance":6218,"station_name":"Pondokranji","line":6,"station_id":"PDJ"},{"i_lat":-6.288927,"i_long":106.728916,"line":6,"time":3,"distance":2179,"station_id":"JMU","station_name":"Jurangmangu","transit":false,"is_transit":false},{"transit":false,"i_long":106.712277,"distance":1994,"is_transit":false,"station_id":"SDM","i_lat":-6.296963,"line":6,"station_name":"Sudimara","time":4}],[{"transit":false,"line":2,"distance":0,"station_name":"Cikini","station_id":"CKI","time":0,"is_transit":false,"i_lat":-6.198556,"i_long":106.840169},{"i_long":106.832183,"is_transit":false,"distance":1750,"station_id":"GDD","time":3,"transit":false,"i_lat":-6.186295,"line":2,"station_name":"Gondangdia"},{"is_transit":false,"i_lat":-6.166716,"distance":2015,"station_id":"JUA","transit":false,"i_long":106.828284,"time":4,"line":2,"station_name":"Juanda"},{"i_lat":-6.160725,"station_name":"Sawah Besar","i_long":106.827103,"transit":false,"distance":1149,"station_id":"SW","time":2,"line":2,"is_transit":false},{"station_id":"MGB","line":2,"station_name":"Manggabesar","time":2,"i_lat":-6.149769,"i_long":106.82482,"transit":false,"distance":906,"is_transit":false},{"line":2,"station_name":"Jayakarta","transit":false,"time":2,"station_id":"JAY","i_long":106.820901,"distance":1080,"i_lat":-6.141205,"is_transit":false},{"transit":true,"i_long":106.812439,"is_transit":true,"station_name":"Jakarta Kota","line":2,"time":4,"distance":1264,"station_id":"JAKK","i_lat":-6.137569},{"station_name":"Kampung Bandan","time":3,"i_lat":-6.132549,"line":4,"is_transit":true,"i_long":106.826365,"transit":true,"station_id":"KPB","distance":1364},{"time":9,"i_long":106.79867,"station_name":"Angke","is_transit":false,"i_lat":-6.144674,"transit":false,"line":1,"distance":4102,"station_id":"AK"},{"line":1,"time":4,"transit":false,"distance":1230,"i_lat":-6.155215,"i_long":106.800832,"station_id":"DU","is_transit":false,"station_name":"Duri"},{"station_name":"Tanah Abang","is_transit":true,"station_id":"THB","i_lat":-6.185545,"i_long":106.811091,"time":8,"line":1,"transit":true,"distance":3632},{"i_lat":-6.207404,"time":6,"line":6,"i_long":106.79689,"distance":3191,"station_name":"Palmerah","transit":false,"station_id":"PLM","is_transit":false},{"station_id":"KBY","line":6,"i_lat":-6.237242,"i_long":106.780334,"transit":false,"station_name":"Kebayoran","is_transit":false,"time":7,"distance":3737},{"station_id":"PDJ","time":8,"transit":false,"distance":6218,"i_long":106.74273,"is_transit":false,"station_name":"Pondokranji","i_lat":-6.276362,"line":6},{"station_name":"Jurangmangu","distance":2179,"i_long":106.728916,"is_transit":false,"i_lat":-6.288927,"line":6,"station_id":"JMU","transit":false,"time":3},{"station_name":"Sudimara","i_long":106.712277,"distance":1994,"transit":false,"i_lat":-6.296963,"time":4,"is_transit":false,"line":6,"station_id":"SDM"}],[{"line":2,"i_long":106.840169,"i_lat":-6.198556,"distance":0,"station_id":"CKI","station_name":"Cikini","transit":false,"time":0,"is_transit":false},{"line":2,"station_name":"Manggarai","distance":1590,"time":4,"transit":true,"is_transit":true,"station_id":"MRI","i_lat":-6.209883,"i_long":106.84912},{"transit":false,"time":2,"line":1,"distance":1275,"i_lat":-6.212485,"is_transit":false,"station_name":"Matraman","station_id":"MTR","i_long":106.858896},{"time":8,"station_id":"JNG","transit":true,"is_transit":true,"line":1,"distance":1377,"station_name":"Jatinegara","i_lat":-6.215091,"i_long":106.86807400000001},{"distance":1236,"is_transit":false,"line":11,"time":2,"station_id":"POK","transit":false,"i_lat":-6.209188,"i_long":106.861737,"station_name":"Pondok Jati"},{"station_id":"KMT","is_transit":false,"distance":1829,"i_lat":-6.193792,"i_long":106.855437,"time":2,"line":11,"station_name":"Kramat","transit":false},{"is_transit":false,"station_id":"GST","distance":973,"i_long":106.850107,"station_name":"Gang Sentiong","transit":false,"time":1,"i_lat":-6.185975,"line":11},{"station_id":"PSE","time":8,"transit":false,"distance":1567,"line":11,"station_name":"Pasar Senen","i_long":106.84368,"i_lat":-6.174784,"is_transit":false},{"line":11,"transit":false,"station_name":"Kemayoran","i_lat":-6.161728,"i_long":106.839204,"distance":1436,"is_transit":false,"time":4,"station_id":"KMO"},{"distance":1901,"station_id":"RJW","is_transit":false,"time":5,"transit":false,"line":11,"i_lat":-6.14505,"station_name":"Rajawali","i_long":106.836569},{"i_lat":-6.132549,"line":4,"i_long":106.826365,"distance":1444,"transit":true,"station_id":"KPB","time":3,"station_name":"Kampung Bandan","is_transit":true},{"distance":4102,"station_name":"Angke","i_lat":-6.144674,"is_transit":false,"line":1,"i_long":106.79867,"station_id":"AK","time":9,"transit":false},{"line":1,"time":4,"station_id":"DU","transit":false,"distance":1230,"station_name":"Duri","i_long":106.800832,"i_lat":-6.155215,"is_transit":false},{"is_transit":true,"line":1,"time":8,"station_name":"Tanah Abang","transit":true,"i_long":106.811091,"station_id":"THB","distance":3632,"i_lat":-6.185545},{"distance":3191,"i_lat":-6.207404,"is_transit":false,"i_long":106.79689,"station_name":"Palmerah","transit":false,"station_id":"PLM","line":6,"time":6},{"station_name":"Kebayoran","is_transit":false,"i_lat":-6.237242,"line":6,"station_id":"KBY","transit":false,"time":7,"distance":3737,"i_long":106.780334},{"time":8,"station_id":"PDJ","i_long":106.74273,"distance":6218,"i_lat":-6.276362,"station_name":"Pondokranji","transit":false,"is_transit":false,"line":6},{"station_name":"Jurangmangu","line":6,"i_lat":-6.288927,"distance":2179,"station_id":"JMU","i_long":106.728916,"time":3,"is_transit":false,"transit":false},{"line":6,"is_transit":false,"transit":false,"distance":1994,"time":4,"i_long":106.712277,"i_lat":-6.296963,"station_name":"Sudimara","station_id":"SDM"}],[{"time":0,"station_name":"Cikini","distance":0,"i_long":106.840169,"is_transit":false,"line":2,"transit":false,"i_lat":-6.198556,"station_id":"CKI"},{"station_name":"Gondangdia","line":2,"distance":1750,"transit":false,"time":3,"is_transit":false,"station_id":"GDD","i_lat":-6.186295,"i_long":106.832183},{"i_long":106.828284,"line":2,"distance":2015,"transit":false,"i_lat":-6.166716,"is_transit":false,"station_name":"Juanda","time":4,"station_id":"JUA"},{"station_name":"Sawah Besar","transit":false,"station_id":"SW","line":2,"i_lat":-6.160725,"time":2,"is_transit":false,"distance":1149,"i_long":106.827103},{"transit":false,"station_id":"MGB","i_lat":-6.149769,"line":2,"station_name":"Manggabesar","i_long":106.82482,"time":2,"is_transit":false,"distance":906},{"distance":1080,"station_id":"JAY","time":2,"i_lat":-6.141205,"transit":false,"station_name":"Jayakarta","line":2,"is_transit":false,"i_long":106.820901},{"i_lat":-6.137569,"i_long":106.812439,"line":2,"distance":1264,"transit":true,"is_transit":true,"station_id":"JAKK","station_name":"Jakarta Kota","time":4},{"distance":1364,"station_name":"Kampung Bandan","is_transit":true,"i_long":106.826365,"i_lat":-6.132549,"transit":true,"time":3,"station_id":"KPB","line":4},{"time":3,"i_long":106.836569,"line":11,"station_name":"Rajawali","i_lat":-6.14505,"distance":1444,"is_transit":false,"transit":false,"station_id":"RJW"},{"station_name":"Kemayoran","i_long":106.839204,"i_lat":-6.161728,"line":11,"transit":false,"time":5,"is_transit":false,"distance":1901,"station_id":"KMO"},{"i_lat":-6.174784,"distance":1436,"is_transit":false,"station_name":"Pasar Senen","time":4,"station_id":"PSE","line":11,"i_long":106.84368,"transit":false},{"distance":1567,"transit":false,"time":8,"station_name":"Gang Sentiong","is_transit":false,"station_id":"GST","i_lat":-6.185975,"i_long":106.850107,"line":11},{"distance":973,"time":1,"i_lat":-6.193792,"i_long":106.855437,"transit":false,"is_transit":false,"line":11,"station_name":"Kramat","station_id":"KMT"},{"distance":1829,"station_id":"POK","station_name":"Pondok Jati","transit":false,"i_lat":-6.209188,"line":11,"i_long":106.861737,"time":2,"is_transit":false},{"station_id":"JNG","i_lat":-6.215091,"i_long":106.86807400000001,"line":1,"station_name":"Jatinegara","is_transit":true,"distance":1236,"time":9,"transit":true},{"time":2,"transit":false,"distance":1377,"i_lat":-6.212485,"station_name":"Matraman","is_transit":false,"station_id":"MTR","i_long":106.858896,"line":1},{"line":2,"i_lat":-6.209883,"is_transit":false,"station_id":"MRI","transit":false,"distance":1275,"station_name":"Manggarai","time":2,"i_long":106.84912},{"distance":3186,"time":4,"i_long":106.822649,"station_id":"SUD","is_transit":false,"transit":false,"station_name":"Sudirman","i_lat":-6.202263,"line":1},{"station_id":"SUDB","transit":false,"i_lat":-6.201433,"station_name":"Sudirman Baru","is_transit":false,"line":1,"i_long":106.819881,"time":1,"distance":280},{"distance":471,"transit":false,"line":1,"i_lat":-6.20132,"station_id":"KAT","time":1,"is_transit":false,"i_long":106.816351,"station_name":"Karet"},{"station_name":"Tanah Abang","i_lat":-6.185545,"is_transit":true,"distance":2029,"transit":true,"time":5,"i_long":106.811091,"station_id":"THB","line":1},{"time":6,"transit":false,"i_long":106.79689,"is_transit":false,"i_lat":-6.207404,"line":6,"station_name":"Palmerah","distance":3191,"station_id":"PLM"},{"transit":false,"time":7,"is_transit":false,"distance":3737,"station_name":"Kebayoran","i_lat":-6.237242,"line":6,"station_id":"KBY","i_long":106.780334},{"i_lat":-6.276362,"distance":6218,"transit":false,"line":6,"is_transit":false,"i_long":106.74273,"time":8,"station_id":"PDJ","station_name":"Pondokranji"},{"is_transit":false,"transit":false,"time":3,"station_name":"Jurangmangu","line":6,"station_id":"JMU","i_lat":-6.288927,"distance":2179,"i_long":106.728916},{"i_long":106.712277,"is_transit":false,"station_name":"Sudimara","time":4,"station_id":"SDM","transit":false,"distance":1994,"i_lat":-6.296963,"line":6}]]}