{"data":[[{"station_name":"Cikini","station_id":"CKI","is_transit":false,"distance":0,"transit":false,"i_long":106.840169,"i_lat":-6.198556,"time":0,"line":2},{"is_transit":false,"distance":1590,"line":2,"station_name":"Manggarai","station_id":"MRI","transit":false,"i_lat":-6.209883,"i_long":106.84912,"time":4},{"distance":2610,"i_long":106.857948,"line":2,"is_transit":false,"station_id":"TEB","transit":false,"time":4,"station_name":"Tebet","i_lat":-6.226659},{"station_name":"Cawang","i_lat":-6.242512,"i_long":106.856607,"transit":false,"time":2,"is_transit":false,"distance":1230,"line":2,"station_id":"CW"},{"transit":false,"station_name":"Duren Kalibata","i_lat":-6.255332,"time":3,"i_long":106.85449,"line":2,"distance":1546,"is_transit":false,"station_id":"DRN"}],[{"line":2,"is_transit":false,"i_lat":-6.198556,"transit":false,"station_id":"CKI","time":0,"i_long":106.840169,"station_name":"Cikini","distance":0},{"line":2,"is_transit":false,"transit":false,"station_name":"Gondangdia","i_long":106.832183,"station_id":"GDD","distance":1750,"time":3,"i_lat":-6.186295},{"i_long":106.828284,"station_name":"Juanda","is_transit":false,"distance":2015,"i_lat":-6.166716,"station_id":"JUA","line":2,"time":4,"transit":false},{"i_long":106.827103,"time":2,"i_lat":-6.160725,"is_transit":false,"station_name":"Sawah Besar","station_id":"SW","distance":1149,"transit":false,"line":2},{"line":2,"is_transit":false,"distance":906,"transit":false,"station_name":"Manggabesar","time":2,"i_lat":-6.149769,"station_id":"MGB","i_long":106.82482},{"is_transit":false,"transit":false,"distance":1080,"station_id":"JAY","i_lat":-6.141205,"i_long":106.820901,"time":2,"line":2,"station_name":"Jayakarta"},{"station_name":"Jakarta Kota","line":2,"time":4,"i_long":106.812439,"transit":true,"station_id":"JAKK","is_transit":true,"distance":1264,"i_lat":-6.137569},{"i_long":106.826365,"distance":1364,"time":3,"station_name":"Kampung Bandan","station_id":"KPB","transit":true,"line":4,"i_lat":-6.132549,"is_transit":true},{"is_transit":false,"station_id":"AK","distance":4102,"station_name":"Angke","i_lat":-6.144674,"line":1,"transit":false,"time":9,"i_long":106.79867},{"distance":1230,"i_long":106.800832,"i_lat":-6.155215,"transit":false,"station_id":"DU","line":1,"time":4,"station_name":"Duri","is_transit":false},{"distance":3632,"station_id":"THB","station_name":"Tanah Abang","transit":false,"line":1,"is_transit":false,"time":8,"i_long":106.811091,"i_lat":-6.185545},{"transit":false,"time":5,"distance":2029,"i_lat":-6.20132,"station_name":"Karet","i_long":106.816351,"line":1,"station_id":"KAT","is_transit":false},{"transit":false,"station_name":"Sudirman Baru","station_id":"SUDB","time":1,"i_long":106.819881,"is_transit":false,"distance":471,"line":1,"i_lat":-6.201433},{"time":1,"station_name":"Sudirman","i_lat":-6.202263,"line":1,"station_id":"SUD","is_transit":false,"i_long":106.822649,"distance":280,"transit":false},{"is_transit":true,"station_name":"Manggarai","i_long":106.84912,"distance":3186,"line":2,"transit":true,"station_id":"MRI","time":4,"i_lat":-6.209883},{"time":4,"station_id":"TEB","distance":2610,"i_long":106.857948,"line":2,"station_name":"Tebet","i_lat":-6.226659,"is_transit":false,"transit":false},{"is_transit":false,"time":2,"distance":1230,"station_name":"Cawang","station_id":"CW","transit":false,"i_lat":-6.242512,"i_long":106.856607,"line":2},{"time":3,"i_long":106.85449,"station_id":"DRN","line":2,"i_lat":-6.255332,"is_transit":false,"distance":1546,"station_name":"Duren Kalibata","transit":false}],[{"i_lat":-6.198556,"i_long":106.840169,"transit":false,"distance":0,"station_id":"CKI","time":0,"station_name":"Cikini","is_transit":false,"line":2},{"station_id":"GDD","time":3,"transit":false,"i_lat":-6.186295,"station_name":"Gondangdia","is_transit":false,"distance":1750,"i_long":106.832183,"line":2},{"station_name":"Juanda","i_lat":-6.166716,"station_id":"JUA","distance":2015,"is_transit":false,"time":4,"transit":false,"line":2,"i_long":106.828284},{"station_name":"Sawah Besar","transit":false,"time":2,"i_lat":-6.160725,"line":2,"is_transit":false,"station_id":"SW","i_long":106.827103,"distance":1149},{"line":2,"is_transit":false,"distance":906,"i_lat":-6.149769,"station_name":"Manggabesar","transit":false,"station_id":"MGB","i_long":106.82482,"time":2},{"is_transit":false,"distance":1080,"transit":false,"i_lat":-6.141205,"i_long":106.820901,"time":2,"station_name":"Jayakarta","line":2,"station_id":"JAY"},{"station_id":"JAKK","station_name":"Jakarta Kota","i_long":106.812439,"time":4,"transit":true,"line":2,"is_transit":true,"i_lat":-6.137569,"distance":1264},{"i_long":106.826365,"distance":1364,"i_lat":-6.132549,"is_transit":true,"station_id":"KPB","time":3,"transit":true,"line":4,"station_name":"Kampung Bandan"},{"is_transit":false,"station_id":"RJW","station_name":"Rajawali","line":11,"time":3,"i_lat":-6.14505,"transit":false,"i_long":106.836569,"distance":1444},{"i_long":106.839204,"time":5,"transit":false,"distance":1901,"line":11,"station_name":"Kemayoran","i_lat":-6.161728,"station_id":"KMO","is_transit":false},{"is_transit":false,"station_id":"PSE","time":4,"distance":1436,"station_name":"Pasar Senen","line":11,"transit":false,"i_long":106.84368,"i_lat":-6.174784},{"station_name":"Gang Sentiong","line":11,"station_id":"GST","distance":1567,"is_transit":false,"i_lat":-6.185975,"time":8,"i_long":106.850107,"transit":false},{"transit":false,"station_name":"Kramat","station_id":"KMT","i_long":106.855437,"distance":973,"i_lat":-6.193792,"line":11,"is_transit":false,"time":1},{"time":2,"line":11,"station_id":"POK","is_transit":false,"distance":1829,"station_name":"Pondok Jati","i_long":106.861737,"i_lat":-6.209188,"transit":false},{"is_transit":true,"transit":true,"time":9,"i_long":106.86807400000001,"station_id":"JNG","station_name":"Jatinegara","distance":1236,"i_lat":-6.215091,"line":1},{"distance":1377,"transit":false,"i_lat":-6.212485,"station_name":"Matraman","line":1,"i_long":106.858896,"is_transit":false,"time":2,"station_id":"MTR"},{"is_transit":true,"i_long":106.84912,"station_name":"Manggarai","line":2,"time":2,"station_id":"MRI","transit":true,"distance":1275,"i_lat":-6.209883},{"transit":false,"time":4,"station_id":"TEB","i_long":106.857948,"station_name":"Tebet","line":2,"distance":2610,"is_transit":false,"i_lat":-6.226659},{"distance":1230,"time":2,"is_transit":false,"transit":false,"station_id":"CW","line":2,"i_lat":-6.242512,"station_name":"Cawang","i_long":106.856607},{"distance":1546,"station_id":"DRN","time":3,"transit":false,"i_long":106.85449,"is_transit":false,"station_name":"Duren Kalibata","line":2,"i_lat":-6.255332}]]}