{"data":[[{"station_name":"Cikini","transit":false,"i_lat":-6.198556,"line":2,"i_long":106.840169,"distance":0,"station_id":"CKI","is_transit":false,"time":0},{"is_transit":true,"transit":true,"time":4,"i_lat":-6.209883,"i_long":106.84912,"line":2,"station_id":"MRI","distance":1590,"station_name":"Manggarai"},{"transit":false,"station_name":"Sudirman","is_transit":false,"i_lat":-6.202263,"line":1,"station_id":"SUD","time":4,"i_long":106.822649,"distance":3186},{"is_transit":false,"distance":280,"transit":false,"i_lat":-6.201433,"line":1,"i_long":106.819881,"station_id":"SUDB","station_name":"Sudirman Baru","time":1},{"is_transit":false,"distance":471,"time":1,"i_lat":-6.20132,"station_name":"Karet","i_long":106.816351,"line":1,"transit":false,"station_id":"KAT"},{"is_transit":false,"time":5,"station_name":"Tanah Abang","transit":false,"i_lat":-6.185545,"i_long":106.811091,"station_id":"THB","line":1,"distance":2029},{"time":8,"station_id":"DU","distance":3632,"transit":true,"station_name":"Duri","i_lat":-6.155215,"i_long":106.800832,"line":1,"is_transit":true},{"transit":false,"i_lat":-6.162021,"station_id":"GGL","time":3,"i_long":106.788277,"station_name":"Grogol","is_transit":false,"line":5,"distance":1700},{"i_long":106.771379,"is_transit":false,"station_name":"Pesing","transit":false,"time":2,"i_lat":-6.161433,"line":5,"distance":2036,"station_id":"PSG"},{"distance":1614,"time":2,"transit":false,"station_id":"TKO","line":5,"i_lat":-6.1587309999999995,"is_transit":false,"station_name":"Taman Kota","i_long":106.756522},{"station_id":"BOI","i_long":106.737035,"station_name":"Bojongindah","transit":false,"time":2,"distance":2334,"is_transit":false,"i_lat":-6.159876,"line":5},{"is_transit":false,"line":5,"transit":false,"time":4,"i_long":106.723064,"station_name":"Rawa Buaya","i_lat":-6.162758,"distance":1152,"station_id":"RW"},{"line":5,"is_transit":false,"station_name":"Kalideres","station_id":"KDS","distance":2504,"transit":false,"i_lat":-6.166068,"i_long":106.701612,"time":3},{"is_transit":false,"time":3,"line":5,"transit":false,"i_lat":-6.169933,"i_long":106.679458,"station_id":"PI","distance":2548,"station_name":"Poris"},{"time":3,"i_lat":-6.171811,"is_transit":false,"distance":1834,"i_long":106.665036,"transit":false,"station_id":"BPR","line":5,"station_name":"Batuceper"}],[{"is_transit":false,"i_lat":-6.198556,"transit":false,"distance":0,"i_long":106.840169,"line":2,"station_name":"Cikini","station_id":"CKI","time":0},{"time":3,"i_lat":-6.186295,"line":2,"is_transit":false,"station_name":"Gondangdia","distance":1750,"station_id":"GDD","i_long":106.832183,"transit":false},{"line":2,"i_long":106.828284,"distance":2015,"station_name":"Juanda","is_transit":false,"station_id":"JUA","i_lat":-6.166716,"transit":false,"time":4},{"station_name":"Sawah Besar","station_id":"SW","i_lat":-6.160725,"time":2,"i_long":106.827103,"line":2,"transit":false,"is_transit":false,"distance":1149},{"i_long":106.82482,"transit":false,"line":2,"i_lat":-6.149769,"station_name":"Manggabesar","station_id":"MGB","is_transit":false,"time":2,"distance":906},{"transit":false,"i_lat":-6.141205,"station_id":"JAY","station_name":"Jayakarta","distance":1080,"i_long":106.820901,"line":2,"time":2,"is_transit":false},{"transit":true,"station_name":"Jakarta Kota","is_transit":true,"time":4,"station_id":"JAKK","distance":1264,"i_long":106.812439,"i_lat":-6.137569,"line":2},{"transit":true,"station_name":"Kampung Bandan","is_transit":true,"i_lat":-6.132549,"distance":1364,"station_id":"KPB","time":3,"i_long":106.826365,"line":4},{"station_name":"Angke","distance":4102,"i_long":106.79867,"line":1,"transit":false,"time":9,"station_id":"AK","i_lat":-6.144674,"is_transit":false},{"time":4,"i_lat":-6.155215,"i_long":106.800832,"station_name":"Duri","line":1,"transit":true,"station_id":"DU","is_transit":true,"distance":1230},{"is_transit":false,"station_name":"Grogol","i_lat":-6.162021,"distance":1700,"transit":false,"line":5,"time":3,"i_long":106.788277,"station_id":"GGL"},{"is_transit":false,"i_long":106.771379,"line":5,"time":2,"station_name":"Pesing","transit":false,"i_lat":-6.161433,"station_id":"PSG","distance":2036},{"line":5,"station_name":"Taman Kota","transit":false,"station_id":"TKO","is_transit":false,"time":2,"i_lat":-6.1587309999999995,"i_long":106.756522,"distance":1614},{"line":5,"is_transit":false,"station_name":"Bojongindah","distance":2334,"time":2,"i_long":106.737035,"station_id":"BOI","i_lat":-6.159876,"transit":false},{"distance":1152,"time":4,"i_long":106.723064,"station_name":"Rawa Buaya","transit":false,"is_transit":false,"i_lat":-6.162758,"line":5,"station_id":"RW"},{"distance":2504,"is_transit":false,"i_lat":-6.166068,"transit":false,"line":5,"time":3,"station_id":"KDS","station_name":"Kalideres","i_long":106.701612},{"transit":false,"distance":2548,"station_name":"Poris","station_id":"PI","i_long":106.679458,"is_transit":false,"i_lat":-6.169933,"time":3,"line":5},{"i_lat":-6.171811,"transit":false,"station_name":"Batuceper","is_transit":false,"i_long":106.665036,"station_id":"BPR","time":3,"line":5,"distance":1834}],[{"i_lat":-6.198556,"line":2,"transit":false,"i_long":106.840169,"is_transit":false,"station_name":"Cikini","distance":0,"station_id":"CKI","time":0},{"station_id":"MRI","transit":true,"station_name":"Manggarai","line":2,"is_transit":true,"time":4,"i_lat":-6.209883,"i_long":106.84912,"distance":1590},{"transit":false,"i_lat":-6.212485,"line":1,"distance":1275,"station_id":"MTR","time":2,"station_name":"Matraman","is_transit":false,"i_long":106.858896},{"transit":true,"distance":1377,"i_lat":-6.215091,"is_transit":true,"station_name":"Jatinegara","i_long":106.86807400000001,"time":8,"line":1,"station_id":"JNG"},{"i_lat":-6.209188,"station_id":"POK","i_long":106.861737,"is_transit":false,"station_name":"Pondok Jati","transit":false,"distance":1236,"time":2,"line":11},{"is_transit":false,"station_name":"Kramat","time":2,"distance":1829,"station_id":"KMT","i_long":106.855437,"line":11,"i_lat":-6.193792,"transit":false},{"line":11,"time":1,"i_lat":-6.185975,"station_id":"GST","station_name":"Gang Sentiong","transit":false,"i_long":106.850107,"is_transit":false,"distance":973},{"station_id":"PSE","distance":1567,"i_long":106.84368,"time":8,"transit":false,"i_lat":-6.174784,"station_name":"Pasar Senen","is_transit":false,"line":11},{"line":11,"time":4,"transit":false,"station_name":"Kemayoran","i_long":106.839204,"i_lat":-6.161728,"station_id":"KMO","is_transit":false,"distance":1436},{"transit":false,"line":11,"time":5,"i_long":106.836569,"is_transit":false,"distance":1901,"station_name":"Rajawali","station_id":"RJW","i_lat":-6.14505},{"transit":true,"is_transit":true,"time":3,"i_lat":-6.132549,"station_name":"Kampung Bandan","i_long":106.826365,"line":4,"distance":1444,"station_id":"KPB"},{"station_name":"Angke","i_lat":-6.144674,"transit":false,"line":1,"station_id":"AK","distance":4102,"time":9,"is_transit":false,"i_long":106.79867},{"is_transit":true,"transit":true,"time":4,"i_lat":-6.155215,"line":1,"station_name":"Duri","i_long":106.800832,"station_id":"DU","distance":1230},{"transit":false,"i_long":106.788277,"line":5,"station_id":"GGL","is_transit":false,"distance":1700,"time":3,"station_name":"Grogol","i_lat":-6.162021},{"distance":2036,"station_id":"PSG","station_name":"Pesing","is_transit":false,"i_long":106.771379,"line":5,"time":2,"transit":false,"i_lat":-6.161433},{"distance":1614,"i_lat":-6.1587309999999995,"i_long":106.756522,"line":5,"station_name":"Taman Kota","transit":false,"is_transit":false,"time":2,"station_id":"TKO"},{"transit":false,"station_name":"Bojongindah","i_lat":-6.159876,"station_id":"BOI","is_transit":false,"line":5,"i_long":106.737035,"time":2,"distance":2334},{"line":5,"transit":false,"is_transit":false,"i_lat":-6.162758,"distance":1152,"station_name":"Rawa Buaya","i_long":106.723064,"station_id":"RW","time":4},{"station_name":"Kalideres","transit":false,"distance":2504,"is_transit":false,"i_long":106.701612,"time":3,"i_lat":-6.166068,"station_id":"KDS","line":5},{"transit":false,"is_transit":false,"i_long":106.679458,"distance":2548,"line":5,"station_name":"Poris","station_id":"PI","i_lat":-6.169933,"time":3},{"line":5,"i_lat":-6.171811,"transit":false,"time":3,"i_long":106.665036,"distance":1834,"station_id":"BPR","is_transit":false,"station_name":"Batuceper"}],[{"station_id":"CKI","is_transit":false,"distance":0,"i_lat":-6.198556,"station_name":"Cikini","i_long":106.840169,"line":2,"transit":false,"time":0},{"is_transit":false,"station_id":"GDD","distance":1750,"i_lat":-6.186295,"station_name":"Gondangdia","i_long":106.832183,"line":2,"time":3,"transit":false},{"distance":2015,"i_lat":-6.166716,"time":4,"line":2,"station_name":"Juanda","transit":false,"station_id":"JUA","i_long":106.828284,"is_transit":false},{"station_id":"SW","is_transit":false,"line":2,"station_name":"Sawah Besar","transit":false,"time":2,"distance":1149,"i_lat":-6.160725,"i_long":106.827103},{"station_name":"Manggabesar","is_transit":false,"line":2,"transit":false,"i_lat":-6.149769,"distance":906,"station_id":"MGB","i_long":106.82482,"time":2},{"line":2,"station_id":"JAY","i_lat":-6.141205,"distance":1080,"time":2,"station_name":"Jayakarta","is_transit":false,"i_long":106.820901,"transit":false},{"station_name":"Jakarta Kota","i_lat":-6.137569,"is_transit":true,"transit":true,"distance":1264,"time":4,"i_long":106.812439,"station_id":"JAKK","line":2},{"transit":true,"station_name":"Kampung Bandan","distance":1364,"is_transit":true,"time":3,"i_lat":-6.132549,"line":4,"i_long":106.826365,"station_id":"KPB"},{"is_transit":false,"transit":false,"line":11,"station_name":"Rajawali","station_id":"RJW","distance":1444,"i_lat":-6.14505,"i_long":106.836569,"time":3},{"transit":false,"station_name":"Kemayoran","distance":1901,"i_long":106.839204,"line":11,"i_lat":-6.161728,"time":5,"is_transit":false,"station_id":"KMO"},{"station_name":"Pasar Senen","station_id":"PSE","i_lat":-6.174784,"transit":false,"is_transit":false,"i_long":106.84368,"distance":1436,"line":11,"time":4},{"transit":false,"time":8,"i_long":106.850107,"distance":1567,"line":11,"i_lat":-6.185975,"station_id":"GST","is_transit":false,"station_name":"Gang Sentiong"},{"transit":false,"station_id":"KMT","is_transit":false,"line":11,"time":1,"distance":973,"station_name":"Kramat","i_long":106.855437,"i_lat":-6.193792},{"is_transit":false,"transit":false,"i_long":106.861737,"distance":1829,"line":11,"i_lat":-6.209188,"station_name":"Pondok Jati","time":2,"station_id":"POK"},{"time":9,"station_name":"Jatinegara","is_transit":true,"transit":true,"distance":1236,"i_long":106.86807400000001,"i_lat":-6.215091,"station_id":"JNG","line":1},{"is_transit":false,"i_lat":-6.212485,"line":1,"i_long":106.858896,"transit":false,"station_id":"MTR","time":2,"distance":1377,"station_name":"Matraman"},{"transit":false,"i_lat":-6.209883,"time":2,"station_id":"MRI","i_long":106.84912,"is_transit":false,"distance":1275,"station_name":"Manggarai","line":2},{"station_id":"SUD","is_transit":false,"distance":3186,"station_name":"Sudirman","time":4,"i_lat":-6.202263,"i_long":106.822649,"line":1,"transit":false},{"station_name":"Sudirman Baru","distance":280,"is_transit":false,"time":1,"transit":false,"i_long":106.819881,"line":1,"station_id":"SUDB","i_lat":-6.201433},{"distance":471,"time":1,"transit":false,"i_lat":-6.20132,"is_transit":false,"line":1,"i_long":106.816351,"station_name":"Karet","station_id":"KAT"},{"time":5,"distance":2029,"i_lat":-6.185545,"i_long":106.811091,"is_transit":false,"transit":false,"station_name":"Tanah Abang","line":1,"station_id":"THB"},{"i_lat":-6.155215,"transit":true,"station_name":"Duri","station_id":"DU","time":8,"line":1,"distance":3632,"is_transit":true,"i_long":106.800832},{"is_transit":false,"i_long":106.788277,"transit":false,"station_name":"Grogol","station_id":"GGL","distance":1700,"time":3,"i_lat":-6.162021,"line":5},{"station_name":"Pesing","is_transit":false,"station_id":"PSG","distance":2036,"i_long":106.771379,"transit":false,"line":5,"time":2,"i_lat":-6.161433},{"station_name":"Taman Kota","station_id":"TKO","i_lat":-6.1587309999999995,"time":2,"i_long":106.756522,"transit":false,"is_transit":false,"distance":1614,"line":5},{"time":2,"is_transit":false,"station_id":"BOI","distance":2334,"i_lat":-6.159876,"station_name":"Bojongindah","i_long":106.737035,"transit":false,"line":5},{"is_transit":false,"time":4,"station_id":"RW","station_name":"Rawa Buaya","distance":1152,"i_lat":-6.162758,"line":5,"i_long":106.723064,"transit":false},{"i_lat":-6.166068,"i_long":106.701612,"station_name":"Kalideres","distance":2504,"station_id":"KDS","is_transit":false,"time":3,"transit":false,"line":5},{"transit":false,"station_name":"Poris","i_long":106.679458,"time":3,"i_lat":-6.169933,"station_id":"PI","distance":2548,"is_transit":false,"line":5},{"station_id":"BPR","line":5,"distance":1834,"transit":false,"station_name":"Batuceper","is_transit":false,"time":3,"i_long":106.665036,"i_lat":-6.171811}]]}