{"data":[[{"transit":false,"line":2,"station_name":"Cikini","time":0,"station_id":"CKI","distance":0,"is_transit":false,"i_lat":-6.198556,"i_long":106.840169},{"i_long":106.84912,"i_lat":-6.209883,"line":2,"station_id":"MRI","is_transit":true,"transit":true,"distance":1590,"station_name":"Manggarai","time":4},{"distance":1275,"i_lat":-6.212485,"transit":false,"time":2,"i_long":106.858896,"is_transit":false,"line":1,"station_name":"Matraman","station_id":"MTR"},{"i_lat":-6.215091,"distance":1377,"time":8,"station_id":"JNG","i_long":106.86807400000001,"line":1,"is_transit":false,"station_name":"Jatinegara","transit":false},{"station_name":"Klender","i_lat":-6.2135,"distance":3395,"time":3,"is_transit":false,"transit":false,"station_id":"KLD","i_long":106.899548,"line":1},{"transit":false,"is_transit":false,"station_name":"Buaran","station_id":"BUA","line":1,"time":2,"i_long":106.922662,"distance":3100,"i_lat":-6.215568},{"time":1,"is_transit":false,"transit":false,"i_lat":-6.217455,"station_name":"Klenderbaru","line":1,"i_long":106.939679,"distance":1305,"station_id":"KLDB"},{"i_long":106.951283,"i_lat":-6.219053,"is_transit":false,"station_name":"Cakung","transit":false,"time":8,"station_id":"CUK","line":1,"distance":1385}],[{"distance":0,"transit":false,"line":2,"is_transit":false,"time":0,"i_lat":-6.198556,"i_long":106.840169,"station_name":"Cikini","station_id":"CKI"},{"distance":1750,"station_name":"Gondangdia","time":3,"is_transit":false,"station_id":"GDD","transit":false,"i_lat":-6.186295,"line":2,"i_long":106.832183},{"i_lat":-6.166716,"station_name":"Juanda","station_id":"JUA","distance":2015,"time":4,"i_long":106.828284,"is_transit":false,"transit":false,"line":2},{"station_name":"Sawah Besar","is_transit":false,"station_id":"SW","i_lat":-6.160725,"i_long":106.827103,"transit":false,"distance":1149,"time":2,"line":2},{"time":2,"distance":906,"is_transit":false,"station_name":"Manggabesar","transit":false,"i_lat":-6.149769,"line":2,"station_id":"MGB","i_long":106.82482},{"time":2,"is_transit":false,"transit":false,"i_lat":-6.141205,"i_long":106.820901,"station_id":"JAY","line":2,"distance":1080,"station_name":"Jayakarta"},{"time":4,"i_long":106.812439,"distance":1264,"is_transit":true,"station_id":"JAKK","station_name":"Jakarta Kota","line":2,"transit":true,"i_lat":-6.137569},{"station_id":"KPB","distance":1364,"i_long":106.826365,"i_lat":-6.132549,"time":3,"station_name":"Kampung Bandan","line":4,"is_transit":true,"transit":true},{"transit":false,"station_name":"Rajawali","line":11,"time":3,"i_lat":-6.14505,"i_long":106.836569,"distance":1444,"station_id":"RJW","is_transit":false},{"station_id":"KMO","transit":false,"station_name":"Kemayoran","i_lat":-6.161728,"distance":1901,"time":5,"i_long":106.839204,"is_transit":false,"line":11},{"station_id":"PSE","station_name":"Pasar Senen","i_long":106.84368,"line":11,"transit":false,"distance":1436,"is_transit":false,"i_lat":-6.174784,"time":4},{"station_id":"GST","transit":false,"i_lat":-6.185975,"line":11,"is_transit":false,"time":8,"distance":1567,"i_long":106.850107,"station_name":"Gang Sentiong"},{"i_lat":-6.193792,"is_transit":false,"i_long":106.855437,"line":11,"station_name":"Kramat","transit":false,"station_id":"KMT","distance":973,"time":1},{"is_transit":false,"station_id":"POK","i_long":106.861737,"transit":false,"distance":1829,"line":11,"i_lat":-6.209188,"station_name":"Pondok Jati","time":2},{"i_long":106.86807400000001,"time":9,"distance":1236,"station_id":"JNG","is_transit":true,"station_name":"Jatinegara","transit":true,"i_lat":-6.215091,"line":1},{"i_lat":-6.2135,"transit":false,"is_transit":false,"station_id":"KLD","i_long":106.899548,"line":1,"station_name":"Klender","distance":3395,"time":3},{"i_lat":-6.215568,"station_name":"Buaran","time":2,"station_id":"BUA","is_transit":false,"distance":3100,"line":1,"transit":false,"i_long":106.922662},{"i_lat":-6.217455,"transit":false,"station_name":"Klenderbaru","distance":1305,"time":1,"i_long":106.939679,"station_id":"KLDB","line":1,"is_transit":false},{"time":8,"transit":false,"i_lat":-6.219053,"station_id":"CUK","line":1,"i_long":106.951283,"distance":1385,"station_name":"Cakung","is_transit":false}],[{"transit":false,"time":0,"is_transit":false,"i_lat":-6.198556,"line":2,"station_id":"CKI","i_long":106.840169,"distance":0,"station_name":"Cikini"},{"line":2,"is_transit":true,"time":4,"station_name":"Manggarai","transit":true,"i_lat":-6.209883,"distance":1590,"station_id":"MRI","i_long":106.84912},{"transit":false,"distance":3186,"station_name":"Sudirman","is_transit":false,"i_lat":-6.202263,"i_long":106.822649,"line":1,"time":4,"station_id":"SUD"},{"transit":false,"time":1,"distance":280,"i_long":106.819881,"station_name":"Sudirman Baru","i_lat":-6.201433,"line":1,"is_transit":false,"station_id":"SUDB"},{"time":1,"transit":false,"line":1,"is_transit":false,"station_name":"Karet","distance":471,"i_lat":-6.20132,"station_id":"KAT","i_long":106.816351},{"time":5,"is_transit":false,"station_id":"THB","transit":false,"i_long":106.811091,"line":1,"distance":2029,"station_name":"Tanah Abang","i_lat":-6.185545},{"station_id":"DU","station_name":"Duri","transit":false,"i_lat":-6.155215,"i_long":106.800832,"distance":3632,"is_transit":false,"time":8,"line":1},{"is_transit":false,"i_long":106.79867,"i_lat":-6.144674,"distance":1230,"station_id":"AK","transit":false,"station_name":"Angke","line":1,"time":4},{"i_lat":-6.132549,"station_name":"Kampung Bandan","i_long":106.826365,"station_id":"KPB","transit":true,"line":4,"distance":4102,"time":9,"is_transit":true},{"transit":false,"is_transit":false,"i_long":106.836569,"station_id":"RJW","distance":1444,"i_lat":-6.14505,"line":11,"time":3,"station_name":"Rajawali"},{"is_transit":false,"station_id":"KMO","i_lat":-6.161728,"i_long":106.839204,"station_name":"Kemayoran","distance":1901,"time":5,"transit":false,"line":11},{"distance":1436,"i_lat":-6.174784,"is_transit":false,"i_long":106.84368,"time":4,"station_id":"PSE","transit":false,"station_name":"Pasar Senen","line":11},{"is_transit":false,"i_lat":-6.185975,"i_long":106.850107,"station_name":"Gang Sentiong","line":11,"station_id":"GST","transit":false,"time":8,"distance":1567},{"station_name":"Kramat","time":1,"transit":false,"i_long":106.855437,"station_id":"KMT","i_lat":-6.193792,"line":11,"distance":973,"is_transit":false},{"i_lat":-6.209188,"station_name":"Pondok Jati","i_long":106.861737,"is_transit":false,"line":11,"transit":false,"time":2,"station_id":"POK","distance":1829},{"is_transit":true,"station_name":"Jatinegara","time":9,"line":1,"distance":1236,"transit":true,"i_lat":-6.215091,"i_long":106.86807400000001,"station_id":"JNG"},{"is_transit":false,"station_id":"KLD","time":3,"transit":false,"distance":3395,"station_name":"Klender","i_lat":-6.2135,"i_long":106.899548,"line":1},{"i_lat":-6.215568,"time":2,"line":1,"transit":false,"distance":3100,"station_name":"Buaran","is_transit":false,"station_id":"BUA","i_long":106.922662},{"station_name":"Klenderbaru","is_transit":false,"transit":false,"time":1,"i_lat":-6.217455,"i_long":106.939679,"station_id":"KLDB","line":1,"distance":1305},{"i_lat":-6.219053,"distance":1385,"is_transit":false,"station_id":"CUK","time":8,"i_long":106.951283,"line":1,"station_name":"Cakung","transit":false}],[{"distance":0,"i_lat":-6.198556,"i_long":106.840169,"line":2,"time":0,"station_id":"CKI","transit":false,"is_transit":false,"station_name":"Cikini"},{"transit":false,"station_name":"Gondangdia","time":3,"line":2,"i_lat":-6.186295,"distance":1750,"is_transit":false,"i_long":106.832183,"station_id":"GDD"},{"station_name":"Juanda","i_long":106.828284,"i_lat":-6.166716,"distance":2015,"line":2,"time":4,"transit":false,"is_transit":false,"station_id":"JUA"},{"is_transit":false,"station_name":"Sawah Besar","station_id":"SW","transit":false,"line":2,"time":2,"i_long":106.827103,"i_lat":-6.160725,"distance":1149},{"distance":906,"i_long":106.82482,"station_name":"Manggabesar","station_id":"MGB","time":2,"transit":false,"i_lat":-6.149769,"line":2,"is_transit":false},{"is_transit":false,"i_lat":-6.141205,"time":2,"station_name":"Jayakarta","transit":false,"distance":1080,"station_id":"JAY","i_long":106.820901,"line":2},{"distance":1264,"station_name":"Jakarta Kota","station_id":"JAKK","line":2,"is_transit":true,"transit":true,"i_lat":-6.137569,"i_long":106.812439,"time":4},{"station_id":"KPB","time":3,"transit":true,"is_transit":true,"line":4,"station_name":"Kampung Bandan","i_long":106.826365,"distance":1364,"i_lat":-6.132549},{"i_lat":-6.144674,"line":1,"station_name":"Angke","station_id":"AK","time":9,"is_transit":false,"transit":false,"i_long":106.79867,"distance":4102},{"is_transit":false,"station_id":"DU","transit":false,"i_lat":-6.155215,"i_long":106.800832,"line":1,"time":4,"distance":1230,"station_name":"Duri"},{"line":1,"distance":3632,"time":8,"station_name":"Tanah Abang","i_long":106.811091,"transit":false,"i_lat":-6.185545,"is_transit":false,"station_id":"THB"},{"line":1,"station_name":"Karet","i_lat":-6.20132,"distance":2029,"time":5,"i_long":106.816351,"transit":false,"is_transit":false,"station_id":"KAT"},{"station_name":"Sudirman Baru","transit":false,"i_lat":-6.201433,"distance":471,"line":1,"station_id":"SUDB","time":1,"i_long":106.819881,"is_transit":false},{"distance":280,"station_name":"Sudirman","station_id":"SUD","time":1,"line":1,"is_transit":false,"transit":false,"i_long":106.822649,"i_lat":-6.202263},{"station_id":"MRI","distance":3186,"time":4,"transit":false,"line":2,"is_transit":false,"station_name":"Manggarai","i_long":106.84912,"i_lat":-6.209883},{"is_transit":false,"time":2,"transit":false,"line":1,"i_lat":-6.212485,"station_id":"MTR","station_name":"Matraman","i_long":106.858896,"distance":1275},{"line":1,"is_transit":false,"station_name":"Jatinegara","i_lat":-6.215091,"transit":false,"i_long":106.86807400000001,"distance":1377,"station_id":"JNG","time":8},{"station_name":"Klender","transit":false,"distance":3395,"i_lat":-6.2135,"time":3,"is_transit":false,"i_long":106.899548,"line":1,"station_id":"KLD"},{"is_transit":false,"i_lat":-6.215568,"station_id":"BUA","distance":3100,"station_name":"Buaran","transit":false,"time":2,"i_long":106.922662,"line":1},{"i_lat":-6.217455,"line":1,"is_transit":false,"station_id":"KLDB","transit":false,"time":1,"i_long":106.939679,"distance":1305,"station_name":"Klenderbaru"},{"transit":false,"i_lat":-6.219053,"time":8,"is_transit":false,"station_id":"CUK","i_long":106.951283,"distance":1385,"station_name":"Cakung","line":1}]]}