{"data":[[{"is_transit":false,"station_name":"Cikini","station_id":"CKI","i_lat":-6.198556,"line":2,"i_long":106.840169,"distance":0,"time":0,"transit":false},{"i_lat":-6.186295,"line":2,"station_id":"GDD","transit":false,"distance":1750,"i_long":106.832183,"is_transit":false,"station_name":"Gondangdia","time":3},{"is_transit":false,"station_name":"Juanda","time":4,"transit":false,"i_long":106.828284,"distance":2015,"station_id":"JUA","i_lat":-6.166716,"line":2},{"station_name":"Sawah Besar","is_transit":false,"i_lat":-6.160725,"line":2,"transit":false,"time":2,"i_long":106.827103,"distance":1149,"station_id":"SW"},{"is_transit":false,"distance":906,"line":2,"transit":false,"i_long":106.82482,"time":2,"station_id":"MGB","station_name":"Manggabesar","i_lat":-6.149769},{"i_lat":-6.141205,"time":2,"line":2,"is_transit":false,"station_id":"JAY","station_name":"Jayakarta","transit":false,"i_long":106.820901,"distance":1080},{"line":2,"i_lat":-6.137569,"time":4,"station_id":"JAKK","distance":1264,"is_transit":false,"station_name":"Jakarta Kota","transit":false,"i_long":106.812439}],[{"is_transit":false,"line":2,"time":0,"transit":false,"distance":0,"i_lat":-6.198556,"i_long":106.840169,"station_id":"CKI","station_name":"Cikini"},{"i_long":106.84912,"station_name":"Manggarai","is_transit":true,"i_lat":-6.209883,"distance":1590,"time":4,"line":2,"station_id":"MRI","transit":true},{"station_id":"SUD","distance":3186,"is_transit":false,"time":4,"transit":false,"line":1,"i_lat":-6.202263,"i_long":106.822649,"station_name":"Sudirman"},{"is_transit":false,"time":1,"i_long":106.819881,"line":1,"station_name":"Sudirman Baru","distance":280,"i_lat":-6.201433,"transit":false,"station_id":"SUDB"},{"i_lat":-6.20132,"i_long":106.816351,"line":1,"time":1,"transit":false,"station_id":"KAT","distance":471,"station_name":"Karet","is_transit":false},{"time":5,"is_transit":false,"transit":false,"line":1,"distance":2029,"station_name":"Tanah Abang","station_id":"THB","i_lat":-6.185545,"i_long":106.811091},{"is_transit":false,"i_lat":-6.155215,"line":1,"time":8,"i_long":106.800832,"distance":3632,"transit":false,"station_id":"DU","station_name":"Duri"},{"i_long":106.79867,"transit":false,"is_transit":false,"i_lat":-6.144674,"station_name":"Angke","line":1,"station_id":"AK","time":4,"distance":1230},{"transit":true,"line":4,"i_lat":-6.132549,"station_id":"KPB","distance":4102,"station_name":"Kampung Bandan","time":9,"i_long":106.826365,"is_transit":true},{"distance":1364,"i_long":106.812439,"line":2,"station_id":"JAKK","is_transit":false,"transit":false,"station_name":"Jakarta Kota","i_lat":-6.137569,"time":3}],[{"transit":false,"station_id":"CKI","line":2,"i_lat":-6.198556,"distance":0,"station_name":"Cikini","time":0,"is_transit":false,"i_long":106.840169},{"distance":1590,"station_id":"MRI","line":2,"transit":true,"station_name":"Manggarai","is_transit":true,"time":4,"i_lat":-6.209883,"i_long":106.84912},{"is_transit":false,"i_lat":-6.212485,"station_id":"MTR","i_long":106.858896,"transit":false,"line":1,"time":2,"distance":1275,"station_name":"Matraman"},{"line":1,"transit":true,"station_name":"Jatinegara","distance":1377,"is_transit":true,"i_lat":-6.215091,"time":8,"station_id":"JNG","i_long":106.86807400000001},{"distance":1236,"line":11,"station_name":"Pondok Jati","i_long":106.861737,"time":2,"station_id":"POK","is_transit":false,"transit":false,"i_lat":-6.209188},{"i_lat":-6.193792,"transit":false,"distance":1829,"is_transit":false,"line":11,"time":2,"station_name":"Kramat","i_long":106.855437,"station_id":"KMT"},{"line":11,"i_long":106.850107,"i_lat":-6.185975,"time":1,"station_id":"GST","station_name":"Gang Sentiong","transit":false,"distance":973,"is_transit":false},{"transit":false,"i_long":106.84368,"line":11,"i_lat":-6.174784,"station_id":"PSE","time":8,"distance":1567,"station_name":"Pasar Senen","is_transit":false},{"station_name":"Kemayoran","transit":false,"line":11,"station_id":"KMO","distance":1436,"i_lat":-6.161728,"time":4,"i_long":106.839204,"is_transit":false},{"distance":1901,"station_name":"Rajawali","transit":false,"time":5,"i_lat":-6.14505,"line":11,"i_long":106.836569,"station_id":"RJW","is_transit":false},{"station_name":"Kampung Bandan","is_transit":true,"i_lat":-6.132549,"line":4,"distance":1444,"i_long":106.826365,"transit":true,"time":3,"station_id":"KPB"},{"is_transit":false,"transit":false,"line":2,"station_id":"JAKK","distance":1364,"i_lat":-6.137569,"i_long":106.812439,"time":3,"station_name":"Jakarta Kota"}]]}