{"data":[[{"is_transit":false,"station_name":"Cikini","i_lat":-6.198556,"station_id":"CKI","transit":false,"i_long":106.840169,"time":0,"distance":0,"line":2},{"station_id":"MRI","station_name":"Manggarai","i_long":106.84912,"line":2,"transit":true,"time":4,"i_lat":-6.209883,"distance":1590,"is_transit":true},{"station_id":"MTR","line":1,"station_name":"Matraman","transit":false,"distance":1275,"i_lat":-6.212485,"i_long":106.858896,"is_transit":false,"time":2},{"station_id":"JNG","is_transit":true,"time":8,"line":1,"distance":1377,"i_lat":-6.215091,"i_long":106.86807400000001,"station_name":"Jatinegara","transit":true},{"station_id":"POK","i_long":106.861737,"line":11,"distance":1236,"transit":false,"station_name":"Pondok Jati","time":2,"i_lat":-6.209188,"is_transit":false},{"transit":false,"distance":1829,"is_transit":false,"i_long":106.855437,"station_name":"Kramat","i_lat":-6.193792,"time":2,"line":11,"station_id":"KMT"},{"transit":false,"station_name":"Gang Sentiong","time":1,"station_id":"GST","i_long":106.850107,"i_lat":-6.185975,"is_transit":false,"distance":973,"line":11},{"i_long":106.84368,"station_id":"PSE","distance":1567,"station_name":"Pasar Senen","time":8,"transit":false,"line":11,"is_transit":false,"i_lat":-6.174784},{"i_long":106.839204,"distance":1436,"station_name":"Kemayoran","i_lat":-6.161728,"line":11,"time":4,"is_transit":false,"station_id":"KMO","transit":false}],[{"transit":false,"i_lat":-6.198556,"i_long":106.840169,"time":0,"line":2,"station_id":"CKI","station_name":"Cikini","is_transit":false,"distance":0},{"distance":1750,"line":2,"station_name":"Gondangdia","is_transit":false,"station_id":"GDD","transit":false,"i_lat":-6.186295,"time":3,"i_long":106.832183},{"time":4,"i_long":106.828284,"distance":2015,"transit":false,"station_name":"Juanda","line":2,"station_id":"JUA","i_lat":-6.166716,"is_transit":false},{"station_name":"Sawah Besar","station_id":"SW","time":2,"is_transit":false,"distance":1149,"i_lat":-6.160725,"transit":false,"i_long":106.827103,"line":2},{"time":2,"i_lat":-6.149769,"station_name":"Manggabesar","is_transit":false,"station_id":"MGB","line":2,"transit":false,"i_long":106.82482,"distance":906},{"is_transit":false,"i_lat":-6.141205,"station_id":"JAY","transit":false,"line":2,"time":2,"distance":1080,"i_long":106.820901,"station_name":"Jayakarta"},{"i_lat":-6.137569,"transit":true,"station_id":"JAKK","is_transit":true,"line":2,"station_name":"Jakarta Kota","time":4,"distance":1264,"i_long":106.812439},{"station_name":"Kampung Bandan","station_id":"KPB","line":4,"distance":1364,"is_transit":true,"i_lat":-6.132549,"time":3,"transit":true,"i_long":106.826365},{"time":3,"is_transit":false,"i_long":106.836569,"i_lat":-6.14505,"transit":false,"station_name":"Rajawali","station_id":"RJW","distance":1444,"line":11},{"i_lat":-6.161728,"is_transit":false,"distance":1901,"transit":false,"i_long":106.839204,"station_name":"Kemayoran","time":5,"station_id":"KMO","line":11}],[{"i_long":106.840169,"transit":false,"station_name":"Cikini","line":2,"i_lat":-6.198556,"is_transit":false,"station_id":"CKI","time":0,"distance":0},{"station_name":"Manggarai","distance":1590,"is_transit":true,"i_lat":-6.209883,"line":2,"i_long":106.84912,"station_id":"MRI","time":4,"transit":true},{"i_long":106.822649,"line":1,"transit":false,"station_id":"SUD","time":4,"station_name":"Sudirman","is_transit":false,"distance":3186,"i_lat":-6.202263},{"station_name":"Sudirman Baru","is_transit":false,"transit":false,"station_id":"SUDB","distance":280,"line":1,"i_lat":-6.201433,"i_long":106.819881,"time":1},{"is_transit":false,"distance":471,"line":1,"station_id":"KAT","station_name":"Karet","i_long":106.816351,"i_lat":-6.20132,"time":1,"transit":false},{"station_id":"THB","is_transit":false,"station_name":"Tanah Abang","i_lat":-6.185545,"time":5,"i_long":106.811091,"transit":false,"distance":2029,"line":1},{"station_name":"Duri","i_lat":-6.155215,"distance":3632,"is_transit":false,"time":8,"i_long":106.800832,"line":1,"transit":false,"station_id":"DU"},{"line":1,"i_lat":-6.144674,"station_id":"AK","time":4,"transit":false,"station_name":"Angke","is_transit":false,"distance":1230,"i_long":106.79867},{"transit":true,"station_id":"KPB","i_lat":-6.132549,"station_name":"Kampung Bandan","is_transit":true,"time":9,"distance":4102,"line":4,"i_long":106.826365},{"is_transit":false,"station_name":"Rajawali","distance":1444,"station_id":"RJW","transit":false,"i_lat":-6.14505,"i_long":106.836569,"line":11,"time":3},{"time":5,"station_id":"KMO","line":11,"distance":1901,"i_long":106.839204,"transit":false,"station_name":"Kemayoran","is_transit":false,"i_lat":-6.161728}],[{"line":2,"i_lat":-6.198556,"station_name":"Cikini","i_long":106.840169,"station_id":"CKI","transit":false,"distance":0,"is_transit":false,"time":0},{"line":2,"time":3,"transit":false,"station_name":"Gondangdia","station_id":"GDD","is_transit":false,"distance":1750,"i_lat":-6.186295,"i_long":106.832183},{"i_long":106.828284,"transit":false,"i_lat":-6.166716,"distance":2015,"line":2,"time":4,"is_transit":false,"station_name":"Juanda","station_id":"JUA"},{"i_lat":-6.160725,"station_id":"SW","i_long":106.827103,"transit":false,"time":2,"is_transit":false,"distance":1149,"line":2,"station_name":"Sawah Besar"},{"is_transit":false,"time":2,"station_name":"Manggabesar","distance":906,"transit":false,"i_long":106.82482,"station_id":"MGB","line":2,"i_lat":-6.149769},{"station_id":"JAY","line":2,"i_long":106.820901,"station_name":"Jayakarta","is_transit":false,"distance":1080,"time":2,"transit":false,"i_lat":-6.141205},{"station_id":"JAKK","distance":1264,"is_transit":true,"transit":true,"i_lat":-6.137569,"i_long":106.812439,"time":4,"line":2,"station_name":"Jakarta Kota"},{"line":4,"station_name":"Kampung Bandan","transit":true,"station_id":"KPB","is_transit":true,"distance":1364,"i_lat":-6.132549,"time":3,"i_long":106.826365},{"i_long":106.79867,"transit":false,"station_name":"Angke","station_id":"AK","time":9,"i_lat":-6.144674,"distance":4102,"is_transit":false,"line":1},{"station_id":"DU","distance":1230,"i_lat":-6.155215,"is_transit":false,"transit":false,"time":4,"station_name":"Duri","i_long":106.800832,"line":1},{"i_lat":-6.185545,"station_name":"Tanah Abang","i_long":106.811091,"station_id":"THB","is_transit":false,"line":1,"transit":false,"time":8,"distance":3632},{"transit":false,"line":1,"time":5,"i_lat":-6.20132,"station_id":"KAT","station_name":"Karet","distance":2029,"is_transit":false,"i_long":106.816351},{"transit":false,"station_name":"Sudirman Baru","distance":471,"i_long":106.819881,"is_transit":false,"station_id":"SUDB","i_lat":-6.201433,"time":1,"line":1},{"i_lat":-6.202263,"i_long":106.822649,"time":1,"station_id":"SUD","transit":false,"station_name":"Sudirman","is_transit":false,"distance":280,"line":1},{"distance":3186,"i_lat":-6.209883,"line":2,"i_long":106.84912,"transit":false,"station_id":"MRI","station_name":"Manggarai","is_transit":false,"time":4},{"station_name":"Matraman","station_id":"MTR","time":2,"distance":1275,"is_transit":false,"i_long":106.858896,"line":1,"transit":false,"i_lat":-6.212485},{"distance":1377,"time":8,"i_lat":-6.215091,"station_name":"Jatinegara","station_id":"JNG","transit":true,"i_long":106.86807400000001,"line":1,"is_transit":true},{"transit":false,"station_name":"Pondok Jati","is_transit":false,"distance":1236,"i_long":106.861737,"i_lat":-6.209188,"time":2,"station_id":"POK","line":11},{"i_long":106.855437,"is_transit":false,"distance":1829,"line":11,"station_name":"Kramat","time":2,"transit":false,"i_lat":-6.193792,"station_id":"KMT"},{"line":11,"distance":973,"transit":false,"i_long":106.850107,"station_id":"GST","station_name":"Gang Sentiong","is_transit":false,"time":1,"i_lat":-6.185975},{"station_id":"PSE","i_lat":-6.174784,"distance":1567,"is_transit":false,"station_name":"Pasar Senen","transit":false,"time":8,"line":11,"i_long":106.84368},{"line":11,"i_long":106.839204,"transit":false,"station_id":"KMO","distance":1436,"is_transit":false,"i_lat":-6.161728,"time":4,"station_name":"Kemayoran"}]]}