{"data":[[{"time":0,"distance":0,"is_transit":false,"station_id":"CKI","transit":false,"i_lat":-6.198556,"i_long":106.840169,"line":2,"station_name":"Cikini"},{"line":2,"is_transit":false,"transit":false,"i_lat":-6.186295,"station_id":"GDD","time":3,"station_name":"Gondangdia","i_long":106.832183,"distance":1750},{"station_id":"JUA","station_name":"Juanda","transit":false,"line":2,"is_transit":false,"time":4,"i_lat":-6.166716,"i_long":106.828284,"distance":2015},{"line":2,"station_id":"SW","i_long":106.827103,"i_lat":-6.160725,"distance":1149,"transit":false,"is_transit":false,"station_name":"Sawah Besar","time":2},{"station_id":"MGB","i_long":106.82482,"line":2,"time":2,"station_name":"Manggabesar","i_lat":-6.149769,"is_transit":false,"transit":false,"distance":906},{"time":2,"i_lat":-6.141205,"distance":1080,"is_transit":false,"transit":false,"i_long":106.820901,"station_id":"JAY","station_name":"Jayakarta","line":2},{"i_long":106.812439,"i_lat":-6.137569,"line":2,"distance":1264,"station_id":"JAKK","transit":true,"time":4,"station_name":"Jakarta Kota","is_transit":true},{"transit":true,"i_lat":-6.132549,"is_transit":true,"distance":1364,"time":3,"station_name":"Kampung Bandan","i_long":106.826365,"line":4,"station_id":"KPB"},{"i_lat":-6.128023,"i_long":106.84464,"distance":2185,"is_transit":false,"station_name":"Ancol","transit":false,"line":4,"time":4,"station_id":"AC"}],[{"is_transit":false,"distance":0,"i_lat":-6.198556,"i_long":106.840169,"line":2,"time":0,"station_name":"Cikini","station_id":"CKI","transit":false},{"line":2,"time":4,"distance":1590,"station_name":"Manggarai","transit":true,"is_transit":true,"station_id":"MRI","i_lat":-6.209883,"i_long":106.84912},{"i_long":106.822649,"i_lat":-6.202263,"time":4,"distance":3186,"line":1,"station_name":"Sudirman","transit":false,"station_id":"SUD","is_transit":false},{"i_long":106.819881,"station_id":"SUDB","station_name":"Sudirman Baru","transit":false,"distance":280,"i_lat":-6.201433,"time":1,"is_transit":false,"line":1},{"station_id":"KAT","i_lat":-6.20132,"distance":471,"station_name":"Karet","is_transit":false,"transit":false,"i_long":106.816351,"time":1,"line":1},{"station_id":"THB","is_transit":false,"i_long":106.811091,"time":5,"line":1,"transit":false,"station_name":"Tanah Abang","distance":2029,"i_lat":-6.185545},{"line":1,"transit":false,"station_id":"DU","i_lat":-6.155215,"is_transit":false,"station_name":"Duri","time":8,"distance":3632,"i_long":106.800832},{"is_transit":false,"distance":1230,"station_id":"AK","station_name":"Angke","transit":false,"line":1,"i_lat":-6.144674,"time":4,"i_long":106.79867},{"i_long":106.826365,"i_lat":-6.132549,"is_transit":true,"line":4,"transit":true,"station_name":"Kampung Bandan","station_id":"KPB","distance":4102,"time":9},{"i_long":106.84464,"time":4,"distance":2185,"transit":false,"station_id":"AC","is_transit":false,"i_lat":-6.128023,"line":4,"station_name":"Ancol"}],[{"time":0,"i_lat":-6.198556,"i_long":106.840169,"line":2,"station_id":"CKI","distance":0,"station_name":"Cikini","is_transit":false,"transit":false},{"station_name":"Manggarai","i_long":106.84912,"i_lat":-6.209883,"station_id":"MRI","time":4,"line":2,"distance":1590,"is_transit":true,"transit":true},{"i_long":106.858896,"station_id":"MTR","time":2,"i_lat":-6.212485,"transit":false,"line":1,"distance":1275,"station_name":"Matraman","is_transit":false},{"station_id":"JNG","i_lat":-6.215091,"station_name":"Jatinegara","is_transit":true,"distance":1377,"line":1,"transit":true,"i_long":106.86807400000001,"time":8},{"i_long":106.861737,"station_name":"Pondok Jati","time":2,"is_transit":false,"distance":1236,"i_lat":-6.209188,"station_id":"POK","line":11,"transit":false},{"distance":1829,"station_id":"KMT","line":11,"i_long":106.855437,"time":2,"i_lat":-6.193792,"station_name":"Kramat","is_transit":false,"transit":false},{"is_transit":false,"transit":false,"i_long":106.850107,"distance":973,"station_name":"Gang Sentiong","time":1,"i_lat":-6.185975,"line":11,"station_id":"GST"},{"station_id":"PSE","i_lat":-6.174784,"station_name":"Pasar Senen","time":8,"line":11,"transit":false,"is_transit":false,"i_long":106.84368,"distance":1567},{"i_long":106.839204,"is_transit":false,"i_lat":-6.161728,"station_id":"KMO","transit":false,"line":11,"station_name":"Kemayoran","distance":1436,"time":4},{"distance":1901,"i_lat":-6.14505,"station_id":"RJW","station_name":"Rajawali","transit":false,"i_long":106.836569,"time":5,"is_transit":false,"line":11},{"i_long":106.826365,"distance":1444,"transit":true,"i_lat":-6.132549,"station_id":"KPB","line":4,"station_name":"Kampung Bandan","time":3,"is_transit":true},{"distance":2185,"is_transit":false,"station_id":"AC","time":4,"transit":false,"i_lat":-6.128023,"line":4,"station_name":"Ancol","i_long":106.84464}]]}