{"data":[[{"station_name":"Cikini","transit":false,"station_id":"CKI","is_transit":false,"distance":0,"time":0,"line":0,"i_long":106.840169,"i_lat":-6.198556},{"distance":1590,"transit":true,"station_id":"MRI","time":4,"line":0,"i_long":106.84912,"i_lat":-6.209883,"is_transit":true,"station_name":"Manggarai"},{"transit":false,"line":2,"i_lat":-6.226659,"station_id":"TEB","station_name":"Tebet","time":4,"is_transit":false,"distance":2610,"i_long":106.857948},{"i_long":106.856607,"is_transit":false,"line":0,"station_id":"CW","station_name":"Cawang","time":2,"distance":1230,"transit":false,"i_lat":-6.242512},{"time":3,"transit":false,"line":0,"is_transit":false,"distance":1546,"i_lat":-6.255332,"i_long":106.85449,"station_id":"DRN","station_name":"Duren Kalibata"}],[{"line":0,"i_lat":-6.198556,"is_transit":false,"transit":false,"station_name":"Cikini","distance":0,"time":0,"i_long":106.840169,"station_id":"CKI"},{"station_id":"GDD","i_lat":-6.186295,"i_long":106.832183,"time":3,"line":2,"transit":false,"is_transit":false,"distance":1750,"station_name":"Gondangdia"},{"station_id":"JUA","distance":2015,"i_long":106.828284,"transit":false,"line":2,"is_transit":false,"i_lat":-6.166716,"time":4,"station_name":"Juanda"},{"line":2,"time":2,"i_lat":-6.160725,"station_name":"Sawah Besar","is_transit":false,"station_id":"SW","transit":false,"distance":1149,"i_long":106.827103},{"i_long":106.82482,"line":2,"is_transit":false,"time":2,"distance":906,"station_name":"Manggabesar","station_id":"MGB","transit":false,"i_lat":-6.149769},{"station_name":"Jayakarta","time":2,"distance":1080,"transit":false,"i_lat":-6.141205,"line":7,"station_id":"JAY","i_long":106.820901,"is_transit":false},{"distance":1264,"transit":true,"is_transit":true,"time":4,"station_id":"JAKK","i_lat":-6.137569,"i_long":106.812439,"station_name":"Jakarta Kota","line":0},{"i_long":106.826365,"line":0,"transit":false,"is_transit":true,"i_lat":-6.132549,"station_name":"Kampung Bandan","time":3,"station_id":"KPB","distance":1364},{"i_lat":-6.144674,"station_id":"AK","time":9,"line":0,"distance":4102,"is_transit":false,"station_name":"Angke","i_long":106.79867,"transit":false},{"distance":1230,"station_id":"DU","station_name":"Duri","is_transit":true,"time":4,"transit":true,"i_long":106.800832,"line":1,"i_lat":-6.155215},{"i_lat":-6.185545,"is_transit":true,"station_id":"THB","time":8,"transit":false,"i_long":106.811091,"distance":3632,"station_name":"Tanah Abang","line":1},{"transit":false,"distance":2029,"i_long":106.816351,"line":1,"time":5,"i_lat":-6.20132,"station_name":"Karet","is_transit":false,"station_id":"KAT"},{"i_long":106.819881,"distance":471,"i_lat":-6.201433,"station_id":"SUDB","is_transit":false,"transit":false,"line":1,"station_name":"Sudirman Baru","time":1},{"i_long":106.822649,"line":1,"station_name":"Sudirman","time":1,"i_lat":-6.202263,"distance":280,"transit":false,"station_id":"SUD","is_transit":false},{"station_name":"Manggarai","time":4,"transit":true,"is_transit":true,"distance":3186,"i_lat":-6.209883,"i_long":106.84912,"station_id":"MRI","line":0},{"is_transit":false,"station_id":"TEB","distance":2610,"station_name":"Tebet","i_lat":-6.226659,"line":2,"i_long":106.857948,"transit":false,"time":4},{"station_name":"Cawang","time":2,"is_transit":false,"station_id":"CW","transit":false,"distance":1230,"i_lat":-6.242512,"i_long":106.856607,"line":0},{"distance":1546,"i_long":106.85449,"line":0,"transit":false,"station_id":"DRN","i_lat":-6.255332,"time":3,"is_transit":false,"station_name":"Duren Kalibata"}],[{"time":0,"is_transit":false,"i_long":106.840169,"station_name":"Cikini","distance":0,"line":0,"transit":false,"station_id":"CKI","i_lat":-6.198556},{"transit":false,"is_transit":false,"time":3,"line":2,"station_id":"GDD","distance":1750,"station_name":"Gondangdia","i_long":106.832183,"i_lat":-6.186295},{"i_lat":-6.166716,"station_id":"JUA","transit":false,"i_long":106.828284,"station_name":"Juanda","line":2,"is_transit":false,"time":4,"distance":2015},{"is_transit":false,"time":2,"i_long":106.827103,"distance":1149,"station_name":"Sawah Besar","line":2,"station_id":"SW","transit":false,"i_lat":-6.160725},{"is_transit":false,"line":2,"distance":906,"i_lat":-6.149769,"transit":false,"i_long":106.82482,"station_id":"MGB","time":2,"station_name":"Manggabesar"},{"station_id":"JAY","time":2,"station_name":"Jayakarta","line":7,"is_transit":false,"i_lat":-6.141205,"i_long":106.820901,"distance":1080,"transit":false},{"station_id":"JAKK","station_name":"Jakarta Kota","line":0,"transit":true,"is_transit":true,"i_lat":-6.137569,"i_long":106.812439,"time":4,"distance":1264},{"distance":1364,"transit":true,"is_transit":true,"station_id":"KPB","i_long":106.826365,"line":0,"station_name":"Kampung Bandan","time":3,"i_lat":-6.132549},{"is_transit":false,"distance":1444,"station_id":"RJW","i_long":106.836569,"transit":false,"i_lat":-6.14505,"station_name":"Rajawali","time":3,"line":11},{"is_transit":false,"station_name":"Kemayoran","transit":false,"i_lat":-6.161728,"line":11,"distance":1901,"station_id":"KMO","time":5,"i_long":106.839204},{"time":4,"line":11,"transit":false,"station_name":"Pasar Senen","i_lat":-6.174784,"station_id":"PSE","is_transit":false,"i_long":106.84368,"distance":1436},{"line":11,"is_transit":false,"i_lat":-6.185975,"station_id":"GST","transit":false,"time":8,"i_long":106.850107,"distance":1567,"station_name":"Gang Sentiong"},{"is_transit":false,"station_id":"KMT","time":1,"station_name":"Kramat","line":11,"transit":false,"i_lat":-6.193792,"distance":973,"i_long":106.855437},{"transit":false,"is_transit":false,"i_lat":-6.209188,"i_long":106.861737,"line":11,"station_name":"Pondok Jati","distance":1829,"station_id":"POK","time":2},{"station_name":"Jatinegara","station_id":"JNG","line":0,"i_lat":-6.215091,"is_transit":true,"i_long":106.86807400000001,"transit":true,"distance":1236,"time":9},{"station_id":"MTR","distance":1377,"station_name":"Matraman","transit":false,"line":1,"i_lat":-6.212485,"is_transit":false,"time":2,"i_long":106.858896},{"i_lat":-6.209883,"station_id":"MRI","time":2,"is_transit":true,"station_name":"Manggarai","transit":true,"line":0,"i_long":106.84912,"distance":1275},{"i_long":106.857948,"line":2,"is_transit":false,"i_lat":-6.226659,"station_name":"Tebet","distance":2610,"station_id":"TEB","time":4,"transit":false},{"is_transit":false,"time":2,"i_lat":-6.242512,"station_id":"CW","i_long":106.856607,"transit":false,"station_name":"Cawang","distance":1230,"line":0},{"transit":false,"is_transit":false,"i_lat":-6.255332,"line":0,"time":3,"distance":1546,"station_id":"DRN","i_long":106.85449,"station_name":"Duren Kalibata"}]]}