{"data":[[{"is_transit":false,"line":2,"distance":0,"time":0,"i_lat":-6.198556,"transit":false,"station_name":"Cikini","station_id":"CKI","i_long":106.840169},{"i_long":106.84912,"time":4,"distance":1590,"i_lat":-6.209883,"is_transit":true,"transit":true,"line":2,"station_id":"MRI","station_name":"Manggarai"},{"transit":false,"station_name":"Matraman","time":2,"distance":1275,"i_lat":-6.212485,"line":1,"i_long":106.858896,"station_id":"MTR","is_transit":false},{"is_transit":true,"i_long":106.86807400000001,"line":1,"time":8,"transit":true,"station_id":"JNG","station_name":"Jatinegara","distance":1377,"i_lat":-6.215091},{"station_id":"POK","transit":false,"distance":1236,"i_lat":-6.209188,"i_long":106.861737,"station_name":"Pondok Jati","time":2,"is_transit":false,"line":11},{"time":2,"transit":false,"distance":1829,"i_long":106.855437,"line":11,"is_transit":false,"i_lat":-6.193792,"station_name":"Kramat","station_id":"KMT"},{"line":11,"is_transit":false,"station_id":"GST","distance":973,"i_long":106.850107,"transit":false,"station_name":"Gang Sentiong","time":1,"i_lat":-6.185975},{"i_long":106.84368,"station_name":"Pasar Senen","transit":false,"is_transit":false,"time":8,"station_id":"PSE","line":11,"distance":1567,"i_lat":-6.174784}],[{"transit":false,"is_transit":false,"station_id":"CKI","line":2,"distance":0,"i_long":106.840169,"i_lat":-6.198556,"station_name":"Cikini","time":0},{"distance":1750,"i_long":106.832183,"is_transit":false,"time":3,"transit":false,"station_id":"GDD","i_lat":-6.186295,"line":2,"station_name":"Gondangdia"},{"distance":2015,"station_id":"JUA","i_long":106.828284,"i_lat":-6.166716,"transit":false,"line":2,"station_name":"Juanda","time":4,"is_transit":false},{"transit":false,"line":2,"is_transit":false,"i_lat":-6.160725,"distance":1149,"station_name":"Sawah Besar","i_long":106.827103,"time":2,"station_id":"SW"},{"distance":906,"station_name":"Manggabesar","i_lat":-6.149769,"line":2,"i_long":106.82482,"station_id":"MGB","time":2,"is_transit":false,"transit":false},{"station_id":"JAY","transit":false,"time":2,"line":2,"station_name":"Jayakarta","is_transit":false,"i_long":106.820901,"distance":1080,"i_lat":-6.141205},{"station_id":"JAKK","is_transit":true,"distance":1264,"i_lat":-6.137569,"transit":true,"i_long":106.812439,"line":2,"station_name":"Jakarta Kota","time":4},{"station_id":"KPB","time":3,"line":4,"transit":true,"i_long":106.826365,"is_transit":true,"station_name":"Kampung Bandan","i_lat":-6.132549,"distance":1364},{"station_name":"Rajawali","is_transit":false,"station_id":"RJW","time":3,"distance":1444,"line":11,"transit":false,"i_lat":-6.14505,"i_long":106.836569},{"transit":false,"line":11,"time":5,"station_name":"Kemayoran","distance":1901,"i_lat":-6.161728,"station_id":"KMO","is_transit":false,"i_long":106.839204},{"transit":false,"distance":1436,"i_long":106.84368,"is_transit":false,"time":4,"station_name":"Pasar Senen","station_id":"PSE","line":11,"i_lat":-6.174784}],[{"is_transit":false,"station_name":"Cikini","time":0,"transit":false,"line":2,"i_long":106.840169,"i_lat":-6.198556,"station_id":"CKI","distance":0},{"distance":1590,"station_id":"MRI","i_lat":-6.209883,"transit":true,"station_name":"Manggarai","time":4,"is_transit":true,"i_long":106.84912,"line":2},{"station_name":"Sudirman","time":4,"i_lat":-6.202263,"i_long":106.822649,"station_id":"SUD","distance":3186,"transit":false,"is_transit":false,"line":1},{"i_long":106.819881,"is_transit":false,"station_id":"SUDB","distance":280,"i_lat":-6.201433,"transit":false,"time":1,"line":1,"station_name":"Sudirman Baru"},{"station_name":"Karet","is_transit":false,"i_lat":-6.20132,"transit":false,"time":1,"distance":471,"i_long":106.816351,"line":1,"station_id":"KAT"},{"distance":2029,"transit":false,"i_lat":-6.185545,"time":5,"station_id":"THB","i_long":106.811091,"station_name":"Tanah Abang","is_transit":false,"line":1},{"transit":false,"time":8,"distance":3632,"i_long":106.800832,"station_name":"Duri","i_lat":-6.155215,"line":1,"is_transit":false,"station_id":"DU"},{"transit":false,"distance":1230,"is_transit":false,"station_name":"Angke","i_lat":-6.144674,"time":4,"i_long":106.79867,"station_id":"AK","line":1},{"time":9,"line":4,"distance":4102,"i_long":106.826365,"i_lat":-6.132549,"station_id":"KPB","station_name":"Kampung Bandan","is_transit":true,"transit":true},{"station_name":"Rajawali","line":11,"time":3,"i_long":106.836569,"station_id":"RJW","distance":1444,"transit":false,"i_lat":-6.14505,"is_transit":false},{"transit":false,"is_transit":false,"i_long":106.839204,"line":11,"i_lat":-6.161728,"station_id":"KMO","station_name":"Kemayoran","distance":1901,"time":5},{"line":11,"station_id":"PSE","i_lat":-6.174784,"station_name":"Pasar Senen","is_transit":false,"transit":false,"distance":1436,"time":4,"i_long":106.84368}],[{"time":0,"station_id":"CKI","line":2,"transit":false,"distance":0,"is_transit":false,"station_name":"Cikini","i_lat":-6.198556,"i_long":106.840169},{"i_long":106.832183,"time":3,"distance":1750,"line":2,"station_name":"Gondangdia","is_transit":false,"transit":false,"station_id":"GDD","i_lat":-6.186295},{"distance":2015,"i_long":106.828284,"is_transit":false,"time":4,"transit":false,"station_id":"JUA","i_lat":-6.166716,"line":2,"station_name":"Juanda"},{"is_transit":false,"station_id":"SW","time":2,"station_name":"Sawah Besar","distance":1149,"line":2,"i_lat":-6.160725,"transit":false,"i_long":106.827103},{"transit":false,"station_id":"MGB","i_lat":-6.149769,"is_transit":false,"time":2,"distance":906,"line":2,"station_name":"Manggabesar","i_long":106.82482},{"line":2,"transit":false,"is_transit":false,"i_lat":-6.141205,"time":2,"distance":1080,"station_id":"JAY","i_long":106.820901,"station_name":"Jayakarta"},{"line":2,"distance":1264,"station_id":"JAKK","station_name":"Jakarta Kota","transit":true,"i_long":106.812439,"time":4,"i_lat":-6.137569,"is_transit":true},{"station_id":"KPB","distance":1364,"line":4,"is_transit":true,"station_name":"Kampung Bandan","time":3,"transit":true,"i_lat":-6.132549,"i_long":106.826365},{"is_transit":false,"time":9,"station_id":"AK","transit":false,"distance":4102,"i_lat":-6.144674,"i_long":106.79867,"line":1,"station_name":"Angke"},{"line":1,"station_name":"Duri","transit":false,"distance":1230,"i_long":106.800832,"station_id":"DU","time":4,"is_transit":false,"i_lat":-6.155215},{"station_name":"Tanah Abang","transit":false,"is_transit":false,"i_lat":-6.185545,"time":8,"station_id":"THB","distance":3632,"i_long":106.811091,"line":1},{"is_transit":false,"station_name":"Karet","time":5,"transit":false,"distance":2029,"line":1,"i_long":106.816351,"station_id":"KAT","i_lat":-6.20132},{"time":1,"transit":false,"is_transit":false,"station_name":"Sudirman Baru","station_id":"SUDB","i_lat":-6.201433,"line":1,"i_long":106.819881,"distance":471},{"transit":false,"distance":280,"time":1,"is_transit":false,"i_long":106.822649,"line":1,"station_id":"SUD","station_name":"Sudirman","i_lat":-6.202263},{"time":4,"i_long":106.84912,"transit":false,"is_transit":false,"line":2,"station_id":"MRI","distance":3186,"i_lat":-6.209883,"station_name":"Manggarai"},{"line":1,"station_id":"MTR","i_long":106.858896,"i_lat":-6.212485,"station_name":"Matraman","transit":false,"distance":1275,"is_transit":false,"time":2},{"transit":true,"i_long":106.86807400000001,"i_lat":-6.215091,"time":8,"station_name":"Jatinegara","distance":1377,"line":1,"is_transit":true,"station_id":"JNG"},{"station_name":"Pondok Jati","transit":false,"distance":1236,"i_lat":-6.209188,"i_long":106.861737,"time":2,"is_transit":false,"station_id":"POK","line":11},{"station_id":"KMT","i_lat":-6.193792,"line":11,"i_long":106.855437,"transit":false,"time":2,"station_name":"Kramat","distance":1829,"is_transit":false},{"i_long":106.850107,"station_name":"Gang Sentiong","transit":false,"i_lat":-6.185975,"time":1,"distance":973,"line":11,"is_transit":false,"station_id":"GST"},{"line":11,"transit":false,"station_id":"PSE","is_transit":false,"distance":1567,"i_long":106.84368,"time":8,"i_lat":-6.174784,"station_name":"Pasar Senen"}]]}