{"data":[[{"time":0,"station_id":"CKI","distance":0,"i_long":106.840169,"line":0,"is_transit":false,"transit":false,"i_lat":-6.198556,"station_name":"Cikini"},{"station_id":"MRI","is_transit":true,"i_lat":-6.209883,"i_long":106.84912,"line":0,"station_name":"Manggarai","distance":1590,"transit":true,"time":4},{"is_transit":false,"time":4,"station_name":"Sudirman","transit":false,"i_lat":-6.202263,"line":1,"distance":3186,"i_long":106.822649,"station_id":"SUD"},{"is_transit":false,"station_id":"SUDB","line":1,"station_name":"Sudirman Baru","i_lat":-6.201433,"transit":false,"i_long":106.819881,"time":1,"distance":280},{"is_transit":false,"transit":false,"line":1,"i_long":106.816351,"station_name":"Karet","time":1,"distance":471,"station_id":"KAT","i_lat":-6.20132},{"station_name":"Tanah Abang","station_id":"THB","i_lat":-6.185545,"is_transit":true,"line":1,"transit":false,"time":5,"distance":2029,"i_long":106.811091},{"line":1,"transit":true,"station_name":"Duri","is_transit":true,"i_lat":-6.155215,"time":8,"distance":3632,"station_id":"DU","i_long":106.800832},{"is_transit":false,"transit":false,"station_name":"Grogol","i_lat":-6.162021,"distance":1700,"i_long":106.788277,"line":5,"time":3,"station_id":"GGL"},{"transit":false,"time":2,"line":5,"station_name":"Pesing","i_lat":-6.161433,"is_transit":false,"station_id":"PSG","i_long":106.771379,"distance":2036},{"station_id":"TKO","station_name":"Taman Kota","distance":1614,"i_long":106.756522,"line":5,"i_lat":-6.1587309999999995,"is_transit":false,"time":2,"transit":false},{"time":2,"i_lat":-6.159876,"station_id":"BOI","station_name":"Bojongindah","is_transit":false,"i_long":106.737035,"line":0,"distance":2334,"transit":false},{"distance":1152,"i_long":106.723064,"i_lat":-6.162758,"time":4,"is_transit":false,"transit":false,"station_name":"Rawa Buaya","line":5,"station_id":"RW"},{"line":5,"station_name":"Kalideres","station_id":"KDS","i_lat":-6.166068,"is_transit":false,"i_long":106.701612,"transit":false,"distance":2504,"time":3},{"time":3,"line":5,"station_id":"PI","is_transit":false,"transit":false,"i_long":106.679458,"station_name":"Poris","i_lat":-6.169933,"distance":2548},{"line":0,"station_name":"Batuceper","i_long":106.665036,"station_id":"BPR","transit":false,"time":3,"is_transit":false,"distance":1834,"i_lat":-6.171811}],[{"distance":0,"line":0,"station_name":"Cikini","station_id":"CKI","time":0,"transit":false,"is_transit":false,"i_lat":-6.198556,"i_long":106.840169},{"line":2,"transit":false,"distance":1750,"i_long":106.832183,"time":3,"station_name":"Gondangdia","i_lat":-6.186295,"station_id":"GDD","is_transit":false},{"line":2,"time":4,"i_lat":-6.166716,"station_name":"Juanda","transit":false,"station_id":"JUA","is_transit":false,"i_long":106.828284,"distance":2015},{"station_name":"Sawah Besar","i_lat":-6.160725,"time":2,"line":2,"is_transit":false,"i_long":106.827103,"transit":false,"station_id":"SW","distance":1149},{"station_name":"Manggabesar","time":2,"line":2,"distance":906,"is_transit":false,"transit":false,"i_lat":-6.149769,"i_long":106.82482,"station_id":"MGB"},{"transit":false,"time":2,"station_id":"JAY","is_transit":false,"i_long":106.820901,"line":7,"distance":1080,"i_lat":-6.141205,"station_name":"Jayakarta"},{"is_transit":true,"station_name":"Jakarta Kota","distance":1264,"transit":true,"i_lat":-6.137569,"time":4,"line":0,"i_long":106.812439,"station_id":"JAKK"},{"distance":1364,"i_lat":-6.132549,"i_long":106.826365,"time":3,"station_name":"Kampung Bandan","station_id":"KPB","is_transit":true,"line":0,"transit":false},{"line":0,"time":9,"station_id":"AK","distance":4102,"station_name":"Angke","i_lat":-6.144674,"transit":false,"is_transit":false,"i_long":106.79867},{"is_transit":true,"distance":1230,"station_id":"DU","time":4,"station_name":"Duri","line":1,"transit":true,"i_long":106.800832,"i_lat":-6.155215},{"station_id":"GGL","station_name":"Grogol","transit":false,"i_lat":-6.162021,"time":3,"is_transit":false,"i_long":106.788277,"distance":1700,"line":5},{"i_lat":-6.161433,"is_transit":false,"station_id":"PSG","distance":2036,"i_long":106.771379,"line":5,"time":2,"station_name":"Pesing","transit":false},{"time":2,"is_transit":false,"i_lat":-6.1587309999999995,"line":5,"distance":1614,"transit":false,"station_id":"TKO","i_long":106.756522,"station_name":"Taman Kota"},{"line":0,"time":2,"station_name":"Bojongindah","is_transit":false,"transit":false,"i_lat":-6.159876,"i_long":106.737035,"distance":2334,"station_id":"BOI"},{"station_id":"RW","transit":false,"time":4,"i_lat":-6.162758,"distance":1152,"station_name":"Rawa Buaya","line":5,"is_transit":false,"i_long":106.723064},{"distance":2504,"station_name":"Kalideres","transit":false,"i_long":106.701612,"i_lat":-6.166068,"line":5,"time":3,"station_id":"KDS","is_transit":false},{"is_transit":false,"i_lat":-6.169933,"station_name":"Poris","time":3,"i_long":106.679458,"station_id":"PI","distance":2548,"transit":false,"line":5},{"time":3,"station_id":"BPR","transit":false,"i_lat":-6.171811,"i_long":106.665036,"is_transit":false,"station_name":"Batuceper","line":0,"distance":1834}],[{"line":0,"is_transit":false,"station_name":"Cikini","transit":false,"time":0,"i_lat":-6.198556,"i_long":106.840169,"station_id":"CKI","distance":0},{"station_id":"MRI","distance":1590,"transit":true,"station_name":"Manggarai","i_lat":-6.209883,"time":4,"i_long":106.84912,"line":0,"is_transit":true},{"distance":1275,"transit":false,"station_name":"Matraman","i_long":106.858896,"time":2,"is_transit":false,"station_id":"MTR","i_lat":-6.212485,"line":1},{"transit":true,"station_id":"JNG","distance":1377,"i_lat":-6.215091,"line":0,"is_transit":true,"time":8,"station_name":"Jatinegara","i_long":106.86807400000001},{"station_name":"Pondok Jati","is_transit":false,"i_long":106.861737,"line":11,"distance":1236,"time":2,"station_id":"POK","transit":false,"i_lat":-6.209188},{"is_transit":false,"i_lat":-6.193792,"transit":false,"station_name":"Kramat","station_id":"KMT","i_long":106.855437,"line":11,"time":2,"distance":1829},{"is_transit":false,"i_lat":-6.185975,"line":11,"time":1,"distance":973,"station_name":"Gang Sentiong","i_long":106.850107,"station_id":"GST","transit":false},{"i_lat":-6.174784,"i_long":106.84368,"transit":false,"time":8,"station_name":"Pasar Senen","distance":1567,"line":11,"is_transit":false,"station_id":"PSE"},{"distance":1436,"station_id":"KMO","station_name":"Kemayoran","i_lat":-6.161728,"i_long":106.839204,"time":4,"transit":false,"is_transit":false,"line":11},{"i_lat":-6.14505,"line":11,"station_name":"Rajawali","time":5,"transit":false,"i_long":106.836569,"distance":1901,"is_transit":false,"station_id":"RJW"},{"transit":true,"time":3,"is_transit":true,"i_long":106.826365,"line":0,"i_lat":-6.132549,"station_name":"Kampung Bandan","distance":1444,"station_id":"KPB"},{"station_name":"Angke","station_id":"AK","transit":false,"line":0,"distance":4102,"i_lat":-6.144674,"i_long":106.79867,"is_transit":false,"time":9},{"time":4,"is_transit":true,"i_lat":-6.155215,"i_long":106.800832,"line":1,"distance":1230,"station_name":"Duri","station_id":"DU","transit":true},{"station_id":"GGL","i_lat":-6.162021,"time":3,"transit":false,"station_name":"Grogol","i_long":106.788277,"distance":1700,"is_transit":false,"line":5},{"is_transit":false,"i_long":106.771379,"line":5,"time":2,"distance":2036,"station_name":"Pesing","i_lat":-6.161433,"station_id":"PSG","transit":false},{"line":5,"distance":1614,"station_id":"TKO","is_transit":false,"time":2,"i_lat":-6.1587309999999995,"i_long":106.756522,"station_name":"Taman Kota","transit":false},{"transit":false,"i_long":106.737035,"line":0,"station_name":"Bojongindah","is_transit":false,"time":2,"i_lat":-6.159876,"distance":2334,"station_id":"BOI"},{"i_lat":-6.162758,"line":5,"time":4,"transit":false,"station_id":"RW","distance":1152,"is_transit":false,"i_long":106.723064,"station_name":"Rawa Buaya"},{"time":3,"distance":2504,"station_name":"Kalideres","transit":false,"i_lat":-6.166068,"station_id":"KDS","i_long":106.701612,"is_transit":false,"line":5},{"distance":2548,"line":5,"time":3,"transit":false,"station_name":"Poris","station_id":"PI","is_transit":false,"i_long":106.679458,"i_lat":-6.169933},{"station_id":"BPR","is_transit":false,"i_lat":-6.171811,"line":0,"i_long":106.665036,"station_name":"Batuceper","time":3,"distance":1834,"transit":false}],[{"station_name":"Cikini","is_transit":false,"line":0,"time":0,"transit":false,"i_long":106.840169,"i_lat":-6.198556,"distance":0,"station_id":"CKI"},{"distance":1750,"line":2,"time":3,"station_id":"GDD","i_long":106.832183,"transit":false,"station_name":"Gondangdia","is_transit":false,"i_lat":-6.186295},{"is_transit":false,"time":4,"station_id":"JUA","i_lat":-6.166716,"i_long":106.828284,"distance":2015,"transit":false,"station_name":"Juanda","line":2},{"i_lat":-6.160725,"station_id":"SW","transit":false,"distance":1149,"time":2,"i_long":106.827103,"station_name":"Sawah Besar","is_transit":false,"line":2},{"i_long":106.82482,"transit":false,"i_lat":-6.149769,"line":2,"time":2,"distance":906,"station_id":"MGB","station_name":"Manggabesar","is_transit":false},{"time":2,"station_id":"JAY","station_name":"Jayakarta","is_transit":false,"i_lat":-6.141205,"i_long":106.820901,"line":7,"distance":1080,"transit":false},{"time":4,"i_lat":-6.137569,"i_long":106.812439,"line":0,"distance":1264,"station_name":"Jakarta Kota","is_transit":true,"station_id":"JAKK","transit":true},{"i_lat":-6.132549,"line":0,"station_id":"KPB","transit":true,"station_name":"Kampung Bandan","i_long":106.826365,"time":3,"is_transit":true,"distance":1364},{"station_name":"Rajawali","i_lat":-6.14505,"i_long":106.836569,"transit":false,"is_transit":false,"station_id":"RJW","time":3,"distance":1444,"line":11},{"is_transit":false,"transit":false,"time":5,"station_name":"Kemayoran","station_id":"KMO","line":11,"i_long":106.839204,"distance":1901,"i_lat":-6.161728},{"i_lat":-6.174784,"station_id":"PSE","is_transit":false,"distance":1436,"line":11,"transit":false,"time":4,"i_long":106.84368,"station_name":"Pasar Senen"},{"distance":1567,"station_name":"Gang Sentiong","i_long":106.850107,"is_transit":false,"station_id":"GST","time":8,"transit":false,"i_lat":-6.185975,"line":11},{"station_id":"KMT","station_name":"Kramat","transit":false,"line":11,"i_lat":-6.193792,"distance":973,"is_transit":false,"i_long":106.855437,"time":1},{"line":11,"station_id":"POK","i_lat":-6.209188,"i_long":106.861737,"transit":false,"time":2,"distance":1829,"station_name":"Pondok Jati","is_transit":false},{"station_name":"Jatinegara","transit":true,"i_lat":-6.215091,"time":9,"i_long":106.86807400000001,"line":0,"station_id":"JNG","is_transit":true,"distance":1236},{"line":1,"i_long":106.858896,"is_transit":false,"transit":false,"time":2,"station_name":"Matraman","distance":1377,"i_lat":-6.212485,"station_id":"MTR"},{"station_id":"MRI","i_long":106.84912,"station_name":"Manggarai","is_transit":true,"distance":1275,"line":0,"time":2,"transit":false,"i_lat":-6.209883},{"is_transit":false,"i_lat":-6.202263,"time":4,"station_id":"SUD","i_long":106.822649,"transit":false,"distance":3186,"line":1,"station_name":"Sudirman"},{"time":1,"transit":false,"line":1,"station_name":"Sudirman Baru","i_long":106.819881,"distance":280,"is_transit":false,"i_lat":-6.201433,"station_id":"SUDB"},{"station_name":"Karet","transit":false,"i_long":106.816351,"i_lat":-6.20132,"is_transit":false,"line":1,"time":1,"station_id":"KAT","distance":471},{"i_lat":-6.185545,"is_transit":true,"distance":2029,"station_id":"THB","i_long":106.811091,"transit":false,"line":1,"time":5,"station_name":"Tanah Abang"},{"i_lat":-6.155215,"transit":true,"line":1,"distance":3632,"time":8,"station_name":"Duri","is_transit":true,"i_long":106.800832,"station_id":"DU"},{"time":3,"station_id":"GGL","transit":false,"is_transit":false,"i_lat":-6.162021,"line":5,"station_name":"Grogol","distance":1700,"i_long":106.788277},{"line":5,"transit":false,"station_name":"Pesing","i_lat":-6.161433,"i_long":106.771379,"time":2,"is_transit":false,"distance":2036,"station_id":"PSG"},{"distance":1614,"transit":false,"i_lat":-6.1587309999999995,"i_long":106.756522,"station_id":"TKO","line":5,"station_name":"Taman Kota","time":2,"is_transit":false},{"transit":false,"station_id":"BOI","i_lat":-6.159876,"distance":2334,"i_long":106.737035,"station_name":"Bojongindah","time":2,"is_transit":false,"line":0},{"station_id":"RW","i_lat":-6.162758,"station_name":"Rawa Buaya","line":5,"distance":1152,"time":4,"transit":false,"i_long":106.723064,"is_transit":false},{"transit":false,"i_lat":-6.166068,"is_transit":false,"time":3,"i_long":106.701612,"station_name":"Kalideres","line":5,"distance":2504,"station_id":"KDS"},{"distance":2548,"time":3,"i_lat":-6.169933,"transit":false,"line":5,"i_long":106.679458,"is_transit":false,"station_id":"PI","station_name":"Poris"},{"time":3,"station_id":"BPR","station_name":"Batuceper","transit":false,"is_transit":false,"i_lat":-6.171811,"line":0,"i_long":106.665036,"distance":1834}]]}