{"data":[[{"station_name":"Cikini","time":0,"is_transit":false,"i_lat":-6.198556,"station_id":"CKI","distance":0,"i_long":106.840169,"transit":false,"line":2},{"i_long":106.832183,"station_name":"Gondangdia","is_transit":false,"i_lat":-6.186295,"distance":1750,"time":3,"transit":false,"line":2,"station_id":"GDD"},{"line":2,"is_transit":false,"station_name":"Juanda","i_long":106.828284,"station_id":"JUA","time":4,"distance":2015,"transit":false,"i_lat":-6.166716}],[{"time":0,"station_name":"Cikini","i_lat":-6.198556,"station_id":"CKI","is_transit":false,"transit":false,"i_long":106.840169,"line":2,"distance":0},{"is_transit":true,"i_lat":-6.209883,"line":2,"station_name":"Manggarai","time":4,"station_id":"MRI","distance":1590,"transit":true,"i_long":106.84912},{"line":1,"station_name":"Sudirman","transit":false,"i_lat":-6.202263,"station_id":"SUD","i_long":106.822649,"time":4,"distance":3186,"is_transit":false},{"i_lat":-6.201433,"transit":false,"line":1,"time":1,"distance":280,"station_name":"Sudirman Baru","is_transit":false,"i_long":106.819881,"station_id":"SUDB"},{"time":1,"station_id":"KAT","is_transit":false,"distance":471,"station_name":"Karet","transit":false,"i_lat":-6.20132,"i_long":106.816351,"line":1},{"time":5,"is_transit":false,"i_lat":-6.185545,"i_long":106.811091,"line":1,"station_name":"Tanah Abang","transit":false,"station_id":"THB","distance":2029},{"distance":3632,"line":1,"is_transit":false,"time":8,"station_name":"Duri","station_id":"DU","i_lat":-6.155215,"i_long":106.800832,"transit":false},{"station_id":"AK","line":1,"station_name":"Angke","i_lat":-6.144674,"is_transit":false,"transit":false,"time":4,"i_long":106.79867,"distance":1230},{"station_name":"Kampung Bandan","time":9,"line":4,"distance":4102,"station_id":"KPB","transit":true,"is_transit":true,"i_long":106.826365,"i_lat":-6.132549},{"distance":1364,"i_long":106.812439,"station_id":"JAKK","is_transit":true,"transit":true,"i_lat":-6.137569,"time":3,"station_name":"Jakarta Kota","line":2},{"station_name":"Jayakarta","distance":1264,"is_transit":false,"time":4,"line":2,"transit":false,"station_id":"JAY","i_lat":-6.141205,"i_long":106.820901},{"transit":false,"station_name":"Manggabesar","line":2,"time":2,"distance":1080,"i_long":106.82482,"i_lat":-6.149769,"is_transit":false,"station_id":"MGB"},{"line":2,"transit":false,"time":2,"i_lat":-6.160725,"station_name":"Sawah Besar","i_long":106.827103,"distance":906,"is_transit":false,"station_id":"SW"},{"transit":false,"i_long":106.828284,"station_id":"JUA","i_lat":-6.166716,"line":2,"time":2,"distance":1149,"is_transit":false,"station_name":"Juanda"}],[{"i_long":106.840169,"transit":false,"distance":0,"line":2,"time":0,"station_id":"CKI","station_name":"Cikini","is_transit":false,"i_lat":-6.198556},{"is_transit":true,"i_long":106.84912,"transit":true,"i_lat":-6.209883,"station_id":"MRI","time":4,"line":2,"distance":1590,"station_name":"Manggarai"},{"distance":1275,"i_lat":-6.212485,"i_long":106.858896,"station_name":"Matraman","station_id":"MTR","is_transit":false,"transit":false,"time":2,"line":1},{"i_lat":-6.215091,"station_id":"JNG","station_name":"Jatinegara","transit":true,"i_long":106.86807400000001,"time":8,"is_transit":true,"distance":1377,"line":1},{"is_transit":false,"line":11,"i_lat":-6.209188,"distance":1236,"i_long":106.861737,"transit":false,"station_id":"POK","station_name":"Pondok Jati","time":2},{"distance":1829,"station_name":"Kramat","time":2,"transit":false,"i_long":106.855437,"i_lat":-6.193792,"station_id":"KMT","is_transit":false,"line":11},{"station_id":"GST","is_transit":false,"transit":false,"distance":973,"time":1,"station_name":"Gang Sentiong","i_long":106.850107,"i_lat":-6.185975,"line":11},{"is_transit":false,"transit":false,"line":11,"station_name":"Pasar Senen","station_id":"PSE","i_lat":-6.174784,"i_long":106.84368,"distance":1567,"time":8},{"line":11,"time":4,"station_name":"Kemayoran","transit":false,"distance":1436,"station_id":"KMO","is_transit":false,"i_lat":-6.161728,"i_long":106.839204},{"transit":false,"i_lat":-6.14505,"i_long":106.836569,"line":11,"distance":1901,"station_id":"RJW","station_name":"Rajawali","time":5,"is_transit":false},{"transit":true,"is_transit":true,"i_long":106.826365,"station_id":"KPB","time":3,"station_name":"Kampung Bandan","i_lat":-6.132549,"distance":1444,"line":4},{"station_id":"JAKK","is_transit":true,"i_lat":-6.137569,"transit":true,"line":2,"i_long":106.812439,"time":3,"distance":1364,"station_name":"Jakarta Kota"},{"station_id":"JAY","transit":false,"i_lat":-6.141205,"time":4,"i_long":106.820901,"is_transit":false,"line":2,"station_name":"Jayakarta","distance":1264},{"station_name":"Manggabesar","distance":1080,"i_lat":-6.149769,"line":2,"station_id":"MGB","time":2,"transit":false,"i_long":106.82482,"is_transit":false},{"i_lat":-6.160725,"i_long":106.827103,"station_name":"Sawah Besar","distance":906,"line":2,"transit":false,"time":2,"station_id":"SW","is_transit":false},{"time":2,"i_lat":-6.166716,"line":2,"station_name":"Juanda","distance":1149,"station_id":"JUA","i_long":106.828284,"transit":false,"is_transit":false}]]}