{"data":[[{"station_name":"Cikini","station_id":"CKI","is_transit":false,"time":0,"line":0,"i_long":106.840169,"transit":false,"i_lat":-6.198556,"distance":0},{"station_id":"MRI","station_name":"Manggarai","i_lat":-6.209883,"transit":true,"line":0,"i_long":106.84912,"time":4,"is_transit":true,"distance":1590},{"line":1,"is_transit":false,"station_id":"SUD","station_name":"Sudirman","time":4,"transit":false,"i_lat":-6.202263,"distance":3186,"i_long":106.822649},{"station_name":"Sudirman Baru","is_transit":false,"distance":280,"i_long":106.819881,"time":1,"i_lat":-6.201433,"station_id":"SUDB","transit":false,"line":1},{"i_long":106.816351,"line":1,"is_transit":false,"i_lat":-6.20132,"station_name":"Karet","station_id":"KAT","transit":false,"time":1,"distance":471},{"distance":2029,"i_lat":-6.185545,"station_name":"Tanah Abang","is_transit":true,"i_long":106.811091,"line":1,"time":5,"transit":true,"station_id":"THB"},{"i_lat":-6.207404,"station_id":"PLM","transit":false,"is_transit":false,"i_long":106.79689,"time":6,"station_name":"Palmerah","distance":3191,"line":6},{"i_long":106.780334,"transit":false,"i_lat":-6.237242,"station_id":"KBY","distance":3737,"is_transit":false,"station_name":"Kebayoran","time":7,"line":6},{"transit":false,"i_long":106.74273,"i_lat":-6.276362,"line":6,"station_name":"Pondokranji","station_id":"PDJ","is_transit":false,"time":8,"distance":6218},{"transit":false,"station_id":"JMU","i_lat":-6.288927,"distance":2179,"station_name":"Jurangmangu","time":3,"line":6,"is_transit":false,"i_long":106.728916},{"i_long":106.712277,"station_name":"Sudimara","transit":false,"is_transit":false,"i_lat":-6.296963,"line":6,"station_id":"SDM","time":4,"distance":1994},{"station_name":"Rawa Buntu","is_transit":false,"transit":false,"station_id":"RU","line":6,"time":6,"i_lat":-6.314823,"i_long":106.675475,"distance":4566},{"distance":2413,"station_name":"Serpong","i_long":106.66566,"station_id":"SRP","time":4,"line":6,"i_lat":-6.319871,"transit":false,"is_transit":false},{"i_long":106.640411,"i_lat":-6.32484,"is_transit":false,"distance":1784,"station_name":"Cisauk","transit":false,"line":0,"station_id":"CSK","time":4},{"station_name":"Cicayur","time":4,"transit":false,"line":0,"i_long":106.617853,"i_lat":-6.329547,"station_id":"CC","distance":2519,"is_transit":false},{"i_lat":-6.3441410000000005,"transit":false,"time":8,"station_name":"Parung Panjang","distance":5968,"i_long":106.568863,"line":6,"is_transit":false,"station_id":"PRP"},{"station_id":"CJT","i_lat":-6.354349,"time":9,"distance":7025,"station_name":"Cilejit","is_transit":false,"i_long":106.508482,"transit":false,"line":0},{"i_long":106.491338,"time":6,"is_transit":false,"station_name":"Daru","i_lat":-6.338021,"distance":2675,"station_id":"DAR","transit":false,"line":0},{"time":5,"is_transit":false,"station_id":"TEJ","line":6,"i_long":106.460812,"transit":false,"distance":3902,"station_name":"Tenjo","i_lat":-6.327251},{"is_transit":false,"station_id":"TGS","transit":false,"i_lat":-6.328533,"time":5,"station_name":"Tigaraksa","distance":2974,"i_long":106.425991,"line":6},{"transit":false,"i_long":106.411216,"is_transit":false,"station_id":"CKY","station_name":"Cikoya","line":0,"i_lat":-6.33561,"time":3,"distance":2651},{"is_transit":false,"line":6,"transit":false,"time":4,"station_name":"Maja","i_lat":-6.332307,"station_id":"MJ","i_long":106.394373,"distance":1853},{"i_lat":-6.334892,"station_id":"CTR","station_name":"Citeras","i_long":106.332092,"transit":false,"time":10,"line":0,"distance":7293,"is_transit":false}],[{"distance":0,"i_lat":-6.198556,"station_name":"Cikini","is_transit":false,"line":0,"i_long":106.840169,"station_id":"CKI","transit":false,"time":0},{"station_name":"Gondangdia","is_transit":false,"i_long":106.832183,"i_lat":-6.186295,"line":2,"station_id":"GDD","transit":false,"time":3,"distance":1750},{"distance":2015,"station_name":"Juanda","transit":false,"time":4,"i_lat":-6.166716,"line":2,"is_transit":false,"station_id":"JUA","i_long":106.828284},{"line":2,"station_name":"Sawah Besar","time":2,"station_id":"SW","i_lat":-6.160725,"transit":false,"distance":1149,"i_long":106.827103,"is_transit":false},{"station_id":"MGB","i_lat":-6.149769,"line":2,"i_long":106.82482,"time":2,"station_name":"Manggabesar","transit":false,"is_transit":false,"distance":906},{"i_long":106.820901,"distance":1080,"station_name":"Jayakarta","is_transit":false,"line":7,"i_lat":-6.141205,"transit":false,"time":2,"station_id":"JAY"},{"is_transit":true,"distance":1264,"time":4,"i_long":106.812439,"station_id":"JAKK","transit":true,"line":0,"station_name":"Jakarta Kota","i_lat":-6.137569},{"i_long":106.826365,"station_name":"Kampung Bandan","line":0,"transit":false,"station_id":"KPB","i_lat":-6.132549,"is_transit":true,"time":3,"distance":1364},{"station_name":"Angke","station_id":"AK","time":9,"transit":false,"is_transit":false,"line":0,"i_long":106.79867,"distance":4102,"i_lat":-6.144674},{"is_transit":true,"time":4,"i_lat":-6.155215,"transit":true,"station_id":"DU","station_name":"Duri","line":1,"distance":1230,"i_long":106.800832},{"transit":true,"is_transit":true,"i_lat":-6.185545,"distance":3632,"i_long":106.811091,"station_name":"Tanah Abang","station_id":"THB","line":1,"time":8},{"time":6,"station_id":"PLM","i_long":106.79689,"is_transit":false,"line":6,"station_name":"Palmerah","i_lat":-6.207404,"distance":3191,"transit":false},{"i_long":106.780334,"time":7,"line":6,"distance":3737,"station_name":"Kebayoran","i_lat":-6.237242,"transit":false,"is_transit":false,"station_id":"KBY"},{"station_id":"PDJ","is_transit":false,"time":8,"transit":false,"distance":6218,"i_long":106.74273,"station_name":"Pondokranji","i_lat":-6.276362,"line":6},{"station_name":"Jurangmangu","i_lat":-6.288927,"transit":false,"time":3,"station_id":"JMU","i_long":106.728916,"line":6,"distance":2179,"is_transit":false},{"i_lat":-6.296963,"line":6,"station_id":"SDM","time":4,"station_name":"Sudimara","transit":false,"is_transit":false,"i_long":106.712277,"distance":1994},{"time":6,"station_id":"RU","distance":4566,"i_long":106.675475,"i_lat":-6.314823,"is_transit":false,"line":6,"station_name":"Rawa Buntu","transit":false},{"transit":false,"i_lat":-6.319871,"distance":2413,"station_id":"SRP","is_transit":false,"station_name":"Serpong","time":4,"line":6,"i_long":106.66566},{"station_name":"Cisauk","time":4,"transit":false,"station_id":"CSK","distance":1784,"i_long":106.640411,"line":0,"is_transit":false,"i_lat":-6.32484},{"i_lat":-6.329547,"line":0,"is_transit":false,"distance":2519,"transit":false,"time":4,"i_long":106.617853,"station_name":"Cicayur","station_id":"CC"},{"time":8,"is_transit":false,"station_name":"Parung Panjang","distance":5968,"transit":false,"line":6,"i_long":106.568863,"station_id":"PRP","i_lat":-6.3441410000000005},{"station_name":"Cilejit","distance":7025,"is_transit":false,"i_lat":-6.354349,"time":9,"station_id":"CJT","line":0,"transit":false,"i_long":106.508482},{"time":6,"is_transit":false,"station_id":"DAR","line":0,"i_lat":-6.338021,"i_long":106.491338,"station_name":"Daru","transit":false,"distance":2675},{"distance":3902,"time":5,"transit":false,"station_id":"TEJ","is_transit":false,"line":6,"i_lat":-6.327251,"i_long":106.460812,"station_name":"Tenjo"},{"station_id":"TGS","transit":false,"is_transit":false,"time":5,"i_lat":-6.328533,"distance":2974,"station_name":"Tigaraksa","line":6,"i_long":106.425991},{"time":3,"i_long":106.411216,"line":0,"is_transit":false,"station_id":"CKY","i_lat":-6.33561,"distance":2651,"station_name":"Cikoya","transit":false},{"is_transit":false,"station_name":"Maja","station_id":"MJ","line":6,"transit":false,"i_long":106.394373,"time":4,"i_lat":-6.332307,"distance":1853},{"line":0,"transit":false,"i_lat":-6.334892,"station_id":"CTR","distance":7293,"station_name":"Citeras","time":10,"i_long":106.332092,"is_transit":false}],[{"station_name":"Cikini","time":0,"station_id":"CKI","distance":0,"i_lat":-6.198556,"i_long":106.840169,"is_transit":false,"transit":false,"line":0},{"station_id":"MRI","line":0,"station_name":"Manggarai","i_lat":-6.209883,"is_transit":true,"transit":true,"i_long":106.84912,"time":4,"distance":1590},{"i_long":106.858896,"station_name":"Matraman","transit":false,"station_id":"MTR","distance":1275,"time":2,"i_lat":-6.212485,"is_transit":false,"line":1},{"i_long":106.86807400000001,"transit":true,"station_id":"JNG","distance":1377,"is_transit":true,"time":8,"line":0,"station_name":"Jatinegara","i_lat":-6.215091},{"station_name":"Pondok Jati","is_transit":false,"station_id":"POK","distance":1236,"line":11,"time":2,"i_long":106.861737,"transit":false,"i_lat":-6.209188},{"transit":false,"station_id":"KMT","i_lat":-6.193792,"line":11,"station_name":"Kramat","is_transit":false,"distance":1829,"time":2,"i_long":106.855437},{"i_lat":-6.185975,"station_name":"Gang Sentiong","distance":973,"is_transit":false,"i_long":106.850107,"time":1,"line":11,"transit":false,"station_id":"GST"},{"station_name":"Pasar Senen","transit":false,"distance":1567,"is_transit":false,"i_lat":-6.174784,"line":11,"station_id":"PSE","i_long":106.84368,"time":8},{"is_transit":false,"time":4,"station_name":"Kemayoran","transit":false,"distance":1436,"i_lat":-6.161728,"i_long":106.839204,"line":11,"station_id":"KMO"},{"time":5,"station_name":"Rajawali","station_id":"RJW","distance":1901,"is_transit":false,"line":11,"i_lat":-6.14505,"transit":false,"i_long":106.836569},{"line":0,"i_lat":-6.132549,"is_transit":true,"station_name":"Kampung Bandan","station_id":"KPB","distance":1444,"time":3,"i_long":106.826365,"transit":true},{"station_name":"Angke","i_long":106.79867,"distance":4102,"i_lat":-6.144674,"time":9,"station_id":"AK","line":0,"is_transit":false,"transit":false},{"distance":1230,"line":1,"is_transit":true,"station_name":"Duri","time":4,"transit":true,"i_lat":-6.155215,"i_long":106.800832,"station_id":"DU"},{"is_transit":true,"distance":3632,"transit":true,"station_name":"Tanah Abang","i_long":106.811091,"line":1,"i_lat":-6.185545,"station_id":"THB","time":8},{"station_id":"PLM","transit":false,"distance":3191,"i_lat":-6.207404,"i_long":106.79689,"is_transit":false,"station_name":"Palmerah","time":6,"line":6},{"line":6,"is_transit":false,"time":7,"station_id":"KBY","station_name":"Kebayoran","distance":3737,"i_lat":-6.237242,"transit":false,"i_long":106.780334},{"line":6,"station_id":"PDJ","station_name":"Pondokranji","is_transit":false,"transit":false,"distance":6218,"time":8,"i_lat":-6.276362,"i_long":106.74273},{"is_transit":false,"i_long":106.728916,"transit":false,"distance":2179,"station_id":"JMU","station_name":"Jurangmangu","i_lat":-6.288927,"line":6,"time":3},{"time":4,"transit":false,"i_long":106.712277,"is_transit":false,"distance":1994,"station_id":"SDM","i_lat":-6.296963,"line":6,"station_name":"Sudimara"},{"distance":4566,"is_transit":false,"i_long":106.675475,"line":6,"station_name":"Rawa Buntu","time":6,"i_lat":-6.314823,"station_id":"RU","transit":false},{"transit":false,"station_id":"SRP","distance":2413,"i_lat":-6.319871,"time":4,"is_transit":false,"i_long":106.66566,"line":6,"station_name":"Serpong"},{"station_name":"Cisauk","station_id":"CSK","i_long":106.640411,"transit":false,"time":4,"i_lat":-6.32484,"distance":1784,"is_transit":false,"line":0},{"transit":false,"time":4,"is_transit":false,"station_id":"CC","i_lat":-6.329547,"i_long":106.617853,"distance":2519,"line":0,"station_name":"Cicayur"},{"time":8,"i_long":106.568863,"line":6,"distance":5968,"transit":false,"is_transit":false,"station_id":"PRP","i_lat":-6.3441410000000005,"station_name":"Parung Panjang"},{"distance":7025,"is_transit":false,"line":0,"i_long":106.508482,"transit":false,"station_name":"Cilejit","time":9,"station_id":"CJT","i_lat":-6.354349},{"i_long":106.491338,"transit":false,"time":6,"distance":2675,"is_transit":false,"line":0,"station_name":"Daru","station_id":"DAR","i_lat":-6.338021},{"station_id":"TEJ","distance":3902,"i_long":106.460812,"is_transit":false,"time":5,"line":6,"station_name":"Tenjo","i_lat":-6.327251,"transit":false},{"is_transit":false,"station_name":"Tigaraksa","time":5,"i_lat":-6.328533,"distance":2974,"line":6,"transit":false,"i_long":106.425991,"station_id":"TGS"},{"distance":2651,"i_lat":-6.33561,"is_transit":false,"time":3,"station_id":"CKY","station_name":"Cikoya","transit":false,"i_long":106.411216,"line":0},{"time":4,"i_lat":-6.332307,"distance":1853,"station_name":"Maja","i_long":106.394373,"is_transit":false,"station_id":"MJ","transit":false,"line":6},{"station_id":"CTR","line":0,"i_lat":-6.334892,"time":10,"station_name":"Citeras","distance":7293,"is_transit":false,"i_long":106.332092,"transit":false}],[{"time":0,"i_long":106.840169,"is_transit":false,"distance":0,"transit":false,"line":0,"station_name":"Cikini","i_lat":-6.198556,"station_id":"CKI"},{"time":3,"station_name":"Gondangdia","transit":false,"distance":1750,"is_transit":false,"station_id":"GDD","i_lat":-6.186295,"i_long":106.832183,"line":2},{"station_id":"JUA","i_lat":-6.166716,"i_long":106.828284,"is_transit":false,"station_name":"Juanda","line":2,"time":4,"transit":false,"distance":2015},{"transit":false,"is_transit":false,"i_long":106.827103,"time":2,"station_id":"SW","line":2,"distance":1149,"station_name":"Sawah Besar","i_lat":-6.160725},{"distance":906,"line":2,"station_name":"Manggabesar","i_lat":-6.149769,"i_long":106.82482,"transit":false,"time":2,"is_transit":false,"station_id":"MGB"},{"i_lat":-6.141205,"is_transit":false,"i_long":106.820901,"line":7,"station_name":"Jayakarta","distance":1080,"time":2,"transit":false,"station_id":"JAY"},{"line":0,"transit":true,"station_name":"Jakarta Kota","time":4,"i_lat":-6.137569,"is_transit":true,"station_id":"JAKK","i_long":106.812439,"distance":1264},{"time":3,"transit":true,"i_lat":-6.132549,"line":0,"distance":1364,"station_id":"KPB","i_long":106.826365,"is_transit":true,"station_name":"Kampung Bandan"},{"is_transit":false,"station_id":"RJW","i_lat":-6.14505,"distance":1444,"time":3,"transit":false,"i_long":106.836569,"station_name":"Rajawali","line":11},{"is_transit":false,"station_id":"KMO","distance":1901,"station_name":"Kemayoran","transit":false,"time":5,"i_lat":-6.161728,"i_long":106.839204,"line":11},{"time":4,"distance":1436,"i_long":106.84368,"transit":false,"is_transit":false,"station_name":"Pasar Senen","station_id":"PSE","i_lat":-6.174784,"line":11},{"is_transit":false,"i_long":106.850107,"line":11,"station_name":"Gang Sentiong","distance":1567,"time":8,"i_lat":-6.185975,"transit":false,"station_id":"GST"},{"time":1,"station_name":"Kramat","is_transit":false,"i_long":106.855437,"distance":973,"line":11,"transit":false,"i_lat":-6.193792,"station_id":"KMT"},{"i_lat":-6.209188,"is_transit":false,"transit":false,"line":11,"station_id":"POK","distance":1829,"station_name":"Pondok Jati","time":2,"i_long":106.861737},{"station_name":"Jatinegara","transit":true,"is_transit":true,"station_id":"JNG","distance":1236,"i_long":106.86807400000001,"time":9,"i_lat":-6.215091,"line":0},{"time":2,"distance":1377,"line":1,"station_name":"Matraman","is_transit":false,"i_lat":-6.212485,"i_long":106.858896,"station_id":"MTR","transit":false},{"i_lat":-6.209883,"is_transit":true,"station_id":"MRI","distance":1275,"line":0,"station_name":"Manggarai","transit":false,"time":2,"i_long":106.84912},{"time":4,"station_name":"Sudirman","i_long":106.822649,"line":1,"station_id":"SUD","distance":3186,"is_transit":false,"transit":false,"i_lat":-6.202263},{"is_transit":false,"station_id":"SUDB","i_lat":-6.201433,"distance":280,"i_long":106.819881,"transit":false,"time":1,"line":1,"station_name":"Sudirman Baru"},{"distance":471,"time":1,"station_name":"Karet","transit":false,"i_long":106.816351,"i_lat":-6.20132,"is_transit":false,"station_id":"KAT","line":1},{"distance":2029,"station_id":"THB","line":1,"station_name":"Tanah Abang","time":5,"i_long":106.811091,"is_transit":true,"i_lat":-6.185545,"transit":true},{"is_transit":false,"i_lat":-6.207404,"line":6,"time":6,"distance":3191,"station_name":"Palmerah","station_id":"PLM","i_long":106.79689,"transit":false},{"station_name":"Kebayoran","station_id":"KBY","i_lat":-6.237242,"transit":false,"line":6,"is_transit":false,"time":7,"distance":3737,"i_long":106.780334},{"distance":6218,"transit":false,"is_transit":false,"time":8,"station_name":"Pondokranji","i_lat":-6.276362,"i_long":106.74273,"line":6,"station_id":"PDJ"},{"i_lat":-6.288927,"is_transit":false,"station_id":"JMU","distance":2179,"transit":false,"i_long":106.728916,"station_name":"Jurangmangu","time":3,"line":6},{"transit":false,"i_lat":-6.296963,"station_id":"SDM","time":4,"i_long":106.712277,"line":6,"station_name":"Sudimara","distance":1994,"is_transit":false},{"is_transit":false,"distance":4566,"transit":false,"i_long":106.675475,"i_lat":-6.314823,"time":6,"station_id":"RU","line":6,"station_name":"Rawa Buntu"},{"is_transit":false,"transit":false,"station_name":"Serpong","i_long":106.66566,"distance":2413,"time":4,"station_id":"SRP","line":6,"i_lat":-6.319871},{"station_name":"Cisauk","i_long":106.640411,"i_lat":-6.32484,"transit":false,"station_id":"CSK","line":0,"is_transit":false,"time":4,"distance":1784},{"transit":false,"is_transit":false,"distance":2519,"time":4,"i_lat":-6.329547,"i_long":106.617853,"line":0,"station_name":"Cicayur","station_id":"CC"},{"station_id":"PRP","transit":false,"line":6,"i_long":106.568863,"is_transit":false,"time":8,"distance":5968,"i_lat":-6.3441410000000005,"station_name":"Parung Panjang"},{"transit":false,"time":9,"station_name":"Cilejit","distance":7025,"i_lat":-6.354349,"i_long":106.508482,"line":0,"is_transit":false,"station_id":"CJT"},{"transit":false,"is_transit":false,"i_lat":-6.338021,"station_name":"Daru","line":0,"time":6,"distance":2675,"station_id":"DAR","i_long":106.491338},{"transit":false,"i_lat":-6.327251,"station_name":"Tenjo","station_id":"TEJ","distance":3902,"line":6,"time":5,"is_transit":false,"i_long":106.460812},{"i_long":106.425991,"time":5,"station_id":"TGS","transit":false,"distance":2974,"i_lat":-6.328533,"station_name":"Tigaraksa","is_transit":false,"line":6},{"i_long":106.411216,"line":0,"distance":2651,"transit":false,"time":3,"station_id":"CKY","i_lat":-6.33561,"station_name":"Cikoya","is_transit":false},{"i_lat":-6.332307,"is_transit":false,"station_id":"MJ","distance":1853,"station_name":"Maja","line":6,"transit":false,"time":4,"i_long":106.394373},{"time":10,"station_name":"Citeras","i_long":106.332092,"transit":false,"distance":7293,"i_lat":-6.334892,"line":0,"is_transit":false,"station_id":"CTR"}]]}