{"data":[[{"transit":false,"station_name":"Cikini","i_lat":-6.198556,"line":2,"is_transit":false,"time":0,"station_id":"CKI","i_long":106.840169,"distance":0},{"time":3,"i_lat":-6.186295,"station_name":"Gondangdia","is_transit":false,"i_long":106.832183,"transit":false,"station_id":"GDD","line":2,"distance":1750},{"distance":2015,"station_name":"Juanda","is_transit":false,"line":2,"i_long":106.828284,"i_lat":-6.166716,"time":4,"station_id":"JUA","transit":false},{"is_transit":false,"line":2,"time":2,"distance":1149,"transit":false,"station_name":"Sawah Besar","station_id":"SW","i_lat":-6.160725,"i_long":106.827103},{"distance":906,"transit":false,"i_long":106.82482,"is_transit":false,"time":2,"station_name":"Manggabesar","line":2,"station_id":"MGB","i_lat":-6.149769},{"line":2,"distance":1080,"time":2,"i_lat":-6.141205,"station_id":"JAY","station_name":"Jayakarta","i_long":106.820901,"transit":false,"is_transit":false},{"i_long":106.812439,"time":4,"distance":1264,"is_transit":false,"transit":false,"station_id":"JAKK","station_name":"Jakarta Kota","line":2,"i_lat":-6.137569}],[{"distance":0,"transit":false,"i_lat":-6.198556,"station_id":"CKI","is_transit":false,"i_long":106.840169,"station_name":"Cikini","line":2,"time":0},{"line":2,"time":4,"i_lat":-6.209883,"i_long":106.84912,"transit":true,"distance":1590,"station_name":"Manggarai","station_id":"MRI","is_transit":true},{"station_id":"SUD","i_long":106.822649,"transit":false,"is_transit":false,"time":4,"i_lat":-6.202263,"line":1,"station_name":"Sudirman","distance":3186},{"i_lat":-6.201433,"is_transit":false,"time":1,"i_long":106.819881,"station_name":"Sudirman Baru","transit":false,"distance":280,"station_id":"SUDB","line":1},{"distance":471,"station_name":"Karet","time":1,"station_id":"KAT","i_lat":-6.20132,"line":1,"i_long":106.816351,"transit":false,"is_transit":false},{"station_id":"THB","i_lat":-6.185545,"station_name":"Tanah Abang","transit":false,"i_long":106.811091,"line":1,"distance":2029,"time":5,"is_transit":false},{"distance":3632,"i_long":106.800832,"transit":false,"i_lat":-6.155215,"station_id":"DU","station_name":"Duri","time":8,"line":1,"is_transit":false},{"station_name":"Angke","distance":1230,"transit":false,"is_transit":false,"time":4,"i_lat":-6.144674,"i_long":106.79867,"line":1,"station_id":"AK"},{"station_name":"Kampung Bandan","is_transit":true,"transit":true,"station_id":"KPB","distance":4102,"time":9,"i_long":106.826365,"line":4,"i_lat":-6.132549},{"transit":false,"station_id":"JAKK","time":3,"i_lat":-6.137569,"i_long":106.812439,"station_name":"Jakarta Kota","is_transit":false,"distance":1364,"line":2}],[{"distance":0,"i_long":106.840169,"transit":false,"is_transit":false,"station_id":"CKI","line":2,"station_name":"Cikini","i_lat":-6.198556,"time":0},{"distance":1590,"station_id":"MRI","station_name":"Manggarai","line":2,"i_long":106.84912,"is_transit":true,"transit":true,"i_lat":-6.209883,"time":4},{"i_lat":-6.212485,"time":2,"station_id":"MTR","line":1,"transit":false,"is_transit":false,"distance":1275,"i_long":106.858896,"station_name":"Matraman"},{"is_transit":true,"transit":true,"time":8,"station_id":"JNG","i_long":106.86807400000001,"station_name":"Jatinegara","distance":1377,"line":1,"i_lat":-6.215091},{"station_id":"POK","distance":1236,"i_lat":-6.209188,"i_long":106.861737,"is_transit":false,"station_name":"Pondok Jati","line":11,"time":2,"transit":false},{"transit":false,"time":2,"distance":1829,"i_lat":-6.193792,"is_transit":false,"station_id":"KMT","station_name":"Kramat","i_long":106.855437,"line":11},{"i_lat":-6.185975,"transit":false,"line":11,"station_name":"Gang Sentiong","is_transit":false,"station_id":"GST","i_long":106.850107,"distance":973,"time":1},{"time":8,"i_long":106.84368,"distance":1567,"station_name":"Pasar Senen","station_id":"PSE","line":11,"i_lat":-6.174784,"is_transit":false,"transit":false},{"distance":1436,"station_id":"KMO","i_long":106.839204,"transit":false,"station_name":"Kemayoran","line":11,"time":4,"i_lat":-6.161728,"is_transit":false},{"i_long":106.836569,"distance":1901,"is_transit":false,"time":5,"transit":false,"station_name":"Rajawali","i_lat":-6.14505,"line":11,"station_id":"RJW"},{"distance":1444,"i_long":106.826365,"is_transit":true,"i_lat":-6.132549,"station_name":"Kampung Bandan","time":3,"station_id":"KPB","transit":true,"line":4},{"is_transit":false,"distance":1364,"station_id":"JAKK","i_lat":-6.137569,"transit":false,"i_long":106.812439,"station_name":"Jakarta Kota","time":3,"line":2}]]}