{"data":[[{"is_transit":false,"time":0,"i_lat":-6.198556,"line":0,"distance":0,"station_id":"CKI","station_name":"Cikini","i_long":106.840169,"transit":false},{"i_long":106.84912,"distance":1590,"time":4,"station_id":"MRI","line":0,"station_name":"Manggarai","is_transit":true,"transit":true,"i_lat":-6.209883},{"transit":false,"line":1,"station_name":"Matraman","is_transit":false,"distance":1275,"i_lat":-6.212485,"i_long":106.858896,"time":2,"station_id":"MTR"},{"time":8,"station_id":"JNG","station_name":"Jatinegara","i_long":106.86807400000001,"is_transit":true,"i_lat":-6.215091,"transit":true,"distance":1377,"line":0},{"station_name":"Pondok Jati","i_long":106.861737,"line":11,"transit":false,"distance":1236,"i_lat":-6.209188,"station_id":"POK","is_transit":false,"time":2},{"i_long":106.855437,"transit":false,"is_transit":false,"station_id":"KMT","distance":1829,"station_name":"Kramat","time":2,"i_lat":-6.193792,"line":11},{"i_long":106.850107,"transit":false,"i_lat":-6.185975,"time":1,"line":11,"distance":973,"station_id":"GST","is_transit":false,"station_name":"Gang Sentiong"},{"i_lat":-6.174784,"station_id":"PSE","time":8,"distance":1567,"is_transit":false,"line":11,"transit":false,"i_long":106.84368,"station_name":"Pasar Senen"},{"distance":1436,"time":4,"station_name":"Kemayoran","is_transit":false,"station_id":"KMO","i_long":106.839204,"line":11,"transit":false,"i_lat":-6.161728}],[{"line":0,"transit":false,"i_lat":-6.198556,"i_long":106.840169,"station_id":"CKI","time":0,"station_name":"Cikini","is_transit":false,"distance":0},{"i_lat":-6.186295,"line":2,"i_long":106.832183,"distance":1750,"is_transit":false,"time":3,"station_id":"GDD","transit":false,"station_name":"Gondangdia"},{"station_id":"JUA","station_name":"Juanda","is_transit":false,"line":2,"time":4,"transit":false,"distance":2015,"i_lat":-6.166716,"i_long":106.828284},{"i_lat":-6.160725,"time":2,"distance":1149,"station_name":"Sawah Besar","i_long":106.827103,"transit":false,"is_transit":false,"line":2,"station_id":"SW"},{"distance":906,"i_lat":-6.149769,"i_long":106.82482,"station_name":"Manggabesar","line":2,"time":2,"transit":false,"is_transit":false,"station_id":"MGB"},{"distance":1080,"station_name":"Jayakarta","time":2,"i_long":106.820901,"line":7,"station_id":"JAY","is_transit":false,"i_lat":-6.141205,"transit":false},{"is_transit":true,"line":0,"time":4,"transit":true,"station_id":"JAKK","i_lat":-6.137569,"i_long":106.812439,"distance":1264,"station_name":"Jakarta Kota"},{"is_transit":true,"station_id":"KPB","distance":1364,"transit":true,"i_long":106.826365,"i_lat":-6.132549,"time":3,"line":0,"station_name":"Kampung Bandan"},{"distance":1444,"is_transit":false,"i_long":106.836569,"i_lat":-6.14505,"station_name":"Rajawali","line":11,"station_id":"RJW","transit":false,"time":3},{"line":11,"is_transit":false,"i_long":106.839204,"station_id":"KMO","transit":false,"distance":1901,"station_name":"Kemayoran","time":5,"i_lat":-6.161728}],[{"station_name":"Cikini","station_id":"CKI","i_lat":-6.198556,"time":0,"i_long":106.840169,"transit":false,"distance":0,"line":0,"is_transit":false},{"i_long":106.84912,"distance":1590,"i_lat":-6.209883,"time":4,"station_id":"MRI","is_transit":true,"line":0,"transit":true,"station_name":"Manggarai"},{"time":4,"i_lat":-6.202263,"station_name":"Sudirman","distance":3186,"i_long":106.822649,"station_id":"SUD","line":1,"transit":false,"is_transit":false},{"station_id":"SUDB","is_transit":false,"transit":false,"i_long":106.819881,"i_lat":-6.201433,"line":1,"time":1,"station_name":"Sudirman Baru","distance":280},{"is_transit":false,"transit":false,"line":1,"station_id":"KAT","station_name":"Karet","i_lat":-6.20132,"i_long":106.816351,"time":1,"distance":471},{"distance":2029,"is_transit":true,"station_id":"THB","station_name":"Tanah Abang","i_lat":-6.185545,"time":5,"i_long":106.811091,"transit":false,"line":1},{"distance":3632,"time":8,"is_transit":true,"i_lat":-6.155215,"i_long":106.800832,"line":1,"station_id":"DU","station_name":"Duri","transit":true},{"i_lat":-6.144674,"station_id":"AK","distance":1230,"transit":false,"i_long":106.79867,"time":4,"station_name":"Angke","is_transit":false,"line":0},{"transit":true,"is_transit":true,"time":9,"station_id":"KPB","i_lat":-6.132549,"distance":4102,"station_name":"Kampung Bandan","i_long":106.826365,"line":0},{"station_id":"RJW","is_transit":false,"distance":1444,"i_long":106.836569,"line":11,"time":3,"station_name":"Rajawali","i_lat":-6.14505,"transit":false},{"time":5,"i_long":106.839204,"line":11,"i_lat":-6.161728,"transit":false,"station_id":"KMO","distance":1901,"station_name":"Kemayoran","is_transit":false}],[{"distance":0,"time":0,"i_lat":-6.198556,"line":0,"station_id":"CKI","i_long":106.840169,"station_name":"Cikini","is_transit":false,"transit":false},{"distance":1750,"transit":false,"line":2,"i_long":106.832183,"station_name":"Gondangdia","is_transit":false,"i_lat":-6.186295,"station_id":"GDD","time":3},{"transit":false,"distance":2015,"is_transit":false,"station_id":"JUA","i_lat":-6.166716,"i_long":106.828284,"station_name":"Juanda","line":2,"time":4},{"station_id":"SW","i_lat":-6.160725,"station_name":"Sawah Besar","line":2,"i_long":106.827103,"transit":false,"is_transit":false,"distance":1149,"time":2},{"i_long":106.82482,"station_id":"MGB","time":2,"distance":906,"is_transit":false,"station_name":"Manggabesar","i_lat":-6.149769,"transit":false,"line":2},{"station_name":"Jayakarta","is_transit":false,"time":2,"i_long":106.820901,"distance":1080,"transit":false,"station_id":"JAY","i_lat":-6.141205,"line":7},{"is_transit":true,"station_name":"Jakarta Kota","transit":true,"i_long":106.812439,"time":4,"line":0,"i_lat":-6.137569,"distance":1264,"station_id":"JAKK"},{"transit":false,"is_transit":true,"distance":1364,"time":3,"station_id":"KPB","i_lat":-6.132549,"i_long":106.826365,"line":0,"station_name":"Kampung Bandan"},{"station_id":"AK","transit":false,"distance":4102,"station_name":"Angke","i_lat":-6.144674,"line":0,"i_long":106.79867,"is_transit":false,"time":9},{"station_id":"DU","station_name":"Duri","is_transit":true,"i_long":106.800832,"distance":1230,"transit":true,"line":1,"time":4,"i_lat":-6.155215},{"distance":3632,"i_lat":-6.185545,"line":1,"station_id":"THB","i_long":106.811091,"transit":false,"is_transit":true,"time":8,"station_name":"Tanah Abang"},{"transit":false,"distance":2029,"station_id":"KAT","station_name":"Karet","is_transit":false,"i_lat":-6.20132,"i_long":106.816351,"line":1,"time":5},{"transit":false,"line":1,"distance":471,"time":1,"station_name":"Sudirman Baru","is_transit":false,"i_lat":-6.201433,"station_id":"SUDB","i_long":106.819881},{"line":1,"distance":280,"station_name":"Sudirman","i_long":106.822649,"time":1,"transit":false,"i_lat":-6.202263,"station_id":"SUD","is_transit":false},{"i_lat":-6.209883,"distance":3186,"station_name":"Manggarai","is_transit":true,"i_long":106.84912,"transit":false,"station_id":"MRI","time":4,"line":0},{"line":1,"time":2,"i_long":106.858896,"station_id":"MTR","station_name":"Matraman","is_transit":false,"transit":false,"i_lat":-6.212485,"distance":1275},{"station_name":"Jatinegara","line":0,"time":8,"transit":true,"distance":1377,"is_transit":true,"i_lat":-6.215091,"station_id":"JNG","i_long":106.86807400000001},{"distance":1236,"station_id":"POK","transit":false,"i_long":106.861737,"time":2,"station_name":"Pondok Jati","i_lat":-6.209188,"is_transit":false,"line":11},{"line":11,"i_lat":-6.193792,"time":2,"i_long":106.855437,"station_name":"Kramat","is_transit":false,"station_id":"KMT","distance":1829,"transit":false},{"transit":false,"distance":973,"station_name":"Gang Sentiong","is_transit":false,"station_id":"GST","time":1,"line":11,"i_long":106.850107,"i_lat":-6.185975},{"station_name":"Pasar Senen","i_lat":-6.174784,"time":8,"station_id":"PSE","transit":false,"is_transit":false,"distance":1567,"i_long":106.84368,"line":11},{"station_name":"Kemayoran","distance":1436,"is_transit":false,"station_id":"KMO","i_lat":-6.161728,"i_long":106.839204,"line":11,"time":4,"transit":false}]]}