{"data":[[{"i_long":106.840169,"distance":0,"i_lat":-6.198556,"time":0,"station_name":"Cikini","station_id":"CKI","is_transit":false,"line":2,"transit":false},{"i_lat":-6.209883,"i_long":106.84912,"line":2,"distance":1590,"is_transit":false,"station_name":"Manggarai","transit":false,"time":4,"station_id":"MRI"},{"station_name":"Tebet","station_id":"TEB","transit":false,"time":4,"i_lat":-6.226659,"i_long":106.857948,"distance":2610,"is_transit":false,"line":2},{"station_id":"CW","i_lat":-6.242512,"i_long":106.856607,"station_name":"Cawang","transit":false,"is_transit":false,"time":2,"line":2,"distance":1230},{"distance":1546,"station_name":"Duren Kalibata","i_long":106.85449,"line":2,"is_transit":false,"station_id":"DRN","transit":false,"i_lat":-6.255332,"time":3},{"station_id":"PSMB","is_transit":false,"transit":false,"time":2,"distance":824,"station_name":"Pasar Minggu Baru","i_long":106.851577,"line":2,"i_lat":-6.263214},{"distance":2380,"i_long":106.843999,"time":2,"station_id":"PSM","transit":false,"station_name":"Pasar Minggu","line":2,"is_transit":false,"i_lat":-6.2842400000000005},{"time":4,"transit":false,"station_id":"TNT","distance":2820,"station_name":"Tanjung Barat","line":2,"i_long":106.838896,"is_transit":false,"i_lat":-6.3080680000000005},{"distance":2671,"i_lat":-6.330363,"is_transit":false,"station_id":"LNA","transit":false,"time":3,"i_long":106.832616,"line":2,"station_name":"Lenteng Agung"},{"distance":1029,"line":2,"i_lat":-6.339291,"station_name":"Univ. Pancasila","station_id":"UP","i_long":106.834175,"time":2,"is_transit":false,"transit":false},{"transit":false,"station_name":"Univ. Indonesia","i_lat":-6.360749,"station_id":"UI","distance":2264,"i_long":106.831474,"is_transit":false,"line":2,"time":3},{"is_transit":false,"line":2,"i_lat":-6.369073,"i_long":106.831114,"distance":1109,"station_id":"POC","station_name":"Pondok Cina","transit":false,"time":2},{"i_lat":-6.391065,"time":4,"is_transit":false,"station_name":"Depokbaru","station_id":"DPB","transit":false,"line":2,"distance":2727,"i_long":106.819451},{"i_lat":-6.405256,"is_transit":false,"distance":1584,"transit":false,"i_long":106.816926,"station_name":"Depok","station_id":"DP","line":2,"time":3},{"station_id":"CTA","distance":5084,"station_name":"Citayam","i_lat":-6.448811,"time":6,"i_long":106.800298,"line":2,"transit":true,"is_transit":true},{"transit":false,"time":0,"i_long":106.824374,"is_transit":false,"station_id":"PDRG","line":21,"station_name":"Pondok Rajeg","distance":0,"i_lat":-6.460735},{"station_id":"CBN","transit":false,"time":0,"line":21,"is_transit":false,"distance":0,"station_name":"Cibinong","i_long":106.851978,"i_lat":-6.46424},{"is_transit":false,"i_long":106.905196,"line":21,"distance":6527,"i_lat":-6.466285,"station_id":"NMO","transit":false,"station_name":"Nambo","time":10}],[{"line":2,"i_lat":-6.198556,"i_long":106.840169,"station_id":"CKI","transit":false,"time":0,"is_transit":false,"distance":0,"station_name":"Cikini"},{"is_transit":false,"line":2,"station_name":"Gondangdia","time":3,"distance":1750,"i_lat":-6.186295,"i_long":106.832183,"transit":false,"station_id":"GDD"},{"i_long":106.828284,"line":2,"distance":2015,"i_lat":-6.166716,"station_id":"JUA","is_transit":false,"time":4,"transit":false,"station_name":"Juanda"},{"is_transit":false,"station_id":"SW","i_long":106.827103,"transit":false,"distance":1149,"station_name":"Sawah Besar","line":2,"time":2,"i_lat":-6.160725},{"distance":906,"line":2,"station_name":"Manggabesar","station_id":"MGB","transit":false,"time":2,"i_long":106.82482,"is_transit":false,"i_lat":-6.149769},{"transit":false,"time":2,"line":2,"station_name":"Jayakarta","i_lat":-6.141205,"is_transit":false,"distance":1080,"i_long":106.820901,"station_id":"JAY"},{"time":4,"distance":1264,"i_long":106.812439,"line":2,"station_id":"JAKK","transit":true,"is_transit":true,"i_lat":-6.137569,"station_name":"Jakarta Kota"},{"is_transit":true,"station_id":"KPB","transit":true,"distance":1364,"station_name":"Kampung Bandan","i_lat":-6.132549,"time":3,"i_long":106.826365,"line":4},{"transit":false,"time":9,"i_lat":-6.144674,"distance":4102,"station_id":"AK","is_transit":false,"station_name":"Angke","line":1,"i_long":106.79867},{"i_lat":-6.155215,"station_id":"DU","is_transit":false,"station_name":"Duri","line":1,"distance":1230,"i_long":106.800832,"transit":false,"time":4},{"distance":3632,"station_id":"THB","transit":false,"is_transit":false,"line":1,"i_lat":-6.185545,"station_name":"Tanah Abang","i_long":106.811091,"time":8},{"time":5,"station_name":"Karet","i_lat":-6.20132,"i_long":106.816351,"transit":false,"station_id":"KAT","is_transit":false,"distance":2029,"line":1},{"transit":false,"is_transit":false,"line":1,"station_name":"Sudirman Baru","time":1,"i_long":106.819881,"station_id":"SUDB","i_lat":-6.201433,"distance":471},{"is_transit":false,"station_name":"Sudirman","line":1,"transit":false,"time":1,"distance":280,"i_long":106.822649,"station_id":"SUD","i_lat":-6.202263},{"is_transit":true,"transit":true,"distance":3186,"line":2,"i_long":106.84912,"i_lat":-6.209883,"time":4,"station_id":"MRI","station_name":"Manggarai"},{"line":2,"time":4,"is_transit":false,"station_id":"TEB","station_name":"Tebet","i_long":106.857948,"i_lat":-6.226659,"transit":false,"distance":2610},{"distance":1230,"transit":false,"station_name":"Cawang","is_transit":false,"i_lat":-6.242512,"time":2,"i_long":106.856607,"station_id":"CW","line":2},{"transit":false,"time":3,"distance":1546,"line":2,"station_id":"DRN","station_name":"Duren Kalibata","is_transit":false,"i_lat":-6.255332,"i_long":106.85449},{"line":2,"i_lat":-6.263214,"i_long":106.851577,"transit":false,"time":2,"distance":824,"station_name":"Pasar Minggu Baru","is_transit":false,"station_id":"PSMB"},{"transit":false,"station_id":"PSM","distance":2380,"station_name":"Pasar Minggu","i_lat":-6.2842400000000005,"line":2,"time":2,"i_long":106.843999,"is_transit":false},{"line":2,"transit":false,"i_lat":-6.3080680000000005,"station_id":"TNT","station_name":"Tanjung Barat","distance":2820,"is_transit":false,"time":4,"i_long":106.838896},{"station_id":"LNA","station_name":"Lenteng Agung","transit":false,"line":2,"i_long":106.832616,"distance":2671,"i_lat":-6.330363,"is_transit":false,"time":3},{"i_lat":-6.339291,"station_id":"UP","is_transit":false,"distance":1029,"transit":false,"station_name":"Univ. Pancasila","time":2,"i_long":106.834175,"line":2},{"station_id":"UI","i_lat":-6.360749,"transit":false,"is_transit":false,"time":3,"distance":2264,"station_name":"Univ. Indonesia","i_long":106.831474,"line":2},{"station_id":"POC","line":2,"i_lat":-6.369073,"is_transit":false,"distance":1109,"station_name":"Pondok Cina","i_long":106.831114,"time":2,"transit":false},{"station_name":"Depokbaru","distance":2727,"station_id":"DPB","i_lat":-6.391065,"is_transit":false,"time":4,"i_long":106.819451,"transit":false,"line":2},{"line":2,"time":3,"station_name":"Depok","station_id":"DP","distance":1584,"transit":false,"is_transit":false,"i_long":106.816926,"i_lat":-6.405256},{"i_long":106.800298,"line":2,"time":6,"station_id":"CTA","is_transit":true,"distance":5084,"transit":true,"station_name":"Citayam","i_lat":-6.448811},{"distance":0,"i_lat":-6.460735,"line":21,"station_name":"Pondok Rajeg","time":0,"i_long":106.824374,"is_transit":false,"station_id":"PDRG","transit":false},{"line":21,"distance":0,"is_transit":false,"i_long":106.851978,"i_lat":-6.46424,"station_id":"CBN","transit":false,"station_name":"Cibinong","time":0},{"transit":false,"is_transit":false,"station_name":"Nambo","station_id":"NMO","time":10,"distance":6527,"i_lat":-6.466285,"line":21,"i_long":106.905196}],[{"time":0,"i_long":106.840169,"i_lat":-6.198556,"transit":false,"distance":0,"line":2,"is_transit":false,"station_id":"CKI","station_name":"Cikini"},{"i_lat":-6.186295,"i_long":106.832183,"station_name":"Gondangdia","time":3,"line":2,"transit":false,"station_id":"GDD","distance":1750,"is_transit":false},{"transit":false,"distance":2015,"time":4,"is_transit":false,"station_name":"Juanda","line":2,"i_long":106.828284,"station_id":"JUA","i_lat":-6.166716},{"transit":false,"time":2,"i_lat":-6.160725,"distance":1149,"station_id":"SW","is_transit":false,"station_name":"Sawah Besar","i_long":106.827103,"line":2},{"transit":false,"station_id":"MGB","line":2,"i_long":106.82482,"is_transit":false,"time":2,"distance":906,"station_name":"Manggabesar","i_lat":-6.149769},{"station_id":"JAY","transit":false,"station_name":"Jayakarta","i_lat":-6.141205,"i_long":106.820901,"line":2,"is_transit":false,"time":2,"distance":1080},{"station_id":"JAKK","i_long":106.812439,"line":2,"time":4,"is_transit":true,"transit":true,"distance":1264,"i_lat":-6.137569,"station_name":"Jakarta Kota"},{"time":3,"is_transit":true,"distance":1364,"station_name":"Kampung Bandan","i_lat":-6.132549,"line":4,"transit":true,"i_long":106.826365,"station_id":"KPB"},{"time":3,"station_name":"Rajawali","i_long":106.836569,"transit":false,"line":11,"distance":1444,"station_id":"RJW","i_lat":-6.14505,"is_transit":false},{"station_id":"KMO","transit":false,"line":11,"time":5,"station_name":"Kemayoran","is_transit":false,"i_lat":-6.161728,"i_long":106.839204,"distance":1901},{"time":4,"is_transit":false,"station_name":"Pasar Senen","distance":1436,"line":11,"i_long":106.84368,"transit":false,"i_lat":-6.174784,"station_id":"PSE"},{"time":8,"is_transit":false,"distance":1567,"transit":false,"station_name":"Gang Sentiong","i_lat":-6.185975,"line":11,"station_id":"GST","i_long":106.850107},{"station_id":"KMT","transit":false,"station_name":"Kramat","i_lat":-6.193792,"line":11,"is_transit":false,"distance":973,"i_long":106.855437,"time":1},{"station_id":"POK","station_name":"Pondok Jati","i_long":106.861737,"distance":1829,"transit":false,"i_lat":-6.209188,"is_transit":false,"line":11,"time":2},{"station_id":"JNG","time":9,"transit":true,"station_name":"Jatinegara","i_lat":-6.215091,"i_long":106.86807400000001,"line":1,"is_transit":true,"distance":1236},{"transit":false,"is_transit":false,"station_id":"MTR","time":2,"distance":1377,"station_name":"Matraman","i_lat":-6.212485,"i_long":106.858896,"line":1},{"time":2,"transit":true,"i_lat":-6.209883,"i_long":106.84912,"distance":1275,"station_name":"Manggarai","station_id":"MRI","is_transit":true,"line":2},{"i_lat":-6.226659,"station_name":"Tebet","is_transit":false,"i_long":106.857948,"time":4,"station_id":"TEB","distance":2610,"line":2,"transit":false},{"distance":1230,"is_transit":false,"station_name":"Cawang","i_long":106.856607,"station_id":"CW","time":2,"i_lat":-6.242512,"line":2,"transit":false},{"station_id":"DRN","station_name":"Duren Kalibata","i_long":106.85449,"is_transit":false,"i_lat":-6.255332,"transit":false,"line":2,"time":3,"distance":1546},{"time":2,"station_id":"PSMB","station_name":"Pasar Minggu Baru","transit":false,"is_transit":false,"distance":824,"line":2,"i_lat":-6.263214,"i_long":106.851577},{"station_name":"Pasar Minggu","line":2,"is_transit":false,"distance":2380,"station_id":"PSM","i_lat":-6.2842400000000005,"transit":false,"time":2,"i_long":106.843999},{"time":4,"station_id":"TNT","is_transit":false,"transit":false,"i_lat":-6.3080680000000005,"line":2,"station_name":"Tanjung Barat","i_long":106.838896,"distance":2820},{"time":3,"transit":false,"is_transit":false,"i_long":106.832616,"station_id":"LNA","distance":2671,"line":2,"station_name":"Lenteng Agung","i_lat":-6.330363},{"distance":1029,"i_lat":-6.339291,"is_transit":false,"line":2,"time":2,"station_name":"Univ. Pancasila","station_id":"UP","transit":false,"i_long":106.834175},{"line":2,"station_id":"UI","i_lat":-6.360749,"station_name":"Univ. Indonesia","is_transit":false,"time":3,"distance":2264,"transit":false,"i_long":106.831474},{"station_id":"POC","transit":false,"is_transit":false,"distance":1109,"station_name":"Pondok Cina","time":2,"i_long":106.831114,"line":2,"i_lat":-6.369073},{"station_name":"Depokbaru","line":2,"i_lat":-6.391065,"time":4,"i_long":106.819451,"distance":2727,"transit":false,"station_id":"DPB","is_transit":false},{"i_long":106.816926,"transit":false,"line":2,"time":3,"distance":1584,"station_name":"Depok","is_transit":false,"i_lat":-6.405256,"station_id":"DP"},{"station_id":"CTA","distance":5084,"i_lat":-6.448811,"i_long":106.800298,"is_transit":true,"transit":true,"line":2,"station_name":"Citayam","time":6},{"station_id":"PDRG","line":21,"transit":false,"time":0,"is_transit":false,"distance":0,"i_lat":-6.460735,"i_long":106.824374,"station_name":"Pondok Rajeg"},{"i_long":106.851978,"is_transit":false,"i_lat":-6.46424,"time":0,"station_id":"CBN","line":21,"transit":false,"distance":0,"station_name":"Cibinong"},{"transit":false,"station_id":"NMO","is_transit":false,"station_name":"Nambo","line":21,"i_long":106.905196,"distance":6527,"time":10,"i_lat":-6.466285}]]}