{"data":[[{"distance":0,"station_name":"Cikini","time":0,"i_long":106.840169,"station_id":"CKI","line":0,"is_transit":false,"i_lat":-6.198556,"transit":false},{"time":4,"i_long":106.84912,"is_transit":true,"i_lat":-6.209883,"station_name":"Manggarai","station_id":"MRI","transit":true,"line":0,"distance":1590},{"i_long":106.858896,"is_transit":false,"i_lat":-6.212485,"time":2,"line":1,"distance":1275,"station_id":"MTR","station_name":"Matraman","transit":false},{"i_long":106.86807400000001,"is_transit":true,"time":8,"station_name":"Jatinegara","line":0,"station_id":"JNG","i_lat":-6.215091,"transit":false,"distance":1377},{"i_lat":-6.2135,"distance":3395,"station_id":"KLD","station_name":"Klender","transit":false,"is_transit":false,"time":3,"line":1,"i_long":106.899548},{"time":2,"station_name":"Buaran","transit":false,"is_transit":false,"distance":3100,"i_lat":-6.215568,"i_long":106.922662,"line":0,"station_id":"BUA"},{"station_id":"KLDB","is_transit":false,"transit":false,"i_lat":-6.217455,"line":1,"time":1,"i_long":106.939679,"distance":1305,"station_name":"Klenderbaru"},{"is_transit":false,"time":8,"distance":1385,"station_name":"Cakung","transit":false,"i_lat":-6.219053,"line":0,"i_long":106.951283,"station_id":"CUK"},{"time":3,"station_id":"KRI","is_transit":false,"transit":false,"distance":3097,"station_name":"Kranji","i_lat":-6.224515,"i_long":106.977657,"line":1}],[{"station_id":"CKI","distance":0,"transit":false,"i_lat":-6.198556,"i_long":106.840169,"line":0,"station_name":"Cikini","is_transit":false,"time":0},{"transit":false,"is_transit":false,"station_name":"Gondangdia","line":2,"time":3,"distance":1750,"i_long":106.832183,"station_id":"GDD","i_lat":-6.186295},{"station_id":"JUA","line":2,"i_lat":-6.166716,"station_name":"Juanda","time":4,"transit":false,"is_transit":false,"i_long":106.828284,"distance":2015},{"transit":false,"time":2,"station_id":"SW","i_long":106.827103,"distance":1149,"station_name":"Sawah Besar","line":2,"is_transit":false,"i_lat":-6.160725},{"station_name":"Manggabesar","i_lat":-6.149769,"line":2,"distance":906,"transit":false,"time":2,"i_long":106.82482,"station_id":"MGB","is_transit":false},{"line":7,"transit":false,"i_long":106.820901,"distance":1080,"station_name":"Jayakarta","i_lat":-6.141205,"is_transit":false,"time":2,"station_id":"JAY"},{"line":0,"i_lat":-6.137569,"time":4,"station_name":"Jakarta Kota","transit":true,"station_id":"JAKK","i_long":106.812439,"distance":1264,"is_transit":true},{"is_transit":true,"line":0,"distance":1364,"transit":true,"i_lat":-6.132549,"time":3,"station_id":"KPB","station_name":"Kampung Bandan","i_long":106.826365},{"is_transit":false,"time":3,"station_name":"Rajawali","transit":false,"i_lat":-6.14505,"line":11,"i_long":106.836569,"station_id":"RJW","distance":1444},{"i_long":106.839204,"station_name":"Kemayoran","time":5,"line":11,"station_id":"KMO","distance":1901,"is_transit":false,"i_lat":-6.161728,"transit":false},{"is_transit":false,"i_long":106.84368,"transit":false,"line":11,"station_id":"PSE","distance":1436,"station_name":"Pasar Senen","i_lat":-6.174784,"time":4},{"station_id":"GST","time":8,"distance":1567,"line":11,"is_transit":false,"i_lat":-6.185975,"transit":false,"station_name":"Gang Sentiong","i_long":106.850107},{"transit":false,"i_lat":-6.193792,"line":11,"station_id":"KMT","is_transit":false,"station_name":"Kramat","i_long":106.855437,"time":1,"distance":973},{"time":2,"distance":1829,"station_name":"Pondok Jati","transit":false,"i_long":106.861737,"is_transit":false,"i_lat":-6.209188,"line":11,"station_id":"POK"},{"station_id":"JNG","time":9,"station_name":"Jatinegara","transit":true,"is_transit":true,"line":0,"i_lat":-6.215091,"distance":1236,"i_long":106.86807400000001},{"station_name":"Klender","distance":3395,"line":1,"station_id":"KLD","time":3,"is_transit":false,"transit":false,"i_lat":-6.2135,"i_long":106.899548},{"transit":false,"line":0,"i_long":106.922662,"time":2,"is_transit":false,"station_id":"BUA","station_name":"Buaran","distance":3100,"i_lat":-6.215568},{"i_long":106.939679,"line":1,"station_name":"Klenderbaru","distance":1305,"station_id":"KLDB","time":1,"transit":false,"is_transit":false,"i_lat":-6.217455},{"time":8,"i_long":106.951283,"transit":false,"i_lat":-6.219053,"distance":1385,"is_transit":false,"station_id":"CUK","station_name":"Cakung","line":0},{"line":1,"station_name":"Kranji","distance":3097,"i_long":106.977657,"time":3,"station_id":"KRI","is_transit":false,"transit":false,"i_lat":-6.224515}],[{"station_id":"CKI","station_name":"Cikini","line":0,"time":0,"distance":0,"is_transit":false,"transit":false,"i_long":106.840169,"i_lat":-6.198556},{"is_transit":true,"transit":true,"time":4,"distance":1590,"station_name":"Manggarai","i_lat":-6.209883,"i_long":106.84912,"line":0,"station_id":"MRI"},{"station_id":"SUD","i_lat":-6.202263,"time":4,"station_name":"Sudirman","is_transit":false,"transit":false,"i_long":106.822649,"line":1,"distance":3186},{"time":1,"i_long":106.819881,"i_lat":-6.201433,"station_id":"SUDB","line":1,"distance":280,"is_transit":false,"transit":false,"station_name":"Sudirman Baru"},{"station_id":"KAT","transit":false,"station_name":"Karet","is_transit":false,"time":1,"distance":471,"i_lat":-6.20132,"i_long":106.816351,"line":1},{"time":5,"i_long":106.811091,"line":1,"station_id":"THB","is_transit":true,"transit":false,"station_name":"Tanah Abang","i_lat":-6.185545,"distance":2029},{"i_lat":-6.155215,"line":1,"station_name":"Duri","is_transit":true,"station_id":"DU","transit":true,"time":8,"i_long":106.800832,"distance":3632},{"transit":false,"time":4,"station_name":"Angke","is_transit":false,"i_long":106.79867,"station_id":"AK","i_lat":-6.144674,"line":0,"distance":1230},{"distance":4102,"transit":true,"station_id":"KPB","i_lat":-6.132549,"i_long":106.826365,"is_transit":true,"time":9,"station_name":"Kampung Bandan","line":0},{"line":11,"station_name":"Rajawali","station_id":"RJW","i_lat":-6.14505,"time":3,"i_long":106.836569,"transit":false,"distance":1444,"is_transit":false},{"station_id":"KMO","is_transit":false,"distance":1901,"i_long":106.839204,"line":11,"time":5,"transit":false,"station_name":"Kemayoran","i_lat":-6.161728},{"station_name":"Pasar Senen","station_id":"PSE","line":11,"time":4,"transit":false,"distance":1436,"is_transit":false,"i_long":106.84368,"i_lat":-6.174784},{"line":11,"i_long":106.850107,"time":8,"transit":false,"station_name":"Gang Sentiong","distance":1567,"i_lat":-6.185975,"station_id":"GST","is_transit":false},{"i_long":106.855437,"distance":973,"line":11,"is_transit":false,"time":1,"i_lat":-6.193792,"station_name":"Kramat","transit":false,"station_id":"KMT"},{"transit":false,"i_long":106.861737,"i_lat":-6.209188,"station_name":"Pondok Jati","time":2,"line":11,"distance":1829,"station_id":"POK","is_transit":false},{"i_lat":-6.215091,"line":0,"station_name":"Jatinegara","transit":true,"time":9,"is_transit":true,"distance":1236,"i_long":106.86807400000001,"station_id":"JNG"},{"transit":false,"line":1,"station_name":"Klender","distance":3395,"i_lat":-6.2135,"i_long":106.899548,"station_id":"KLD","is_transit":false,"time":3},{"distance":3100,"is_transit":false,"i_long":106.922662,"line":0,"time":2,"station_id":"BUA","transit":false,"station_name":"Buaran","i_lat":-6.215568},{"station_id":"KLDB","time":1,"station_name":"Klenderbaru","transit":false,"distance":1305,"i_lat":-6.217455,"i_long":106.939679,"is_transit":false,"line":1},{"line":0,"time":8,"distance":1385,"transit":false,"station_name":"Cakung","station_id":"CUK","i_long":106.951283,"is_transit":false,"i_lat":-6.219053},{"line":1,"transit":false,"i_lat":-6.224515,"station_id":"KRI","distance":3097,"i_long":106.977657,"is_transit":false,"station_name":"Kranji","time":3}],[{"station_id":"CKI","distance":0,"station_name":"Cikini","i_long":106.840169,"i_lat":-6.198556,"line":0,"is_transit":false,"transit":false,"time":0},{"transit":false,"station_name":"Gondangdia","i_lat":-6.186295,"line":2,"station_id":"GDD","is_transit":false,"i_long":106.832183,"time":3,"distance":1750},{"i_lat":-6.166716,"i_long":106.828284,"line":2,"station_name":"Juanda","transit":false,"station_id":"JUA","is_transit":false,"time":4,"distance":2015},{"station_id":"SW","transit":false,"i_lat":-6.160725,"i_long":106.827103,"distance":1149,"time":2,"station_name":"Sawah Besar","line":2,"is_transit":false},{"time":2,"line":2,"station_id":"MGB","is_transit":false,"transit":false,"distance":906,"i_long":106.82482,"station_name":"Manggabesar","i_lat":-6.149769},{"i_lat":-6.141205,"distance":1080,"time":2,"station_name":"Jayakarta","transit":false,"is_transit":false,"station_id":"JAY","line":7,"i_long":106.820901},{"distance":1264,"station_id":"JAKK","station_name":"Jakarta Kota","transit":true,"i_long":106.812439,"line":0,"i_lat":-6.137569,"time":4,"is_transit":true},{"i_long":106.826365,"line":0,"i_lat":-6.132549,"station_id":"KPB","time":3,"station_name":"Kampung Bandan","is_transit":true,"distance":1364,"transit":false},{"station_id":"AK","transit":false,"i_long":106.79867,"distance":4102,"line":0,"i_lat":-6.144674,"is_transit":false,"station_name":"Angke","time":9},{"station_id":"DU","distance":1230,"station_name":"Duri","transit":true,"is_transit":true,"line":1,"i_long":106.800832,"i_lat":-6.155215,"time":4},{"distance":3632,"station_name":"Tanah Abang","is_transit":true,"station_id":"THB","time":8,"i_long":106.811091,"line":1,"i_lat":-6.185545,"transit":false},{"i_lat":-6.20132,"i_long":106.816351,"is_transit":false,"line":1,"station_id":"KAT","distance":2029,"station_name":"Karet","time":5,"transit":false},{"station_name":"Sudirman Baru","station_id":"SUDB","distance":471,"i_long":106.819881,"transit":false,"is_transit":false,"line":1,"i_lat":-6.201433,"time":1},{"line":1,"station_name":"Sudirman","i_lat":-6.202263,"distance":280,"transit":false,"is_transit":false,"time":1,"i_long":106.822649,"station_id":"SUD"},{"station_name":"Manggarai","is_transit":true,"transit":false,"i_lat":-6.209883,"i_long":106.84912,"station_id":"MRI","time":4,"line":0,"distance":3186},{"station_name":"Matraman","distance":1275,"station_id":"MTR","line":1,"is_transit":false,"time":2,"i_lat":-6.212485,"transit":false,"i_long":106.858896},{"i_long":106.86807400000001,"line":0,"is_transit":true,"time":8,"distance":1377,"station_id":"JNG","transit":false,"i_lat":-6.215091,"station_name":"Jatinegara"},{"is_transit":false,"time":3,"transit":false,"i_lat":-6.2135,"station_name":"Klender","i_long":106.899548,"line":1,"station_id":"KLD","distance":3395},{"time":2,"line":0,"station_name":"Buaran","station_id":"BUA","transit":false,"i_lat":-6.215568,"i_long":106.922662,"distance":3100,"is_transit":false},{"i_long":106.939679,"distance":1305,"station_name":"Klenderbaru","line":1,"i_lat":-6.217455,"time":1,"is_transit":false,"station_id":"KLDB","transit":false},{"is_transit":false,"station_name":"Cakung","i_long":106.951283,"distance":1385,"line":0,"i_lat":-6.219053,"time":8,"station_id":"CUK","transit":false},{"time":3,"distance":3097,"i_lat":-6.224515,"station_id":"KRI","transit":false,"is_transit":false,"station_name":"Kranji","i_long":106.977657,"line":1}]]}