{"data":[[{"distance":0,"is_transit":false,"station_id":"CKI","i_lat":-6.198556,"time":0,"i_long":106.840169,"line":2,"transit":false,"station_name":"Cikini"},{"time":4,"station_name":"Manggarai","distance":1590,"station_id":"MRI","i_lat":-6.209883,"is_transit":true,"i_long":106.84912,"line":2,"transit":true},{"transit":false,"is_transit":false,"i_lat":-6.212485,"i_long":106.858896,"station_name":"Matraman","time":2,"line":1,"station_id":"MTR","distance":1275},{"distance":1377,"i_long":106.86807400000001,"station_id":"JNG","is_transit":false,"transit":false,"station_name":"Jatinegara","time":8,"line":1,"i_lat":-6.215091},{"station_name":"Klender","is_transit":false,"i_long":106.899548,"station_id":"KLD","distance":3395,"transit":false,"time":3,"i_lat":-6.2135,"line":1},{"distance":3100,"i_lat":-6.215568,"station_id":"BUA","station_name":"Buaran","transit":false,"line":1,"time":2,"i_long":106.922662,"is_transit":false},{"i_long":106.939679,"station_id":"KLDB","station_name":"Klenderbaru","transit":false,"is_transit":false,"time":1,"i_lat":-6.217455,"distance":1305,"line":1},{"is_transit":false,"station_name":"Cakung","i_lat":-6.219053,"i_long":106.951283,"line":1,"distance":1385,"station_id":"CUK","time":8,"transit":false},{"i_long":106.977657,"station_id":"KRI","transit":false,"time":3,"i_lat":-6.224515,"station_name":"Kranji","is_transit":false,"distance":3097,"line":1}],[{"i_lat":-6.198556,"transit":false,"station_id":"CKI","time":0,"distance":0,"is_transit":false,"station_name":"Cikini","i_long":106.840169,"line":2},{"time":3,"distance":1750,"station_name":"Gondangdia","is_transit":false,"i_lat":-6.186295,"i_long":106.832183,"line":2,"station_id":"GDD","transit":false},{"station_name":"Juanda","line":2,"i_lat":-6.166716,"time":4,"is_transit":false,"distance":2015,"station_id":"JUA","transit":false,"i_long":106.828284},{"is_transit":false,"i_long":106.827103,"transit":false,"line":2,"station_name":"Sawah Besar","station_id":"SW","distance":1149,"i_lat":-6.160725,"time":2},{"transit":false,"station_id":"MGB","line":2,"i_lat":-6.149769,"i_long":106.82482,"station_name":"Manggabesar","is_transit":false,"time":2,"distance":906},{"line":2,"station_id":"JAY","is_transit":false,"i_long":106.820901,"station_name":"Jayakarta","transit":false,"time":2,"i_lat":-6.141205,"distance":1080},{"station_name":"Jakarta Kota","transit":true,"time":4,"station_id":"JAKK","line":2,"distance":1264,"is_transit":true,"i_lat":-6.137569,"i_long":106.812439},{"distance":1364,"station_name":"Kampung Bandan","station_id":"KPB","is_transit":true,"i_lat":-6.132549,"transit":true,"time":3,"i_long":106.826365,"line":4},{"station_name":"Rajawali","i_long":106.836569,"distance":1444,"station_id":"RJW","transit":false,"is_transit":false,"i_lat":-6.14505,"time":3,"line":11},{"i_lat":-6.161728,"i_long":106.839204,"station_id":"KMO","time":5,"line":11,"distance":1901,"station_name":"Kemayoran","is_transit":false,"transit":false},{"line":11,"is_transit":false,"time":4,"i_lat":-6.174784,"i_long":106.84368,"station_name":"Pasar Senen","distance":1436,"transit":false,"station_id":"PSE"},{"i_lat":-6.185975,"line":11,"distance":1567,"station_name":"Gang Sentiong","transit":false,"station_id":"GST","i_long":106.850107,"time":8,"is_transit":false},{"time":1,"distance":973,"station_name":"Kramat","i_long":106.855437,"station_id":"KMT","transit":false,"i_lat":-6.193792,"is_transit":false,"line":11},{"i_lat":-6.209188,"station_id":"POK","transit":false,"i_long":106.861737,"is_transit":false,"line":11,"station_name":"Pondok Jati","distance":1829,"time":2},{"i_lat":-6.215091,"line":1,"i_long":106.86807400000001,"transit":true,"station_name":"Jatinegara","is_transit":true,"time":9,"distance":1236,"station_id":"JNG"},{"i_lat":-6.2135,"transit":false,"is_transit":false,"i_long":106.899548,"time":3,"line":1,"station_name":"Klender","station_id":"KLD","distance":3395},{"station_name":"Buaran","time":2,"distance":3100,"i_lat":-6.215568,"station_id":"BUA","transit":false,"i_long":106.922662,"is_transit":false,"line":1},{"is_transit":false,"i_lat":-6.217455,"time":1,"station_name":"Klenderbaru","i_long":106.939679,"transit":false,"line":1,"distance":1305,"station_id":"KLDB"},{"line":1,"i_lat":-6.219053,"is_transit":false,"station_name":"Cakung","i_long":106.951283,"transit":false,"station_id":"CUK","distance":1385,"time":8},{"station_id":"KRI","transit":false,"time":3,"line":1,"is_transit":false,"station_name":"Kranji","i_lat":-6.224515,"distance":3097,"i_long":106.977657}],[{"is_transit":false,"i_long":106.840169,"transit":false,"distance":0,"station_name":"Cikini","i_lat":-6.198556,"time":0,"station_id":"CKI","line":2},{"station_id":"MRI","is_transit":true,"transit":true,"line":2,"station_name":"Manggarai","distance":1590,"i_lat":-6.209883,"i_long":106.84912,"time":4},{"is_transit":false,"transit":false,"station_id":"SUD","distance":3186,"line":1,"station_name":"Sudirman","i_lat":-6.202263,"i_long":106.822649,"time":4},{"transit":false,"i_long":106.819881,"line":1,"i_lat":-6.201433,"is_transit":false,"station_id":"SUDB","time":1,"distance":280,"station_name":"Sudirman Baru"},{"distance":471,"i_lat":-6.20132,"is_transit":false,"line":1,"i_long":106.816351,"transit":false,"station_name":"Karet","station_id":"KAT","time":1},{"time":5,"station_name":"Tanah Abang","i_lat":-6.185545,"transit":false,"line":1,"distance":2029,"i_long":106.811091,"is_transit":false,"station_id":"THB"},{"time":8,"transit":false,"station_id":"DU","line":1,"station_name":"Duri","distance":3632,"i_lat":-6.155215,"i_long":106.800832,"is_transit":false},{"is_transit":false,"time":4,"i_long":106.79867,"transit":false,"station_name":"Angke","i_lat":-6.144674,"station_id":"AK","distance":1230,"line":1},{"transit":true,"is_transit":true,"i_long":106.826365,"station_name":"Kampung Bandan","time":9,"i_lat":-6.132549,"distance":4102,"station_id":"KPB","line":4},{"i_long":106.836569,"station_name":"Rajawali","line":11,"station_id":"RJW","i_lat":-6.14505,"time":3,"transit":false,"is_transit":false,"distance":1444},{"line":11,"distance":1901,"transit":false,"station_name":"Kemayoran","is_transit":false,"station_id":"KMO","time":5,"i_long":106.839204,"i_lat":-6.161728},{"distance":1436,"station_name":"Pasar Senen","i_long":106.84368,"transit":false,"i_lat":-6.174784,"line":11,"station_id":"PSE","is_transit":false,"time":4},{"station_name":"Gang Sentiong","distance":1567,"time":8,"station_id":"GST","i_long":106.850107,"i_lat":-6.185975,"transit":false,"is_transit":false,"line":11},{"is_transit":false,"station_name":"Kramat","i_lat":-6.193792,"distance":973,"line":11,"transit":false,"station_id":"KMT","i_long":106.855437,"time":1},{"distance":1829,"i_long":106.861737,"is_transit":false,"i_lat":-6.209188,"line":11,"station_name":"Pondok Jati","station_id":"POK","time":2,"transit":false},{"is_transit":true,"transit":true,"time":9,"station_id":"JNG","station_name":"Jatinegara","i_long":106.86807400000001,"i_lat":-6.215091,"line":1,"distance":1236},{"transit":false,"is_transit":false,"time":3,"station_id":"KLD","line":1,"distance":3395,"i_lat":-6.2135,"i_long":106.899548,"station_name":"Klender"},{"station_id":"BUA","station_name":"Buaran","transit":false,"time":2,"distance":3100,"i_lat":-6.215568,"line":1,"is_transit":false,"i_long":106.922662},{"i_lat":-6.217455,"transit":false,"is_transit":false,"time":1,"line":1,"station_id":"KLDB","distance":1305,"station_name":"Klenderbaru","i_long":106.939679},{"time":8,"station_id":"CUK","i_lat":-6.219053,"distance":1385,"i_long":106.951283,"station_name":"Cakung","line":1,"is_transit":false,"transit":false},{"i_lat":-6.224515,"distance":3097,"transit":false,"line":1,"time":3,"station_name":"Kranji","i_long":106.977657,"station_id":"KRI","is_transit":false}],[{"i_long":106.840169,"i_lat":-6.198556,"line":2,"is_transit":false,"station_id":"CKI","transit":false,"time":0,"distance":0,"station_name":"Cikini"},{"time":3,"distance":1750,"line":2,"station_id":"GDD","i_lat":-6.186295,"i_long":106.832183,"transit":false,"station_name":"Gondangdia","is_transit":false},{"station_id":"JUA","distance":2015,"i_long":106.828284,"transit":false,"time":4,"i_lat":-6.166716,"is_transit":false,"line":2,"station_name":"Juanda"},{"transit":false,"is_transit":false,"line":2,"i_lat":-6.160725,"time":2,"distance":1149,"station_name":"Sawah Besar","station_id":"SW","i_long":106.827103},{"distance":906,"station_id":"MGB","is_transit":false,"time":2,"i_lat":-6.149769,"station_name":"Manggabesar","line":2,"i_long":106.82482,"transit":false},{"station_name":"Jayakarta","distance":1080,"i_long":106.820901,"time":2,"transit":false,"line":2,"i_lat":-6.141205,"station_id":"JAY","is_transit":false},{"transit":true,"station_name":"Jakarta Kota","station_id":"JAKK","is_transit":true,"distance":1264,"i_lat":-6.137569,"i_long":106.812439,"time":4,"line":2},{"is_transit":true,"distance":1364,"line":4,"time":3,"station_id":"KPB","station_name":"Kampung Bandan","transit":true,"i_lat":-6.132549,"i_long":106.826365},{"distance":4102,"line":1,"station_id":"AK","time":9,"station_name":"Angke","is_transit":false,"transit":false,"i_lat":-6.144674,"i_long":106.79867},{"time":4,"transit":false,"distance":1230,"i_lat":-6.155215,"line":1,"station_name":"Duri","is_transit":false,"station_id":"DU","i_long":106.800832},{"station_name":"Tanah Abang","station_id":"THB","i_lat":-6.185545,"time":8,"line":1,"transit":false,"distance":3632,"is_transit":false,"i_long":106.811091},{"line":1,"station_name":"Karet","transit":false,"station_id":"KAT","is_transit":false,"i_lat":-6.20132,"distance":2029,"i_long":106.816351,"time":5},{"transit":false,"station_name":"Sudirman Baru","is_transit":false,"distance":471,"i_lat":-6.201433,"line":1,"station_id":"SUDB","i_long":106.819881,"time":1},{"distance":280,"line":1,"transit":false,"is_transit":false,"i_long":106.822649,"station_id":"SUD","station_name":"Sudirman","i_lat":-6.202263,"time":1},{"transit":false,"station_id":"MRI","time":4,"i_lat":-6.209883,"i_long":106.84912,"line":2,"station_name":"Manggarai","distance":3186,"is_transit":false},{"distance":1275,"line":1,"is_transit":false,"station_name":"Matraman","i_lat":-6.212485,"i_long":106.858896,"transit":false,"station_id":"MTR","time":2},{"transit":false,"station_name":"Jatinegara","is_transit":false,"i_lat":-6.215091,"time":8,"line":1,"i_long":106.86807400000001,"station_id":"JNG","distance":1377},{"line":1,"station_id":"KLD","distance":3395,"station_name":"Klender","transit":false,"i_lat":-6.2135,"time":3,"i_long":106.899548,"is_transit":false},{"distance":3100,"is_transit":false,"i_long":106.922662,"i_lat":-6.215568,"station_name":"Buaran","transit":false,"line":1,"station_id":"BUA","time":2},{"distance":1305,"i_long":106.939679,"station_name":"Klenderbaru","transit":false,"time":1,"is_transit":false,"line":1,"i_lat":-6.217455,"station_id":"KLDB"},{"i_long":106.951283,"time":8,"distance":1385,"station_name":"Cakung","is_transit":false,"transit":false,"station_id":"CUK","line":1,"i_lat":-6.219053},{"station_id":"KRI","is_transit":false,"i_long":106.977657,"station_name":"Kranji","time":3,"distance":3097,"transit":false,"i_lat":-6.224515,"line":1}]]}