{"data":[[{"distance":0,"time":0,"station_id":"CKI","transit":false,"i_lat":-6.198556,"i_long":106.840169,"line":2,"station_name":"Cikini","is_transit":false},{"time":4,"is_transit":false,"distance":1590,"station_name":"Manggarai","i_lat":-6.209883,"i_long":106.84912,"line":2,"station_id":"MRI","transit":false},{"transit":false,"station_name":"Tebet","station_id":"TEB","i_long":106.857948,"time":4,"is_transit":false,"distance":2610,"i_lat":-6.226659,"line":2},{"is_transit":false,"time":2,"transit":false,"i_long":106.856607,"station_name":"Cawang","i_lat":-6.242512,"line":2,"distance":1230,"station_id":"CW"},{"transit":false,"i_lat":-6.255332,"distance":1546,"line":2,"i_long":106.85449,"is_transit":false,"time":3,"station_id":"DRN","station_name":"Duren Kalibata"},{"station_id":"PSMB","line":2,"i_long":106.851577,"time":2,"i_lat":-6.263214,"distance":824,"transit":false,"station_name":"Pasar Minggu Baru","is_transit":false},{"distance":2380,"station_name":"Pasar Minggu","line":2,"transit":false,"i_long":106.843999,"time":2,"i_lat":-6.2842400000000005,"is_transit":false,"station_id":"PSM"},{"i_lat":-6.3080680000000005,"transit":false,"station_id":"TNT","time":4,"station_name":"Tanjung Barat","distance":2820,"i_long":106.838896,"line":2,"is_transit":false},{"is_transit":false,"transit":false,"time":3,"distance":2671,"station_id":"LNA","line":2,"station_name":"Lenteng Agung","i_long":106.832616,"i_lat":-6.330363},{"i_lat":-6.339291,"is_transit":false,"station_name":"Univ. Pancasila","transit":false,"station_id":"UP","distance":1029,"time":2,"i_long":106.834175,"line":2},{"distance":2264,"station_name":"Univ. Indonesia","transit":false,"is_transit":false,"i_long":106.831474,"line":2,"time":3,"station_id":"UI","i_lat":-6.360749},{"i_lat":-6.369073,"station_id":"POC","transit":false,"time":2,"is_transit":false,"station_name":"Pondok Cina","distance":1109,"i_long":106.831114,"line":2},{"station_id":"DPB","station_name":"Depokbaru","line":2,"i_long":106.819451,"distance":2727,"transit":false,"is_transit":false,"time":4,"i_lat":-6.391065},{"is_transit":false,"distance":1584,"i_long":106.816926,"i_lat":-6.405256,"station_name":"Depok","time":3,"station_id":"DP","transit":false,"line":2},{"time":6,"i_lat":-6.448811,"distance":5084,"line":2,"station_name":"Citayam","transit":true,"i_long":106.800298,"is_transit":true,"station_id":"CTA"},{"distance":0,"transit":false,"time":0,"station_id":"PDRG","i_lat":-6.460735,"i_long":106.824374,"line":21,"is_transit":false,"station_name":"Pondok Rajeg"},{"transit":false,"i_lat":-6.46424,"station_id":"CBN","station_name":"Cibinong","distance":0,"i_long":106.851978,"is_transit":false,"time":0,"line":21},{"i_lat":-6.466285,"distance":6527,"transit":false,"line":21,"is_transit":false,"station_id":"NMO","time":10,"station_name":"Nambo","i_long":106.905196}],[{"transit":false,"is_transit":false,"station_id":"CKI","i_lat":-6.198556,"distance":0,"station_name":"Cikini","i_long":106.840169,"line":2,"time":0},{"transit":false,"distance":1750,"station_id":"GDD","i_lat":-6.186295,"time":3,"is_transit":false,"station_name":"Gondangdia","i_long":106.832183,"line":2},{"distance":2015,"is_transit":false,"station_name":"Juanda","i_long":106.828284,"line":2,"station_id":"JUA","transit":false,"i_lat":-6.166716,"time":4},{"is_transit":false,"i_long":106.827103,"line":2,"station_id":"SW","station_name":"Sawah Besar","i_lat":-6.160725,"distance":1149,"transit":false,"time":2},{"time":2,"station_name":"Manggabesar","transit":false,"station_id":"MGB","distance":906,"is_transit":false,"i_lat":-6.149769,"line":2,"i_long":106.82482},{"station_id":"JAY","i_long":106.820901,"transit":false,"distance":1080,"is_transit":false,"time":2,"i_lat":-6.141205,"line":2,"station_name":"Jayakarta"},{"station_name":"Jakarta Kota","i_lat":-6.137569,"station_id":"JAKK","distance":1264,"time":4,"is_transit":true,"transit":true,"i_long":106.812439,"line":2},{"time":3,"station_name":"Kampung Bandan","i_long":106.826365,"distance":1364,"transit":true,"is_transit":true,"station_id":"KPB","i_lat":-6.132549,"line":4},{"station_id":"AK","i_long":106.79867,"i_lat":-6.144674,"distance":4102,"transit":false,"is_transit":false,"time":9,"line":1,"station_name":"Angke"},{"station_name":"Duri","time":4,"i_long":106.800832,"distance":1230,"is_transit":false,"line":1,"station_id":"DU","transit":false,"i_lat":-6.155215},{"station_id":"THB","station_name":"Tanah Abang","line":1,"time":8,"distance":3632,"transit":false,"is_transit":false,"i_lat":-6.185545,"i_long":106.811091},{"is_transit":false,"station_id":"KAT","i_lat":-6.20132,"station_name":"Karet","line":1,"i_long":106.816351,"distance":2029,"time":5,"transit":false},{"station_id":"SUDB","station_name":"Sudirman Baru","transit":false,"time":1,"is_transit":false,"i_lat":-6.201433,"i_long":106.819881,"distance":471,"line":1},{"line":1,"station_name":"Sudirman","distance":280,"time":1,"is_transit":false,"i_long":106.822649,"station_id":"SUD","transit":false,"i_lat":-6.202263},{"line":2,"distance":3186,"transit":true,"is_transit":true,"time":4,"station_id":"MRI","i_lat":-6.209883,"i_long":106.84912,"station_name":"Manggarai"},{"i_lat":-6.226659,"i_long":106.857948,"line":2,"station_name":"Tebet","distance":2610,"station_id":"TEB","time":4,"transit":false,"is_transit":false},{"is_transit":false,"station_id":"CW","i_lat":-6.242512,"transit":false,"line":2,"time":2,"distance":1230,"i_long":106.856607,"station_name":"Cawang"},{"station_name":"Duren Kalibata","time":3,"distance":1546,"transit":false,"station_id":"DRN","is_transit":false,"i_lat":-6.255332,"i_long":106.85449,"line":2},{"line":2,"time":2,"i_lat":-6.263214,"transit":false,"station_id":"PSMB","is_transit":false,"distance":824,"i_long":106.851577,"station_name":"Pasar Minggu Baru"},{"line":2,"i_long":106.843999,"time":2,"i_lat":-6.2842400000000005,"station_name":"Pasar Minggu","transit":false,"is_transit":false,"station_id":"PSM","distance":2380},{"station_name":"Tanjung Barat","station_id":"TNT","is_transit":false,"i_lat":-6.3080680000000005,"time":4,"i_long":106.838896,"line":2,"transit":false,"distance":2820},{"is_transit":false,"i_long":106.832616,"time":3,"line":2,"distance":2671,"station_name":"Lenteng Agung","i_lat":-6.330363,"transit":false,"station_id":"LNA"},{"distance":1029,"transit":false,"line":2,"time":2,"i_lat":-6.339291,"is_transit":false,"station_name":"Univ. Pancasila","station_id":"UP","i_long":106.834175},{"line":2,"station_id":"UI","time":3,"distance":2264,"i_long":106.831474,"station_name":"Univ. Indonesia","i_lat":-6.360749,"transit":false,"is_transit":false},{"time":2,"station_name":"Pondok Cina","transit":false,"distance":1109,"is_transit":false,"i_long":106.831114,"line":2,"i_lat":-6.369073,"station_id":"POC"},{"is_transit":false,"i_lat":-6.391065,"i_long":106.819451,"time":4,"station_id":"DPB","distance":2727,"transit":false,"station_name":"Depokbaru","line":2},{"time":3,"station_name":"Depok","distance":1584,"transit":false,"is_transit":false,"i_long":106.816926,"i_lat":-6.405256,"line":2,"station_id":"DP"},{"line":2,"is_transit":true,"time":6,"station_id":"CTA","i_long":106.800298,"transit":true,"i_lat":-6.448811,"distance":5084,"station_name":"Citayam"},{"station_name":"Pondok Rajeg","station_id":"PDRG","line":21,"is_transit":false,"distance":0,"time":0,"transit":false,"i_long":106.824374,"i_lat":-6.460735},{"line":21,"i_long":106.851978,"station_id":"CBN","distance":0,"station_name":"Cibinong","i_lat":-6.46424,"transit":false,"is_transit":false,"time":0},{"transit":false,"station_id":"NMO","i_lat":-6.466285,"time":10,"is_transit":false,"station_name":"Nambo","line":21,"distance":6527,"i_long":106.905196}],[{"i_lat":-6.198556,"station_id":"CKI","time":0,"line":2,"distance":0,"i_long":106.840169,"is_transit":false,"transit":false,"station_name":"Cikini"},{"station_name":"Gondangdia","time":3,"is_transit":false,"transit":false,"i_long":106.832183,"station_id":"GDD","distance":1750,"i_lat":-6.186295,"line":2},{"is_transit":false,"time":4,"station_id":"JUA","line":2,"station_name":"Juanda","transit":false,"i_lat":-6.166716,"i_long":106.828284,"distance":2015},{"station_id":"SW","is_transit":false,"transit":false,"time":2,"distance":1149,"i_lat":-6.160725,"line":2,"i_long":106.827103,"station_name":"Sawah Besar"},{"i_lat":-6.149769,"line":2,"is_transit":false,"station_name":"Manggabesar","station_id":"MGB","i_long":106.82482,"transit":false,"time":2,"distance":906},{"distance":1080,"time":2,"station_id":"JAY","station_name":"Jayakarta","i_long":106.820901,"line":2,"transit":false,"is_transit":false,"i_lat":-6.141205},{"station_name":"Jakarta Kota","station_id":"JAKK","distance":1264,"is_transit":true,"i_long":106.812439,"transit":true,"time":4,"line":2,"i_lat":-6.137569},{"line":4,"transit":true,"i_long":106.826365,"station_id":"KPB","distance":1364,"station_name":"Kampung Bandan","is_transit":true,"i_lat":-6.132549,"time":3},{"distance":1444,"transit":false,"line":11,"station_id":"RJW","is_transit":false,"time":3,"station_name":"Rajawali","i_lat":-6.14505,"i_long":106.836569},{"time":5,"station_name":"Kemayoran","i_lat":-6.161728,"distance":1901,"line":11,"is_transit":false,"station_id":"KMO","i_long":106.839204,"transit":false},{"i_long":106.84368,"i_lat":-6.174784,"line":11,"distance":1436,"is_transit":false,"station_name":"Pasar Senen","transit":false,"time":4,"station_id":"PSE"},{"station_id":"GST","i_lat":-6.185975,"distance":1567,"time":8,"transit":false,"is_transit":false,"station_name":"Gang Sentiong","i_long":106.850107,"line":11},{"distance":973,"is_transit":false,"i_lat":-6.193792,"i_long":106.855437,"line":11,"time":1,"transit":false,"station_name":"Kramat","station_id":"KMT"},{"i_lat":-6.209188,"transit":false,"time":2,"line":11,"is_transit":false,"distance":1829,"station_name":"Pondok Jati","i_long":106.861737,"station_id":"POK"},{"transit":true,"is_transit":true,"time":9,"station_name":"Jatinegara","distance":1236,"line":1,"i_lat":-6.215091,"station_id":"JNG","i_long":106.86807400000001},{"station_id":"MTR","transit":false,"is_transit":false,"distance":1377,"station_name":"Matraman","i_lat":-6.212485,"i_long":106.858896,"time":2,"line":1},{"station_name":"Manggarai","is_transit":true,"i_lat":-6.209883,"line":2,"transit":true,"time":2,"distance":1275,"station_id":"MRI","i_long":106.84912},{"line":2,"station_id":"TEB","transit":false,"is_transit":false,"station_name":"Tebet","i_lat":-6.226659,"i_long":106.857948,"distance":2610,"time":4},{"i_long":106.856607,"i_lat":-6.242512,"distance":1230,"is_transit":false,"station_name":"Cawang","line":2,"time":2,"station_id":"CW","transit":false},{"i_lat":-6.255332,"line":2,"i_long":106.85449,"distance":1546,"transit":false,"station_name":"Duren Kalibata","is_transit":false,"station_id":"DRN","time":3},{"distance":824,"is_transit":false,"transit":false,"time":2,"station_id":"PSMB","station_name":"Pasar Minggu Baru","i_long":106.851577,"line":2,"i_lat":-6.263214},{"is_transit":false,"time":2,"transit":false,"station_name":"Pasar Minggu","station_id":"PSM","i_long":106.843999,"i_lat":-6.2842400000000005,"line":2,"distance":2380},{"time":4,"i_lat":-6.3080680000000005,"transit":false,"i_long":106.838896,"distance":2820,"station_id":"TNT","line":2,"is_transit":false,"station_name":"Tanjung Barat"},{"station_name":"Lenteng Agung","transit":false,"distance":2671,"time":3,"line":2,"i_lat":-6.330363,"is_transit":false,"station_id":"LNA","i_long":106.832616},{"station_name":"Univ. Pancasila","transit":false,"station_id":"UP","i_long":106.834175,"line":2,"is_transit":false,"time":2,"distance":1029,"i_lat":-6.339291},{"is_transit":false,"distance":2264,"i_long":106.831474,"transit":false,"time":3,"station_name":"Univ. Indonesia","station_id":"UI","line":2,"i_lat":-6.360749},{"is_transit":false,"station_id":"POC","station_name":"Pondok Cina","i_lat":-6.369073,"i_long":106.831114,"transit":false,"distance":1109,"time":2,"line":2},{"i_lat":-6.391065,"station_name":"Depokbaru","time":4,"distance":2727,"is_transit":false,"i_long":106.819451,"line":2,"station_id":"DPB","transit":false},{"station_name":"Depok","i_lat":-6.405256,"distance":1584,"time":3,"is_transit":false,"transit":false,"station_id":"DP","line":2,"i_long":106.816926},{"line":2,"station_id":"CTA","i_lat":-6.448811,"station_name":"Citayam","is_transit":true,"distance":5084,"i_long":106.800298,"time":6,"transit":true},{"station_id":"PDRG","transit":false,"i_lat":-6.460735,"distance":0,"line":21,"station_name":"Pondok Rajeg","i_long":106.824374,"time":0,"is_transit":false},{"distance":0,"transit":false,"station_id":"CBN","time":0,"station_name":"Cibinong","i_lat":-6.46424,"i_long":106.851978,"is_transit":false,"line":21},{"is_transit":false,"i_long":106.905196,"line":21,"transit":false,"station_id":"NMO","distance":6527,"time":10,"i_lat":-6.466285,"station_name":"Nambo"}]]}