{"data":[[{"transit":false,"line":0,"station_id":"CKI","time":0,"distance":0,"i_lat":-6.198556,"station_name":"Cikini","is_transit":false,"i_long":106.840169},{"station_id":"MRI","i_long":106.84912,"line":0,"transit":true,"time":4,"station_name":"Manggarai","is_transit":true,"i_lat":-6.209883,"distance":1590},{"transit":false,"is_transit":false,"distance":1275,"station_name":"Matraman","i_lat":-6.212485,"time":2,"station_id":"MTR","i_long":106.858896,"line":1},{"station_name":"Jatinegara","transit":false,"i_long":106.86807400000001,"is_transit":true,"time":8,"line":0,"station_id":"JNG","i_lat":-6.215091,"distance":1377},{"time":3,"station_id":"KLD","distance":3395,"i_lat":-6.2135,"i_long":106.899548,"line":1,"transit":false,"station_name":"Klender","is_transit":false},{"line":0,"i_long":106.922662,"is_transit":false,"i_lat":-6.215568,"distance":3100,"transit":false,"station_id":"BUA","station_name":"Buaran","time":2},{"i_lat":-6.217455,"line":1,"time":1,"distance":1305,"transit":false,"station_id":"KLDB","is_transit":false,"station_name":"Klenderbaru","i_long":106.939679},{"distance":1385,"i_long":106.951283,"is_transit":false,"station_id":"CUK","station_name":"Cakung","line":0,"transit":false,"i_lat":-6.219053,"time":8}],[{"i_lat":-6.198556,"distance":0,"transit":false,"station_name":"Cikini","line":0,"station_id":"CKI","time":0,"i_long":106.840169,"is_transit":false},{"line":2,"is_transit":false,"distance":1750,"i_long":106.832183,"station_name":"Gondangdia","transit":false,"station_id":"GDD","time":3,"i_lat":-6.186295},{"i_long":106.828284,"i_lat":-6.166716,"is_transit":false,"line":2,"transit":false,"station_id":"JUA","time":4,"station_name":"Juanda","distance":2015},{"station_id":"SW","station_name":"Sawah Besar","line":2,"time":2,"transit":false,"i_long":106.827103,"is_transit":false,"distance":1149,"i_lat":-6.160725},{"transit":false,"station_id":"MGB","station_name":"Manggabesar","line":2,"time":2,"i_long":106.82482,"is_transit":false,"distance":906,"i_lat":-6.149769},{"line":7,"is_transit":false,"i_long":106.820901,"distance":1080,"time":2,"station_id":"JAY","station_name":"Jayakarta","i_lat":-6.141205,"transit":false},{"is_transit":true,"station_id":"JAKK","transit":true,"distance":1264,"i_lat":-6.137569,"station_name":"Jakarta Kota","time":4,"i_long":106.812439,"line":0},{"i_long":106.826365,"station_name":"Kampung Bandan","station_id":"KPB","line":0,"transit":true,"i_lat":-6.132549,"distance":1364,"time":3,"is_transit":true},{"time":3,"i_long":106.836569,"station_id":"RJW","transit":false,"i_lat":-6.14505,"distance":1444,"station_name":"Rajawali","line":11,"is_transit":false},{"transit":false,"distance":1901,"time":5,"i_lat":-6.161728,"i_long":106.839204,"line":11,"is_transit":false,"station_id":"KMO","station_name":"Kemayoran"},{"station_id":"PSE","distance":1436,"i_long":106.84368,"transit":false,"is_transit":false,"line":11,"station_name":"Pasar Senen","time":4,"i_lat":-6.174784},{"transit":false,"i_lat":-6.185975,"is_transit":false,"distance":1567,"line":11,"station_id":"GST","time":8,"station_name":"Gang Sentiong","i_long":106.850107},{"line":11,"is_transit":false,"station_id":"KMT","distance":973,"station_name":"Kramat","time":1,"i_lat":-6.193792,"i_long":106.855437,"transit":false},{"is_transit":false,"time":2,"i_long":106.861737,"station_id":"POK","line":11,"distance":1829,"station_name":"Pondok Jati","i_lat":-6.209188,"transit":false},{"time":9,"distance":1236,"station_name":"Jatinegara","transit":true,"i_long":106.86807400000001,"i_lat":-6.215091,"line":0,"is_transit":true,"station_id":"JNG"},{"is_transit":false,"i_lat":-6.2135,"transit":false,"station_name":"Klender","distance":3395,"i_long":106.899548,"line":1,"station_id":"KLD","time":3},{"station_name":"Buaran","distance":3100,"i_long":106.922662,"transit":false,"time":2,"is_transit":false,"station_id":"BUA","i_lat":-6.215568,"line":0},{"time":1,"i_long":106.939679,"station_name":"Klenderbaru","station_id":"KLDB","is_transit":false,"distance":1305,"transit":false,"i_lat":-6.217455,"line":1},{"distance":1385,"i_lat":-6.219053,"line":0,"station_name":"Cakung","i_long":106.951283,"is_transit":false,"transit":false,"station_id":"CUK","time":8}],[{"transit":false,"time":0,"i_lat":-6.198556,"distance":0,"i_long":106.840169,"is_transit":false,"station_name":"Cikini","station_id":"CKI","line":0},{"distance":1590,"station_id":"MRI","time":4,"station_name":"Manggarai","i_lat":-6.209883,"transit":true,"is_transit":true,"i_long":106.84912,"line":0},{"station_name":"Sudirman","transit":false,"station_id":"SUD","i_long":106.822649,"line":1,"distance":3186,"i_lat":-6.202263,"is_transit":false,"time":4},{"time":1,"distance":280,"station_name":"Sudirman Baru","i_long":106.819881,"line":1,"i_lat":-6.201433,"transit":false,"station_id":"SUDB","is_transit":false},{"distance":471,"station_name":"Karet","line":1,"station_id":"KAT","transit":false,"is_transit":false,"time":1,"i_lat":-6.20132,"i_long":106.816351},{"transit":false,"time":5,"station_id":"THB","is_transit":true,"i_lat":-6.185545,"line":1,"distance":2029,"station_name":"Tanah Abang","i_long":106.811091},{"is_transit":true,"line":1,"time":8,"station_id":"DU","station_name":"Duri","i_long":106.800832,"distance":3632,"i_lat":-6.155215,"transit":true},{"transit":false,"i_long":106.79867,"line":0,"time":4,"station_id":"AK","is_transit":false,"i_lat":-6.144674,"distance":1230,"station_name":"Angke"},{"is_transit":true,"line":0,"i_lat":-6.132549,"station_name":"Kampung Bandan","station_id":"KPB","time":9,"distance":4102,"transit":true,"i_long":106.826365},{"distance":1444,"line":11,"station_id":"RJW","station_name":"Rajawali","time":3,"i_long":106.836569,"is_transit":false,"transit":false,"i_lat":-6.14505},{"distance":1901,"station_id":"KMO","i_long":106.839204,"i_lat":-6.161728,"station_name":"Kemayoran","is_transit":false,"line":11,"transit":false,"time":5},{"line":11,"i_lat":-6.174784,"i_long":106.84368,"distance":1436,"station_name":"Pasar Senen","transit":false,"station_id":"PSE","is_transit":false,"time":4},{"station_name":"Gang Sentiong","time":8,"transit":false,"station_id":"GST","distance":1567,"i_lat":-6.185975,"line":11,"i_long":106.850107,"is_transit":false},{"station_name":"Kramat","transit":false,"i_long":106.855437,"distance":973,"station_id":"KMT","i_lat":-6.193792,"is_transit":false,"time":1,"line":11},{"i_long":106.861737,"i_lat":-6.209188,"station_id":"POK","station_name":"Pondok Jati","transit":false,"time":2,"distance":1829,"is_transit":false,"line":11},{"i_long":106.86807400000001,"line":0,"station_id":"JNG","station_name":"Jatinegara","transit":true,"distance":1236,"i_lat":-6.215091,"is_transit":true,"time":9},{"transit":false,"is_transit":false,"line":1,"station_name":"Klender","station_id":"KLD","distance":3395,"i_lat":-6.2135,"i_long":106.899548,"time":3},{"transit":false,"i_lat":-6.215568,"time":2,"distance":3100,"i_long":106.922662,"line":0,"station_name":"Buaran","station_id":"BUA","is_transit":false},{"i_lat":-6.217455,"i_long":106.939679,"time":1,"distance":1305,"line":1,"transit":false,"station_name":"Klenderbaru","is_transit":false,"station_id":"KLDB"},{"line":0,"time":8,"station_name":"Cakung","is_transit":false,"distance":1385,"i_long":106.951283,"i_lat":-6.219053,"station_id":"CUK","transit":false}],[{"transit":false,"station_name":"Cikini","line":0,"is_transit":false,"i_lat":-6.198556,"i_long":106.840169,"distance":0,"time":0,"station_id":"CKI"},{"distance":1750,"station_id":"GDD","line":2,"i_lat":-6.186295,"station_name":"Gondangdia","i_long":106.832183,"time":3,"transit":false,"is_transit":false},{"line":2,"i_long":106.828284,"time":4,"station_id":"JUA","i_lat":-6.166716,"station_name":"Juanda","is_transit":false,"distance":2015,"transit":false},{"i_long":106.827103,"line":2,"time":2,"transit":false,"station_id":"SW","distance":1149,"is_transit":false,"station_name":"Sawah Besar","i_lat":-6.160725},{"station_name":"Manggabesar","i_lat":-6.149769,"station_id":"MGB","distance":906,"transit":false,"i_long":106.82482,"line":2,"is_transit":false,"time":2},{"time":2,"station_name":"Jayakarta","transit":false,"is_transit":false,"i_lat":-6.141205,"distance":1080,"station_id":"JAY","i_long":106.820901,"line":7},{"station_id":"JAKK","transit":true,"distance":1264,"time":4,"line":0,"is_transit":true,"i_lat":-6.137569,"i_long":106.812439,"station_name":"Jakarta Kota"},{"is_transit":true,"time":3,"distance":1364,"transit":false,"station_name":"Kampung Bandan","line":0,"station_id":"KPB","i_long":106.826365,"i_lat":-6.132549},{"i_long":106.79867,"distance":4102,"station_id":"AK","line":0,"station_name":"Angke","transit":false,"time":9,"i_lat":-6.144674,"is_transit":false},{"station_name":"Duri","i_long":106.800832,"line":1,"station_id":"DU","i_lat":-6.155215,"transit":true,"time":4,"is_transit":true,"distance":1230},{"line":1,"transit":false,"i_lat":-6.185545,"station_id":"THB","time":8,"distance":3632,"is_transit":true,"station_name":"Tanah Abang","i_long":106.811091},{"station_id":"KAT","transit":false,"line":1,"i_lat":-6.20132,"i_long":106.816351,"station_name":"Karet","distance":2029,"is_transit":false,"time":5},{"distance":471,"transit":false,"line":1,"station_name":"Sudirman Baru","time":1,"station_id":"SUDB","is_transit":false,"i_long":106.819881,"i_lat":-6.201433},{"line":1,"station_name":"Sudirman","time":1,"i_long":106.822649,"is_transit":false,"station_id":"SUD","transit":false,"distance":280,"i_lat":-6.202263},{"distance":3186,"station_name":"Manggarai","is_transit":true,"time":4,"transit":false,"i_long":106.84912,"line":0,"station_id":"MRI","i_lat":-6.209883},{"i_lat":-6.212485,"i_long":106.858896,"time":2,"line":1,"distance":1275,"transit":false,"station_name":"Matraman","station_id":"MTR","is_transit":false},{"station_name":"Jatinegara","line":0,"i_lat":-6.215091,"station_id":"JNG","i_long":106.86807400000001,"time":8,"distance":1377,"transit":false,"is_transit":true},{"transit":false,"station_id":"KLD","distance":3395,"i_lat":-6.2135,"line":1,"is_transit":false,"i_long":106.899548,"station_name":"Klender","time":3},{"is_transit":false,"distance":3100,"station_id":"BUA","i_long":106.922662,"time":2,"line":0,"i_lat":-6.215568,"station_name":"Buaran","transit":false},{"i_lat":-6.217455,"transit":false,"time":1,"line":1,"distance":1305,"station_name":"Klenderbaru","i_long":106.939679,"station_id":"KLDB","is_transit":false},{"distance":1385,"i_lat":-6.219053,"i_long":106.951283,"line":0,"station_id":"CUK","is_transit":false,"station_name":"Cakung","time":8,"transit":false}]]}